~Version ---------------------------------------------------
VERS.      2.0 : CWLS log ASCII Standard -VERSION 2.0
WRAP.       NO : One line per depth step
CREA. 08/02/17 : LAS Creation Date
~Well ------------------------------------------------------
STRT.FT                            1100.0 : START DEPTH
STOP.FT                           10850.0 : STOP DEPTH
STEP.FT                          50.00000 : STEP LENGTH
NULL.                             -999.25 : NULL VALUE
COMP.        PAN AMERICAN PETROLEUM CORP. : COMPANY
WELL. PAN AM ET AL E-3 KAYBOBS 6-26-59-18 : WELL
FLD .                        KAYBOB SOUTH : FIELD
LOC .                                     : LOCATION
CTRY.                              CANADA : COUNTRY
SRVC.                        Schlumberger : SERVICE COMPANY
DATE.                         16-Jul-1969 : LOGDATE
PROV.                             Alberta : PROVINCE
UWI .                    100062605918W500 : UNIQUE WELL ID
SLAT.WGS84                       54.12901 : SURFACE LATITUDE
SLON.WGS84                       -116.593 : SURFACE LONGITUDE
~Curve Information -----------------------------------------
DEPT   .FT        : Depth Curve
CALSED .IN        : CALIPER FROM SONIC LOG [ADJ. TO RESISTIVITY LOG]
CALWS  .IN        : CALIPER [CALSED]
CONDWS .MMHO      : CONDUCTIVITY [1000/DRESWS]
DRESWS .OHMM      : DEEP RESISTIVITY [ILDED]
DTED   .US/F      : DELTA-T FROM SONIC LOG [ADJ. TO RESISTIVITY LOG]
DTWS   .US/F      : COMPRESSIONAL SONIC [DTED]
GRSED  .GAPI      : GAMMA RAY FROM SONIC LOG [ADJ. TO RESISTIVITY LOG]
GRTED  .GAPI      : THEORETICAL GAMMA RAY VALUE TDT FROM TDT LOG [ADJ. TO RESISTIVITY LOG]
GRWS   .GAPI      : GAMMA RAY [GRSED]
ILDED  .OHMM      : DEEP INDUCTION RESISTIVITY FROM RESISTIVITY LOG
ILMED  .OHMM      : MEDIUM INDUCTION RESISTIVITY FROM RESISTIVITY LOG
LL8ED  .OHMM      : LATEROLOG 8 FROM RESISTIVITY LOG
MRESWS .OHMM      : MEDIUM RESISTIVITY [ILMED]
RATIOED.UNITLESS  : RATIO FROM TDT LOG [ADJ. TO RESISTIVITY LOG]
SIGMAED.CU        : SIGMA FROM TDT LOG [ADJ. TO RESISTIVITY LOG]
SIGMED .CU        : SIGM FROM TDT LOG [ADJ. TO RESISTIVITY LOG]
SPRED  .MV        : SPONTANEOUS POTENTIAL FROM RESISTIVITY LOG
SPWS   .MV        : SPONTANEOUS POTENTIAL [BASELINE 0MV, SPRED]
SRESWS .OHMM      : SHALLOW RESISTIVITY [LL8ED]
TAUED  .us        : NEUTRON DECAY TIME FROM TDT LOG [ADJ. TO RESISTIVITY LOG]
TRATED .UNITLESS  : NEAR/FAR CAPTURE RATIO FROM TDT LOG [ADJ. TO RESISTIVITY LOG]
~Params ----------------------------------------------------
PD  .              2" OUTLET : PERMANENT DATUM
EPD .FT               2964.7 : ELEVATION PERMANENT DATUM
LMF .                     KB : LOG MEASURED FROM
DAPD.FT                 14.3 : FEET ABOVE PERMANENT DATUM
EKB .FT               2979.0 : KELLY BUSHING
EGL .FT               2964.7 : GROUND LEVEL
DATE.               07/16/69 : RUN DATE
RUN .                      1 : RUN NUMBER
DD  .FT                10855 : DEPTH DRILLER
DL  .FT                10862 : DEPTH LOGGER
BLI .FT                10858 : BOTTOM LOG INTERVAL
TLI .FT                 1104 : TOP LOG INTERVAL
CBD .FT                 1104 : CASING BOTTOM DRILLER
CBL .FT                 1104 : CASING BOTTOM LOGGER
BS  .IN                 8.75 : BIT SIZE
BSD .FT                10855 : BIT SIZE AT DEPTH
DFT .               GEL CHEM : DRILLING FLUID TYPE
DFD .                    9.3 : DRILLING FLUID DENSITY
DFV .                     90 : DRILLING FLUID VISCOSITY
DFPH.                    9.0 : DRILLING FLUID PH
DFL .                    9.2 : DRILLING FLUID LOSS
MSS .                   CIRC : MUD SAMPLE SOURCE
RMS .OHMM                1.6 : RESISTIVITY MUD SAMPLE
MST .DEGF                 62 : MUD SAMPLE TEMPERATURE
RMF .OHMM               1.29 : RESISTIVITY MUD FILTRATE SAMPLE
MFST.DEGF                 67 : MUD FILTRATE SAMPLE TEMPERATURE
RMC .OHMM               1.35 : RESISTIVITY MUD CAKE
MCST.DEGF                 62 : MUD CAKE SAMPLE TEMPERATURE
TCS .HRS                   2 : TIME CIRCULATED STOPPED
LUN .                   7502 : LOGGING UNIT NUMBER
LUL .                    EDM : LOGGING UNIT LOCATION
ENGI.                 EDGSON : RECORDING ENGINEER
WITN.                  REMUS : WITNESSED BY
CLNT.                A2DTECH : CLIENT CODE
ORIG.            2" 5" PRINT : ORIGIN OF DATA
UWI .       100062605918W500 : UNIQUE WELL ID
DICO. A2D Technologies, Inc. : DIGITIZING COMPANY
~Other -----------------------------------------------------
~ASCII -----------------------------------------------------
# ...
 4400.00000   10.36230   10.36230  135.17710    7.39770   86.66460   86.66460   83.61980    -999.25   83.61980    7.39770    7.01050    8.10420    7.01050    -999.25    -999.25    -999.25  -92.26090   -6.96190    8.10420    -999.25    -999.25
 4450.00000   10.48450   10.48450  105.08620    9.51600   77.94990   77.94990   85.06790    -999.25   85.06790    9.51600    9.19620   10.33810    9.19620    -999.25    -999.25    -999.25  -92.01760   -6.93560   10.33810    -999.25    -999.25
 4500.00000   10.16230   10.16230   94.05570   10.63200   79.22850   79.22850   86.08720    -999.25   86.08720   10.63200   11.24470   10.89220   11.24470    -999.25    -999.25    -999.25  -91.68290   -6.81660   10.89220    -999.25    -999.25
 4550.00000   10.15320   10.15320  122.67860    8.15180   84.78260   84.78260   97.77890    -999.25   97.77890    8.15180    8.45400    9.39140    8.45400    -999.25    -999.25    -999.25  -90.65170   -6.00100    9.39140    -999.25    -999.25
 4600.00000   10.33250   10.33250  129.86000    7.70060   87.17780   87.17780  104.23640    -999.25  104.23640    7.70060    8.21750    9.20740    8.21750    -999.25    -999.25    -999.25  -89.64550   -5.21190    9.20740    -999.25    -999.25
 4650.00000   10.71120   10.71120  133.89750    7.46840   84.40150   84.40150   98.07100    -999.25   98.07100    7.46840    7.84680    8.28570    7.84680    -999.25    -999.25    -999.25  -89.90210   -5.68410    8.28570    -999.25    -999.25
 4700.00000   10.53400   10.53400  110.46550    9.05260   87.50070   87.50070   93.75800    -999.25   93.75800    9.05260    9.46540   10.68150    9.46540    -999.25    -999.25    -999.25  -88.83230   -4.83140   10.68150    -999.25    -999.25
 4750.00000    9.40490    9.40490   32.61570   30.66010   66.21730   66.21730   42.94810    -999.25   42.94810   30.66010   25.93270   33.24610   25.93270    -999.25    -999.25    -999.25  -90.95590   -7.17070   33.24610    -999.25    -999.25
 4800.00000    9.94200    9.94200   87.36650   11.44610   78.29070   78.29070   88.25050    -999.25   88.25050   11.44610   12.02260   12.64230   12.02260    -999.25    -999.25    -999.25  -90.47870   -6.90910   12.64230    -999.25    -999.25
 4850.00000   10.24820   10.24820   94.92530   10.53460   82.97570   82.97570   96.63580    -999.25   96.63580   10.53460   11.06120   10.23060   11.06120    -999.25    -999.25    -999.25  -88.67800   -5.32550   10.23060    -999.25    -999.25
 4900.00000   10.27180   10.27180  107.86900    9.27050   78.27030   78.27030   88.46340    -999.25   88.46340    9.27050    9.72800   12.27950    9.72800    -999.25    -999.25    -999.25  -88.81550   -5.67860   12.27950    -999.25    -999.25
 4950.00000   10.27950   10.27950  104.61450    9.55890   81.61840   81.61840   97.06990    -999.25   97.06990    9.55890   10.03350   10.56960   10.03350    -999.25    -999.25    -999.25  -88.64630   -5.72650   10.56960    -999.25    -999.25
 5000.00000   10.18320   10.18320  125.61390    7.96090   85.72980   85.72980   99.63790    -999.25   99.63790    7.96090    8.35400    9.57660    8.35400    -999.25    -999.25    -999.25  -88.40900   -5.70480    9.57660    -999.25    -999.25
 5050.00000   10.35940   10.35940  114.75320    8.71450   84.56740   84.56740   92.54770    -999.25   92.54770    8.71450    9.15350   11.14070    9.15350    -999.25    -999.25    -999.25  -87.77870   -5.29020   11.14070    -999.25    -999.25
 5100.00000   11.32950   11.32950  121.32240    8.24250   89.74840   89.74840   98.67250    -999.25   98.67250    8.24250    8.66610   10.22090    8.66610    -999.25    -999.25    -999.25  -87.17290   -4.90150   10.22090    -999.25    -999.25
 5150.00000    9.81970    9.81970   94.66830   10.56320   90.69760   90.69760  106.30180    -999.25  106.30180   10.56320   11.09340   13.89660   11.09340    -999.25    -999.25    -999.25  -87.73180   -5.67600   13.89660    -999.25    -999.25
 5200.00000    9.69210    9.69210   87.54040   11.42330   88.47370   88.47370  103.37760    -999.25  103.37760   11.42330   12.31380   16.21510   12.31380    -999.25    -999.25    -999.25  -87.69990   -5.86120   16.21510    -999.25    -999.25
 5250.00000    9.40400    9.40400   77.67900   12.87350   88.40180   88.40180  113.18040    -999.25  113.18040   12.87350   13.51950   18.52480   13.51950    -999.25    -999.25    -999.25  -87.86250   -6.23940   18.52480    -999.25    -999.25
 5300.00000    9.44720    9.44720   83.88740   11.92120   90.30510   90.30510  110.65490    -999.25  110.65490   11.92120   12.88840   17.11560   12.88840    -999.25    -999.25    -999.25  -87.91710   -6.50970   17.11560    -999.25    -999.25
 5350.00000    9.87420    9.87420  105.82910    9.44920   89.22660   89.22660  104.09050    -999.25  104.09050    9.44920   10.00950   12.16640   10.00950    -999.25    -999.25    -999.25  -86.43070   -5.24030   12.16640    -999.25    -999.25
 5400.00000    9.16350    9.16350   72.14020   13.86190  102.76400  102.76400  119.83280    -999.25  119.83280   13.86190   14.94930   23.45460   14.94930    -999.25    -999.25    -999.25  -86.94800   -5.97330   23.45460    -999.25    -999.25
 5450.00000   10.09650   10.09650  124.57640    8.02720   79.50150   79.50150   78.96840    -999.25   78.96840    8.02720    8.31110    9.48540    8.31110    -999.25    -999.25    -999.25  -87.75010   -6.99250    9.48540    -999.25    -999.25
 5500.00000   10.31410   10.31410  136.87190    7.30610   86.45730   86.45730   90.04920    -999.25   90.04920    7.30610    7.55890    8.80770    7.55890    -999.25    -999.25    -999.25  -86.88580   -6.34380    8.80770    -999.25    -999.25
 5550.00000    9.80070    9.80070  159.97030    6.25240   85.28780   85.28780   97.14030    -999.25   97.14030    6.25240    6.59080    7.86560    6.59080    -999.25    -999.25    -999.25  -86.62990   -6.30360    7.86560    -999.25    -999.25
 5600.00000    9.81260    9.81260  152.64850    6.55100   83.02850   83.02850   92.35380    -999.25   92.35380    6.55100    6.85830    7.96130    6.85830    -999.25    -999.25    -999.25  -86.63300   -6.52370    7.96130    -999.25    -999.25
 5650.00000    9.62440    9.62440  102.05230    9.79890   78.30480   78.30480   93.39420    -999.25   93.39420    9.79890   10.22700   11.02700   10.22700    -999.25    -999.25    -999.25  -87.51820   -7.62460   11.02700    -999.25    -999.25
 5700.00000   11.23500   11.23500  148.17450    6.74880   83.76060   83.76060   92.38170    -999.25   92.38170    6.74880    6.99690    8.03170    6.99690    -999.25    -999.25    -999.25  -85.45950   -5.78290    8.03170    -999.25    -999.25
 5750.00000   12.03950   12.03950  173.80420    5.75360   89.40400   89.40400   98.52520    -999.25   98.52520    5.75360    6.08240    7.57370    6.08240    -999.25    -999.25    -999.25  -83.72270   -4.26180    7.57370    -999.25    -999.25
 5800.00000   11.71500   11.71500  214.60530    4.65970   93.56590   93.56590  105.26760    -999.25  105.26760    4.65970    5.00070    6.58620    5.00070    -999.25    -999.25    -999.25  -83.54760   -4.30230    6.58620    -999.25    -999.25
 5850.00000   11.31960   11.31960  280.43410    3.56590  100.60480  100.60480   93.77510    -999.25   93.77510    3.56590    3.32030    4.34480    3.32030    -999.25    -999.25    -999.25  -82.81760   -3.78940    4.34480    -999.25    -999.25
 5900.00000   11.43840   11.43840  169.48000    5.90040   86.25330   86.25330   84.98140    -999.25   84.98140    5.90040    5.51220    7.41840    5.51220    -999.25    -999.25    -999.25  -82.86860   -4.05610    7.41840    -999.25    -999.25
 5950.00000    9.89960    9.89960  139.18080    7.18490   85.07590   85.07590   84.60210    -999.25   84.60210    7.18490    6.70860    9.02710    6.70860    -999.25    -999.25    -999.25  -82.08130   -3.48580    9.02710    -999.25    -999.25
 6000.00000    9.30730    9.30730   46.91180   21.31660   70.33460   70.33460   70.42300    -999.25   70.42300   21.31660   23.96740   27.26210   23.96740    -999.25    -999.25    -999.25  -90.52860  -12.05760   27.26210    -999.25    -999.25
