~Version ---------------------------------------------------
VERS.      2.0 : CWLS log ASCII Standard -VERSION 2.0
WRAP.       NO : One line per depth step
CREA. 12/18/17 : LAS Creation Date
~Well ------------------------------------------------------
STRT.FT                        1150.0 : START DEPTH
STOP.FT                       11350.0 : STOP DEPTH
STEP.FT                      50.00000 : STEP LENGTH
NULL.                         -999.25 : NULL VALUE
COMP.   THE ATLANTIC REFINING COMPANY : COMPANY
WELL. ATLANTIC ANTE CREEK 10-18-65-23 : WELL
FLD .                                 : FIELD
LOC .                                 : LOCATION
CTRY.                          CANADA : COUNTRY
SRVC.                    Schlumberger : SERVICE COMPANY
DATE.                     05-Jan-1963 : LOGDATE
PROV.                         Alberta : PROVINCE
UWI .                100101806523W500 : UNIQUE WELL ID
SLAT.WGS84                     54.627 : SURFACE LATITUDE
SLON.WGS84                  -117.4631 : SURFACE LONGITUDE
~Curve Information -----------------------------------------
DEPT  .FT    : Depth Curve
CALWS .IN    : CALIPER [MCALED]
CILDED.MMHO  : CONDUCTIVITY FROM RESISTIVITY LOG
CONDWS.MMHO  : CONDUCTIVITY [1000/DRESWS]
DRESWS.OHMM  : DEEP RESISTIVITY [1000/CILDED IF ILDED <=5, ILDED]
DT1ED .US/F  : DELTA-T 1' SPAN FROM SONIC LOG [ADJ.TO DTED]
DTED  .US/F  : DELTA-T 3' SPAN FROM SONIC LOG
DTWS  .US/F  : COMPRESSIONAL SONIC [DTED]
GRNED .GAPI  : GAMMA RAY FROM GRN LOG [ADJ.TO RESISTIVITY LOG]
GRSED .GAPI  : GAMMA RAY FROM SONIC LOG
GRWS  .GAPI  : GAMMA RAY [GRSED]
ILDED .OHMM  : DEEP INDUCTION FROM RESISTIVITY LOG
MCALED.IN    : MICRO CALIPER FROM MICRO LOG
NEUTED.NAPI  : NEUTRON FROM GRN LOG [ADJ.TO RESISTIVITY LOG]
NEUTWS.NAPI  : NEUTRON [NEUTED]
SNED  .OHMM  : SHORT NORMAL 16" FROM RESISTIVITY LOG
SPRED .MV    : SPONTANEOUS POTENTIAL FROM RESISTIVITY LOG
SPWS  .MV    : SPONTANEOUS POTENTIAL [BASELINE 0 MV, SPRED]
SRESWS.OHMM  : SHALLOW RESISTIVITY [SNED]
~Params ----------------------------------------------------
PD  .                     GL : PERMANENT DATUM
EPD .FT                 2763 : ELEVATION PERMANENT DATUM
LMF .                     KB : LOG MEASURED FROM
DAPD.FT                 14.5 : FEET ABOVE PERMANENT DATUM
EKB .FT               2777.5 : KELLY BUSHING
EGL .FT                 2763 : GROUND LEVEL
DATE.               01/05/63 : RUN DATE
RUN .                      1 : RUN NUMBER
DD  .FT                11380 : DEPTH DRILLER
DL  .FT                11362 : DEPTH LOGGER
BLI .FT                11361 : BOTTOM LOG INTERVAL
TLI .FT                 1166 : TOP LOG INTERVAL
CBD .FT                 1175 : CASING BOTTOM DRILLER
CBL .FT                 1166 : CASING BOTTOM LOGGER
BS  .IN                8.625 : BIT SIZE
BSD .FT                11380 : BIT SIZE AT DEPTH
DFT .               GEL CHEM : DRILLING FLUID TYPE
DFD .                    9.8 : DRILLING FLUID DENSITY
DFV .                     80 : DRILLING FLUID VISCOSITY
DFPH.                    9.5 : DRILLING FLUID PH
DFL .                      7 : DRILLING FLUID LOSS
RMS .OHMM                2.7 : RESISTIVITY MUD SAMPLE
MST .DEGF                 67 : MUD SAMPLE TEMPERATURE
RMF .OHMM                1.9 : RESISTIVITY MUD FILTRATE SAMPLE
MFST.DEGF                 82 : MUD FILTRATE SAMPLE TEMPERATURE
RMC .OHMM               2.41 : RESISTIVITY MUD CAKE
MCST.DEGF                 82 : MUD CAKE SAMPLE TEMPERATURE
RMB .OHMM               0.95 : RESISTIVITY MUD AT BHT
TCS .HRS                   3 : TIME CIRCULATED STOPPED
LUN .                   3534 : LOGGING UNIT NUMBER
LUL .                    WCT : LOGGING UNIT LOCATION
ENGI.                  MILLS : RECORDING ENGINEER
WITN.        HARTWELL RAMSEY : WITNESSED BY
CLNT.                A2DTECH : CLIENT CODE
ORIG.            2" 5" PRINT : ORIGIN OF DATA
UWI .       100101806523W500 : UNIQUE WELL ID
DICO. A2D Technologies, Inc. : DIGITIZING COMPANY
~Other -----------------------------------------------------
IEL-ML-SONIC-GRN LOG RUN.
ALL CURVE FROM IEL LOG DIG IN 2" SCALE @ TOP TO 3438'
ALL CURVE FROM SONIC LOG DIG IN 2" SCALE @ TOP TO 3438'
MCALED DIG IN 2" SCALE @ TOP TO 3488'
~ASCII -----------------------------------------------------
# ...
 8950.00000   10.38050    3.26260    2.00000  500.00000    -999.25   49.30650   49.30650    -999.25   14.51090   14.51090  500.00000   10.38050    -999.25    -999.25  214.15530 -106.58030  -33.34400  214.15530
 9000.00000    9.69810    3.37640    2.04980  487.85650    -999.25   49.17340   49.17340    -999.25   14.80400   14.80400  487.85650    9.69810    -999.25    -999.25  201.81710 -100.84000  -28.92440  201.81710
 9050.00000   11.66620    3.07260    2.00000  500.00000    -999.25   48.01460   48.01460    -999.25   13.40470   13.40470  500.00000   11.66620    -999.25    -999.25  202.69610 -108.69010  -38.09510  202.69610
 9100.00000   10.34870    3.26720    2.00000  500.00000    -999.25   48.30410   48.30410    -999.25   16.97500   16.97500  500.00000   10.34870    -999.25    -999.25  281.46230 -111.56820  -42.29390  281.46230
 9150.00000   13.48560    3.25200    2.00000  500.00000    -999.25   47.17590   47.17590    -999.25   12.72970   12.72970  500.00000   13.48560    -999.25    -999.25  166.33380 -122.27540  -54.32170  166.33380
 9200.00000   11.61580    1.95970    2.00000  500.00000    -999.25   47.91630   47.91630    -999.25   10.58990   10.58990  500.00000   11.61580    -999.25    -999.25  266.37200 -117.89890  -51.26580  266.37200
 9250.00000   10.83840    1.77150    2.00000  500.00000    -999.25   47.54390   47.54390    -999.25   13.88220   13.88220  500.00000   10.83840    -999.25    -999.25  239.26760 -103.95160  -38.63920  239.26760
 9300.00000   11.95070    1.31710    2.04780  488.33040    -999.25   47.62410   47.62410    -999.25   12.38790   12.38790  488.33040   11.95070    -999.25    -999.25  187.66670  -98.24040  -34.24860  187.66670
 9350.00000   12.87330    0.69950    2.00000  500.00000    -999.25   49.30960   49.30960    -999.25   14.76060   14.76060  500.00000   12.87330    -999.25    -999.25  290.84960  -95.58630  -32.91520  290.84960
 9400.00000   12.54860    0.84730    2.00000  500.00000    -999.25   48.10950   48.10950    -999.25   11.97630   11.97630  500.00000   12.54860    -999.25    -999.25  217.84030  -99.36560  -38.01510  217.84030
 9450.00000   13.22840    0.60430    2.00000  500.00000    -999.25   48.63810   48.63810    -999.25   13.96230   13.96230  500.00000   13.22840  611.35040  611.35040  234.49870 -102.25350  -42.32040  234.49870
 9500.00000   12.37830    0.51110    2.00000  500.00000    -999.25   49.73190   49.73190    -999.25   13.55530   13.55530  500.00000   12.37830  717.29850  717.29850  241.89950  -92.25690  -34.18180  241.89950
 9550.00000   13.18900    1.32270    2.12110  471.44950    -999.25   49.12560   49.12560    -999.25   15.37000   15.37000  471.44950   13.18900  594.08200  594.08200  178.98460 -102.52660  -46.30960  178.98460
 9600.00000    9.34160    6.32390    5.91660  169.01490    -999.25   48.07460   48.07460    -999.25   11.93880   11.93880  169.01490    9.34160  779.86040  779.86040   92.83630 -104.42270  -50.06370   92.83630
 9650.00000    8.94330   18.72300   20.36830   49.09580    -999.25   47.99060   47.99060    -999.25   12.98550   12.98550   49.09580    8.94330  623.16460  623.16460  104.10990 -153.53940 -101.03850  104.10990
 9700.00000    8.93750   26.31390   24.94960   40.08080    -999.25   46.46500   46.46500    -999.25   17.21980   17.21980   40.08080    8.93750  608.81220  608.81220   67.22000 -154.80190 -104.15900   67.22000
 9750.00000   11.81260   18.80020   21.39100   46.74870    -999.25   54.02140   54.02140    -999.25   22.75050   22.75050   46.74870   11.81260  428.04430  428.04430   49.99610  -92.06520  -43.28030   49.99610
 9800.00000    9.46920    1.63130    2.00000  500.00000    -999.25   50.94190   50.94190    -999.25   19.90570   19.90570  500.00000    9.46920  920.26200  920.26200  319.13790  -48.68890   -1.76210  319.13790
 9850.00000    9.57120  184.28160  193.29650    5.17340    -999.25   56.98780   56.98780    -999.25   22.70800   22.70800    5.17340    9.57120    -999.25    -999.25   28.64580 -116.70110  -73.03740   28.64580
 9900.00000   10.24600    1.59700    2.00000  500.00000    -999.25   49.63140   49.63140    -999.25   20.03360   20.03360  500.00000   10.24600    -999.25    -999.25  235.34840  -62.14520  -22.60580  235.34840
 9950.00000    9.36590    3.16910    3.89450  256.77280    -999.25   50.49780   50.49780    -999.25   22.59850   22.59850  256.77280    9.36590    -999.25    -999.25  150.19350  -52.30760  -16.89250  150.19350
 10000.00000    9.45120    1.80280    2.54510  392.90440    -999.25   49.14840   49.14840    -999.25   26.68800   26.68800  392.90440    9.45120    -999.25    -999.25  165.54750  -49.64500  -18.35420  165.54750
 10050.00000    9.65680    2.61930    3.48290  287.11500    -999.25   51.91260   51.91260    -999.25   29.56750   29.56750  287.11500    9.65680    -999.25    -999.25  151.05060  -35.74740   -8.58090  151.05060
 10100.00000    9.96680   11.89170   14.41460   69.37400    -999.25   53.34610   53.34610    -999.25   27.56940   27.56940   69.37400    9.96680    -999.25    -999.25   60.95810  -28.22740   -5.18520   60.95810
 10150.00000    9.60950   12.72200   15.66030   63.85560    -999.25   53.46620   53.46620    -999.25   26.59020   26.59020   63.85560    9.60950    -999.25    -999.25   67.03430  -33.31040  -13.19000   67.03430
 10200.00000    9.57000   19.31190   20.30180   49.25670    -999.25   53.71800   53.71800    -999.25   25.49850   25.49850   49.25670    9.57000    -999.25    -999.25   57.87760  -36.63620  -17.21820   57.87760
 10250.00000   10.03420   66.51540   65.68620   15.22390    -999.25   60.40050   60.40050    -999.25   32.56940   32.56940   15.22390   10.03420    -999.25    -999.25   24.13570  -40.80920  -21.53700   24.13570
 10300.00000    9.49260   51.84300   52.78210   18.94580    -999.25   61.76080   61.76080    -999.25   33.99110   33.99110   18.94580    9.49260    -999.25    -999.25   24.56080  -43.47430  -24.34800   24.56080
 10350.00000   15.40030  221.31230  221.31230    4.51850    -999.25   73.33010   73.33010    -999.25   46.24700   46.24700    4.50890   15.40030    -999.25    -999.25    6.25460  -40.22340  -21.24300    6.25460
 10400.00000   14.78950  284.00890  284.00890    3.52100    -999.25   80.90170   80.90170    -999.25   48.67440   48.67440    3.62090   14.78950    -999.25    -999.25    5.52730  -51.96020  -33.12560    5.52730
 10450.00000   17.12240  267.14370  267.14370    3.74330    -999.25   76.55850   76.55850    -999.25   56.94240   56.94240    3.77370   17.12240    -999.25    -999.25    5.00300  -41.27410  -22.58540    5.00300
 10500.00000    9.80990   82.19230   76.67420   13.04220    -999.25   66.36090   66.36090    -999.25   46.48100   46.48100   13.04220    9.80990    -999.25    -999.25   17.43240  -39.78080  -21.23800   17.43240
 10550.00000   10.79200  151.69470  151.48300    6.60140    -999.25   63.78650   63.78650    -999.25   38.69650   38.69650    6.60140   10.79200    -999.25    -999.25    9.32020  -47.18140  -28.78440    9.32020
 10600.00000   11.24670  192.62110  192.62110    5.19150    -999.25   73.05530   73.05530    -999.25   54.70000   54.70000    4.97790   11.24670    -999.25    -999.25    7.78950  -47.81060  -29.55950    7.78950
 10650.00000   11.15500  166.17510  167.18210    5.98150    -999.25   72.45920   72.45920    -999.25   50.93870   50.93870    5.98150   11.15500    -999.25    -999.25    9.02290  -53.99660  -35.86950    9.02290
 10700.00000   10.49390  147.90040  147.06100    6.79990    -999.25   67.64570   67.64570    -999.25   42.93500   42.93500    6.79990   10.49390    -999.25    -999.25   10.18180  -60.87780  -42.75070   10.18180
 10750.00000    9.96150  163.01980  166.79450    5.99540    -999.25   69.72240   69.72240    -999.25   52.95260   52.95260    5.99540    9.96150    -999.25    -999.25    9.23440  -74.10730  -55.98020    9.23440
 10800.00000   12.65690  264.56750  264.56750    3.77980    -999.25   72.55250   72.55250    -999.25   60.67380   60.67380    3.84340   12.65690  302.70930  302.70930    5.99170  -66.36270  -48.23560    5.99170
 10850.00000   13.51190  224.43980  224.43980    4.45550    -999.25   78.87700   78.87700    -999.25   61.14230   61.14230    4.28980   13.51190  267.71470  267.71470    6.56760  -68.91810  -50.79100    6.56760
