~Version ---------------------------------------------------
VERS.      2.0 : CWLS log ASCII Standard -VERSION 2.0
WRAP.       NO : One line per depth step
CREA. 11/16/17 : LAS Creation Date
~Well ------------------------------------------------------
STRT.FT                          800.0 : START DEPTH
STOP.FT                        13150.0 : STOP DEPTH
STEP.FT                       50.00000 : STEP LENGTH
NULL.                          -999.25 : NULL VALUE
COMP. SOCONY MOBIL OIL OF CANADA, LTD. : COMPANY
WELL.     MOBIL CHEDDERVILLE 4-22-37-7 : WELL
FLD .                                  : FIELD
LOC .                                  : LOCATION
CTRY.                           CANADA : COUNTRY
SRVC.                     Schlumberger : SERVICE COMPANY
DATE.                      02-Jun-1964 : LOGDATE
PROV.                          Alberta : PROVINCE
UWI .                 100042203707W500 : UNIQUE WELL ID
SLAT.WGS84                    52.18951 : SURFACE LATITUDE
SLON.WGS84                   -114.9248 : SURFACE LONGITUDE
~Curve Information -----------------------------------------
DEPT  .FT    : Depth Curve
CALDED.IN    : CALIPER FROM FDL LOG [ADJ. TO RESISTIVITY LOG]
CALSED.IN    : CALIPER FROM SONIC LOG [ADJ. TO RESISTIVITY LOG]
CALWS .IN    : CALIPER [CALDED]
CILDED.MMHO  : CONDUCTIVITY FROM IEL LOG
CONDWS.MMHO  : CONDUCTIVITY [1000/DRESWS]
DRESWS.OHMM  : DEEP RESISTIVITY [1000/CILDED IF ILDED < 1, ILDED]
DT1ED .US/F  : DELTA TIME (1' SPACING) FROM SONIC LOG [ADJ. TO RESISTIVITY]
DTED  .US/F  : DELTA TIME (3' SPACING) FROM SONIC LOG [ADJ. TO RESISTIVITY]
DTWS  .US/F  : COMPRESSIONAL SONIC [DTED]
FDENED.CPS   : FORMATION DENSITY FROM FDL LOG [ADJ. TO RESISTIVITY]
GRDED .GAPI  : GAMMA RAY  FROM FDL LOG [ADJ. TO RESISTIVITY]
GRSED .GAPI  : GAMMA RAY FROM SONIC LOG [ADJ. TO RESISTIVITY]
GRWS  .GAPI  : GAMMA RAY [GRSED]
ILDED .OHMM  : INDUCTION DEEP RESISTIVITY FROM IEL LOG
SNED  .OHMM  : SHORT NORMAL RESISTIVITY FROM IEL LOG
SPRED .MV    : SPONTANEOUS POTENTIAL FROM IEL LOG
SPWS  .MV    : SPONTANEOUS POTENTIAL [BASELINE 0 MV, SPRED]
SRESWS.OHMM  : SHALLOW RESISTIVITY [SNED]
~Params ----------------------------------------------------
PD  .                     GL : PERMANENT DATUM
EPD .FT                 3420 : ELEVATION PERMANENT DATUM
LMF .                     KB : LOG MEASURED FROM
DAPD.FT                   15 : FEET ABOVE PERMANENT DATUM
EKB .FT                 3435 : KELLY BUSHING
EGL .FT                 3420 : GROUND LEVEL
DATE.               06/02/64 : RUN DATE
RUN .                      2 : RUN NUMBER
DD  .FT                13163 : DEPTH DRILLER
DL  .FT                13169 : DEPTH LOGGER
BLI .FT                13168 : BOTTOM LOG INTERVAL
TLI .FT                 9963 : TOP LOG INTERVAL
CBD .FT                 1290 : CASING BOTTOM DRILLER
CBL .FT                 1290 : CASING BOTTOM LOGGER
BS  .IN                    9 : BIT SIZE
BSD .FT                13163 : BIT SIZE AT DEPTH
DFT .              LIME BASE : DRILLING FLUID TYPE
DFD .                    9.2 : DRILLING FLUID DENSITY
DFV .                    165 : DRILLING FLUID VISCOSITY
DFPH.                     13 : DRILLING FLUID PH
DFL .                      5 : DRILLING FLUID LOSS
RMF .OHMM               0.44 : RESISTIVITY MUD FILTRATE SAMPLE
MFST.DEGF                 82 : MUD FILTRATE SAMPLE TEMPERATURE
RMC .OHMM               0.97 : RESISTIVITY MUD CAKE
MCST.DEGF                 80 : MUD CAKE SAMPLE TEMPERATURE
RMB .OHMM               0.29 : RESISTIVITY MUD AT BHT
TCS .HRS                   2 : TIME CIRCULATED STOPPED
LUN .                   1576 : LOGGING UNIT NUMBER
LUL .                     DV : LOGGING UNIT LOCATION
ENGI.               WILLIAMS : RECORDING ENGINEER
WITN.               LONGMORE : WITNESSED BY
CLNT.                A2DTECH : CLIENT CODE
ORIG.            2" 5" PRINT : ORIGIN OF DATA
UWI .       100042203707W500 : UNIQUE WELL ID
DICO. A2D Technologies, Inc. : DIGITIZING COMPANY
~Other -----------------------------------------------------
~ASCII -----------------------------------------------------
# ...
 10550.00000    8.94340    9.11710    9.11710   20.96740   22.93800   43.59580   52.52190   52.71650   52.71650  308.14000   19.25590   19.01260   19.69110   43.59580   80.24680  -52.16020  -16.44960   80.24680
 10600.00000   10.71570    9.25220    9.25220    8.53840    8.74920  114.29610   47.22790   47.35700   47.35700  380.95330   23.96370   25.25860   25.31250  114.29610  121.01560  -69.24680  -32.19510  121.01560
 10650.00000    9.46930    9.15600    9.15600    8.93760    9.31010  107.40980   46.61080   46.99550   46.99550  305.44260   17.60970   20.59190   20.79660  107.40980  159.54020  -71.37130  -32.97850  159.54020
 10700.00000   11.07490    9.15850    9.15850   15.57200   14.82200   67.46750   49.22780   49.54790   49.54790  628.99060   18.62340   21.10110   19.09050   67.46750  120.76970  -79.81810  -40.08430  120.76970
 10750.00000   11.05320    9.30740    9.30740   11.87660   12.62820   79.18770   48.45180   48.60930   48.60930  336.76240   17.22380   17.52440   16.91910   79.18770  115.83600  -80.28850  -39.21360  115.83600
 10800.00000   10.71310    9.82510    9.82510   11.70390   13.47360   74.21920   49.07250   49.44470   49.44470  982.20260   25.03870   25.45920   26.76110   74.21920  129.19200  -86.74930  -44.33340  129.19200
 10850.00000   10.56840    9.37000    9.37000    1.03650    1.63040  613.34770   47.02630   47.33800   47.33800  281.99410   21.49640   19.86060   23.88510  613.34770  122.17570  -74.19720  -30.44020  122.17570
 10900.00000   10.31460    9.00240    9.00240    3.36720    4.96250  201.51100   49.64370   50.09140   50.09140  348.04370   28.73180   26.00170   24.72870  201.51100  137.47650  -70.27670  -25.17860  137.47650
 10950.00000    9.15550    9.24550    9.24550    0.02330    1.59810  625.74980   48.12200   48.43620   48.43620  310.23150   15.89590   15.10120   14.87300  625.74980  119.98420  -68.60010  -22.16100  119.98420
 11000.00000    9.58280    9.64940    9.64940    0.00000    1.59680  626.26820   47.75770   48.03750   48.03750  197.68330   16.92960   17.49220   17.09370  626.26820  153.52060  -65.57060  -17.79040  153.52060
 11050.00000    9.28680    9.16600    9.16600    0.44230    1.59910  625.34500   47.20260   47.44730   47.44730  176.01340   17.41280   17.82360   19.44030  625.34500  152.86540  -59.41340  -11.39720  152.86540
 11100.00000    9.06780    9.06920    9.06920    -999.25    1.60220  624.13600   47.80800   48.18960   48.18960  177.76130   24.13480   24.79860   22.27410  624.13600  181.37050  -70.94400  -23.99720  181.37050
 11150.00000    9.06740    9.11440    9.11440    -999.25    1.60460  623.21910   50.34530   51.04690   51.04690 1268.72490   42.05320   41.73750   40.34270  623.21910  142.51060  -86.77380  -40.89650  142.51060
 11200.00000    9.56860    9.03410    9.03410    0.68830    2.40030  416.61720   53.43760   53.52210   53.52210  834.47540   65.76890   52.57430   52.57430  416.61720   75.73110  -88.98950  -44.18160   75.73110
 11250.00000   12.73260    9.59120    9.59120    2.33240    3.14100  318.36930   49.11300   49.47120   49.47120  802.20690   31.65760   31.27680   29.17830  318.36930  102.56470 -120.59260  -76.85410  102.56470
 11300.00000    9.60840    9.29060    9.29060    2.77170    1.59720  626.07790   46.06660   46.50330   46.50330  396.64770   17.89880   17.21620   17.21620  626.07790   81.36040 -131.89350  -89.22440   81.36040
 11350.00000   10.66250    9.40380    9.40380    -999.25    2.61350  382.62230   45.68340   46.24980   46.24980  631.55330   27.60480   27.16810   28.16220  382.62230  107.38670 -142.96860 -101.36900  107.38670
 11400.00000    9.12140    9.06340    9.06340    9.98360   12.91780   77.41230   50.69030   51.08340   51.08340  283.77500   20.91430   21.28850   21.28850   77.41230   69.69660 -151.93780 -111.40760   69.69660
 11450.00000    9.12660    9.21660    9.21660   11.68200   12.54790   79.69470   54.38650   54.44160   54.44160  235.40380   70.11970   70.98530   70.98530   79.69470   50.72110 -106.76800  -67.30720   50.72110
 11500.00000   11.07260    9.41810    9.41810   14.33910   15.88350   62.95850   57.43800   57.39850   57.39850  551.35880   72.94280   74.34690   74.34690   62.95850   38.57690  -96.48320  -58.09180   38.57690
 11550.00000    9.19670    9.27150    9.27150   13.68180   13.79350   72.49770   55.79330   56.21510   56.21510  329.38990   72.61970   71.45790   71.45790   72.49770   40.87370  -89.15630  -51.83440   40.87370
 11600.00000    8.76650    9.26160    9.26160   15.31450   16.03380   62.36830   56.61980   56.79810   56.79810  532.81190   80.06190   81.17530   82.07020   62.36830   38.31810  -87.18840  -50.93590   38.31810
 11650.00000    9.25330    9.14760    9.14760   11.18040   10.64140   93.97270   54.68300   55.21160   55.21160  276.44430   67.86610   67.71530   67.71530   93.97270   47.57890 -104.23750  -69.05440   47.57890
 11700.00000   10.69610    9.42530    9.42530   29.22570   30.62480   32.65330   62.36480   62.75220   62.75220  961.56830  100.60960  102.21180  102.21180   32.65330   24.68030 -122.79140  -88.67770   24.68030
 11750.00000   12.54580    9.89120    9.89120   19.85460   21.83060   45.80720   61.99820   62.24810   62.24810  987.87690   96.67130   96.91880   95.96380   45.80720   30.11650 -123.32900  -90.28480   30.11650
 11800.00000   12.19330    9.25280    9.25280   14.06210   15.04390   66.47200   60.47660   60.87170   60.87170  655.81970   90.23930   92.02850   92.02850   66.47200   39.83530 -106.64430  -74.66950   39.83530
 11850.00000   12.31180    9.69330    9.69330    8.26950    8.43610  118.53870   59.07030   58.77540   58.77540  696.29320   99.17200   99.39090   99.39090  118.53870   52.45770  -94.96410  -64.05870   52.45770
 11900.00000    9.31310    9.18910    9.18910    -999.25    1.89540  527.59920   51.55820   52.20230   52.20230  234.71190   41.93240   42.19280   43.36300  527.59920  135.30480 -129.60230  -99.76630  135.30480
 11950.00000   11.14290    9.38460    9.38460    -999.25    1.60150  624.40250   47.92070   48.13480   48.13480  529.44370   37.53020   46.72980   46.72980  624.40250  116.39630 -179.30440 -150.53790  116.39630
 12000.00000    9.30610    9.10610    9.10610   15.22100   15.68170   63.76840   48.19740   48.62950   48.62950  633.93700   17.12900   18.22300   18.96270   63.76840  102.86810 -189.14780 -161.45070  102.86810
 12050.00000    9.76840    9.32560    9.32560    -999.25    1.60130  624.51070   48.69260   49.09240   49.09240  806.17370   28.99030   27.99400   29.30740  624.51070  166.17830 -171.77550 -145.14780  166.17830
 12100.00000    9.00300    8.82030    8.82030    -999.25    1.59860  625.53120   57.08650   57.25020   57.25020  387.08450   65.85140   64.84540   64.84540  625.53120  152.29890 -165.54040 -139.98210  152.29890
 12150.00000   10.66790    8.95140    8.95140    -999.25    2.10180  475.78360   46.58100   46.98850   46.98850  405.50220   33.52990   33.30250   33.30250  475.78360  112.45490 -158.18580 -133.69700  112.45490
 12200.00000   10.43160    9.21370    9.21370    -999.25    1.62410  615.71740   48.64780   48.98370   48.98370  413.07120   17.24830   18.43120   18.55750  615.71740  127.39590 -147.30630 -123.88690  127.39590
 12250.00000   10.26620    9.41570    9.41570    3.05990    3.98150  251.16400   48.02470   48.47740   48.47740  299.94110   18.04340   16.50620   16.50620  251.16400   82.87190 -140.55480 -118.20480   82.87190
 12300.00000    9.94830    9.13540    9.13540    5.16430    2.59940  384.71000   44.56220   44.87920   44.87920  250.73310   16.43710   16.61980   16.61980  384.71000   95.29710 -123.55330 -102.27270   95.29710
 12350.00000    9.49100    9.01900    9.01900    -999.25    2.15670  463.68040   50.01290   50.27080   50.27080  274.55340   33.44550   32.22620   32.22620  463.68040   84.56910  -56.78870  -36.57760   84.56910
 12400.00000   10.28640    9.47320    9.47320   26.57810   31.11080   32.14320   56.17850   56.25320   56.25320  466.83560   56.45950   54.89030   54.89030   32.14320   38.58580  -30.85200  -11.71030   38.58580
