~Version ---------------------------------------------------
VERS.      2.0 : CWLS log ASCII Standard -VERSION 2.0
WRAP.       NO : One line per depth step
CREA. 01/03/18 : LAS Creation Date
~Well ------------------------------------------------------
STRT.FT                 1000.0 : START DEPTH
STOP.FT                12750.0 : STOP DEPTH
STEP.FT               50.00000 : STEP LENGTH
NULL.                  -999.25 : NULL VALUE
COMP.      TALISMAN ENERGY INC : COMPANY
WELL. TALISMAN EDSON 6-8-52-17 : WELL
FLD .                          : FIELD
LOC .                          : LOCATION
CTRY.                   CANADA : COUNTRY
SRVC.   Schlumberger of Canada : SERVICE COMPANY
DATE.              06-May-1978 : LOGDATE
PROV.                  Alberta : PROVINCE
UWI .         100060805217W500 : UNIQUE WELL ID
SLAT.WGS84            53.47276 : SURFACE LATITUDE
SLON.WGS84           -116.4739 : SURFACE LONGITUDE
~Curve Information -----------------------------------------
DEPT    .FT    : Depth Curve
CALDED  .IN    : CALIPER FROM DENSITY LOG [ADJ. TO RESISTIVITY LOG]
CALSED  .IN    : CALIPER FROM SONIC LOG
CALWS   .IN    : CALIPER [CALSED]
CILDED  .MMHO  : DEEP CONDUCTIVITY FROM RESISTIVITY LOG
CONDWS  .MMHO  : CONDUCTIVITY [1000/DRESWS]
DCORED  .G/C3  : DENSITY CORRECTION FROM DENSITY LOG
DCORWS  .G/C3  : DENSITY CORRECTION [DCORED]
DENWS   .G/C3  : FORMATION BULK DENSITY [CALC. FROM DPOLSWS , M=2.71 F=1.00]
DPHILSED.V/V   : DENSITY POROSITY LIMESTONE [M=2.71 F=1.00] FROM DENSITY LOG [ADJ. TO RESISTIVITY LOG]
DPHISSED.V/V   : DENSITY POROSITY SANDSTONE [M=2.71 F=1.00] FROM DENSITY LOG [ADJ. TO RESISTIVITY LOG]
DPOLSWS .V/V   : DENSITY POROSITY LIMESTONE [DPHISSED MATRIX CONVERSION FOR LIMESTONE , M=2.71 F=1.00 & SPL TO DPHILSED @ 9209']
DRESWS  .OHMM  : DEEP RESISTIVITY [1000/CILDED IF ILDED<1, ILDED & SPL. TO ILDED 6256']
DTED    .US/F  : DELTA TIME FROM SONIC LOG
DTWS    .US/F  : COMPRESSIONAL SONIC [DTED]
GRDED   .GAPI  : GAMMA RAY FROM DENSITY LOG [ADJ. TO RESISTIVITY LOG]
GRSED   .GAPI  : GAMMA RAY FROM SONIC LOG
GRWS    .GAPI  : GAMMA RAY [GRSED]
ILDED   .OHMM  : DEEP INDUCTION RESISTIVITY FROM RESISTIVITY LOG
ILMED   .OHMM  : MEDIUM INDUCTION RESISTIVITY FROM RESISTIVITY LOG
LL8ED   .OHMM  : LATEROLOG 8 RESISTIVITY FROM RESISTIVITY LOG
MRESWS  .OHMM  : MEDIUM RESISTIVITY [ILMED]
NPHILSED.V/V   : NEUTRON POROSITY LIMESTONE FROM DENSITY LOG [ADJ. TO RESISTIVITY LOG]
NPHISSED.V/V   : NEUTRON POROSITY  SANDSTONE FROM DENSITY LOG [ADJ. TO RESISTIVITY LOG]
NPOLSWS .V/V   : NEUTRON POROSITY LIMESTONE [NPHISSED MATRIX CONVERSION FOR LIMESTONE & SPL. TO NPHILSED @ 9198']
RHOBED  .G/C3  : FORMATION BULK DENSITY  FROM DENSITY LOG[ADJ. TO RESISTIVITY LOG]
SPRED   .MV    : SPONTANEOUS POTENTIAL FROM RESISTIVITY LOG
SPWS    .MV    : SPONTANEOUS POTENTIAL [BASELINE 0 MV. SPRED]
SRESWS  .OHMM  : SHALLOW RESISTIVITY [LL8ED]
~Params ----------------------------------------------------
PD  .                     GL : PERMANENT DATUM
EPD .FT               3147.2 : ELEVATION PERMANENT DATUM
LMF .                     KB : LOG MEASURED FROM
DAPD.FT                 22.3 : FEET ABOVE PERMANENT DATUM
EKB .FT               3169.5 : KELLY BUSHING
EGL .FT               3147.2 : GROUND LEVEL
DATE.               05/31/78 : RUN DATE
RUN .                      2 : RUN NUMBER
DD  .FT                12769 : DEPTH DRILLER
DL  .FT                12757 : DEPTH LOGGER
BLI .FT                12751 : BOTTOM LOG INTERVAL
TLI .FT                 9616 : TOP LOG INTERVAL
CBD .FT                 9625 : CASING BOTTOM DRILLER
BS  .IN                  8.5 : BIT SIZE
BSD .FT                12769 : BIT SIZE AT DEPTH
DFT .                    GEL : DRILLING FLUID TYPE
DFD .                    9.1 : DRILLING FLUID DENSITY
DFV .                     51 : DRILLING FLUID VISCOSITY
DFPH.                     10 : DRILLING FLUID PH
DFL .                     22 : DRILLING FLUID LOSS
MSS .               FLOWLINE : MUD SAMPLE SOURCE
RMF .OHMM              0.809 : RESISTIVITY MUD FILTRATE SAMPLE
MFST.DEGF                 63 : MUD FILTRATE SAMPLE TEMPERATURE
TCS .HRS                  12 : TIME CIRCULATED STOPPED
LUN .                   7800 : LOGGING UNIT NUMBER
LUL .                    EDM : LOGGING UNIT LOCATION
ENGI.               BERNISKY : RECORDING ENGINEER
WITN.               BRINKMAN : WITNESSED BY
CLNT.                A2DTECH : CLIENT CODE
ORIG.            2" 5" PRINT : ORIGIN OF DATA
UWI .       100060805217W500 : UNIQUE WELL ID
DICO. A2D Technologies, Inc. : DIGITIZING COMPANY
~Other -----------------------------------------------------
~ASCII -----------------------------------------------------
# ...
 8500.00000   12.66720   12.42020   12.42020    -999.25   53.29780    0.13450    0.13450    2.62510    -999.25    0.01510    0.04970   18.76250   65.64400   65.64400   77.05890   77.75260   77.75260   18.76250    9.82710   12.86830    9.82710    -999.25    0.18160    0.13840    2.61520 -302.49890  -14.32170   12.86830
 8550.00000   12.57940   12.43510   12.43510    -999.25   47.49620    0.07410    0.07410    2.65870    -999.25   -0.00520    0.03000   21.10190   70.44850   70.44850  112.52060   99.60910   99.60910   21.10190    8.27860   14.51410    8.27860    -999.25    0.25140    0.20750    2.67820 -306.28160  -13.23340   14.51410
 8600.00000   12.78370   12.18920   12.18920    -999.25   32.90060    0.05630    0.05630    2.59040    -999.25    0.03610    0.06990   30.39460   65.89570   65.89570  107.45330   94.84060   94.84060   30.39460   11.05180   18.89310   11.05180    -999.25    0.25530    0.21140    2.60260 -306.62310  -15.60390   18.89310
 8650.00000   14.90630   13.17600   13.17600    -999.25   50.40980    0.18830    0.18830    2.48830    -999.25    0.09800    0.12960   19.83740   71.53440   71.53440   92.84820   90.37970   90.37970   19.83740    8.95600   15.98590    8.95600    -999.25    0.18890    0.14560    2.49980 -306.30920  -18.61220   15.98590
 8700.00000   15.11910   13.21440   13.21440    -999.25   50.37330    0.19600    0.19600    2.57690    -999.25    0.04430    0.07780   19.85180   80.94670   80.94670  109.83090  103.32910  103.32910   19.85180    6.12570   19.57260    6.12570    -999.25    0.26350    0.21950    2.58580 -309.83240  -17.80100   19.57260
 8750.00000   12.50700   12.38550   12.38550    -999.25    0.76440    0.05300    0.05300    2.58550    -999.25    0.03910    0.07280 1308.19360   59.98970   59.98970   80.99780   70.16290   70.16290 1308.19360   13.41940   20.75180   13.41940    -999.25    0.14490    0.10240    2.63400 -309.55640  -20.77130   20.75180
 8800.00000   12.58060   12.38960   12.38960    -999.25   19.07030    0.00530    0.00530    2.52610    -999.25    0.07510    0.10760   55.95450   62.40790   62.40790   85.02630   78.96670   78.96670   55.95450    8.24040   28.31850    8.24040    -999.25    0.16310    0.12020    2.51040 -309.09350  -23.92860   28.31850
 8850.00000   12.61930   12.75530   12.75530    -999.25   37.17330    0.14060    0.14060    2.48150    -999.25    0.10210    0.13360   26.90100   69.68130   69.68130  123.46750  122.49070  122.49070   26.90100    8.77350   14.79310    8.77350    -999.25    0.32980    0.28600    2.48270 -308.84810  -26.88600   14.79310
 8900.00000   16.50870   13.40020   13.40020    -999.25    9.77700    0.24410    0.24410    2.20780    -999.25    0.26800    0.29370  102.28040   73.58250   73.58250  111.59420  102.51760  102.51760  102.28040   10.95750    8.27570   10.95750    -999.25    0.43920    0.39720    2.20230 -302.18510  -36.24340    8.27570
 8950.00000   13.11460   13.03910   13.03910    -999.25   47.53190    0.23010    0.23010    2.32810    0.26770    0.19510    0.22330   21.03850   67.32160   67.32160   59.90250   60.51910   60.51910   21.03850    6.33570   12.39180    6.33570    0.21510    0.26290    0.21890    2.33250 -298.15250  -42.98800   12.39180
 9000.00000   16.08720   13.34570   13.34570    -999.25   82.10590    0.20120    0.20120    1.96210    0.45030    0.41690    0.43740   12.17940   68.68730   68.68730   99.85870   97.72180   97.72180   12.17940    8.92350   10.23990    8.92350    0.28660    0.34460    0.30090    1.99670 -305.44260  -38.39220   10.23990
 9050.00000   12.42340   12.26820   12.26820    -999.25    1.17660    0.11290    0.11290    2.53500    0.12750    0.06970    0.10230  852.87340   61.19570   61.19570   44.40300   41.68050   41.68050  852.87340   63.69510   35.86790   63.69510    0.08010    0.11400    0.07190    2.53330 -299.93360  -46.59560   35.86790
 9100.00000   12.45210   12.45490   12.45490    -999.25    2.60960    0.07850    0.07850    2.54440    0.05170    0.06400    0.09680  383.20680   54.70940   54.70940   49.59130   47.43120   47.43120  383.20680   17.50930   64.11290   17.50930    0.03500    0.16770    0.12480    2.54100 -336.74540  -12.49580   64.11290
 9150.00000   12.38250   12.43240   12.43240    -999.25    0.60860    0.06660    0.06660    2.52580    0.09930    0.07530    0.10770 1643.17720   53.72050   53.72050   38.52770   30.39640   30.39640 1643.17720   10.30770   55.61750   10.30770    0.05390    0.17780    0.13470    2.54090 -336.05240  -15.88320   55.61750
 9200.00000   12.68100   12.50030   12.50030    -999.25   40.51370    0.20060    0.20060    2.49900    0.16670    0.09150    0.12340   24.68300   59.82660   59.82660   83.24710   67.70440   67.70440   24.68300    4.07810   40.31150    4.07810    0.09500    -999.25    0.09500    2.46930 -329.25510  -25.39250   40.31150
 9250.00000   14.17320   12.82270   12.82270    -999.25    0.47110    0.21840    0.21840    2.43790    0.15910    -999.25    0.15910 2122.79640   51.08040   51.08040   64.51180   55.10710   55.10710 2122.79640    7.99170   42.11470    7.99170    0.19550    -999.25    0.19550    2.44780 -301.02810  -56.31380   42.11470
 9300.00000   13.56430   13.02760   13.02760    -999.25    2.54660    0.24880    0.24880    2.54690    0.09540    -999.25    0.09540  815.99710   49.62440   49.62440   45.58390   40.00140   40.00140  815.99710    7.06490   41.05830    7.06490    0.16010    -999.25    0.16010    2.59060 -311.90010  -48.13620   41.05830
 9350.00000   12.28040   12.34770   12.34770    -999.25    0.50000    0.03980    0.03980    2.83090   -0.07070    -999.25   -0.07070 2000.00000   48.77640   48.77640   41.34280   37.61480   37.61480 2000.00000   54.87660  108.70320   54.87660    0.05070    -999.25    0.05070    2.59660 -316.34320  -46.40510  108.70320
 9400.00000   17.12760   13.29420   13.29420    -999.25    0.56130    0.20670    0.20670    2.26490    0.26030    -999.25    0.26030 1781.59480   50.51480   50.51480   37.32110   34.85920   34.85920 1781.59480   10.82220  151.35820   10.82220    0.14060    -999.25    0.14060    1.99950 -317.91480  -47.52790  151.35820
 9450.00000   12.22300   12.30310   12.30310    -999.25   42.83500    0.06970    0.06970    2.70760    0.00140    -999.25    0.00140   23.34540   57.33020   57.33020   66.51530   49.29780   49.29780   23.34540   10.88620   36.62170   10.88620    0.15000    -999.25    0.15000    2.66670 -307.55880  -60.59590   36.62170
 9500.00000   12.34470   12.44450   12.44450    -999.25    0.46390    0.02990    0.02990    2.90670   -0.11500    -999.25   -0.11500 2155.48610   51.94480   51.94480   25.21750   21.75670   21.75670 2155.48610   12.17870   84.24710   12.17870   -0.00720    -999.25   -0.00720    2.86510 -318.81760  -52.03150   84.24710
 9550.00000   12.30060   12.49040   12.49040    -999.25    0.50000    0.04140    0.04140    2.92390   -0.12510    -999.25   -0.12510 2000.00000   50.91410   50.91410   33.02280   34.63390   34.63390 2000.00000   41.76880   97.82360   41.76880    0.05060    -999.25    0.05060    2.76690 -330.08520  -43.45820   97.82360
 9600.00000   19.29380   14.24110   14.24110    -999.25   73.01140    0.20710    0.20710    1.94120    0.44960    -999.25    0.44960   13.69650   49.26270   49.26270   37.39030   34.41730   34.41730   13.69650   14.42860   12.86750   14.42860    0.18770    -999.25    0.18770    1.88260 -316.87290  -59.38250   12.86750
 9650.00000   12.19570   12.56740   12.56740    -999.25   34.34200    0.01350    0.01350    2.62670    0.04870    -999.25    0.04870   29.11890   56.92160   56.92160   90.51350   72.45610   72.45610   29.11890   20.57350   30.34750   20.57350    0.06280    -999.25    0.06280    2.66060 -312.89840  -66.05140   30.34750
 9700.00000    9.05950    8.93160    8.93160    -999.25   22.59200    0.04870    0.04870    2.78010   -0.04100    -999.25   -0.04100   44.26340   51.48090   51.48090   51.99180   48.19100   48.19100   44.26340   44.15370   64.18500   44.15370    0.07180    -999.25    0.07180    2.78220 -359.22550  -22.43630   64.18500
