~Version ---------------------------------------------------
VERS.      2.0 : CWLS log ASCII Standard -VERSION 2.0
WRAP.       NO : One line per depth step
CREA. 07/01/13 : LAS Creation Date
~Well ------------------------------------------------------
STRT.M                         350.0 : START DEPTH
STOP.M                        2450.0 : STOP DEPTH
STEP.M                      50.00000 : STEP LENGTH
NULL.                        -999.25 : NULL VALUE
COMP.     MURPHY OIL COMPANY LIMITED : COMPANY
WELL. MURPHY ET AL THREEHCK 8-34-34- : WELL
FLD .                                : FIELD
LOC .                                : LOCATION
CTRY.                         CANADA : COUNTRY
SRVC.                        Unknown : SERVICE COMPANY
DATE.                    27-May-1984 : LOGDATE
PROV.                        Alberta : PROVINCE
UWI .               100083403425W400 : UNIQUE WELL ID
SLAT.WGS84                  51.95936 : SURFACE LATITUDE
SLON.WGS84                 -113.4571 : SURFACE LONGITUDE
~Curve Information -----------------------------------------
DEPT    .M      : DEPTH METER
CALDED  .MM     : CALIPER FROM DENSITY LOG [ADJ. TO RESISTIVITY LOG]
CALSED  .MM     : CALIPER FROM SONIC LOG
CALWS   .MM     : CALIPER [CALDED]
CILDED  .MMHO   : CONDUCTIVITY FROM RESISTIVITY LOG
CONDWS  .MMHO   : CONDUCTIVITY [1000/DRESWS]
DCORWS  .KG/M3  : DENSITY CORRECTION [DRHOED]
DENWS   .KG/M3  : FORMATION BULK DENSITY [CALC FROM DPOLSWS, M=2710,F=1000]
DPHILSED.V/V    : DENSITY POROSITY LIMESTONE [M=2710, F=1000] FROM DENSITY LOG [ADJ. TO RESISTIVITY LOG]
DPHISSED.V/V    : DENSITY POROSITY SANDSTONE [M=2650, F=1000] FROM DENSITY LOG [ADJ. TO RESISTIVITY LOG]
DPOLSWS .V/V    : DENSITY POROSITY LIMESTONE [DPHISSED MATRIX CONVERTED TO LS & SPL TO DPHILSED @ 1764M]
DRESWS  .OHMM   : DEEP RESISTIVITY [1000/CILDED IF ILDED <=2, ILDED & SPL TO ILDED @ 1145M]
DRHOED  .KG/M3  : DENSITY CORRECTION FROM DENSITY LOG [ADJ. TO RESISTIVITY LOG]
DTED    .US/M   : DELTA TIME FROM SONIC LOG
DTWS    .US/M   : COMPRESSIONAL SONIC [DTED]
GRDED   .GAPI   : GAMMA RAY FROM DENSITY LOG [ADJ. TO RESISTIVITY LOG]
GRSED   .GAPI   : GAMMA RAY FROM SONIC LOG
GRWS    .GAPI   : GAMMA RAY [GRSED SPL TO GRDED @ 2451.5M]
ILDED   .OHMM   : DEEP INDUCTION RESISTIVITY FROM RESISTIVITY LOG
ILMED   .OHMM   : MEDIUM INDUCTION RESISTIVITY FROM RESISTIVITY LOG
LAED    .MM     : LONG AXIS ULTRASONIC CALIPER FROM DENSITY LOG [ADJ. TO RESISTIVITY LOG]
MRESWS  .OHMM   : MEDIUM RESISTIVITY [ILMED]
NPHILSED.V/V    : NEUTRON POROSITY LIMESTONE FROM DENSITY LOG [ADJ. TO RESISTIVITY LOG]
NPHISSED.V/V    : NEUTRON POROSITY SANDSTONE FROM DENSITY LOG [ADJ. TO RESISTIVITY LOG]
NPOLSWS .V/V    : NEUTRON POROSITY LIMESTONE [NPHISSED MATRIX CONVERTED TO LS & SPL TO NPHILSED @ 1716M]
PEFED   .B/E    : PHOTOELECTRIC FACTOR FROM DENSITY LOG [ADJ. TO RESISTIVITY LOG]
PEFWS   .B/E    : PHOTOELECTRIC FACTOR [PEFED]
RHOBED  .KG/M3  : BULK DENSITY FROM DENSITY LOG [ADJ. TO RESISTIVITY LOG]
SFLUED  .OHMM   : SPHERICALLY FOCUSED LOG RESISTIVITY FROM RESISTIVITY LOG
SPRED   .MV     : SPONTANEOUS POTENTIAL FROM RESISTIVITY LOG
SPWS    .MV     : SPONTANEOUS POTENTIAL [BASELINE 0 MV, SPRED]
SRESWS  .OHMM   : SHALLOW RESISTIVITY [SFLUED]
TENDED  .N      : TENSION FROM DENSITY LOG [ADJ. TO RESISTIVITY LOG]
TENSED  .N      : TENSION FROM SONIC LOG
~Params ----------------------------------------------------
PD  .                         GL : PERMANENT DATUM
EPD .M                    938.51 : ELEVATION PERMANENT DATUM
LMF .                         KB : LOG MEASURED FROM
DAPD.M                      5.45 : FEET ABOVE PERMANENT DATUM
DMF .                         KB : DRILLING MEASURED FROM
EKB .M                    943.96 : KELLY BUSHING
EDF .M                    943.66 : DRILLING FLOOR
EGL .M                    938.51 : GROUND LEVEL
DATE.                   05/27/84 : RUN DATE
RUN .                          1 : RUN NUMBER
DD  .M                      2471 : DEPTH DRILLER
DL  .M                    2471.2 : DEPTH LOGGER
BLI .M                    2469.3 : BOTTOM LOG INTERVAL
TLI .M                       381 : TOP LOG INTERVAL
CS  .MM                      219 : CASING SIZE
CBD .M                       381 : CASING BOTTOM DRILLER
CBL .M                       381 : CASING BOTTOM LOGGER
BS  .MM                      200 : BIT SIZE
BSD .M                      2471 : BIT SIZE AT DEPTH
DFT .                   GEL CHEM : DRILLING FLUID TYPE
DFD .                       1170 : DRILLING FLUID DENSITY
DFV .                        115 : DRILLING FLUID VISCOSITY
DFPH.                       11.5 : DRILLING FLUID PH
DFL .                        7.5 : DRILLING FLUID LOSS
MSS .                   FLOWLINE : MUD SAMPLE SOURCE
RMS .OHMM                  0.538 : RESISTIVITY MUD SAMPLE
MST .DEGC                   22.2 : MUD SAMPLE TEMPERATURE
RMF .OHMM                  0.395 : RESISTIVITY MUD FILTRATE SAMPLE
MFST.DEGC                   22.2 : MUD FILTRATE SAMPLE TEMPERATURE
RMC .OHMM                  0.199 : RESISTIVITY MUD CAKE
MCST.DEGC                     65 : MUD CAKE SAMPLE TEMPERATURE
MFSS.                     FILTER : MUD FILTRATE SAMPLE SOURCE
RMB .OHMM                  0.272 : RESISTIVITY MUD AT BHT
TCS .HRS                    1100 : TIME CIRCULATED STOPPED
TLAB.HRS                    1500 : TIME LOGGER AT BOTTOM
LUN .                       8059 : LOGGING UNIT NUMBER
LUL .                         RD : LOGGING UNIT LOCATION
ENGI.                     ROBERT : RECORDING ENGINEER
WITN.                     PLAYER : WITNESSED BY
CLNT.                    A2DTECH : CLIENT CODE
ORIG. 6.5"/100M 16.5"/100M PRINT : ORIGIN OF DATA
UWI .           100083403425W400 : UNIQUE WELL ID
DICO.     A2D Technologies, Inc. : DIGITIZING COMPANY
~Other -----------------------------------------------------
DIL-SFL-BHC RUN IN COMBO & CNL-LDT LOG RUN
CILD,ILD,SFLU,SPR FROM TOP TO 1305M AND RHOB & DRHO FROM SMALL SCALE LOG
NEUTRON CONVERSION[SS TO LS]: SCHLUMBERGER & DESCRIPTION: CNL(NPHI)
~ASCII -----------------------------------------------------
# ...
 1450.00000  214.48340  223.93030  214.48340    -999.25   85.67000   17.69560 2572.78000    -999.25    0.04680    0.08020   11.67270   17.69560  296.03800  296.03800  135.94690  133.48560  133.48560   11.67270   10.58130  225.76190   10.58130    -999.25    0.35070    0.30710    3.36400    3.36400 2577.01780   10.78210  -70.56900    5.36850   10.78210 13480.15330 12453.73240
 1500.00000  255.82900  286.66000  255.82900    -999.25  181.91080   70.65830 2476.25500    -999.25    0.10530    0.13670    5.49720   70.65830  302.02110  302.02110  103.21360  115.21900  115.21900    5.49720    5.91050  245.21210    5.91050    -999.25    0.39790    0.35500    2.53150    2.53150 2478.08690    6.43120  -68.67310    7.90120    6.43120 13611.57230 12881.11130
 1550.00000  228.27490  236.37640  228.27490    -999.25  156.59990   10.58720 2557.10500    -999.25    0.05630    0.08940    6.38570   10.58720  236.68740  236.68740   62.32350   63.34820   63.34820    6.38570    6.64330  231.26030    6.64330    -999.25    0.19440    0.15100    2.32450    2.32450 2559.11820    6.00070  -68.52670    8.68440    6.00070 13794.29590 12940.83690
 1600.00000  257.17840  267.15140  257.17840    -999.25  152.70910   45.43380 2423.12500    -999.25    0.13750    0.16780    6.54840   45.43380  279.43390  279.43390   94.66880   94.30130   94.30130    6.54840    5.74030  242.79470    5.74030    -999.25    0.42020    0.37780    2.60970    2.60970 2388.21780    5.20260  -56.39600   21.10680    5.20260 14027.93750 13441.45020
 1650.00000  253.98820  278.83450  253.98820    -999.25  210.86810  -46.92610 2640.10000    -999.25    0.00600    0.04090    4.74230  -46.92610  239.68800  239.68800   96.10310  100.65260  100.65260    4.74230    4.33750  217.11410    4.33750    -999.25    0.25500    0.21110    2.29410    2.29410 2581.96530    5.84050  -58.83910   18.66370    5.84050 14201.18070 13587.23440
 1700.00000  238.01800  241.96300  238.01800    -999.25   17.15540  123.60820 2297.06500    -999.25    0.21390    0.24150   58.29060  123.60820  240.56530  240.56530   61.42700   60.90900   60.90900   58.29060   62.77970  231.14350   62.77970    -999.25    0.23850    0.19470    2.77650    2.77650 2298.43090   82.62370  -57.65210   19.85070   82.62370 14745.14260 13682.13960
 1750.00000  273.48520  254.92050  273.48520    -999.25   22.75860   63.66010 2639.93500    0.06640    0.00610    0.04100   43.93950   63.66010  181.00390  181.00390   74.76290   87.16270   87.16270   43.93950   39.81490  318.90140   39.81490    0.07090    0.06640    0.07090    2.66070    2.66070 2633.65450   49.34150  -63.70700   13.79580   49.34150 14792.56350 13676.52930
 1800.00000  251.37500  255.56160  251.37500    -999.25   42.02480  -26.28890 2721.62800   -0.00680    -999.25   -0.00680   23.79550  -26.28890  191.39140  191.39140   55.71970   62.62130   62.62130   23.79550   27.03820  229.25460   27.03820    0.11470    -999.25    0.11470    4.27800    4.27800 2722.55740   46.37400  -58.53100   18.97180   46.37400 15447.88870 14513.80080
 1850.00000  242.73000  254.21000  242.73000    -999.25   55.72180  -27.21230 2670.49900    0.02310    -999.25    0.02310   17.94630  -27.21230  214.85750  214.85750   60.25890   67.90260   67.90260   17.94630   19.08430  232.49320   19.08430    0.15710    -999.25    0.15710    4.31930    4.31930 2677.51440   26.57740  -57.86140   19.64140   26.57740 16155.04690 14771.95210
 1900.00000  381.34390  306.57800  381.34390    -999.25   47.91730   42.26870 1788.13900    0.53910    -999.25    0.53910   20.86930   42.26870  275.60560  275.60560  116.58670  139.14800  139.14800   20.86930   21.49230  303.68820   21.49230    0.33210    -999.25    0.33210    2.02510    2.02510 1788.24950   31.86320  -52.19460   25.30820   31.86320 15968.66600 14950.03710
 1950.00000  225.42760  232.09980  225.42760    -999.25   93.54970  -15.02890 2961.02800   -0.14680    -999.25   -0.14680   10.68950  -15.02890  163.68140  163.68140   11.48710    9.97160    9.97160   10.68950   12.43490  214.66000   12.43490    0.01660    -999.25    0.01660    4.41200    4.41200 2960.27780   19.56070  -44.11460   33.38820   19.56070 16154.82620 15375.10250
 2000.00000  242.37890  242.23220  242.37890    -999.25   19.34120   -8.98020 2951.62300   -0.14130    -999.25   -0.14130   51.70320   -8.98020  161.64020  161.64020   14.75890   18.49120   18.49120   51.70320  135.79830  234.85310  135.79830    0.01820    -999.25    0.01820    4.74420    4.74420 2950.81320 1942.15470  -44.28960   33.21320 1942.15470 16456.02930 15292.99220
 2050.00000  239.28790  236.90460  239.28790    -999.25    -999.25  -27.22140 2916.73900   -0.12090    -999.25   -0.12090    -999.25  -27.22140  169.64420  169.64420   13.64660   15.36350   15.36350    -999.25    -999.25  223.63290    -999.25    0.04030    -999.25    0.04030    4.98900    4.98900 2918.26710    -999.25    -999.25    -999.25    -999.25 16594.64450 15373.13870
 2100.00000  231.82520  232.73320  231.82520    -999.25    -999.25  -13.29020 2972.48500   -0.15350    -999.25   -0.15350    -999.25  -13.29020  161.99930  161.99930   13.61670   16.80390   16.80390    -999.25    -999.25  221.95300    -999.25    0.01450    -999.25    0.01450    5.15130    5.15130 2969.88160    -999.25    -999.25    -999.25    -999.25 16981.82620 15962.66990
 2150.00000  239.34650  224.57270  239.34650    -999.25    -999.25   -4.75790 2863.38700   -0.08970    -999.25   -0.08970    -999.25   -4.75790  162.70170  162.70170   21.69670   24.78440   24.78440    -999.25    -999.25  223.61690    -999.25    0.05920    -999.25    0.05920    3.62560    3.62560 2857.10250    -999.25    -999.25    -999.25    -999.25 17206.88480 16186.88570
 2200.00000  222.16970  224.45020  222.16970    -999.25    -999.25  -20.83260 2715.30100   -0.00310    -999.25   -0.00310    -999.25  -20.83260  186.44560  186.44560   82.56750   90.99900   90.99900    -999.25    -999.25  217.64950    -999.25    0.09810    -999.25    0.09810    3.79190    3.79190 2719.01270    -999.25    -999.25    -999.25    -999.25 17785.29100 16734.36130
 2250.00000  227.86960  232.92110  227.86960    -999.25    -999.25  -34.23090 2706.23800    0.00220    -999.25    0.00220    -999.25  -34.23090  192.82740  192.82740   93.96310   94.63380   94.63380    -999.25    -999.25  210.53880    -999.25    0.09900    -999.25    0.09900    3.80420    3.80420 2707.60230    -999.25    -999.25    -999.25    -999.25 18082.50390 16986.45900
 2300.00000  217.95150  212.25350  217.95150    -999.25    -999.25   86.66570 2628.26200    0.04780    -999.25    0.04780    -999.25   86.66570  200.94210  200.94210   71.03640   79.77130   79.77130    -999.25    -999.25  194.72550    -999.25    0.09240    -999.25    0.09240    4.07340    4.07340 2630.90110    -999.25    -999.25    -999.25    -999.25 18136.98050 17264.03910
 2350.00000  248.12920  209.40580  248.12920    -999.25    -999.25  239.39020 2760.10300   -0.02930    -999.25   -0.02930    -999.25  239.39020  166.05390  166.05390   27.57190   28.15430   28.15430    -999.25    -999.25  191.49040    -999.25    0.02190    -999.25    0.02190    4.25230    4.25230 2743.56620    -999.25    -999.25    -999.25    -999.25 18349.68550 17419.21680
 2400.00000  224.07640  209.07430  224.07640    -999.25    -999.25  233.91360 2693.92600    0.00940    -999.25    0.00940    -999.25  233.91360  167.85580  167.85580   23.83980   31.12310   31.12310    -999.25    -999.25  206.81900    -999.25    0.02600    -999.25    0.02600    4.40700    4.40700 2703.04150    -999.25    -999.25    -999.25    -999.25 18357.44140 17539.17580
 2450.00000  200.14760  202.22530  200.14760    -999.25    -999.25  -11.29150 2734.45300   -0.01430    -999.25   -0.01430    -999.25  -11.29150  167.73760  167.73760   34.93800   34.34830   34.34830    -999.25    -999.25  206.80060    -999.25    0.04530    -999.25    0.04530    4.84030    4.84030 2737.40550    -999.25    -999.25    -999.25    -999.25 18597.33010 17849.39260
