~Version ---------------------------------------------------
VERS.      2.0 : CWLS log ASCII Standard -VERSION 2.0
WRAP.       NO : One line per depth step
CREA. 08/31/17 : LAS Creation Date
~Well ------------------------------------------------------
STRT.FT                                 1050.0 : START DEPTH
STOP.FT                                10100.0 : STOP DEPTH
STEP.FT                               50.00000 : STEP LENGTH
NULL.                                  -999.25 : NULL VALUE
COMP.            HUDSON'S BAY OIL & GAS CO LTD : COMPANY
WELL. HUDSONS BAY UNION SNIPE LAKE 16-19-68-19 : WELL
FLD .                                          : FIELD
LOC .                                          : LOCATION
CTRY.                                   CANADA : COUNTRY
SRVC.                   Schlumberger of Canada : SERVICE COMPANY
DATE.                              25-Mar-1962 : LOGDATE
PROV.                                  Alberta : PROVINCE
UWI .                         100161906819W500 : UNIQUE WELL ID
SLAT.WGS84                            54.90768 : SURFACE LATITUDE
SLON.WGS84                           -116.8764 : SURFACE LONGITUDE
~Curve Information -----------------------------------------
DEPT  .FT         : Depth Curve
CALWS .IN         : CALIPER [MCALDED]
CILDED.MMHO       : CONDUCTIVITY INDUCTION LOG DEEP FROM RESISTIVITY LOG
CONDWS.MMHO       : CONDUCTIVITY [1000/DRESWS]
DRESWS.OHMM       : DEEP RESISTIVITY [1000/CILDED, IF ILDED<5, ILDED]
DTED  .US/F       : ACOUSTIC TRANSIT TIME SLOWNESS, DELTA T FROM SONIC LOG
DTWS  .US/F       : COMPRESSIONAL SONIC [DTED]
GRRED .UgRa-Eq/T  : GAMMA RAY FROM SONIC LOG
GRWS  .GAPI       : GAMMA RAY [GRRED*16.50 FOR GAPI]
ILDED .OHMM       : DEEP INDUCTION RESISTIVITY FROM RESISTIVITY LOG
MCALED.IN         : MLT [MICROLOG] CALIPER FROM SONIC LOG
SNED  .OHMM       : SHORT NORMAL 10" FROM RESISTIVITY LOG
SPRED .MV         : SPONTANEOUS POTENTIAL FROM RESISTIVITY LOG
SPWS  .MV         : SPONTANEOUS POTENTIAL [BASELINE 0 MV, SPRED]
SRESWS.OHMM       : SHALLOW RESISTIVITY [SNED]
~Params ----------------------------------------------------
PD  .                     GL : PERMANENT DATUM
EPD .FT                 2478 : ELEVATION PERMANENT DATUM
LMF .                     KB : LOG MEASURED FROM
DAPD.FT                 12.6 : FEET ABOVE PERMANENT DATUM
EKB .FT               2490.6 : KELLY BUSHING
EGL .FT                 2478 : GROUND LEVEL
DATE.               03/25/62 : RUN DATE
RUN .                      1 : RUN NUMBER
DD  .FT                10135 : DEPTH DRILLER
DL  .FT                10139 : DEPTH LOGGER
BLI .FT                10138 : BOTTOM LOG INTERVAL
TLI .FT                 1010 : TOP LOG INTERVAL
CBD .FT                 1009 : CASING BOTTOM DRILLER
CBL .FT                 1010 : CASING BOTTOM LOGGER
BS  .IN                    9 : BIT SIZE
BSD .FT                10135 : BIT SIZE AT DEPTH
DFT .                    GEL : DRILLING FLUID TYPE
DFD .                     10 : DRILLING FLUID DENSITY
DFV .                    190 : DRILLING FLUID VISCOSITY
DFPH.                    8.5 : DRILLING FLUID PH
DFL .                    7.2 : DRILLING FLUID LOSS
RMS .OHMM                2.6 : RESISTIVITY MUD SAMPLE
MST .DEGF                 62 : MUD SAMPLE TEMPERATURE
RMF .OHMM                  2 : RESISTIVITY MUD FILTRATE SAMPLE
MFST.DEGF                 68 : MUD FILTRATE SAMPLE TEMPERATURE
RMC .OHMM               3.04 : RESISTIVITY MUD CAKE
MCST.DEGF                 68 : MUD CAKE SAMPLE TEMPERATURE
RMB .OHMM              0.815 : RESISTIVITY MUD AT BHT
TCS .HRS                   4 : TIME CIRCULATED STOPPED
LUN .                   1534 : LOGGING UNIT NUMBER
LUL .                    EDM : LOGGING UNIT LOCATION
ENGI.                SKILTON : RECORDING ENGINEER
WITN.                   COLE : WITNESSED BY
CLNT.                A2DTECH : CLIENT CODE
ORIG.            2" 5" PRINT : ORIGIN OF DATA
UWI .       100161906819W500 : UNIQUE WELL ID
DICO. A2D Technologies, Inc. : DIGITIZING COMPANY
~Other -----------------------------------------------------
~ASCII -----------------------------------------------------
 1050.00000   12.54370  277.61590  277.61590    3.60210    -999.25    -999.25    -999.25    -999.25    4.74040   12.54370    4.42130 -111.96910   -7.93640    4.42130
 1100.00000   16.71060  276.43950  276.43950    3.61940    -999.25    -999.25    -999.25    -999.25    4.70870   16.71060    4.49650 -116.76300  -13.64560    4.49650
 1150.00000    9.25060   56.53280   54.13770   18.47140    -999.25    -999.25    -999.25    -999.25   18.47140    9.25060   11.65410 -121.51780  -19.30970   11.65410
 1200.00000    9.84170  179.89060  157.86600    6.33490    -999.25    -999.25    -999.25    -999.25    6.33490    9.84170    5.43950 -110.29890   -9.00600    5.43950
 1250.00000   12.88340  314.01050  314.01050    3.18460    -999.25    -999.25    -999.25    -999.25    4.46360   12.88340    3.55370 -106.52900   -6.14540    3.55370
 1300.00000   14.11190  253.61970  253.61970    3.94290    -999.25    -999.25    -999.25    -999.25    4.92490   14.11190    4.26700 -107.25420   -7.76430    4.26700
 1350.00000   11.03380  135.72940  120.72370    8.34360    -999.25    -999.25    -999.25    -999.25    8.34360   11.03380    5.27810 -106.14400   -6.77450    5.27810
 1400.00000   10.84210   53.61600   49.86490   20.05420    -999.25    -999.25    -999.25    -999.25   20.05420   10.84210   11.46630 -119.78250  -20.53260   11.46630
 1450.00000   12.44750  180.19540  160.56160    6.22810    -999.25    -999.25    -999.25    -999.25    6.22810   12.44750    4.82410 -105.85320   -6.72370    4.82410
 1500.00000   12.72300   57.29310   53.24270   18.78190    -999.25    -999.25    -999.25    -999.25   18.78190   12.72300   12.01260 -109.93080  -10.92090   12.01260
 1550.00000   16.87230  259.59250  259.59250    3.85220    -999.25    -999.25    -999.25    -999.25    4.93310   16.87230    3.87540 -103.52910   -4.63880    3.87540
 1600.00000   13.87600  258.16760  258.16760    3.87350    -999.25    -999.25    -999.25    -999.25    4.93430   13.87600    4.07520 -103.87840   -5.10850    4.07520
 1650.00000   16.50420  235.69190  194.68510    5.13650    -999.25    -999.25    -999.25    -999.25    5.13650   16.50420    4.27060 -106.86260   -8.21230    4.27060
 1700.00000   10.60580  217.86310  181.26500    5.52090    -999.25    -999.25    -999.25    -999.25    5.52090   10.60580    5.29700 -114.59330  -16.06340    5.29700
 1750.00000   11.76140  119.44700  123.96490    8.06680    -999.25    -999.25    -999.25    -999.25    8.06680   11.76140    8.27800 -109.90240  -11.49210    8.27800
 1800.00000   10.66640   77.51840   73.99240   13.51490    -999.25    -999.25    -999.25    -999.25   13.51490   10.66640    8.99900 -115.31140  -17.02070    8.99900
 1850.00000   11.20600  218.60600  189.59220    5.27470    -999.25    -999.25    -999.25    -999.25    5.27470   11.20600    4.89880 -114.66920  -16.49890    4.89880
 1900.00000   13.08340  296.15240  296.15240    3.37660    -999.25    -999.25    -999.25    -999.25    4.45070   13.08340    3.88940 -113.24220  -15.19150    3.88940
 1950.00000    -999.25  229.18090  189.65350    5.27290    -999.25    -999.25    -999.25    -999.25    5.27290    -999.25    4.88080 -108.04460  -10.11430    4.88080
 2000.00000    -999.25  199.67920  170.30840    5.87170    -999.25    -999.25    -999.25    -999.25    5.87170    -999.25    5.74780 -104.52830   -6.71760    5.74780
 2050.00000    -999.25  133.39010  124.73650    8.01690    -999.25    -999.25    -999.25    -999.25    8.01690    -999.25    7.26560 -108.61720  -10.92610    7.26560
 2100.00000    -999.25  186.94740  155.91260    6.41390    -999.25    -999.25    -999.25    -999.25    6.41390    -999.25    6.28810 -111.77320  -14.20250    6.28810
 2150.00000    -999.25  170.71460  153.31540    6.52250    -999.25    -999.25    -999.25    -999.25    6.52250    -999.25    6.97270 -105.86660   -8.41550    6.97270
 2200.00000    -999.25  157.69590  140.78090    7.10330    -999.25    -999.25    -999.25    -999.25    7.10330    -999.25    7.55960 -104.67040   -7.33970    7.55960
 2250.00000    -999.25  186.02680  161.71290    6.18380    -999.25    -999.25    -999.25    -999.25    6.18380    -999.25    6.24070 -110.32590  -13.11480    6.24070
 2300.00000    -999.25  131.09900  120.30800    8.31200    -999.25    -999.25    -999.25    -999.25    8.31200    -999.25    7.71760 -109.55450  -12.40750    7.71760
 2350.00000    -999.25   79.74470   75.23660   13.30210    -999.25    -999.25    -999.25    -999.25   13.30210    -999.25   11.42400 -106.97240   -9.65340   11.42400
 2400.00000    -999.25  158.51600  131.33180    7.61430    -999.25    -999.25    -999.25    -999.25    7.61430    -999.25    7.06080 -111.31960  -13.82960    7.06080
 2450.00000    -999.25  154.46450  136.78990    7.31050    -999.25    -999.25    -999.25    -999.25    7.31050    -999.25    6.88980 -116.52650  -18.86450    6.88980
 2500.00000    -999.25  141.73790  128.54630    7.77930    -999.25    -999.25    -999.25    -999.25    7.77930    -999.25    7.36960 -117.19520  -19.36230    7.36960
 2550.00000    -999.25  159.24040  143.40410    6.97330    -999.25    -999.25    -999.25    -999.25    6.97330    -999.25    6.63550 -111.45300  -13.44910    6.63550
 2600.00000    -999.25  122.91000  114.79110    8.71170    -999.25    -999.25    -999.25    -999.25    8.71170    -999.25    8.25340 -117.20850  -19.03250    8.25340
 2650.00000    -999.25  154.94490  138.15020    7.23850    -999.25    -999.25    -999.25    -999.25    7.23850    -999.25    6.81380 -118.46580  -20.11890    6.81380
 2700.00000    -999.25  138.03930  127.94460    7.81610    -999.25    -999.25    -999.25    -999.25    7.81610    -999.25    7.38560 -119.51200  -20.99310    7.38560
 2750.00000    -999.25  167.67460  150.13660    6.66060    -999.25    -999.25    -999.25    -999.25    6.66060    -999.25    6.52750 -125.07090  -26.38100    6.52750
 2800.00000    -999.25  173.25490  154.71490    6.46350    -999.25    -999.25    -999.25    -999.25    6.46350    -999.25    6.77780 -126.89470  -28.03390    6.77780
 2850.00000    -999.25  168.41890  152.51480    6.55680    -999.25    -999.25    -999.25    -999.25    6.55680    -999.25    6.81890 -125.15190  -26.11900    6.81890
 2900.00000    -999.25  133.74610  123.44000    8.10110    -999.25    -999.25    -999.25    -999.25    8.10110    -999.25    9.69530 -124.62510  -25.42130    9.69530
 2950.00000    -999.25  153.72890  139.69180    7.15870    -999.25    -999.25    -999.25    -999.25    7.15870    -999.25    8.18190 -122.86530  -23.48950    8.18190
 3000.00000    -999.25  136.51180  126.21800    7.92280    -999.25    -999.25    -999.25    -999.25    7.92280    -999.25    9.51990 -119.80140  -20.25460    9.51990
 3050.00000    -999.25  123.66100  115.37750    8.66720    -999.25    -999.25    -999.25    -999.25    8.66720    -999.25   11.82000 -118.44660  -18.72890   11.82000
 3100.00000    -999.25  185.31420  171.38690    5.83480    -999.25    -999.25    -999.25    -999.25    5.83480    -999.25    6.30230 -116.97310  -17.08340    6.30230
 3150.00000    -999.25   76.56490   71.92640   13.90310    -999.25    -999.25    -999.25    -999.25   13.90310    -999.25   15.16580 -131.20910  -31.14840   15.16580
 3200.00000    -999.25  183.80590  165.77970    6.03210    -999.25    -999.25    -999.25    -999.25    6.03210    -999.25    6.53450 -115.84780  -15.61510    6.53450
 3250.00000    -999.25  178.34760  160.98390    6.21180    -999.25    -999.25    -999.25    -999.25    6.21180    -999.25    6.74880 -123.35000  -22.94630    6.74880
 3300.00000    -999.25  163.08870  150.52530    6.64340    -999.25    -999.25    -999.25    -999.25    6.64340    -999.25    7.28000 -114.17430  -13.59970    7.28000
 3350.00000    -999.25  197.80030  178.18820    5.61240    -999.25    -999.25    -999.25    -999.25    5.61240    -999.25    5.94170 -112.56640  -11.81970    5.94170
 3400.00000    -999.25  174.57860  157.32420    6.35630    -999.25    -999.25    -999.25    -999.25    6.35630    -999.25    6.92500 -115.64540  -14.72780    6.92500
 3450.00000    -999.25  240.57890  240.57890    4.15670    -999.25    -999.25    -999.25    -999.25    4.95650    -999.25    5.60090 -111.90600  -10.81630    5.60090
