~Version ---------------------------------------------------
VERS.      2.0 : CWLS log ASCII Standard -VERSION 2.0
WRAP.       NO : One line per depth step
CREA. 10/21/19 : LAS Creation Date
~Well ------------------------------------------------------
STRT.FT                              300.0 : START DEPTH
STOP.FT                             9200.0 : STOP DEPTH
STEP.FT                           50.00000 : STEP LENGTH
NULL.                              -999.25 : NULL VALUE
COMP.          CANADA-CITIES SERVICE, LTD. : COMPANY
WELL. C.S. PAN AM GOODWIN LAKE 10-22-59-13 : WELL
FLD .                                      : FIELD
LOC .                                      : LOCATION
CTRY.                               CANADA : COUNTRY
SRVC.                         Schlumberger : SERVICE COMPANY
DATE.                          03-Aug-1963 : LOGDATE
PROV.                              Alberta : PROVINCE
UWI .                     100102205913W500 : UNIQUE WELL ID
SLAT.WGS84                        54.11761 : SURFACE LATITUDE
SLON.WGS84                       -115.8598 : SURFACE LONGITUDE
~Curve Information -----------------------------------------
DEPT  .FT    : Depth Curve
CALWS .IN    : CALIPER [MCALED]
CILDED.MMHO  : CONDUCTIVITY FROM RESISTIVITY LOG
CONDWS.MMHO  : CONDUCTIVITY [1000/DRESWS]
DRESWS.OHMM  : DEEP RESISTIVITY [1000/CILDED, IF ILDED < 2, ILDED]
DTED  .US/F  : DELTA-TIME 3' SPACING FROM SONIC LOG
DTWS  .US/F  : COMPRESSIONAL SONIC [DTED]
GRED  .GAPI  : GAMMA RAY FROM GR LOG
GRSED .GAPI  : GAMMA RAY FROM SONIC LOG
GRWS  .GAPI  : GAMMA RAY [GRED SPL. TO GRSED @ 3107']
ILDED .OHMM  : DEEP INDUCTION LOG RESISTIVITY FROM RESISTIVITY LOG
MCALED.IN    : MLT (MICROLOG) CALIPER FROM MICROLATEROLOG
SNED  .OHMM  : 16 INCH SHORT NORMAL RESISTIVITY FROM RESISTIVITY LOG
SPRED .MV    : SPONTANEOUS POTENTIAL FROM RESISTIVITY LOG
SPWS  .MV    : SPONTANEOUS POTENTIAL [BASELINE 0 MV] [SPRED]
SRESWS.OHMM  : SHALLOW RESISTIVITY [SNED]
~Params ----------------------------------------------------
PD  .                     GL : PERMANENT DATUM
EPD .FT                 2562 : ELEVATION PERMANENT DATUM
LMF .                     KB : LOG MEASURED FROM
DAPD.FT                   18 : FEET ABOVE PERMANENT DATUM
EKB .FT                 2580 : KELLY BUSHING
EGL .FT                 2562 : GROUND LEVEL
DATE.               08/03/63 : RUN DATE
RUN .                      2 : RUN NUMBER
DD  .FT                 9232 : DEPTH DRILLER
DL  .FT                 9224 : DEPTH LOGGER
BLI .FT                 9223 : BOTTOM LOG INTERVAL
TLI .FT                 5650 : TOP LOG INTERVAL
CBD .FT               946.76 : CASING BOTTOM DRILLER
BS  .IN                7.875 : BIT SIZE
BSD .FT                 9232 : BIT SIZE AT DEPTH
DFT .           GEL OIL CHEM : DRILLING FLUID TYPE
DFD .                    9.7 : DRILLING FLUID DENSITY
DFV .                    135 : DRILLING FLUID VISCOSITY
DFPH.                    9.5 : DRILLING FLUID PH
DFL .                    4.3 : DRILLING FLUID LOSS
RMS .OHMM               1.64 : RESISTIVITY MUD SAMPLE
MST .DEGF                 72 : MUD SAMPLE TEMPERATURE
RMF .OHMM               0.85 : RESISTIVITY MUD FILTRATE SAMPLE
MFST.DEGF                 84 : MUD FILTRATE SAMPLE TEMPERATURE
RMC .OHMM               1.75 : RESISTIVITY MUD CAKE
MCST.DEGF                 83 : MUD CAKE SAMPLE TEMPERATURE
RMB .OHMM               0.66 : RESISTIVITY MUD AT BHT
TCS .HRS                 2.5 : TIME CIRCULATED STOPPED
LUN .                   3232 : LOGGING UNIT NUMBER
LUL .                     WC : LOGGING UNIT LOCATION
ENGI.               HATLELID : RECORDING ENGINEER
WITN.              ABERNATHY : WITNESSED BY
CLNT.                A2DTECH : CLIENT CODE
ORIG.            2" 5" PRINT : ORIGIN OF DATA
UWI .       100102205913W500 : UNIQUE WELL ID
DICO. A2D Technologies, Inc. : DIGITIZING COMPANY
~Other -----------------------------------------------------
~ASCII -----------------------------------------------------
# ...
 7200.00000    8.25160   39.27840   40.93430   24.42940   44.55390   44.55390    -999.25   14.59980   14.59980   24.42940    8.25160   83.02580 -223.05870 -184.70270   83.02580
 7250.00000    8.08750    2.89330    4.20390  237.87570   44.07530   44.07530    -999.25   17.63750   17.63750  237.87570    8.08750  174.53520 -137.89680  -99.70150  174.53520
 7300.00000    8.14720   22.00520   21.35520   46.82700   45.51010   45.51010    -999.25   35.09220   35.09220   46.82700    8.14720   43.98030 -102.35420  -64.31960   43.98030
 7350.00000    7.80920   39.01900   40.84820   24.48090   43.80440   43.80440    -999.25   19.91560   19.91560   24.48090    7.80920   66.09820 -129.07510  -91.20120   66.09820
 7400.00000    8.02390   34.97540   35.23820   28.37830   45.56360   45.56360    -999.25   42.77120   42.77120   28.37830    8.02390   43.88210 -108.43110  -70.71790   43.88210
 7450.00000    8.09270   23.72190   25.43250   39.31980   43.96700   43.96700    -999.25   30.09310   30.09310   39.31980    8.09270   47.20540  -92.86120  -55.30870   47.20540
 7500.00000    8.05190    7.39720    8.38730  119.22730   44.90870   44.90870    -999.25   32.40390   32.40390  119.22730    8.05190   93.21600  -46.83630   -9.44450   93.21600
 7550.00000    8.05540   16.95130   17.28160   57.86500   46.03430   46.03430    -999.25   37.21940   37.21940   57.86500    8.05540   59.56210  -40.54390   -3.31280   59.56210
 7600.00000    8.36350   54.16720   53.52290   18.68360   48.10000   48.10000    -999.25   49.72660   49.72660   18.68360    8.36350   24.18990  -39.71650   -2.64610   24.18990
 7650.00000    8.65510  110.81690  101.84230    9.81910   49.49860   49.49860    -999.25   62.84050   62.84050    9.81910    8.65510   14.55640  -38.45870   -1.54900   14.55640
 7700.00000   11.32770  124.69300  123.73940    8.08150   52.89860   52.89860    -999.25   76.28140   76.28140    8.08150   11.32770   10.81140  -43.92190   -7.44750   10.81140
 7750.00000   15.84090  193.02330  197.28920    5.06870   56.43370   56.43370    -999.25   73.19720   73.19720    5.06870   15.84090    5.46600  -71.98680  -36.26500    5.46600
 7800.00000   15.90080  239.54030  242.29500    4.12720   58.24350   58.24350    -999.25   70.19130   70.19130    4.12720   15.90080    4.90850  -53.61500  -18.64570    4.90850
 7850.00000    8.25290   24.61390   24.70880   40.47140   51.05040   51.05040    -999.25   77.29220   77.29220   40.47140    8.25290   52.50410  -39.62690   -5.41020   52.50410
 7900.00000    8.60260   91.47630   88.79810   11.26150   50.73910   50.73910    -999.25   59.24880   59.24880   11.26150    8.60260   15.81670  -43.58710  -10.12300   15.81670
 7950.00000   15.77840  151.36290  148.11740    6.75140   55.53500   55.53500    -999.25   72.96260   72.96260    6.75140   15.77840    8.11300  -58.45260  -25.74100    8.11300
 8000.00000   15.96680  188.15660  183.47950    5.45020   56.39450   56.39450    -999.25   77.68590   77.68590    5.45020   15.96680    7.29840  -45.18180  -13.22280    7.29840
 8050.00000    8.31440   86.57210   81.74280   12.23350   50.21120   50.21120    -999.25   64.07530   64.07530   12.23350    8.31440   17.73950  -39.54550   -8.33910   17.73950
 8100.00000    8.17100   94.11040   89.92720   11.12010   51.27850   51.27850    -999.25   87.65590   87.65590   11.12010    8.17100   16.29740  -34.52950   -4.07560   16.29740
 8150.00000    8.15480   83.44200   79.63110   12.55790   50.33040   50.33040    -999.25   75.30700   75.30700   12.55790    8.15480   18.12320  -38.75920   -9.05790   18.12320
 8200.00000    8.08100   55.88980   55.01880   18.17560   48.95750   48.95750    -999.25   68.09120   68.09120   18.17560    8.08100   25.68170  -38.92370   -9.97500   25.68170
 8250.00000   10.63300  152.49020  147.45780    6.78160   50.96940   50.96940    -999.25   86.34460   86.34460    6.78160   10.63300   10.32930  -40.62770  -12.43150   10.32930
 8300.00000    8.13620   93.12260   88.52300   11.29650   51.14020   51.14020    -999.25   90.88470   90.88470   11.29650    8.13620   16.99820  -32.61190   -5.16830   16.99820
 8350.00000    8.01000   86.41310   84.92210   11.77550   50.77290   50.77290    -999.25   66.13190   66.13190   11.77550    8.01000   18.61130  -33.83310   -7.14210   18.61130
 8400.00000    8.91210  116.50400  112.14790    8.91680   53.70070   53.70070    -999.25   96.39170   96.39170    8.91680    8.91210   13.67170  -35.92120   -9.98270   13.67170
 8450.00000    8.18920  110.95340  105.94120    9.43920   51.29780   51.29780    -999.25   79.05620   79.05620    9.43920    8.18920   14.99710  -33.08400   -7.89810   14.99710
 8500.00000    8.91110  139.30970  134.90910    7.41240   52.54880   52.54880    -999.25   84.36600   84.36600    7.41240    8.91110   12.17050  -35.01930  -10.58600   12.17050
 8550.00000    8.08420  108.99770  106.67460    9.37430   51.96250   51.96250    -999.25   87.71280   87.71280    9.37430    8.08420   15.91810  -33.76700  -10.08620   15.91810
 8600.00000    7.99440   11.94040   11.35340   88.07930   48.74330   48.74330    -999.25   98.82610   98.82610   88.07930    7.99440   97.18530  -30.83200   -7.90380   97.18530
 8650.00000    8.00930   14.40370   13.52280   73.94900   45.23600   45.23600    -999.25   35.28010   35.28010   73.94900    8.00930   75.96360  -30.71050   -8.53490   75.96360
 8700.00000    8.81390   93.66400   90.30160   11.07400   54.47810   54.47810    -999.25  100.66000  100.66000   11.07400    8.81390   19.76030  -29.89320   -8.47010   19.76030
 8750.00000    7.96480    5.58590    5.89200  169.72300   45.50530   45.50530    -999.25   38.83690   38.83690  169.72300    7.96480  143.77210  -50.90550  -30.23500  143.77210
 8800.00000    7.95000    5.68280    5.68230  175.98480   45.03490   45.03490    -999.25   16.46970   16.46970  175.98480    7.95000   87.96720 -117.91870  -98.00080   87.96720
 8850.00000    7.98510    2.54690    2.00000  500.00000   43.84550   43.84550    -999.25   18.53560   18.53560  500.00000    7.98510  132.75650  -96.84750  -77.68210  132.75650
 8900.00000    8.08530    0.73010    2.00000  500.00000   43.74420   43.74420    -999.25   20.49030   20.49030  500.00000    8.08530  230.21240  -83.21690  -64.80410  230.21240
 8950.00000    7.94900    0.57260    2.00000  500.00000   43.12840   43.12840    -999.25   17.02040   17.02040  500.00000    7.94900  283.13530  -88.25220  -70.59200  283.13530
 9000.00000    7.97630    1.06670    2.00000  500.00000   43.90920   43.90920    -999.25   17.09770   17.09770  500.00000    7.97630  278.34810  -85.33610  -68.42840  278.34810
 9050.00000    7.96540    0.62240    2.00000  500.00000   43.87720   43.87720    -999.25   17.39330   17.39330  500.00000    7.96540  326.48090  -98.60090  -82.44580  326.48090
 9100.00000    7.94330    5.80090    5.39070  185.50450   44.22440   44.22440    -999.25   17.70030   17.70030  185.50450    7.94330  124.79460  -98.29320  -82.89070  124.79460
 9150.00000    7.98370   46.91140   46.31020   21.59350   52.70590   52.70590    -999.25  131.35740  131.35740   21.59350    7.98370   39.18760  -19.92080   -5.27090   39.18760
 9200.00000    7.97180   42.70280   41.74200   23.95670   50.01760   50.01760    -999.25    -999.25    -999.25   23.95670    7.97180   33.40050  -26.04990  -12.15250   33.40050
