~Version ---------------------------------------------------
VERS.      2.0 : CWLS log ASCII Standard -VERSION 2.0
WRAP.       NO : One line per depth step
CREA. 10/22/19 : LAS Creation Date
~Well ------------------------------------------------------
STRT.ft                                          300.0 : START DEPTH
STOP.ft                                        10300.0 : STOP DEPTH
STEP.ft                                       50.00000 : STEP LENGTH
NULL.                                          -999.25 : NULL VALUE
COMP.                             IMPERIAL OIL LIMITED : COMPANY
WELL. IMPERIAL CANADIAN SUPERIOR BUCK CREEK 14-29-48-6 : WELL
FLD .                                          WILDCAT : FIELD
LOC .                                                  : LOCATION
CTRY.                                           CANADA : COUNTRY
SRVC.                           Schlumberger of Canada : SERVICE COMPANY
DATE.                                      27-May-1954 : LOGDATE
PROV.                                          Alberta : PROVINCE
UWI .                                 100142904806W500 : UNIQUE WELL ID
SLAT.WGS84                                    53.17637 : SURFACE LATITUDE
SLON.WGS84                                   -114.8447 : SURFACE LONGITUDE
~Curve Information -----------------------------------------
DEPT    .ft    : Depth Curve
CONDWS  .MMHO  : CONDUCTIVITY [1000/DRESWS]
DRESWS  .OHMM  : DEEP RESISTIVITY [LNED]
GRDED   .GAPI  : GAMMA RAY FROM CNL
GRNED   .GAPI  : GAMMA RAY FROM CASED HOLE GRN LOG [DEPTH ADJ. TO GRDED]
GRWS    .GAPI  : GAMMA RAY [SPLICED GRNED TO GRDED FROM 790-1109M, GRDED+37]
LATED   .OHMM  : 18 FOOT 8 INCH LATERAL RESISTIVITY FROM EL
LNED    .OHMM  : 64 INCH LONG NORMAL RESISTIVITY FROM EL
NEUTED  .NAPI  : NEUTRON FROM CASED HOLE GRN LOG [DEPTH ADJ. TO GRDED]
NEUTWS  .NAPI  : NEUTRON [NEUTED]
NPHIDMED.V/V   : NEUTRON POROSITY DOLOMITE FROM CNL
NPHILSED.V/V   : NEUTRON POROSITY LIMESTONE FROM CNL
NPHISSED.V/V   : NEUTRON POROSITY SANDSTONE FROM CNL
NPOLSWS .V/V   : NEUTRON POROSITY LIMESTONE [NPHILSED]
SNED    .OHMM  : 16 INCH SHORT NORMAL RESISTIVITY FROM EL
SPRED   .MV    : SPONTANEOUS POTENTIAL FROM EL
SPWS    .MV    : SPONTANEOUS POTENTIAL [BASELINE 0 MV] [SPRED]
SRESWS  .OHMM  : SHALLOW RESISTIVITY [SNED]
~Params ----------------------------------------------------
LMF .                     KB : LOG MEASURED FROM
DMF .                     KB : DRILLING MEASURED FROM
EKB .FT                 2810 : KELLY BUSHING
DATE.               05/27/54 : RUN DATE
RUN .                      4 : RUN NUMBER
DD  .FT                10219 : DEPTH DRILLER
DL  .FT                10221 : DEPTH LOGGER
BLI .FT                10221 : BOTTOM LOG INTERVAL
TLI .FT                 7088 : TOP LOG INTERVAL
BS  .IN                8.625 : BIT SIZE
BSD .FT                10219 : BIT SIZE AT DEPTH
DFT .              LIME BASE : DRILLING FLUID TYPE
DFD .                   10.5 : DRILLING FLUID DENSITY
DFV .                    220 : DRILLING FLUID VISCOSITY
DFPH.                   12.5 : DRILLING FLUID PH
DFL .                    9.5 : DRILLING FLUID LOSS
RMS .OHMM                1.0 : RESISTIVITY MUD SAMPLE
MST .DEGF                 72 : MUD SAMPLE TEMPERATURE
RMB .OHMM               0.42 : RESISTIVITY MUD AT BHT
TCS .HRS                   2 : TIME CIRCULATED STOPPED
LUN .                   1772 : LOGGING UNIT NUMBER
ENGI.              HENDERSON : RECORDING ENGINEER
WITN.               MCKENZIE : WITNESSED BY
CLNT.                A2DTECH : CLIENT CODE
ORIG.            2" 5" PRINT : ORIGIN OF DATA
UWI .       100142904806W500 : UNIQUE WELL ID
DICO. A2D Technologies, Inc. : DIGITIZING COMPANY
~Other -----------------------------------------------------
~ASCII -----------------------------------------------------
# ...
 2350.00000  108.68860    9.20060    -999.25    4.97870   82.14940   11.77290    9.20060  420.73760  420.73760    -999.25    -999.25    -999.25    -999.25   13.78070  -39.82920   -4.18570   13.78070
 2400.00000  139.57710    7.16450    -999.25    4.47400   73.82100    6.81540    7.16450  429.96310  429.96310    -999.25    -999.25    -999.25    -999.25    7.77740  -36.83660   -1.29270    7.77740
 2450.00000  224.17500    4.46080    -999.25    5.03060   83.00490    5.83170    4.46080  270.58950  270.58950    -999.25    -999.25    -999.25    -999.25    4.88440  -36.66060   -1.21690    4.88440
 2500.00000  255.62370    3.91200    -999.25    5.09940   84.14010    3.93690    3.91200  387.56920  387.56920    -999.25    -999.25    -999.25    -999.25    4.20840  -36.77340   -1.42930    4.20840
 2550.00000   82.55460   12.11320    -999.25    5.37000   88.60500    4.27470   12.11320  362.81880  362.81880    -999.25    -999.25    -999.25    -999.25   16.50340  -37.33820   -2.09370   16.50340
 2600.00000  180.65870    5.53530   43.03040    5.09560   80.03040    9.11480    5.53530  320.82720  320.82720    0.31520    0.36500    0.40000    0.36500    5.58480  -35.13210    0.08490    5.58480
 2650.00000  194.25400    5.14790   38.58930    4.67420   75.58930    5.22900    5.14790  454.21440  454.21440    0.20080    0.26880    0.31640    0.26880    6.06830  -36.16330   -0.94630    6.06830
 2700.00000   90.29510   11.07480   28.02060    3.87030   65.02060    7.04860   11.07480  465.65770  465.65770    0.21400    0.28200    0.32860    0.28200   12.04620  -40.10040   -4.88340   12.04620
 2750.00000  218.81360    4.57010   45.41560    5.29390   82.41560    4.13090    4.57010  395.35190  395.35190    0.23510    0.30000    0.35290    0.30000    4.83620  -36.31970   -1.10270    4.83620
 2800.00000  189.85780    5.26710   27.11180    3.96500   64.11180    4.17440    5.26710  291.60430  291.60430    0.51110    0.52150    0.54170    0.52150    4.85930  -35.52350   -0.30650    4.85930
 2850.00000  162.84520    6.14080   41.18040    5.08220   78.18040    8.66780    6.14080  352.91680  352.91680    0.33880    0.38740    0.42140    0.38740    6.33700  -35.41550   -0.19850    6.33700
 2900.00000   75.34260   13.27270   34.21040    4.57910   71.21040    9.23330   13.27270  479.14880  479.14880    0.19420    0.26310    0.30910    0.26310   17.29650  -41.39120   -6.17420   17.29650
 2950.00000  123.21950    8.11560   36.45070    4.47680   73.45070    8.37830    8.11560  535.13490  535.13490    0.33630    0.38240    0.41790    0.38240    7.27900  -36.10390   -0.88690    7.27900
 3000.00000  105.89290    9.44350   41.92580    4.57050   78.92580   14.12630    9.44350  487.48840  487.48840    0.24350    0.30720    0.34710    0.30720   15.23620  -42.88740   -7.70770   15.23620
 3050.00000  108.31650    9.23220   29.48700    3.77670   66.48700   11.68160    9.23220  527.79750  527.79750    0.29590    0.35150    0.39040    0.35150   13.16990  -54.57260  -19.53100   13.16990
 3100.00000   63.94920   15.63740   29.88480    3.13470   66.88480   12.54500   15.63740  410.84280  410.84280    0.20460    0.27500    0.31700    0.27500   17.71360  -40.26380   -5.36120   17.71360
 3150.00000  129.37780    7.72930   28.90930    3.59920   65.90930    6.21380    7.72930  380.58700  380.58700    0.33210    0.38100    0.41460    0.38100    6.87350  -36.34920   -1.58470    6.87350
 3200.00000  114.22570    8.75460   30.84260    3.69730   67.84260    7.45480    8.75460  368.44330  368.44330    0.27520    0.33480    0.37120    0.33480    9.55910  -36.59180   -1.96630    9.55910
 3250.00000  137.77710    7.25810   37.77010    4.49100   74.77010    6.56960    7.25810  413.87930  413.87930    0.20260    0.27280    0.31890    0.27280    8.08750  -35.59060   -1.10320    8.08750
 3300.00000  142.86730    6.99950   31.01360    3.74120   68.01360   11.27850    6.99950  287.26510  287.26510    0.40960    0.44130    0.47030    0.44130    7.86180  -36.02880   -1.67950    7.86180
 3350.00000  117.99410    8.47500   35.10060    3.75310   72.10060    6.27640    8.47500  315.46650  315.46650    0.38960    0.42450    0.45570    0.42450    6.77860  -35.22500   -1.01480    6.77860
 3400.00000   77.74240   12.86300   25.28790    3.02970   62.28790    3.76650   12.86300  439.07450  439.07450    0.13680    0.21070    0.26260    0.21070   31.15730  -46.44890  -12.37680   31.15730
 3450.00000  138.59050    7.21550   35.31500    4.25460   72.31500    6.89080    7.21550  342.37750  342.37750    0.35030    0.39170    0.42990    0.39170    7.63290  -34.51090   -0.57780    7.63290
 3500.00000   39.69140   25.19440   25.14320    2.77840   62.14320   12.16720   25.19440  630.43290  630.43290    0.26550    0.32560    0.36540    0.32560   48.61860  -84.28180  -50.48680   48.61860
 3550.00000  147.14540    6.79600   33.33010    3.90990   70.33010    8.22400    6.79600  351.52620  351.52620    0.47230    0.49230    0.51130    0.49230    9.30230  -36.43500   -2.77810    9.30230
 3600.00000   34.45080   29.02690   33.39940    2.85980   70.39940    2.39260   29.02690  743.00510  743.00510    0.20370    0.27570    0.31150    0.27570   47.76570  -90.03070  -56.05340   47.76570
 3650.00000  147.26890    6.79030    -999.25    4.05310   66.87530   13.03060    6.79030  502.38800  502.38800    -999.25    -999.25    -999.25    -999.25    6.82970  -34.93160   -0.37980    6.82970
 3700.00000  196.57180    5.08720    -999.25    4.06910   67.14010    6.41890    5.08720  386.76500  386.76500    -999.25    -999.25    -999.25    -999.25    5.74250  -35.59410   -0.46400    5.74250
 3750.00000  162.19020    6.16560    -999.25    4.83860   79.83770    5.94310    6.16560  328.40920  328.40920    -999.25    -999.25    -999.25    -999.25    8.46830  -37.57930   -2.63210    8.46830
 3800.00000  129.01060    7.75130    -999.25    5.71920   94.36680    9.68770    7.75130  332.03950  332.03950    -999.25    -999.25    -999.25    -999.25   10.04850  -40.46320   -5.83390   10.04850
 3850.00000  109.77070    9.10990    -999.25    5.25350   86.68270    9.12540    9.10990  341.03030  341.03030    -999.25    -999.25    -999.25    -999.25   11.20110  -40.65080   -6.34150   11.20110
 3900.00000  106.30950    9.40650    -999.25    5.76770   95.16700   11.62230    9.40650  401.02620  401.02620    -999.25    -999.25    -999.25    -999.25   11.94740  -41.52130   -7.52990   11.94740
 3950.00000  117.31860    8.52380    -999.25    5.75570   94.96900   10.19600    8.52380  337.19150  337.19150    -999.25    -999.25    -999.25    -999.25   11.32350  -43.12500   -9.45360   11.32350
 4000.00000  118.15860    8.46320    -999.25    6.03010   99.49580    9.87950    8.46320  373.46350  373.46350    -999.25    -999.25    -999.25    -999.25   11.86800  -42.31980   -8.96630   11.86800
 4050.00000  113.92120    8.77800    -999.25    5.97580   98.60070   10.83530    8.77800  327.69700  327.69700    -999.25    -999.25    -999.25    -999.25   12.38600  -43.15890  -10.12330   12.38600
 4100.00000   82.23350   12.16050    -999.25    6.72670  110.98970   12.22870   12.16050  341.17280  341.17280    -999.25    -999.25    -999.25    -999.25   16.44530  -41.76170   -9.04610   16.44530
 4150.00000   81.59000   12.25640    -999.25    6.92050  114.18830   12.88830   12.25640  389.45160  389.45160    -999.25    -999.25    -999.25    -999.25   17.68490  -41.10950   -8.71180   17.68490
 4200.00000  109.43430    9.13790    -999.25    5.85000   96.52500   11.61020    9.13790  290.49400  290.49400    -999.25    -999.25    -999.25    -999.25   11.86540  -43.72760  -11.64990   11.86540
 4250.00000  126.22280    7.92250    -999.25    5.91790   97.64530   11.18750    7.92250  349.38290  349.38290    -999.25    -999.25    -999.25    -999.25   11.24310  -44.28330  -12.52350   11.24310
 4300.00000  134.85810    7.41520    -999.25    5.32360   87.83940    8.60350    7.41520  322.78020  322.78020    -999.25    -999.25    -999.25    -999.25   11.72140  -45.68340  -14.24150   11.72140
 4350.00000  132.91510    7.52360    -999.25    5.46070   90.10070    9.34610    7.52360  418.65180  418.65180    -999.25    -999.25    -999.25    -999.25   13.12530  -44.15470  -13.03280   13.12530
