~Version ---------------------------------------------------
VERS.      2.0 : CWLS log ASCII Standard -VERSION 2.0
WRAP.       NO : One line per depth step
CREA. 11/21/17 : LAS Creation Date
~Well ------------------------------------------------------
STRT.FT                       1200.0 : START DEPTH
STOP.FT                      14950.0 : STOP DEPTH
STEP.FT                     50.00000 : STEP LENGTH
NULL.                        -999.25 : NULL VALUE
COMP.           PETROFINA CANADA LTD : COMPANY
WELL. PC FINA GULF ERITH 15-10-49-19 : WELL
FLD .                             WC : FIELD
LOC .                                : LOCATION
CTRY.                         CANADA : COUNTRY
SRVC.                   Schlumberger : SERVICE COMPANY
DATE.                    25-May-1972 : LOGDATE
PROV.                        Alberta : PROVINCE
UWI .               100151004919W500 : UNIQUE WELL ID
SLAT.WGS84                  53.21922 : SURFACE LATITUDE
SLON.WGS84                  -116.691 : SURFACE LONGITUDE
~Curve Information -----------------------------------------
DEPT    .FT    : Depth Curve
CALDED  .IN    : CALIPER FROM DENSITY LOG  [ADJ. TO RESISTIVITY LOG]
CALSED  .IN    : CALIPER FROM SONIC LOG
CALWS   .IN    : CALIPER [CALSED]
CILDED  .MMHO  : CONDUCTIVITY FROM RESISTIVITY LOG
CONDWS  .MMHO  : CONDUCTIVITY [1000/DRESWS]
DCORED  .G/C3  : DENSITY CORRECTION FROM DENSITY LOG  [ADJ. TO RESISTIVITY LOG]
DCORWS  .G/C3  : DENSITY CORRECTION [DCORED]
DENWS   .G/C3  : FORMATION BULK DENSITY [CALC. FROM DPOLSWS, M=2.71, F=1.00]
DPHILSED.V/V   : DENSITY POROSITY [M=2.71, F=1.00] FROM DENSITY LOG  [ADJ. TO RESISTIVITY LOG]
DPOLSWS .V/V   : DENSITY POROSITY LIMESTONE [DPHILSED]
DRESWS  .OHMM  : DEEP RESISTIVITY [1000/CILDED IF ILDED < 1, ILDED SPL. ILD @ 8190.5']
DTED    .US/F  : DELTA TIME FROM SONIC LOG
DTWS    .US/F  : COMPRESSIONAL SONIC [DTED]
GRDED   .GAPI  : GAMMA RAY FROM DENSITY LOG [ADJ. TO RESISTIVITY LOG]
GRNED   .GAPI  : GAMMA RAY FROM NEUTRON LOG [ADJ. TO RESISTIVITY LOG]
GRSED   .GAPI  : GAMMA RAY FROM SONIC LOG
GRWS    .GAPI  : GAMMA RAY [GRSED]
ILDED   .MMHO  : DEEP INDUCTION LOG  RESISTIVITY FROM RESISTIVITY LOG
ILMED   .OHMM  : MEDIUM INDUCTION LOG  RESISTIVITY FROM RESISTIVITY LLOG
LL8ED   .OHMM  : 8 INCH LATEROLOG RESISTIVITY FROM RESISTIVITY LOG
MRESWS  .OHMM  : MEDIUM RESISTIVITY [ILMED]
NEUTED  .NAPI  : NEUTRON FROM NEUTRON LOG [ADJ. TO SONIC LOG]
NEUTWS  .NAPI  : NEUTRON [NEUTED]
NPHILSED.V/V   : NEUTRON POROSITY LIMESTONE FROM DENSITY LOG [ADJ. TO RESISTIVITY LOG]
NPOLSWS .V/V   : NEUTRON POROSITY LIMESTONE [NPHILSED]
RHOBED  .G/C3  : BULK DENSITY FROM DENSITY LOG  [ADJ. TO RESISTIVITY LOG]
SPRED   .MV    : SPONTANEOUS POTENTIAL FROM RESISTIVITY LOG
SPWS    .MV    : SPONTANEOUS POTENTIAL [BASELINE 0 MV, SPRED]
SRESWS  .OHMM  : SHALLOW RESISTIVITY [LL8ED]
~Params ----------------------------------------------------
PD  .                     GL : PERMANENT DATUM
EPD .FT                 3706 : ELEVATION PERMANENT DATUM
LMF .                     KB : LOG MEASURED FROM
DAPD.FT                 17.5 : FEET ABOVE PERMANENT DATUM
EKB .FT               3723.5 : KELLY BUSHING
EGL .FT                 3706 : GROUND LEVEL
DATE.               06/07/72 : RUN DATE
RUN .                      3 : RUN NUMBER
DD  .FT                14975 : DEPTH DRILLER
DL  .FT                14971 : DEPTH LOGGER
BLI .FT                14966 : BOTTOM LOG INTERVAL
TLI .FT                14400 : TOP LOG INTERVAL
CBD .FT                11336 : CASING BOTTOM DRILLER
CBL .FT                11343 : CASING BOTTOM LOGGER
BS  .IN                  8.5 : BIT SIZE
BSD .FT                14975 : BIT SIZE AT DEPTH
DFT .       GEL CHEM POLYMER : DRILLING FLUID TYPE
DFD .                   13.5 : DRILLING FLUID DENSITY
DFV .                     55 : DRILLING FLUID VISCOSITY
DFPH.                   11.5 : DRILLING FLUID PH
DFL .                     15 : DRILLING FLUID LOSS
RMF .OHMM               0.28 : RESISTIVITY MUD FILTRATE SAMPLE
MFST.DEGF                 67 : MUD FILTRATE SAMPLE TEMPERATURE
RMB .OHMM               0.07 : RESISTIVITY MUD AT BHT
TCS .HRS                   6 : TIME CIRCULATED STOPPED
LUN .                  OSU-C : LOGGING UNIT NUMBER
LUL .               1123 EDM : LOGGING UNIT LOCATION
ENGI.                HACKNEY : RECORDING ENGINEER
WITN.               ROTA LEE : WITNESSED BY
CLNT.                A2DTECH : CLIENT CODE
ORIG.            2" 5" PRINT : ORIGIN OF DATA
UWI .       100151004919W500 : UNIQUE WELL ID
DICO. A2D Technologies, Inc. : DIGITIZING COMPANY
~Other -----------------------------------------------------
~ASCII -----------------------------------------------------
# ...
 13700.00000   14.04870   10.22050   10.22050    -999.25   86.51420   -0.00280   -0.00280    2.62480    0.04980    0.04980   11.55880   70.53820   70.53820   72.83830    -999.25   56.47120   72.83830   11.55880   13.97280   17.01070   13.97280    -999.25    -999.25    0.16930    0.16930    2.58180  -79.33360 -128.50150   17.01070
 13750.00000   10.13670    9.24310    9.24310    -999.25   12.54150    0.02110    0.02110    2.69380    0.00950    0.00950   79.73540   53.74680   53.74680   36.01760    -999.25   34.87930   36.01760   79.73540   84.60620   95.32010   84.60620    -999.25    -999.25    0.04420    0.04420    2.69990  -95.26730 -143.54250   95.32010
 13800.00000   10.96290    9.37040    9.37040    -999.25   15.89150    0.01570    0.01570    2.69380    0.00950    0.00950   62.92690   52.39080   52.39080   22.90130    -999.25   19.68160   22.90130   62.92690  123.07410  114.62210  123.07410    -999.25    -999.25    0.00880    0.00880    2.72100  -70.69320 -118.07120  114.62210
 13850.00000   10.13060    9.29190    9.29190    -999.25   13.13360    0.02120    0.02120    2.74150   -0.01840   -0.01840   76.14030   53.91900   53.91900   32.05660    -999.25   26.08090   32.05660   76.14030  128.35940  309.40900  128.35940    -999.25    -999.25    0.01900    0.01900    2.74820  -43.64100  -90.12180  309.40900
 13900.00000   10.37810    9.38910    9.38910    -999.25   40.86840    0.02240    0.02240    2.75630   -0.02710   -0.02710   24.46880   65.38950   65.38950   78.32730    -999.25   66.00580   78.32730   24.46880   26.81070   27.72740   26.81070    -999.25    -999.25    0.13820    0.13820    2.75460  -37.06590  -82.64960   27.72740
 13950.00000    9.50850    9.12500    9.12500    -999.25   65.59100    0.01710    0.01710    2.76560   -0.03250   -0.03250   15.24600   65.55020   65.55020   74.07110    -999.25   61.53820   74.07110   15.24600   16.74490   15.79190   16.74490    -999.25    -999.25    0.14580    0.14580    2.75100  -54.96880  -99.65070   15.79190
 14000.00000    9.71640    9.27360    9.27360    -999.25   55.28620   -0.00510   -0.00510    2.75050   -0.02370   -0.02370   18.08770   66.42250   66.42250   87.47570    -999.25   65.70970   87.47570   18.08770   19.56230   19.30330   19.56230    -999.25    -999.25    0.14750    0.14750    2.74320  -47.70960  -91.49890   19.30330
 14050.00000    9.56330    9.22610    9.22610    -999.25   95.16020    0.01200    0.01200    2.75160   -0.02430   -0.02430   10.50860   70.30220   70.30220   92.83320    -999.25   77.06010   92.83320   10.50860   11.13310   12.29880   11.13310    -999.25    -999.25    0.19230    0.19230    2.72540  -39.51700  -82.40910   12.29880
 14100.00000    9.82170    9.21660    9.21660    -999.25   93.42390    0.00330    0.00330    2.74150   -0.01840   -0.01840   10.70390   71.15930   71.15930   96.93440    -999.25   77.55410   96.93440   10.70390   11.10840   12.10230   11.10840    -999.25    -999.25    0.20250    0.20250    2.72060  -34.46550  -76.46050   12.10230
 14150.00000    9.63140    9.03570    9.03570    -999.25   81.27440    0.00180    0.00180    2.73920   -0.01710   -0.01710   12.30400   69.07400   69.07400   87.84400    -999.25   66.58120   87.84400   12.30400   14.03370   15.22530   14.03370    -999.25    -999.25    0.19110    0.19110    2.72300  -12.56640  -53.66420   15.22530
 14200.00000    9.03360    8.85050    8.85050    -999.25   69.16160    0.00440    0.00440    2.72980   -0.01160   -0.01160   14.45890   67.60230   67.60230   88.09850    -999.25   71.75380   88.09850   14.45890   15.00150   15.26490   15.00150    -999.25    -999.25    0.17770    0.17770    2.73080  -85.90560 -126.10170   15.26490
 14250.00000    8.87420    8.86990    8.86990    -999.25   64.03200    0.01090    0.01090    2.74180   -0.01860   -0.01860   15.61720   65.70000   65.70000   82.15300    -999.25   64.55850   82.15300   15.61720   16.20900   16.70540   16.20900    -999.25    -999.25    0.16440    0.16440    2.72740  -86.62500 -125.92840   16.70540
 14300.00000    8.96290    8.90370    8.90370    -999.25   85.00440   -0.00030   -0.00030    2.72640   -0.00960   -0.00960   11.76410   71.09740   71.09740   92.72140    -999.25   77.76710   92.72140   11.76410   12.30740   13.13050   12.30740    -999.25    -999.25    0.17430    0.17430    2.71260  -91.81180 -130.21810   13.13050
 14350.00000    9.28290    8.87340    8.87340    -999.25   69.18120    0.01140    0.01140    2.72450   -0.00850   -0.00850   14.45480   68.82760   68.82760   83.71030    -999.25   67.29910   83.71030   14.45480   13.64810   14.96270   13.64810  160.46740  149.99570    0.16770    0.16770    2.71750 -100.00980 -137.51890   14.96270
 14400.00000    9.04330    8.90350    8.90350    -999.25   55.52750    0.00720    0.00720    2.70330    0.00390    0.00390   18.00910   76.99480   76.99480  109.17730    -999.25   88.23230  109.17730   18.00910   18.72460   19.10720   18.72460  154.46060  148.52340    0.19690    0.19690    2.68840  -29.05280  -65.66470   19.10720
 14450.00000    9.15260    8.70750    8.70750    -999.25    0.66440    0.01510    0.01510    2.56000    0.08770    0.08770 1505.09530   75.27730   75.27730  178.85400    -999.25  135.61140  178.85400 1505.09530  355.54150  437.60490  355.54150  204.69010  151.86370    0.13070    0.13070    2.53770   11.98530  -23.72500  437.60490
 14500.00000   10.78810    8.73520    8.73520    -999.25   12.51170    0.02190    0.02190    2.13270    0.33760    0.33760   79.92490   59.96120   59.96120   60.45280    -999.25   51.45960   60.45280   79.92490   66.91280   77.56410   66.91280  186.27980  232.20490    0.12880    0.12880    2.10830  -29.11080  -63.92840   77.56410
 14550.00000    9.28450    8.72360    8.72360    -999.25    6.33280    0.02990    0.02990    2.71890   -0.00520   -0.00520  157.90720   61.65730   61.65730   73.17160    -999.25   60.61490   73.17160  157.90720  142.16060  321.88410  142.16060  314.02720  573.09580    0.11600    0.11600    2.71940   21.09830  -12.82210  321.88410
 14600.00000    8.32370    8.58550    8.58550    -999.25    0.57900    0.01350    0.01350    2.73020   -0.01180   -0.01180 1727.06620   53.19330   53.19330   36.42430    -999.25   20.67640   36.42430 1727.06620 1623.87080 1542.13540 1623.87080  662.70060  721.56010    0.03980    0.03980    2.70580   17.13170  -16.30420 1542.13540
 14650.00000    8.32000    8.48100    8.48100    -999.25    1.39120   -0.00270   -0.00270    2.73670   -0.01560   -0.01560  718.80650   52.28790   52.28790   36.44080    -999.25   36.80190   36.44080  718.80650 1451.72010 1542.35560 1451.72010  721.50800  619.62540    0.03420    0.03420    2.73900  -42.36280  -75.79870 1542.35560
 14700.00000    8.19010    8.58120    8.58120    -999.25    2.43530    0.01640    0.01640    2.85890   -0.08710   -0.08710  410.62340   47.25450   47.25450   11.35600    -999.25   12.87060   11.35600  410.62340  261.90830  420.73890  261.90830  551.95830  684.86220    0.03610    0.03610    2.84420 -126.00060 -159.43650  420.73890
 14750.00000    8.12710    8.32710    8.32710    -999.25    4.15930   -0.01010   -0.01010    2.72590   -0.00930   -0.00930  240.42480   53.71470   53.71470    7.92390    -999.25   11.24440    7.92390  240.42480  138.45980  239.16710  138.45980  401.56530  295.69380    0.11640    0.11640    2.71980 -122.43320 -155.86910  239.16710
 14800.00000    8.05100    8.49210    8.49210    -999.25    0.64100   -0.00020   -0.00020    2.83430   -0.07270   -0.07270 1560.00490   48.00510   48.00510   13.55880    -999.25   13.34610   13.55880 1560.00490  324.98210  224.44290  324.98210  625.63880  528.27010    0.05350    0.05350    2.81300  -89.76830 -123.20420  224.44290
 14850.00000    8.18720    8.57760    8.57760    -999.25    1.41420    0.00190    0.00190    2.80130   -0.05340   -0.05340  707.12290   47.62480   47.62480   13.93710    -999.25   10.53610   13.93710  707.12290  207.93200 1048.55800  207.93200    -999.25    -999.25    0.05510    0.05510    2.77820  -91.38970 -124.82560 1048.55800
 14900.00000    9.64310    8.61550    8.61550    -999.25    0.59950   -0.06230   -0.06230    2.77860   -0.04010   -0.04010 1668.16870   46.10710   46.10710   12.69210    -999.25   15.91000   12.69210 1668.16870  679.75310  500.08440  679.75310    -999.25    -999.25    0.02810    0.02810    2.76010  -83.79960 -117.23550  500.08440
