~Version ---------------------------------------------------
VERS.      2.0 : CWLS log ASCII Standard -VERSION 2.0
WRAP.       NO : One line per depth step
CREA. 08/25/13 : LAS Creation Date
~Well ------------------------------------------------------
STRT.M                       400.0 : START DEPTH
STOP.M                      3100.0 : STOP DEPTH
STEP.M                    50.00000 : STEP LENGTH
NULL.                      -999.25 : NULL VALUE
COMP.    GULF CANADA RESOURCES INC : COMPANY
WELL. GULF ET AL KAYBOB 15-1-63-18 : WELL
FLD .                              : FIELD
LOC .                              : LOCATION
CTRY.                       CANADA : COUNTRY
SRVC.                      Unknown : SERVICE COMPANY
DATE.                  12-Feb-1985 : LOGDATE
PROV.                      Alberta : PROVINCE
UWI .             100150106318W500 : UNIQUE WELL ID
SLAT.WGS84                54.42611 : SURFACE LATITUDE
SLON.WGS84               -116.5821 : SURFACE LONGITUDE
~Curve Information -----------------------------------------
DEPT    .M      : DEPTH METER
CALDED  .MM     : CALIPER FROM DENSITY LOG [ADJ. TO RESISTIVITY LOG]
CALSED  .MM     : CALIPER FROM SONIC LOG
CALWS   .MM     : CALIPER [CALSED SPL. TO CALDED @ 1578M]
CONDWS  .MMHO   : CONDUCTIVITY [1000/DRESWS]
DCORWS  .KG/M3  : DENSITY CORRECTION [DRHOED]
DENWS   .KG/M3  : FORMATION BULK DENSITY [CALC FROM DPOLSWS, M=2710, F=1000]
DPHILSED.V/V    : DENSITY POROSITY LIMESTONE [M=2710, F=1000] FROM DENSITY LOG [ADJ. TO RESISTIVITY LOG]
DPHISSED.V/V    : DENSITY POROSITY SANDSTONE [M=2650, F=1000] FROM DENSITY LOG [ADJ. TO RESISTIVITY LOG]
DPOLSWS .V/V    : DENSITY POROSITY LIMESTONE [DPHISSED MATRIX CONVERTED TO LS & SPL. TO DPHILSED @ 1795.1M]
DRESWS  .OHMM   : DEEP RESISTIVITY [ILDED]
DRHOED  .KG/M3  : DENSITY CORRECTION FROM DENSITY LOG [ADJ. TO RESISTIVITY LOG]
DTED    .US/M   : DELTA TIME FROM SONIC LOG
DTWS    .US/M   : COMPRESSIONAL SONIC [DTED]
GRSED   .GAPI   : GAMMA RAY FROM SONIC LOG
GRWS    .GAPI   : GAMMA RAY [GRSED SPL. TO GRDED @ 3107.5M]
ILDED   .OHMM   : DEEP INDUCTION RESISTIVITY FROM RESISTIVITY LOG
ILMED   .OHMM   : MEDIUM INDUCTION RESISTIVITY FROM RESISTIVITY LOG
LAED    .MM     : LARGE ARM CALIPER FROM DENSITY LOG [ADJ. TO RESISTIVITY LOG]
MRESWS  .OHMM   : MEDIUM RESISTIVITY [ILMED]
NPHILSED.V/V    : NEUTRON POROSITY LIMESTONE FROM DENSITY LOG [ADJ. TO RESISTIVITY LOG]
NPHISSED.V/V    : NEUTRON POROSITY SANDSTONE FROM DENSITY LOG [ADJ. TO RESISTIVITY LOG]
NPOLSWS .V/V    : NEUTRON POROSITY LIMESTONE [NPHISSED MATRIX CONVERTED TO LS & SPL. TO NPHILSED @ 1795.1M]
RHOBED  .KG/M3  : BULK DENSITY FROM DENSITY LOG [ADJ. TO RESISTIVITY LOG]
SFLUED  .OHMM   : SPHERICALLY FOCUSED LOG RESISTIVITY FROM RESISTIVITY LOG
SGRDDED .GAPI   : GAMMA RAY FROM DENSITY LOG [ADJ. TO RESISTIVITY LOG]
SPRED   .MV     : SPONTANEOUS POTENTIAL FROM RESISTIVITY LOG
SPWS    .MV     : SPONTANEOUS POTENTIAL [BASELINE 0 MV, SPRED]
SRESWS  .OHMM   : SHALLOW RESISTIVITY [SFLUED]
~Params ----------------------------------------------------
PD  .                         GL : PERMANENT DATUM
EPD .M                     886.4 : ELEVATION PERMANENT DATUM
LMF .                         KB : LOG MEASURED FROM
DAPD.M                       7.1 : FEET ABOVE PERMANENT DATUM
DMF .                         KB : DRILLING MEASURED FROM
EKB .M                     893.5 : KELLY BUSHING
EGL .M                     886.4 : GROUND LEVEL
DATE.                   02/12/85 : RUN DATE
RUN .                          1 : RUN NUMBER
DD  .M                      3130 : DEPTH DRILLER
DL  .M                      3130 : DEPTH LOGGER
BLI .M                      3129 : BOTTOM LOG INTERVAL
TLI .M                       426 : TOP LOG INTERVAL
CS  .MM                      244 : CASING SIZE
CBD .M                       426 : CASING BOTTOM DRILLER
CBL .M                       426 : CASING BOTTOM LOGGER
BS  .MM                      222 : BIT SIZE
BSD .M                      3130 : BIT SIZE AT DEPTH
DFT .                        GEL : DRILLING FLUID TYPE
DFD .                       1120 : DRILLING FLUID DENSITY
DFV .                         95 : DRILLING FLUID VISCOSITY
DFPH.                       10.5 : DRILLING FLUID PH
DFL .                       10.5 : DRILLING FLUID LOSS
MSS .                   FLOWLINE : MUD SAMPLE SOURCE
RMS .OHMM                    2.2 : RESISTIVITY MUD SAMPLE
MST .DEGC                   17.7 : MUD SAMPLE TEMPERATURE
RMF .OHMM                   1.83 : RESISTIVITY MUD FILTRATE SAMPLE
MFST.DEGC                   17.7 : MUD FILTRATE SAMPLE TEMPERATURE
MFSS.                       MEAS : MUD FILTRATE SAMPLE SOURCE
RMB .OHMM                  0.843 : RESISTIVITY MUD AT BHT
TCS .HRS                    2200 : TIME CIRCULATED STOPPED
TLAB.HRS                     350 : TIME LOGGER AT BOTTOM
LUN .                       8110 : LOGGING UNIT NUMBER
LUL .                        EDM : LOGGING UNIT LOCATION
ENGI.                     OSIKOS : RECORDING ENGINEER
WITN.                MOLDENHAUER : WITNESSED BY
CLNT.                    A2DTECH : CLIENT CODE
ORIG. 6.5"/100M 16.5"/100M PRINT : ORIGIN OF DATA
UWI .           100150106318W500 : UNIQUE WELL ID
DICO.     A2D Technologies, Inc. : DIGITIZING COMPANY
~Other -----------------------------------------------------
DIL-SFL-BHC RUN IN COMBO & CNL-FDC LOG RAN
RHOB & DCOR FROM SMALL SCALE LOG
~ASCII -----------------------------------------------------
# ...
 1650.00000  300.63280  318.94320  300.63280  145.72800   87.74480 2247.89500    -999.25    0.24370    0.27020    6.86210   87.74480  276.34890  276.34890   91.76450   91.76450    6.86210    6.85450  353.45060    6.85450    -999.25    0.47160    0.42990 2221.81640    7.96460   70.09580  -54.07990  -13.83770    7.96460
 1700.00000  286.10490  308.27030  286.10490   95.52740   -9.92230 2517.50500    -999.25    0.08030    0.11260   10.46820   -9.92230  241.87520  241.87520   57.25860   57.25860   10.46820   11.78090  306.64050   11.78090    -999.25    0.29140    0.24740 2514.70950   12.45250   57.03400  -59.34930  -24.86910   12.45250
 1750.00000  284.22690  291.04780  284.22690  118.93860    3.12960 2534.66500    -999.25    0.06990    0.10250    8.40770    3.12960  241.18260  241.18260   67.91860   67.91860    8.40770    8.92340  297.92680    8.92340    -999.25    0.26070    0.21670 2537.04270   10.40940   58.36150  -48.54060  -20.39410   10.40940
 1800.00000  264.41850  292.70510  264.41850   97.32270    0.04950 2627.74900    0.04810    0.01380    0.04810   10.27510    0.04950  245.12860  245.12860   84.17730   84.17730   10.27510   10.87640  303.01210   10.87640    0.26680    0.30590    0.26680 2624.62940   12.20620   75.46480  -43.23400  -21.42120   12.20620
 1850.00000  221.76350  221.50710  221.76350  111.98710   54.08010 2411.94700    0.17430    0.14440    0.17430    8.92960   54.08010  242.85650  242.85650   26.72450   26.72450    8.92960   11.71520  212.10110   11.71520    0.14510    0.18860    0.14510 2410.95210   18.73010   25.68770  -79.20590  -71.98560   18.73010
 1900.00000  373.41240  378.95950  373.41240  272.42020  163.08300 2129.96800    0.33920    0.31880    0.33920    3.67080  163.08300  318.10580  318.10580   79.47150   79.47150    3.67080    3.41740  390.68050    3.41740    0.44290    0.50800    0.44290 2123.01730    4.13650   68.57380    9.75190   -3.60070    4.13650
 1950.00000  243.24410  248.19530  243.24410    3.72830  -13.09660 2460.34000    0.14600    0.11480    0.14600  268.21640  -13.09660  239.41560  239.41560  334.60120  334.60120  268.21640  976.04380  250.92940  976.04380    0.21430    0.26320    0.21430 2461.19070 1452.80360  312.92900   -5.14520  -27.51910 1452.80360
 2000.00000  274.17230  253.54530  274.17230  224.75450   13.67560 2666.73700    0.02530    -999.25    0.02530    4.44930   13.67560  211.50320  211.50320   31.91680   31.91680    4.44930    4.71800  301.58950    4.71800    0.19350    -999.25    0.19350 2665.79910    5.73570   27.21490  -10.38630  -46.12620    5.73570
 2050.00000  229.27540  251.19350  229.27540   27.00840   -8.90640 2706.92200    0.00180    -999.25    0.00180   37.02550   -8.90640  183.74430  183.74430   72.52550   72.52550   37.02550   39.37010  271.48110   39.37010    0.05020    -999.25    0.05020 2710.05790  100.20710   63.06760   25.31990  -16.87070  100.20710
 2100.00000  238.16330  254.77520  238.16330   50.57450  -16.65120 2680.41700    0.01730    -999.25    0.01730   19.77280  -16.65120  169.19290  169.19290   14.76710   14.76710   19.77280   32.75860  261.10850   32.75860    0.06850    -999.25    0.06850 2679.17680  120.21710   15.50020  -41.83530  -98.79290  120.21710
 2150.00000  246.05390  251.17920  246.05390  105.77870   -6.67310 2714.10400   -0.00240    -999.25   -0.00240    9.45370   -6.67310  203.59760  203.59760   91.12860   91.12860    9.45370   10.14180  243.56620   10.14180    0.16030    -999.25    0.16030 2714.26070   10.19000   72.20520   19.93710  -54.75430   10.19000
 2200.00000  236.91550  266.07140  236.91550    5.70110   -6.97790 2646.21700    0.03730    -999.25    0.03730  175.40560   -6.97790  177.39490  177.39490   29.84670   29.84670  175.40560  524.68390  305.42920  524.68390    0.02150    -999.25    0.02150 2649.91110  744.27700   28.99770   19.29880  -26.41510  744.27700
 2250.00000  227.55060  233.43040  227.55060    5.14250  -14.96690 2707.09300    0.00170    -999.25    0.00170  194.45940  -14.96690  173.87080  173.87080   27.31470   27.31470  194.45940  272.36400  232.16740  272.36400    0.01230    -999.25    0.01230 2706.07960  305.67100   27.87140   20.79540  -23.22910  305.67100
 2300.00000  234.98830  240.11110  234.98830   11.00260   -3.73660 2719.40500   -0.00550    -999.25   -0.00550   90.88720   -3.73660  184.53480  184.53480   56.76880   56.76880   90.88720   94.67020    -999.25   94.67020    0.03290    -999.25    0.03290 2719.85300  115.99550   54.82610   31.89480  -15.10540  115.99550
 2350.00000  243.31190  246.08860  243.31190    2.45600   -7.05500 2739.58300   -0.01730    -999.25   -0.01730  407.16440   -7.05500  160.73130  160.73130   16.25480   16.25480  407.16440  349.32280    -999.25  349.32280   -0.00010    -999.25   -0.00010 2742.05810  377.83190   16.58350  -17.74110  -69.32290  377.83190
 2400.00000  289.10640  247.02050  289.10640    1.37880  251.25570 2623.98700    0.05030    -999.25    0.05030  725.24480  251.25570  161.59300  161.59300   16.68470   16.68470  725.24480 1268.44870    -999.25 1268.44870   -0.00030    -999.25   -0.00030 2626.42920 1415.51880   17.23910  -45.90930 -103.18850 1415.51880
 2450.00000  267.16930  248.50270  267.16930    6.98020  204.49440 2680.41700    0.01730    -999.25    0.01730  143.26230  204.49440  166.12750  166.12750   11.52340   11.52340  143.26230  129.02280  168.50870  129.02280    0.00140    -999.25    0.00140 2693.96090  141.90370   11.80570  -34.04340  -97.02000  141.90370
 2500.00000  221.35910  256.14690  221.35910    5.07470   -8.52360 2657.16100    0.03090    -999.25    0.03090  197.05450   -8.52360  166.68060  166.68060   12.19620   12.19620  197.05450  120.74660  331.53450  120.74660    0.00910    -999.25    0.00910 2668.83230  299.66970   17.61820  -38.99780 -107.67190  299.66970
 2550.00000  229.47510  247.76550  229.47510   12.34140    3.72620 2723.85100   -0.00810    -999.25   -0.00810   81.02810    3.72620  160.55230  160.55230   14.65710   14.65710   81.02810  250.28940  227.29750  250.28940    0.00330    -999.25    0.00330 2724.24850 1786.86660   15.86520   -9.57080  -83.94240 1786.86660
 2600.00000  227.53460  258.89840  227.53460   64.35710   -6.19190 2770.87600   -0.03560    -999.25   -0.03560   15.53830   -6.19190  176.24710  176.24710   23.17840   23.17840   15.53830   15.24550  259.03340   15.24550    0.13480    -999.25    0.13480 2781.52710   19.34840   28.24820   -0.35160  -80.42060   19.34840
 2650.00000  238.93070  242.84910  238.93070   16.23020  -13.35040 2722.65400   -0.00740    -999.25   -0.00740   61.61360  -13.35040  174.90640  174.90640   51.38350   51.38350   61.61360   68.04470  222.36710   68.04470    0.01030    -999.25    0.01030 2724.04790   82.64640   49.22290   66.28390  -19.48250   82.64640
 2700.00000  265.61060  264.03470  265.61060   74.57790  -10.84980 2704.35700    0.00330    -999.25    0.00330   13.40880  -10.84980  200.96390  200.96390   58.21550   58.21550   13.40880   14.58890  237.24760   14.58890    0.08720    -999.25    0.08720 2702.48140   20.64910   59.39710   94.44350   -1.17250   20.64910
 2750.00000  251.31930  251.90120  251.31930   66.62400  -12.45790 2707.09300    0.00170    -999.25    0.00170   15.00960  -12.45790  218.02010  218.02010   88.46760   88.46760   15.00960   16.06830  236.26290   16.06830    0.16260    -999.25    0.16260 2703.31710   18.23860   75.86530   94.16240   -7.96000   18.23860
 2800.00000  280.24860  313.34820  280.24860  112.30020  123.41580 2415.36700    0.17230    -999.25    0.17230    8.90470  123.41580  230.01100  230.01100   62.51290   62.51290    8.90470    8.14860  369.29820    8.14860    0.23030    -999.25    0.23030 2427.81080    9.72800   62.69030   79.03120  -24.95270    9.72800
 2850.00000  259.71310  276.61400  259.71310  101.24120   -3.80260 2713.24900   -0.00190    -999.25   -0.00190    9.87740   -3.80260  223.01280  223.01280   76.63790   76.63790    9.87740   10.92570  263.42860   10.92570    0.20470    -999.25    0.20470 2714.80690   12.92290   76.08380   91.15630  -14.68920   12.92290
