~Version ---------------------------------------------------
VERS.      2.0 : CWLS log ASCII Standard -VERSION 2.0
WRAP.       NO : One line per depth step
CREA. 11/03/17 : LAS Creation Date
~Well ------------------------------------------------------
STRT.FT                         1550.0 : START DEPTH
STOP.FT                        12000.0 : STOP DEPTH
STEP.FT                       50.00000 : STEP LENGTH
NULL.                          -999.25 : NULL VALUE
COMP. AMOCO CANADA PETROLEUM CO., LTD. : COMPANY
WELL.  AMOCO C-2 WASKAHIGAN 7-22-63-24 : WELL
FLD .                       WASKAHIGAN : FIELD
LOC .                                  : LOCATION
CTRY.                           CANADA : COUNTRY
SRVC.                          Unknown : SERVICE COMPANY
DATE.                      14-Dec-1976 : LOGDATE
PROV.                          Alberta : PROVINCE
UWI .                 100072206324W500 : UNIQUE WELL ID
SLAT.WGS84                    54.46349 : SURFACE LATITUDE
SLON.WGS84                   -117.5411 : SURFACE LONGITUDE
~Curve Information -----------------------------------------
DEPT    .FT    : Depth Curve
CALDED  .IN    : CALIPER FROM DENSITY LOG [ADJ. TO RESISTIVITY LOG]
CALSED  .IN    : CALIPER FROM SONIC LOG [ADJ. TO RESISTIVITY LOG]
CALWS   .IN    : CALIPER [CALDED]
CONDWS  .MMHO  : CONDUCTIVITY [1000/DRESWS]
DCORED  .G/C3  : DENSITY CORRECTION FROM DENSITY LOG [ADJ. TO RESISTIVITY LOG]
DCORWS  .G/C3  : DENSITY CORRECTION [DCORED]
DENWS   .G/C3  : FORMATION BULK DENSITY [RHOBED]
DPHILSED.V/V   : DENSITY POROSITY LIMESTONE [M=2.71, F=1.00 ASSUMED] FROM DENSITY LOG [ADJ. TO RESISTIVITY LOG]
DPHISSED.V/V   : DENSITY POROSITY SANDSTONE [M=2.65, F=1.00 ASSUMED] FROM DENSITY LOG [ADJ. TO RESISTIVITY LOG]
DPOLSWS .V/V   : DENSITY POROSITY LIMESTONE [CALC FROM DENWS, M=2710,F=1000 ASSUMED]
DRESWS  .OHMM  : DEEP RESISTIVITY [ILDED]
DTED    .US/F  : DELTA TIME FROM SONIC LOG [ADJ. TO RESISTIVITY LOG]
DTWS    .US/F  : COMPRESSIONAL SONIC [DTED]
GRDED   .GAPI  : GAMMA RAY FROM DENSITY LOG [ADJ. TO RESISTIVITY LOG]
GRSED   .GAPI  : GAMMA RAY FROM SONIC LOG [ADJ. TO RESISTIVITY LOG]
GRSRED  .GAPI  : GAMMA RAY (REPEAT SECTION) FROM SONIC LOG [ADJ. TO RESISTIVITY LOG]
GRWS    .GAPI  : GAMMA RAY [GRDED SPL. TO GRSRED @ 11982']
ILDED   .OHMM  : DEEP INDUCTION LOG RESISTIVITY FROM RESISTIVITY LOG
ILMED   .OHMM  : MEDIUM INDUCTION LOG RESISTIVITY FROM RESISTIVITY LOG
LL8ED   .OHMM  : 8 INCH LATEROLOG RESISTIVITY FROM RESISTIVITY LOG
MRESWS  .OHMM  : MEDIUM RESISTIVITY [ILMED]
NPHILSED.V/V   : NEUTRON POROSITY LIMESTONE FROM DENSITY LOG [ADJ. TO RESISTIVITY LOG]
NPHISSED.V/V   : NEUTRON POROSITY SANDSTONE FROM DENSITY LOG [ADJ. TO RESISTIVITY LOG]
NPOLSWS .V/V   : NEUTRON POROSITY LIMESTONE [SCHL. NPHISSED MATRIX CONVERSION FOR LIMESTONE, SPL. TO NPHILSED @ 7464']
RHOBED  .G/C3  : BULK DENSITY FROM DENSITY LOG [ADJ. TO RESISTIVITY LOG]
SPRED   .MV    : SPONTANEOUS POTENTIAL FROM RESISTIVITY LOG
SPWS    .MV    : SPONTANEOUS POTENTIAL [BASELINE 0 MV, SPRED]
SRESWS  .OHMM  : SHALLOW RESISTIVITY [LL8ED]
~Params ----------------------------------------------------
PD  .                     GL : PERMANENT DATUM
EPD .FT               2789.5 : ELEVATION PERMANENT DATUM
LMF .                     KB : LOG MEASURED FROM
DAPD.FT                 20.5 : FEET ABOVE PERMANENT DATUM
EKB .FT               2810.0 : KELLY BUSHING
EGL .FT               2789.5 : GROUND LEVEL
DATE.               12/14/76 : RUN DATE
RUN .                      1 : RUN NUMBER
DD  .FT                12005 : DEPTH DRILLER
DL  .FT                12008 : DEPTH LOGGER
BLI .FT                12002 : BOTTOM LOG INTERVAL
TLI .FT                 1519 : TOP LOG INTERVAL
CBD .FT                 1519 : CASING BOTTOM DRILLER
CBL .FT                 1519 : CASING BOTTOM LOGGER
BS  .IN                  8.5 : BIT SIZE
BSD .FT                12005 : BIT SIZE AT DEPTH
DFT .                    GEL : DRILLING FLUID TYPE
DFD .                    9.0 : DRILLING FLUID DENSITY
DFV .                     75 : DRILLING FLUID VISCOSITY
DFPH.                    9.5 : DRILLING FLUID PH
DFL .                   12.2 : DRILLING FLUID LOSS
MSS .               FLOWLINE : MUD SAMPLE SOURCE
RMS .OHMM               2.89 : RESISTIVITY MUD SAMPLE
MST .DEGF                 44 : MUD SAMPLE TEMPERATURE
RMF .OHMM               2.32 : RESISTIVITY MUD FILTRATE SAMPLE
MFST.DEGF                 62 : MUD FILTRATE SAMPLE TEMPERATURE
TCS .HRS                   4 : TIME CIRCULATED STOPPED
LUN .                   7635 : LOGGING UNIT NUMBER
LUL .                    EDM : LOGGING UNIT LOCATION
ENGI.                 PAQUIN : RECORDING ENGINEER
WITN.       MACDONALD FARLEY : WITNESSED BY
CLNT.                A2DTECH : CLIENT CODE
ORIG.            2" 5" PRINT : ORIGIN OF DATA
UWI .       100072206324W500 : UNIQUE WELL ID
DICO. A2D Technologies, Inc. : DIGITIZING COMPANY
~Other -----------------------------------------------------
DIL-CNFD-BCS TOOL RUN
GAPS IN DT AS PER IMAGE SPLICED
~ASCII -----------------------------------------------------
# ...
 2800.00000    8.50600    8.65610    8.50600   80.69330    0.01720    0.01720    2.41480    -999.25    0.14620    0.17270   12.39260   85.25710   85.25710   74.31420   74.92550    -999.25   74.31420   12.39260   11.86350   11.31110   11.86350    -999.25    0.36850    0.32500    2.41480 -202.33110  -10.63530   11.31110
 2850.00000    9.62220    8.85120    9.62220  186.64030    0.19240    0.19240    2.22160    -999.25    0.25650    0.28560    5.35790  118.95380  118.95380   93.96170   89.21960    -999.25   93.96170    5.35790    4.70850    4.34800    4.70850    -999.25    0.56030    0.52380    2.22160 -206.81060   -9.58730    4.34800
 2900.00000    9.37790    9.29160    9.37790  182.01340    0.22170    0.22170    2.21440    -999.25    0.26410    0.28980    5.49410   99.78910   99.78910   91.68420   86.02540    -999.25   91.68420    5.49410    6.01820    6.60080    6.01820    -999.25    0.50830    0.46890    2.21440 -207.23600   -4.48520    6.60080
 2950.00000    8.86460    8.58340    8.86460   75.07510    0.10310    0.10310    2.26710    -999.25    0.22990    0.25900   13.32000   94.40590   94.40590   55.63000   58.65170    -999.25   55.63000   13.32000   12.70730   12.48750   12.70730    -999.25    0.42110    0.37870    2.26710 -226.66480  -18.38650   12.48750
 3000.00000   10.33670    9.35200   10.33670  200.94850    0.23300    0.23300    2.11110    -999.25    0.31120    0.35020    4.97640   98.27260   98.27260   85.92340   86.54150    -999.25   85.92340    4.97640    4.65830    5.06310    4.65830    -999.25    0.53040    0.49210    2.11110 -215.49100   -5.66400    5.06310
 3050.00000   10.31690   10.26130   10.31690  111.86060    0.02680    0.02680    2.35030    -999.25    0.18630    0.21040    8.93970   85.53580   85.53580   70.65960   73.96360    -999.25   70.65960    8.93970    8.16020   10.97530    8.16020    -999.25    0.40970    0.36700    2.35030 -213.98250   -4.74910   10.97530
 3100.00000    9.64580    9.01670    9.64580  215.53120    0.16660    0.16660    2.12570    -999.25    0.30780    0.34170    4.63970  108.32250  108.32250   82.59420   84.76210    -999.25   82.59420    4.63970    4.22400    4.32100    4.22400    -999.25    0.53590    0.49790    2.12570 -214.27980   -7.42530    4.32100
 3150.00000    9.86460    9.68410    9.86460   97.58670    0.01750    0.01750    2.34310    -999.25    0.20980    0.21460   10.24730   84.22580   84.22580   65.26370   64.16320    -999.25   65.26370   10.24730    9.37620   11.13610    9.37620    -999.25    0.38640    0.34330    2.34310 -201.96320  -12.30980   11.13610
 3200.00000    9.06000    9.20740    9.06000   97.59140    0.01800    0.01800    2.41250    -999.25    0.14870    0.17400   10.24680   84.48610   84.48610   61.56930   53.20770    -999.25   61.56930   10.24680    9.33430    8.77940    9.33430    -999.25    0.37880    0.33550    2.41250 -170.74060   -4.36470    8.77940
 3250.00000    9.50980    9.84180    9.50980  135.33080    0.05550    0.05550    2.39090    -999.25    0.14880    0.18660    7.38930   86.73720   86.73720   72.19610   64.36420    -999.25   72.19610    7.38930    7.14380    6.97300    7.14380    -999.25    0.43480    0.39270    2.39090 -159.94920   -2.50360    6.97300
 3300.00000    9.58450    9.61920    9.58450  184.84970    0.22970    0.22970    2.22450    -999.25    0.26620    0.28390    5.40980   93.85590   93.85590   87.03110   85.09210    -999.25   87.03110    5.40980    5.00800    4.91660    5.00800    -999.25    0.51310    0.47390    2.22450 -161.71760   -6.82570    4.91660
 3350.00000   11.46120   10.08010   11.46120  171.16250    0.16360    0.16360    2.05570    -999.25    0.35030    0.38260    5.84240   92.73510   92.73510   78.24950   79.23240    -999.25   78.24950    5.84240    5.16590    5.26150    5.16590    -999.25    0.55380    0.51690    2.05570 -159.63320   -5.93070    5.26150
 3400.00000    8.53630    8.81080    8.53630  206.87660    0.16040    0.16040    2.30870    -999.25    0.21380    0.23470    4.83380   99.05140   99.05140   95.41020   89.64180    -999.25   95.41020    4.83380    4.40890    4.51110    4.40890    -999.25    0.53550    0.49750    2.30870 -155.35850   -1.72910    4.51110
 3450.00000    9.21240    9.15270    9.21240   43.61570    0.01970    0.01970    2.52960    -999.25    0.07590    0.10550   22.92750   69.63400   69.63400   52.52450   47.01170    -999.25   52.52450   22.92750   21.41310   24.30650   21.41310    -999.25    0.23930    0.19550    2.52960 -158.20150   -4.64530   24.30650
 3500.00000   10.49350    9.26790   10.49350  191.62590    0.12650    0.12650    2.30440    -999.25    0.21270    0.23720    5.21850   99.30670   99.30670   88.55170   91.09140    -999.25   88.55170    5.21850    4.72800    5.36390    4.72800    -999.25    0.50290    0.46320    2.30440 -158.54870   -5.06560    5.36390
 3550.00000    9.06450    8.96800    9.06450   67.90530    0.00360    0.00360    2.39510    -999.25    0.15370    0.18420   14.72640   85.72930   85.72930   59.07050   52.10890    -999.25   59.07050   14.72640   14.38820   13.86460   14.38820    -999.25    0.36690    0.32350    2.39510 -161.78620   -8.37620   13.86460
 3600.00000    9.32560    9.12160    9.32560  118.35580    0.01660    0.01660    2.43770    -999.25    0.14090    0.15920    8.44910   84.90840   84.90840   78.07840   72.40940    -999.25   78.07840    8.44910    7.94940    8.35080    7.94940    -999.25    0.42520    0.38290    2.43770 -156.65740   -3.32050    8.35080
 3650.00000    9.89060    9.37590    9.89060  153.12060    0.08600    0.08600    2.35530    -999.25    0.18440    0.20740    6.53080   95.90790   95.90790   95.38790   91.75510    -999.25   95.38790    6.53080    5.86880    6.36880    5.86880    -999.25    0.46840    0.42730    2.35530 -157.77960   -4.51580    6.36880
 3700.00000   10.51570   10.31710   10.51570  181.70590    0.05460    0.05460    2.45830    -999.25    0.12120    0.14720    5.50340   96.39830   96.39830  102.92190   96.13400    -999.25  102.92190    5.50340    5.24980    5.90630    5.24980    -999.25    0.48410    0.44360    2.45830 -160.46070   -7.27010    5.90630
 3750.00000   11.08860    9.60190   11.08860  110.62800    0.07470    0.07470    2.44920    -999.25    0.12060    0.15250    9.03930   87.87030   87.87030  129.68210  121.67510    -999.25  129.68210    9.03930    8.25660    8.76840    8.25660    -999.25    0.42770    0.38540    2.44920 -163.82940  -10.71190    8.76840
 3800.00000   10.67530    9.18610   10.67530  113.95230    0.06480    0.06480    2.44820    -999.25    0.12230    0.15310    8.77560   91.13440   91.13440  144.44250  127.37900    -999.25  144.44250    8.77560    7.89490    8.32690    7.89490    -999.25    0.45380    0.41220    2.44820 -163.07600  -10.03160    8.32690
 3850.00000   10.29300   10.02050   10.29300  120.52690    0.08230    0.08230    2.51920    -999.25    0.07300    0.11160    8.29690   96.03510   96.03510  146.38540  145.07240    -999.25  146.38540    8.29690    7.46430    8.79870    7.46430    -999.25    0.49160    0.45140    2.51920 -157.77680   -4.80550    8.79870
 3900.00000    9.51480    8.93760    9.51480   79.54180    0.04140    0.04140    2.56310    -999.25    0.06310    0.08590   12.57200   89.42240   89.42240  148.29120  136.79060    -999.25  148.29120   12.57200   11.75040   15.10170   11.75040    -999.25    0.42640    0.38410    2.56310 -156.05150   -3.12470   15.10170
 3950.00000    9.90570    9.25150    9.90570   86.14670    0.04000    0.04000    2.32830    -999.25    0.20670    0.22320   11.60810   90.54550   90.54550  131.89300  130.69610    -999.25  131.89300   11.60810   10.96220   12.85380   10.96220    -999.25    0.45690    0.41540    2.32830 -155.98080   -2.71780   12.85380
 4000.00000   10.60220    9.32140   10.60220   99.10700    0.21250    0.21250    2.10610    -999.25    0.33180    0.35320   10.09010   91.18610   91.18610  126.92800  120.24550    -999.25  126.92800   10.09010    9.49970   11.50040    9.49970    -999.25    0.49010    0.44990    2.10610 -157.33710   -3.73800   11.50040
