~Version ---------------------------------------------------
VERS.      2.0 : CWLS log ASCII Standard -VERSION 2.0
WRAP.       NO : One line per depth step
CREA. 11/10/17 : LAS Creation Date
~Well ------------------------------------------------------
STRT.FT                               1200.0 : START DEPTH
STOP.FT                              13150.0 : STOP DEPTH
STEP.FT                             50.00000 : STEP LENGTH
NULL.                                -999.25 : NULL VALUE
COMP.         VINTAGE PETROLEUM CANADA, INC. : COMPANY
WELL. GENESIS ET AL MARLBORO 14-17-55-19 #14 : WELL
FLD .                                        : FIELD
LOC .                                        : LOCATION
CTRY.                                 CANADA : COUNTRY
SRVC.                           Schlumberger : SERVICE COMPANY
DATE.                            01-Sep-1970 : LOGDATE
PROV.                                Alberta : PROVINCE
UWI .                       100141705519W500 : UNIQUE WELL ID
SLAT.WGS84                          53.75669 : SURFACE LATITUDE
SLON.WGS84                         -116.7889 : SURFACE LONGITUDE
~Curve Information -----------------------------------------
DEPT  .FT    : Depth Curve
CALSED.IN    : CALIPER FROM SONIC LOG [ADJ. TO RESISTIVITY LOG]
CALWS .IN    : CALIPER [CALSED]
CONDWS.MMHO  : CONDUCTIVITY [1000/DRESWS]
DRESWS.OHMM  : DEEP RESISTIVITY [ILDED]
DTED  .US/F  : DELTA T FROM SONIC LOG [ADJ. TO RESISTIVITY LOG]
DTWS  .US/F  : COMPRESSIONAL SONIC [DTED]
GRSED .GAPI  : GAMMA RAY FROM SONIC [ADJ. TO RESISTIVITY LOG]
GRWS  .GAPI  : GAMMA RAY [GRSED] CSG < 1306'
ILDED .OHMM  : DEEP INDUCTION FROM RESISTIVITY LOG
ILMED .OHMM  : MEDIUM INDUCTION FROM RESISTIVITY LOG
LL8ED .OHMM  : LATEROLOG 8' FROM RESISTIVITY LOG
MRESWS.OHMM  : MEDIUM RESISTIVITY [ILMED]
SPRED .MV    : SPONTANEOUS POTENTIAL FROM RESISTIVITY LOG
SPWS  .MV    : SPONTANEOUS POTENTIAL [BASELINE 0 MV, SPRED]
SRESWS.OHMM  : SHALLOW RESISTIVITY [LL8ED]
~Params ----------------------------------------------------
PD  .                     GL : PERMANENT DATUM
EPD .FT                 3735 : ELEVATION PERMANENT DATUM
LMF .                     KB : LOG MEASURED FROM
DAPD.FT                   17 : FEET ABOVE PERMANENT DATUM
EKB .FT                 3752 : KELLY BUSHING
EGL .FT                 3735 : GROUND LEVEL
DATE.               09/01/70 : RUN DATE
RUN .                      1 : RUN NUMBER
DD  .FT                13157 : DEPTH DRILLER
DL  .FT                13154 : DEPTH LOGGER
BLI .FT                13148 : BOTTOM LOG INTERVAL
TLI .FT                 1306 : TOP LOG INTERVAL
CBD .FT                 1308 : CASING BOTTOM DRILLER
CBL .FT                 1306 : CASING BOTTOM LOGGER
BS  .IN                 8.75 : BIT SIZE
BSD .FT                13157 : BIT SIZE AT DEPTH
DFT .                    FGM : DRILLING FLUID TYPE
DFD .                    9.2 : DRILLING FLUID DENSITY
DFV .                    183 : DRILLING FLUID VISCOSITY
DFPH.                     10 : DRILLING FLUID PH
DFL .                   11.2 : DRILLING FLUID LOSS
MSS .               FLOWLINE : MUD SAMPLE SOURCE
RMS .OHMM               0.93 : RESISTIVITY MUD SAMPLE
MST .DEGF                 82 : MUD SAMPLE TEMPERATURE
RMF .OHMM               0.72 : RESISTIVITY MUD FILTRATE SAMPLE
MFST.DEGF                 82 : MUD FILTRATE SAMPLE TEMPERATURE
RMC .OHMM               1.13 : RESISTIVITY MUD CAKE
MCST.DEGF                 82 : MUD CAKE SAMPLE TEMPERATURE
RMB .OHMM               0.35 : RESISTIVITY MUD AT BHT
TCS .HRS                 4.5 : TIME CIRCULATED STOPPED
LUN .                   7502 : LOGGING UNIT NUMBER
LUL .                    EDM : LOGGING UNIT LOCATION
ENGI.                  PLUME : RECORDING ENGINEER
WITN.                 LITTLE : WITNESSED BY
CLNT.                A2DTECH : CLIENT CODE
ORIG.            2" 5" PRINT : ORIGIN OF DATA
UWI .       100141705519W500 : UNIQUE WELL ID
DICO. A2D Technologies, Inc. : DIGITIZING COMPANY
~Other -----------------------------------------------------
~ASCII -----------------------------------------------------
# ...
 8100.00000    8.53480    8.53480   47.80780   20.91710   69.27870   69.27870   62.64930   62.64930   20.91710   20.17950   25.37640   20.17950 -104.70160   -4.90140   25.37640
 8150.00000   11.48670   11.48670  454.58420    2.20020  104.25520  104.25520   78.16120   78.16120    2.20020    1.95480    3.36570    1.95480 -104.18170   -4.57890    3.36570
 8200.00000    9.04580    9.04580   90.13800   11.09410   81.54220   81.54220   64.92170   64.92170   11.09410    9.69580   14.46320    9.69580 -108.13860   -8.73450   14.46320
 8250.00000    8.82080    8.82080  163.84310    6.10340   70.10600   70.10600   51.54160   51.54160    6.10340    5.73460    7.78210    5.73460 -103.29010   -4.08340    7.78210
 8300.00000    8.86620    8.86620   63.41740   15.77630   70.33020   70.33020   37.38260   37.38260   15.77630   13.19790   20.20580   13.19790 -108.35830   -9.34900   20.20580
 8350.00000    8.98750    8.98750   76.89170   13.00530   68.52880   68.52880   63.93710   63.93710   13.00530   12.61230   16.43000   12.61230 -102.32480   -3.51410   16.43000
 8400.00000    9.71120    9.71120   38.87990   25.78240  115.48720  115.48720   51.88590   51.88590   25.78240   21.40780   73.85520   21.40780 -101.30990   -2.69660   73.85520
 8450.00000    8.74930    8.74930   68.00180   14.70550   69.54580   69.54580   63.77680   63.77680   14.70550   13.28960   20.71940   13.28960 -102.87080   -4.47640   20.71940
 8500.00000    8.93880    8.93880   80.85580   12.36770   77.07970   77.07970   63.95980   63.95980   12.36770   11.61960   14.90820   11.61960 -101.09900   -3.08230   14.90820
 8550.00000    8.90690    8.90690   60.94040   16.41100   70.61050   70.61050   70.24430   70.24430   16.41100   14.89720   20.41150   14.89720 -101.91610   -4.27720   20.41150
 8600.00000    9.31280    9.31280   74.00170   13.51320   70.24550   70.24550   69.83350   69.83350   13.51320   12.77020   22.51390   12.77020  -99.16030   -1.90160   22.51390
 8650.00000    8.97830    8.97830   71.26150   14.03590   77.89180   77.89180   60.72330   60.72330   14.03590   14.24410   15.64890   14.24410 -102.53580   -5.65490   15.64890
 8700.00000    8.72640    8.72640   80.20850   12.46750   71.76070   71.76070   77.10710   77.10710   12.46750   11.83770   17.53710   11.83770  -98.36190   -1.86130   17.53710
 8750.00000    9.44410    9.44410  172.82200    5.78630   77.59490   77.59490   78.84550   78.84550    5.78630    5.60280    7.31640    5.60280  -96.96400   -0.84110    7.31640
 8800.00000    8.74000    8.74000   66.83930   14.96410   67.27420   67.27420   61.21890   61.21890   14.96410   16.60500   29.46830   16.60500 -100.25910   -4.51400   29.46830
 8850.00000    8.65520    8.65520   32.32500   30.93580   64.02290   64.02290   47.80140   47.80140   30.93580   28.84840   43.06970   28.84840 -103.28980   -7.92490   43.06970
 8900.00000    8.67580    8.67580   64.83000   15.42500   70.07930   70.07930   86.51240   86.51240   15.42500   16.43550   33.91780   16.43550  -98.94460   -3.95750   33.91780
 8950.00000    8.62940    8.62940   75.19530   13.29870   79.67010   79.67010   85.39140   85.39140   13.29870   16.26300   21.50720   16.26300  -98.56080   -3.95390   21.50720
 9000.00000    9.28820    9.28820   68.17750   14.66760   69.96950   69.96950   82.76410   82.76410   14.66760   12.69050   15.11210   12.69050  -96.47020   -2.24110   15.11210
 9050.00000    8.66490    8.66490   39.12330   25.58940   64.45790   64.45790   75.10570   75.10570   25.58940   24.72580   38.08380   24.72580 -100.70570   -6.85430   38.08380
 9100.00000    8.76030    8.76030   48.44370   20.64250   71.24640   71.24640   78.75870   78.75870   20.64250   20.96170   31.82530   20.96170  -99.06370   -5.59260   31.82530
 9150.00000    8.59440    8.59440   16.85770   59.38340   61.77800   61.77800   63.30530   63.30530   59.38340   40.99840   88.90800   40.99840  -94.75140   -2.23510   88.90800
 9200.00000    9.75110    9.75110  106.39880    9.39860   85.37120   85.37120   89.59070   89.59070    9.39860    7.92650    9.93130    7.92650  -97.44220   -6.26590    9.93130
 9250.00000    9.37180    9.37180  144.94220    6.89930   87.70800   87.70800   84.93920   84.93920    6.89930    6.06500    9.96830    6.06500  -94.92550   -5.08040    9.96830
 9300.00000    8.55150    8.55150    1.71120  623.22660   57.15770   57.15770    6.81630    6.81630  623.22660 1467.42560 1009.09740 1467.42560 -144.38140  -55.86760 1009.09740
 9350.00000    8.60260    8.60260    0.73450 1361.54280   62.67880   62.67880   10.78480   10.78480 1361.54280 1529.58420 1248.53850 1529.58420 -116.57400  -29.40020 1248.53850
 9400.00000    8.63090    8.63090    5.27370  191.98340   55.08390   55.08390   73.06850   73.06850  191.98340  360.44660  738.70080  360.44660 -113.29250  -27.44990  738.70080
 9450.00000    8.48500    8.48500   24.81540   40.29760   59.51730   59.51730   72.22150   72.22150   40.29760   37.61640  111.30150   37.61640  -99.67750  -15.17490  111.30150
 9500.00000    8.55570    8.55570   19.98560   50.03600   58.30850   58.30850   70.83370   70.83370   50.03600   54.84190   65.81900   54.84190 -100.75750  -17.58610   65.81900
 9550.00000    9.08060    9.08060   17.13670   58.40820   50.89560   50.89560   23.01720   23.01720   58.40820   64.22250  145.70040   64.22250 -133.82440  -51.98420  145.70040
 9600.00000    8.71820    8.71820   13.02760   76.76000   51.46510   51.46510   34.19130   34.19130   76.76000  123.06030  199.25450  123.06030 -118.18660  -37.68640  199.25450
 9650.00000    8.61310    8.61310    3.65360  307.33840   51.43300   51.43300   11.13800   11.13800  307.33840   99.20310  799.84120   99.20310 -117.26640  -38.09740  799.84120
 9700.00000    8.64740    8.64740   10.92770   91.51070   51.07970   51.07970   31.08430   31.08430   91.51070  101.79620  188.41790  101.79620 -111.95830  -34.12930  188.41790
 9750.00000    8.52410    8.52410   11.19410   89.33270   49.06640   49.06640   22.60200   22.60200   89.33270   79.11610  188.38930   79.11610  -96.77510  -20.27730  188.38930
 9800.00000    8.77730    8.77730    0.75100 1332.52380   50.67230   50.67230    3.61300    3.61300 1332.52380  827.88670 1254.32280  827.88670 -113.51070  -38.34420 1254.32280
 9850.00000    8.30140    8.30140   62.59780   15.97500   52.01230   52.01230    8.08780    8.08780   15.97500   27.28910   85.43240   27.28910 -189.94470 -116.11810   85.43240
 9900.00000    8.67620    8.67620   21.85060   45.81740   51.32270   51.32270   17.60770   17.60770   45.81740   54.07670  117.13080   54.07670 -125.44250  -52.94720  117.13080
 9950.00000    8.77390    8.77390   28.75400   34.77780   51.27960   51.27960   40.29980   40.29980   34.77780   30.51750   69.11350   30.51750  -99.83940  -28.68400   69.11350
 10000.00000    8.73670    8.73670   59.37500   16.84210   56.66690   56.66690   49.60120   49.60120   16.84210   15.16190   21.36810   15.16190 -110.02620  -40.20210   21.36810
 10050.00000    8.65770    8.65770   12.46170   80.29270   53.41060   53.41060   37.25250   37.25250   80.29270   75.95210  161.70130   75.95210  -74.06500   -5.57210  161.70130
 10100.00000    8.66460    8.66460   18.95650   52.75240   55.01110   55.01110   51.99840   51.99840   52.75240   51.11420   75.89320   51.11420  -70.49310   -3.30600   75.89320
 10150.00000    8.66180    8.66180    4.33750  231.77570   51.31730   51.31730   13.63210   13.63210  231.77570  129.13250  632.03020  129.13250 -115.26460  -49.33250  632.03020
 10200.00000    8.53020    8.53020   10.35630   96.55990   53.25910   53.25910   30.04270   30.04270   96.55990  105.93300  146.70250  105.93300  -67.91860   -3.24970  146.70250
 10250.00000    8.68120    8.68120   23.57450   42.41870   58.23960   58.23960   44.76160   44.76160   42.41870   39.68230   58.92840   39.68230  -64.14340   -0.72940   58.92840
 10300.00000    8.56130    8.56130   15.97760   62.58760   56.79790   56.79790   45.50450   45.50450   62.58760   63.57020   83.22100   63.57020  -63.52900   -1.37000   83.22100
 10350.00000    8.64330    8.64330   13.82300   72.34310   56.52600   56.52600   50.41020   50.41020   72.34310   62.03670  104.38140   62.03670  -68.25320   -6.24360  104.38140
