~Version ---------------------------------------------------
VERS.      2.0 : CWLS log ASCII Standard -VERSION 2.0
WRAP.       NO : One line per depth step
CREA. 06/26/13 : LAS Creation Date
~Well ------------------------------------------------------
STRT.FT                       1050.0 : START DEPTH
STOP.FT                      11200.0 : STOP DEPTH
STEP.FT                     50.00000 : STEP LENGTH
NULL.                        -999.25 : NULL VALUE
COMP.         CALIFORNIA STANDARD CO : COMPANY
WELL. CALSTAN B.A. KAYBOB 2-18-62-18 : WELL
FLD .                             WC : FIELD
LOC .                                : LOCATION
CTRY.                         CANADA : COUNTRY
SRVC.                   Schlumberger : SERVICE COMPANY
DATE.                    31-Mar-1959 : LOGDATE
PROV.                        Alberta : PROVINCE
UWI .               100021806218W500 : UNIQUE WELL ID
SLAT.WGS84                  54.35781 : SURFACE LATITUDE
SLON.WGS84                 -116.6847 : SURFACE LONGITUDE
~Curve Information -----------------------------------------
DEPT.FT            : DEPTH FEET
CILD.MMHO          : CONDUCTIVITY FROM RESISTIVITY LOG
DT  .US/F          : SONIC FROM SONIC LOG
DT1 .US/F          : SONIC FROM SONIC LOG
GRS .UG_RA-EQ/TON  : GAMMA RAY FROM SONIC LOG
ILD .OHMM          : INDUCTION DEEP FROM RESISTIVITY LOG
MCAL.IN            : CALIPER FROM MICROLOG
SN  .OHMM          : SHORT NORMAL FROM RESISTIVITY LOG
SPR .MV            : SPONTANEOUS POTENTIAL FROM RESISTIVITY LOG
~Params ----------------------------------------------------
LMF .                     KB : LOG MEASURED FROM
DMF .                     KB : DRILLING MEASURED FROM
EKB .FT                 2888 : KELLY BUSHING
EGL .FT                 2876 : GROUND LEVEL
DATE.               03/31/59 : RUN DATE
RUN .                      2 : RUN NUMBER
DD  .FT                11256 : DEPTH DRILLER
DL  .FT                11246 : DEPTH LOGGER
BLI .FT                11241 : BOTTOM LOG INTERVAL
TLI .FT                 2250 : TOP LOG INTERVAL
BS  .IN                    9 : BIT SIZE
BSD .FT                11256 : BIT SIZE AT DEPTH
DFT .               OIL EMUL : DRILLING FLUID TYPE
DFD .                   10.6 : DRILLING FLUID DENSITY
DFV .                    112 : DRILLING FLUID VISCOSITY
DFPH.                    9.5 : DRILLING FLUID PH
DFL .                    5.4 : DRILLING FLUID LOSS
RMS .OHMM                  3 : RESISTIVITY MUD SAMPLE
MST .DEGF                 64 : MUD SAMPLE TEMPERATURE
RMF .OHMM                  2 : RESISTIVITY MUD FILTRATE SAMPLE
MFST.DEGF                 77 : MUD FILTRATE SAMPLE TEMPERATURE
RMC .OHMM                3.3 : RESISTIVITY MUD CAKE
MCST.DEGF                 77 : MUD CAKE SAMPLE TEMPERATURE
RMB .OHMM               0.96 : RESISTIVITY MUD AT BHT
TCS .HRS                 7.5 : TIME CIRCULATED STOPPED
LUN .                   1573 : LOGGING UNIT NUMBER
LUL .                    W C : LOGGING UNIT LOCATION
ENGI.               SHERRIFF : RECORDING ENGINEER
WITN.                  SMITH : WITNESSED BY
CLNT.                A2DTECH : CLIENT CODE
ORIG.            2" 5" PRINT : ORIGIN OF DATA
UWI .       100021806218W500 : UNIQUE WELL ID
DICO. A2D Technologies, Inc. : DIGITIZING COMPANY
~Other -----------------------------------------------------
~ASCII -----------------------------------------------------
 1050.00000  145.71190    -999.25    -999.25    -999.25    7.29380    9.06750   11.56900  -58.89630
 1100.00000  187.38460    -999.25    -999.25    7.04690    5.24490   12.04690    6.34780  -59.59530
 1150.00000  176.87400    -999.25    -999.25    7.13110    5.72250    8.85200    7.07260  -58.19860
 1200.00000  189.83240    -999.25    -999.25    6.43060    5.34730    8.86070    6.65660  -57.02690
 1250.00000  115.67600  105.03670    -999.25    7.87820    9.67020    9.66590   11.12050  -56.88440
 1300.00000  250.45760  139.42080    -999.25    8.23980    3.75050   11.96730    5.41500  -56.49320
 1350.00000   59.02790   98.48480    -999.25    6.76460   17.98800    8.87700   20.03710  -60.23650
 1400.00000  115.48030   96.89050    -999.25    6.22520    9.94770   10.24470   11.93800  -56.01950
 1450.00000   96.53030   97.91210    -999.25    6.27960   10.91860    9.18240   11.96540  -56.73240
 1500.00000  163.01260   97.80050    -999.25    8.42920    6.05440    9.29590    7.01210  -55.61360
 1550.00000  124.09470   88.09020    -999.25    5.35240    8.14660    8.75930    9.25650  -55.44950
 1600.00000   43.44480  102.11950    -999.25    5.98090   28.08640   10.31080   31.07910  -56.31530
 1650.00000  238.18360  126.84000    -999.25    6.51440    3.94320    9.97070    5.39910  -54.76990
 1700.00000  224.00250  124.12140    -999.25    6.35030    4.37770   10.71400    6.10770  -54.29700
 1750.00000  196.74840   99.06550    -999.25    6.54540    5.12490    8.87390    6.61330  -54.11420
 1800.00000  148.78310  131.78030    -999.25    7.20250    6.61230   10.39960    9.94550  -53.44360
 1850.00000  194.33160   93.78130    -999.25    6.23090    4.78030   10.01850    6.29040  -52.72690
 1900.00000  225.59720  111.45620    -999.25    6.98590    3.59640   10.83180    3.75320  -51.01630
 1950.00000  125.98480   86.50080    -999.25    4.88630    7.36210   10.70740    7.17720  -51.51930
 2000.00000  162.58210   98.65180    -999.25    6.95720    5.87130   10.32750    6.66790  -50.54700
 2050.00000  224.36320  103.77590    -999.25    7.70510    3.95480   10.34470    4.71450  -50.29140
 2100.00000  335.74490  120.25130    -999.25    7.55350    2.21900   10.35200    4.08940  -49.46980
 2150.00000  161.95840  121.06760    -999.25    7.20390    6.09310   10.48830    8.18090  -50.18940
 2200.00000  286.83710  106.89140    -999.25    8.18090    2.80120   11.09740    4.19140  -49.04640
 2250.00000  228.30880   99.34590    -999.25    5.95370    3.53520    8.97430    5.21120  -25.55880
 2300.00000  122.14370  106.67980    -999.25    6.84960    7.87310    8.32810    9.20250  -40.31850
 2350.00000  294.13660  107.78090    -999.25    6.59210    2.87340    9.70760    4.11030  -26.31850
 2400.00000  265.16390  105.23690    -999.25    8.07150    3.26750   10.18350    4.78900  -27.52020
 2450.00000  252.24910  114.45740    -999.25    6.75640    3.34160   10.58510    4.83900  -27.52140
 2500.00000  738.19800  126.01730    -999.25    5.92490    1.08040   10.94510    1.78870  -24.76320
 2550.00000  136.88440  112.74360    -999.25    6.87930    6.41430    8.79530    8.56060  -36.42000
 2600.00000   90.79560   96.89320    -999.25    4.82940   11.12160    8.71680   14.18040  -42.99290
 2650.00000  166.60060   95.32680    -999.25    4.93930    5.31020    8.94090    7.98640  -27.95490
 2700.00000   66.68090   92.00270    -999.25    5.80300   15.98880    8.83970   18.17340  -55.98650
 2750.00000   70.70710   84.05010    -999.25    4.95620   14.88130    9.00680   18.30030  -50.00060
 2800.00000  149.17330   94.88780    -999.25    5.56700    7.57690    8.92710    9.98530  -48.09970
 2850.00000  167.10480   96.26700    -999.25    4.73910    5.03470   10.44490    7.44170  -46.93880
 2900.00000  207.20580  103.99240    -999.25    4.87250    4.16990   11.19630    6.38910  -46.95900
 2950.00000  199.12250  117.97560    -999.25    6.03190    5.38250    9.80630    7.28600  -46.01400
 3000.00000   65.52500   85.35240    -999.25    4.68960   16.48640    9.06990   18.43800  -48.26130
 3050.00000  176.46980  100.08950    -999.25    5.72930    5.21740    9.32640    6.72480  -45.17740
 3100.00000   54.66800   97.02290    -999.25    4.32640   19.95060    8.97710   24.17720  -59.19940
 3150.00000  169.45990  102.07420    -999.25    6.19080    5.71450    9.71280    7.84110  -43.20000
 3200.00000  180.22320  112.80710    -999.25    5.70840    4.77270   10.11120    6.38170  -24.75300
 3250.00000  243.07450  130.51680    -999.25    6.18870    3.37620   11.17480    5.58970  -24.44570
 3300.00000   43.05250   74.92620    -999.25    3.92130   24.15850    8.98790   26.92960  -38.41790
 3350.00000   91.50630   85.11410    -999.25    4.67580   10.04890    8.76390   12.33510  -39.81910
 3400.00000  144.45050  120.18340    -999.25    6.47560    6.91820   10.01920    8.75630  -39.94700
 3450.00000  174.72430  101.32790    -999.25    7.02860    5.18130    -999.25    7.21900  -41.50860
 3500.00000  139.59190   96.02690    -999.25    8.15390    6.99530    -999.25    8.69650  -43.77000
 3550.00000  122.48210   97.06440    -999.25    7.52600    7.90490    -999.25    9.75840  -43.18040
 3600.00000  122.88650   94.81240    -999.25    8.96600    8.05990    -999.25   10.30060  -43.47490
 3650.00000  132.95970  105.31450    -999.25   11.74230    7.46930    -999.25   10.93700  -39.55260
 3700.00000   96.52050   93.21600    -999.25    7.89310   10.35510    -999.25   14.69210  -39.75790
 3750.00000  108.34940   93.41290    -999.25    8.24600    9.13730    -999.25   11.93190  -40.17140
 3800.00000  112.53350   87.88700    -999.25    7.51590    8.76220    -999.25   11.08240  -41.08930
 3850.00000  147.07440  100.45760    -999.25    9.32170    6.45290    -999.25    8.55480  -42.45860
 3900.00000  112.97080   93.63840    -999.25    7.88010    8.77380    -999.25   11.01730  -40.91930
 3950.00000   96.76850   87.22720    -999.25    7.54320   10.37570    -999.25   12.64330  -40.32050
 4000.00000  125.10220   93.23720    -999.25    8.91660    7.83660    -999.25   10.06800  -37.94570
 4050.00000  135.23080   92.92070    -999.25    8.85690    7.09080    -999.25    9.41480  -37.75970
 4100.00000  147.94720  100.36910    -999.25   10.07580    6.05660   11.98640    7.35410  -38.11090
 4150.00000  107.75710   88.46190    -999.25    8.64860    8.68790   11.74560   10.26300  -37.63040
 4200.00000   76.04860   96.99490    -999.25    8.82510   13.26710   11.06500   17.09950  -38.96950
 4250.00000   99.66620   93.82310    -999.25    8.70960    9.35210   10.81980   11.10220  -36.77190
 4300.00000   91.06370   88.64840    -999.25    8.30530   10.19750   10.65850   11.96680  -36.51970
 4350.00000  117.79820   98.04160    -999.25    9.02980    8.27040   10.99970   10.62870  -58.55520
 4400.00000  108.74070   85.67920    -999.25    8.87450    9.01200    -999.25   11.55680  -88.75140
 4450.00000  134.31810   93.09740    -999.25    9.34080    7.12830    -999.25    9.71790  -86.30750
 4500.00000  129.98600   95.90630    -999.25    7.29560    7.41770    -999.25   10.66490  -84.88160
 4550.00000  107.34320   97.99230    -999.25    8.58990    9.26860    -999.25   13.10310  -82.71940
 4600.00000  113.01170   98.43950    -999.25    9.95190    8.79680    -999.25   12.77420  -81.21420
 4650.00000   86.71040  101.90990    -999.25    9.88550   11.47080    -999.25   17.21020  -80.42730
 4700.00000   79.23640   87.30570    -999.25    9.69970   12.43160    -999.25   18.95050  -79.31930
 4750.00000   53.92620   92.40420    -999.25    9.60980   20.66420    -999.25   32.49740  -77.79640
 4800.00000  124.63360   97.23090    -999.25    9.12000    8.05810    -999.25   12.53410  -79.60110
 4850.00000  131.54930   91.26640    -999.25    8.81400    7.51430    -999.25    9.90110  -81.93830
 4900.00000  154.53730   93.54200    -999.25    8.45100    5.95210   12.57330    7.64690  -81.59080
 4950.00000  170.04990   92.97950    -999.25    9.12230    5.34180   12.41120    7.25340  -79.91820
 5000.00000  156.11450   89.61640    -999.25    8.48600    5.75500   13.33090    7.56700  -79.02570
