~Version ---------------------------------------------------
VERS.      2.0 : CWLS log ASCII Standard -VERSION 2.0
WRAP.       NO : One line per depth step
CREA. 11/17/17 : LAS Creation Date
~Well ------------------------------------------------------
STRT.FT                       700.0 : START DEPTH
STOP.FT                      6300.0 : STOP DEPTH
STEP.FT                    50.00000 : STEP LENGTH
NULL.                       -999.25 : NULL VALUE
COMP.      CHEVRON STANDARD LIMITED : COMPANY
WELL. CHEVRON GIFT LAKE 15-36-78-12 : WELL
FLD .                               : FIELD
LOC .                               : LOCATION
CTRY.                        CANADA : COUNTRY
SRVC.                       Unknown : SERVICE COMPANY
DATE.                   14-Feb-1976 : LOGDATE
PROV.                       Alberta : PROVINCE
UWI .              100153607812W500 : UNIQUE WELL ID
SLAT.WGS84                 55.80826 : SURFACE LATITUDE
SLON.WGS84                -115.7168 : SURFACE LONGITUDE
~Curve Information -----------------------------------------
DEPT    .FT    : Depth Curve
CALDED  .IN    : CALIPER FROM DENSITY LOG [ADJ TO RESISTIVITY LOG]
CALSED  .IN    : CALIPER FROM SONIC LOG
CALWS   .IN    : CALIPER [CALDED]
CONDWS  .MMHO  : CONDUCTIVITY [1000/DRESWS]
DCORWS  .G/C3  : DENSITY CORRECTION [DRHOED]
DENWS   .G/C3  : FORMATION BULK DENSITY [RHOBED]
DPHILSED.V/V   : DENSITY POROSITY LIMESTONE [M=2.71, F=1.00(ASSUMED)] FROM DENSITY LOG
DPHISSED.V/V   : DENSITY POROSITY SANDSTONE [M=2.65, F=1.00(ASSUMED)] FROM DENSITY LOG
DPOLSWS .V/V   : DENSITY POROSITY LIMESTONE [CALC FROM DENWS,M=2.71, F=1.00]
DRESWS  .OHMM  : DEEP RESISTIVITY [ILDED]
DRHOED  .G/C3  : DENSITY CORRECTION FROM DENSITY LOG [ADJ TO DPHISSED]
DTED    .US/F  : DELTA TIME FROM SONIC LOG
DTWS    .US/F  : COMPRESSIONAL SONIC [DTED]
GRDED   .GAPI  : GAMMA RAY FROM DENSITY LOG [ADJ TO RESISTIVITY LOG]
GRSED   .GAPI  : GAMMA RAY FROM SONIC LOG
GRWS    .GAPI  : GAMMA RAY [GRSED SPL @700' TO GRDED]
ILDED   .OHMM  : INDUCTION LOG DEEP RESISTIVITY FROM RESISTIVITY LOG
ILMED   .OHMM  : INDUCTION LOG MEDIUM RESISTIVITY FROM RESISTIVITY LOG
LL8ED   .OHMM  : 8 INCH LATEROLOG RESISTIVITY FROM RESISTIVITY LOG
MRESWS  .OHMM  : MEDIUM RESISTIVITY [ILMED]
NPHILSED.V/V   : NEUTRON POROSITY LIMESTONE FROM DENSITY LOG
NPHISSED.V/V   : NEUTRON POROSITY SANDSTONE FROM DENSITY LOG
NPOLSWS .V/V   : NEUTRON POROSITY LIMESTONE [NPHISSED MATRIX CONVERTED TO LIMESTONE(SLB CNL) SPL @2670' TO NPHILSED]
RHOBED  .G/C3  : BULK DENSITY FROM DENSITY LOG [ADJ TO DPHISSED]
SPRED   .MV    : SPONTANEOUS POTENTIAL FROM RESISTIVITY LOG
SPWS    .MV    : SPONTANEOUS POTENTIAL [BASELINE 0MV, SPRED]
SRESWS  .OHMM  : SHALLOW RESISTIVITY [LL8ED]
~Params ----------------------------------------------------
PD  .                     GL : PERMANENT DATUM
EPD .FT               2288.9 : ELEVATION PERMANENT DATUM
LMF .                     KB : LOG MEASURED FROM
DAPD.FT                 12.1 : FEET ABOVE PERMANENT DATUM
EKB .FT                 2301 : KELLY BUSHING
EGL .FT               2288.9 : GROUND LEVEL
DATE.               02/14/76 : RUN DATE
RUN .                      1 : RUN NUMBER
DD  .FT                 6318 : DEPTH DRILLER
DL  .FT                 6318 : DEPTH LOGGER
BLI .FT                 6312 : BOTTOM LOG INTERVAL
TLI .FT                  727 : TOP LOG INTERVAL
CBD .FT                  727 : CASING BOTTOM DRILLER
CBL .FT                  727 : CASING BOTTOM LOGGER
BS  .IN                7.875 : BIT SIZE
BSD .FT                 6318 : BIT SIZE AT DEPTH
DFT .                    GEL : DRILLING FLUID TYPE
DFD .                    9.6 : DRILLING FLUID DENSITY
DFV .                     68 : DRILLING FLUID VISCOSITY
DFPH.                    9.5 : DRILLING FLUID PH
DFL .                    8.5 : DRILLING FLUID LOSS
RMS .OHMM               1.06 : RESISTIVITY MUD SAMPLE
MST .DEGF                 64 : MUD SAMPLE TEMPERATURE
RMF .OHMM               0.79 : RESISTIVITY MUD FILTRATE SAMPLE
MFST.DEGF                 62 : MUD FILTRATE SAMPLE TEMPERATURE
RMB .OHMM               0.44 : RESISTIVITY MUD AT BHT
TCS .HRS                 2.5 : TIME CIRCULATED STOPPED
LUN .                   7636 : LOGGING UNIT NUMBER
LUL .                    EDM : LOGGING UNIT LOCATION
ENGI.             SLUSARCHUK : RECORDING ENGINEER
WITN.               SHEPPARD : WITNESSED BY
CLNT.                A2DTECH : CLIENT CODE
ORIG.            2" 5" PRINT : ORIGIN OF DATA
UWI .       100153607812W500 : UNIQUE WELL ID
DICO. A2D Technologies, Inc. : DIGITIZING COMPANY
~Other -----------------------------------------------------
DIL-FDC-CNL-GR-SLC TOOL RUN
~ASCII -----------------------------------------------------
# ...
 3300.00000    8.61310    8.98750    8.61310   78.63300    0.00730    2.64340    0.03730    -999.25    0.03890   12.71830    0.00730   58.00250   58.00250   29.53540   24.07480   29.53540   12.71830   13.42280   20.39950   13.42280    0.09040    -999.25    0.09040    2.64340  -28.21120  -10.04870   20.39950
 3350.00000    8.30980    8.70780    8.30980   82.23480    0.00820    2.59100    0.06650    -999.25    0.06960   12.16030    0.00820   62.40410   62.40410   29.33110   28.77620   29.33110   12.16030   10.10520   10.86950   10.10520    0.10700    -999.25    0.10700    2.59100  -30.00940  -12.23760   10.86950
 3400.00000    8.39440    8.52680    8.39440   65.16480    0.02250    2.66210    0.02750    -999.25    0.02800   15.34570    0.02250   60.23690   60.23690   26.46020   28.12300   26.46020   15.34570   15.90720   24.22710   15.90720    0.08490    -999.25    0.08490    2.66210  -41.90690  -24.52370   24.22710
 3450.00000    9.95480   10.27660    9.95480  250.37560    0.11620    2.42390    0.17250    -999.25    0.16730    3.99400    0.11620   80.47870   80.47870   49.74340   49.13900   49.74340    3.99400    4.11630    5.09260    4.11630    0.23880    -999.25    0.23880    2.42390  -20.16700   -2.83020    5.09260
 3500.00000    8.62770    8.75860    8.62770  177.00990    0.14240    2.59970    0.07440    -999.25    0.06450    5.64940    0.14240   74.19020   74.19020   43.56450   39.94930   43.56450    5.64940    5.94030    6.64160    5.94030    0.19610    -999.25    0.19610    2.59970  -19.56180   -1.73580    6.64160
 3550.00000   10.08160   10.20600   10.08160  252.85740    0.18890    2.40280    0.17410    -999.25    0.17960    3.95480    0.18890   87.49870   87.49870   53.48130   55.74390   53.48130    3.95480    4.07630    4.28280    4.07630    0.24760    -999.25    0.24760    2.40280  -23.93830   -5.62560    4.28280
 3600.00000   12.33160   11.93060   12.33160  371.25040    0.16530    2.29240    0.24030    -999.25    0.24420    2.69360    0.16530   51.79080   51.79080   83.65040   82.10360   83.65040    2.69360    3.04090    2.76610    3.04090    0.38520    -999.25    0.38520    2.29240  -40.32550  -21.52120    2.76610
 3650.00000    8.47480    9.09970    8.47480   33.99980    0.00320    2.69970   -0.00120    -999.25    0.00600   29.41190    0.00320   56.10690   56.10690   26.99750   25.37150   26.99750   29.41190   30.54030   45.05460   30.54030    0.04150    -999.25    0.04150    2.69970  -41.77520  -21.71140   45.05460
 3700.00000    8.25550    8.58060    8.25550   71.15820    0.05190    2.60170    0.06520    -999.25    0.06330   14.05320    0.05190   57.87930   57.87930   20.95140   19.55200   20.95140   14.05320   20.09770   72.37850   20.09770    0.08960    -999.25    0.08960    2.60170 -119.00570  -96.81370   72.37850
 3750.00000    8.24460    8.55420    8.24460   24.02790   -0.00200    2.66380    0.02960    -999.25    0.02700   41.61820   -0.00200   53.34490   53.34490   18.81460   19.95710   18.81460   41.61820   42.96890   56.76610   42.96890    0.04170    -999.25    0.04170    2.66380  -65.27990  -40.95960   56.76610
 3800.00000    8.40220    8.65390    8.40220   26.35050    0.00360    2.67030    0.02330    -999.25    0.02320   37.95000    0.00360   52.23930   52.23930   16.33130   13.91890   16.33130   37.95000   41.15120   71.26820   41.15120    0.04540    -999.25    0.04540    2.67030  -75.55410  -49.11620   71.26820
 3850.00000    8.35490    8.64600    8.35490   37.66360    0.00240    2.65950    0.03420    -999.25    0.02950   26.55080    0.00240   55.28100   55.28100   19.74840   17.87190   19.74840   26.55080   27.73450   35.85540   27.73450    0.06160    -999.25    0.06160    2.65950  -74.45730  -45.88050   35.85540
 3900.00000    8.23680    8.41860    8.23680   74.47180    0.01550    2.58150    0.07510    -999.25    0.07510   13.42790    0.01550   57.03360   57.03360   20.63770   19.60010   20.63770   13.42790   17.68840   77.97820   17.68840    0.08390    -999.25    0.08390    2.58150 -107.50120  -76.79620   77.97820
 3950.00000    8.27090    8.56970    8.27090   60.74340    0.01590    2.59070    0.07020    -999.25    0.06980   16.46270    0.01590   55.43030   55.43030   15.56280   15.65470   15.56280   16.46270   22.94860   99.40360   22.94860    0.07640    -999.25    0.07640    2.59070 -117.84890  -85.01560   99.40360
 4000.00000    8.20620    8.49960    8.20620  114.42040    0.06530    2.59840    0.06410    -999.25    0.06530    8.73970    0.06530   58.15130   58.15130   16.91060   16.41270   16.91060    8.73970   14.64550   62.62870   14.64550    0.10760    -999.25    0.10760    2.59840 -114.97590  -80.01430   62.62870
 4050.00000    8.19650    8.66890    8.19650   45.42020   -0.00130    2.66280    0.02640    -999.25    0.02760   22.02570   -0.00130   53.70780   53.70780   15.56130   14.08000   15.56130   22.02570   25.42850   63.43580   25.42850    0.05080    -999.25    0.05080    2.66280  -96.67410  -59.59490   63.43580
 4100.00000    8.37730    8.49090    8.37730   82.09910    0.01570    2.57960    0.07490    -999.25    0.07630   12.18040    0.01570   56.56170   56.56170   19.89320   19.68850   19.89320   12.18040   18.29420   74.33490   18.29420    0.08800    -999.25    0.08800    2.57960 -125.18830  -85.97020   74.33490
 4150.00000    8.38280    8.75760    8.38280    8.62710    0.01370    2.70880    0.00210    -999.25    0.00070  115.91350    0.01370   50.28780   50.28780   16.32730   16.11730   16.32730  115.91350  120.08070  170.41080  120.08070    0.02040    -999.25    0.02040    2.70880  -98.91060  -57.56430  170.41080
 4200.00000    8.46030    8.91110    8.46030   26.42380   -0.01000    2.66490    0.02920    -999.25    0.02640   37.84460   -0.01000   52.89940   52.89940   15.98380   13.08910   15.98380   37.84460   41.94260   85.85860   41.94260    0.05700    -999.25    0.05700    2.66490  -97.56430  -54.08970   85.85860
 4250.00000    8.81030    8.74250    8.81030   18.27840   -0.00290    2.66440    0.02460    -999.25    0.02670   54.70930   -0.00290   52.19350   52.19350   17.38690   18.84590   17.38690   54.70930   56.77420   78.08900   56.77420    0.03970    -999.25    0.03970    2.66440  -90.62240  -45.01960   78.08900
 4300.00000    9.30430    9.55300    9.30430   36.65100    0.00530    2.64920    0.03530    -999.25    0.03560   27.28720    0.00530   54.42260   54.42260   20.30670   18.36030   20.30670   27.28720   29.82550   61.30410   29.82550    0.06010    -999.25    0.06010    2.64920  -97.71770  -49.99730   61.30410
 4350.00000    8.62340    8.89970    8.62340    9.40700   -0.00120    2.69660    0.00630    -999.25    0.00780  106.30360   -0.00120   50.31270   50.31270   18.30320   17.23740   18.30320  106.30360  145.38300  237.91060  145.38300    0.01800    -999.25    0.01800    2.69660  -98.54840  -48.68910  237.91060
 4400.00000    8.65580    8.58450    8.65580   62.26150    0.02030    2.62040    0.05070    -999.25    0.05240   16.06130    0.02030   55.08120   55.08120   17.96730   19.37490   17.96730   16.06130   20.41120   88.55050   20.41120    0.06580    -999.25    0.06580    2.62040 -115.96670  -63.97910   88.55050
 4450.00000    7.67690    7.75300    7.67690  174.38920    0.01060    2.54070    0.10050    -999.25    0.09900    5.73430    0.01060   59.50080   59.50080   15.49650   13.42230   15.49650    5.73430    9.45330   55.71920    9.45330    0.10810    -999.25    0.10810    2.54070 -125.02990  -70.91410   55.71920
 4500.00000    7.78770    7.99500    7.78770  138.56560    0.04010    2.59670    0.06540    -999.25    0.06630    7.21680    0.04010   56.89140   56.89140   16.59670   14.59290   16.59670    7.21680   10.99350   47.73830   10.99350    0.11290    -999.25    0.11290    2.59670 -118.26950  -62.02540   47.73830
 4550.00000    8.50630    8.70490    8.50630  181.22960    0.00860    2.69320    0.01640    -999.25    0.00980    5.51790    0.00860   61.98080   61.98080   63.12840   58.08750   63.12840    5.51790    7.08360   21.32910    7.08360    0.12410    -999.25    0.12410    2.69320  -66.68480   -8.32310   21.32910
