~Version ---------------------------------------------------
VERS.      2.0 : CWLS log ASCII Standard -VERSION 2.0
WRAP.       NO : One line per depth step
CREA. 12/11/17 : LAS Creation Date
~Well ------------------------------------------------------
STRT.FT                          1000.0 : START DEPTH
STOP.FT                         10450.0 : STOP DEPTH
STEP.FT                        50.00000 : STEP LENGTH
NULL.                           -999.25 : NULL VALUE
COMP.     CANADIAN SUPERIOR OIL COMPANY : COMPANY
WELL. CDN-SUP CEGO FOX CR 10-11SH-62-18 : WELL
FLD .                                   : FIELD
LOC .                                   : LOCATION
CTRY.                            CANADA : COUNTRY
SRVC.                      Schlumberger : SERVICE COMPANY
DATE.                       29-Mar-1977 : LOGDATE
PROV.                           Alberta : PROVINCE
UWI .                  102101106218W500 : UNIQUE WELL ID
SLAT.WGS84                     54.35151 : SURFACE LATITUDE
SLON.WGS84                    -116.5828 : SURFACE LONGITUDE
~Curve Information -----------------------------------------
DEPT    .FT    : Depth Curve
CALDED  .IN    : CALIPER) FROM DENSITY LOG [ADJ. TO RESISTIVITY LOG]
CALSED  .IN    : CALIPER) FROM SONIC LOG [ADJ. TO RESISTIVITY LOG]
CALWS   .IN    : CALIPER [CALDED]
CILDED  .MMHO  : CONDUCTIVITY FROM RESISTIVITY LOG
CONDWS  .MMHO  : CONDUCIVITY [1000/DRESWS]
DCORED  .G/C3  : DENSITY CORRECTION FROM DENSITY LOG [ADJ. TO RESISTIVITY LOG]
DCORWS  .G/C3  : DENSITY CORRECTION [DCORED]
DENWS   .G/C3  : FORMATION BULK DENSITY [RHOBED]
DPOLSWS .V/V   : DENSITY POROSITY LIMESTONE [CALC. FROM DENWS M=2.71, F=1.00]
DPORLSED.V/V   : DENSITY POROSITY LIMESTONE [M=2.71, F=1.00] FROM DENSITY LOG [ADJ. TO RESISTIVITY LOG]
DPORSSED.V/V   : DENSITY POROSITY SANDSTONE [M=2.65, F=1.00] FROM DENSITY LOG [ADJ. TO RESISTIVITY LOG]
DRESWS  .OHMM  : DEEP RESISTIVITY [ILDED]
DTED    .US/F  : DELTA-T FROM SONIC LOG [ADJ. TO RESISTIVITY LOG]
DTWS    .US/F  : COMPRESSIONAL SONIC [DTED]
GRDED   .GAPI  : GAMMA RAY FROM DENSITY LOG [ADJ. TO RESISTIVITY LOG]
GRSED   .GAPI  : GAMMA RAY FROM SONIC LOG [ADJ. TO RESISTIVITY LOG]
GRWS    .GAPI  : GAMMA RAY [GRSED SPL. TO GRDED @ 1070']
ILDED   .OHMM  : DEEP INDUCTION FROM RESISTIVITY LOG
ILMED   .OHMM  : MEDIUM INDUCTION FROM RESISTIVITY LOG
LL8ED   .OHMM  : LATEROLOG-8 FROM RESISTIVITY LOG
MRESWS  .OHMM  : MEDIUM RESISTIVITY [ILMED]
NPOLSWS .V/V   : NEUTRON POROSITY LIMESTONE [NPHISSED MATRIX CONVERSION FOR LIMESTONE, SPL. TO NPHILSED @ 6496']
NPORLSED.V/V   : NEUTRON POROSITY LIMESTONE FROM DENISTY LOG [ADJ. TO RESISTIVITY LOG]
NPORSSED.V/V   : NEUTRON POROSITY SANDSTONE FROM DENSITY LOG [ADJ. TO RESISTIVITY LOG]
RHOBED  .G/C3  : BULK DENSITY FROM DENSITY LOG [ADJ. TO RESISTIVITY LOG]
SPRED   .MV    : SPONTANEOUS POTENTIAL FROM RESISTIVITY LOG
SPWS    .MV    : SPONTANEOUS POTENTIAL [BASELINE 0 MV, SPRED]
SRESWS  .OHMM  : SHALLOW RESISTIVITY [LL8ED]
~Params ----------------------------------------------------
PD  .                     GL : PERMANENT DATUM
EPD .FT                 2963 : ELEVATION PERMANENT DATUM
LMF .                     KB : LOG MEASURED FROM
DAPD.FT                   13 : FEET ABOVE PERMANENT DATUM
EKB .FT                 2976 : KELLY BUSHING
EGL .FT                 2963 : GROUND LEVEL
DATE.               03/29/77 : RUN DATE
RUN .                      1 : RUN NUMBER
DD  .FT                10475 : DEPTH DRILLER
DL  .FT                10478 : DEPTH LOGGER
BLI .FT                10472 : BOTTOM LOG INTERVAL
TLI .FT                 1071 : TOP LOG INTERVAL
CBD .FT                 1070 : CASING BOTTOM DRILLER
CBL .FT                 1071 : CASING BOTTOM LOGGER
BS  .IN                 8.75 : BIT SIZE
BSD .FT                10475 : BIT SIZE AT DEPTH
DFT .               GEL CHEM : DRILLING FLUID TYPE
DFD .                    9.2 : DRILLING FLUID DENSITY
DFV .                     81 : DRILLING FLUID VISCOSITY
DFPH.                    9.5 : DRILLING FLUID PH
DFL .                      8 : DRILLING FLUID LOSS
MSS .             CIRCULATED : MUD SAMPLE SOURCE
RMS .OHMM                1.1 : RESISTIVITY MUD SAMPLE
MST .DEGF                 62 : MUD SAMPLE TEMPERATURE
RMF .OHMM               0.76 : RESISTIVITY MUD FILTRATE SAMPLE
MFST.DEGF                 62 : MUD FILTRATE SAMPLE TEMPERATURE
TCS .HRS                   4 : TIME CIRCULATED STOPPED
LUN .                   7690 : LOGGING UNIT NUMBER
LUL .                    EDM : LOGGING UNIT LOCATION
ENGI.                WOROWUK : RECORDING ENGINEER
WITN.                  KELLY : WITNESSED BY
CLNT.                A2DTECH : CLIENT CODE
ORIG.            2" 5" PRINT : ORIGIN OF DATA
UWI .       102101106218W500 : UNIQUE WELL ID
DICO. A2D Technologies, Inc. : DIGITIZING COMPANY
~Other -----------------------------------------------------
DIL-BHC-CNL-FDC LOG RUN
SCH(CNL-NPHI) USED FOR NEUTRON MATRIX CONVERSION
CILD DIG'ED FROM 2" LINEAR LOG
~ASCII -----------------------------------------------------
# ...
 3500.00000   12.37100   10.76750   12.37100    -999.25  231.14970    0.05700    0.05700    2.48470    0.13180    -999.25    0.09830    4.32620   93.26120   93.26120   71.76450   61.63490   71.76450    4.32620    4.46140    4.79640    4.46140    0.30100    -999.25    0.34470    2.48470 -133.62200   -3.37360    4.79640
 3550.00000   12.83920   11.77930   12.83920    -999.25  186.60550    0.08850    0.08850    2.51610    0.11340    -999.25    0.08080    5.35890   88.49770   88.49770   95.93960   69.21700   95.93960    5.35890    5.52260    5.65970    5.52260    0.30400    -999.25    0.34770    2.51610 -134.95570   -4.94040    5.65970
 3600.00000   13.07820   12.05640   13.07820    -999.25  192.72280    0.11360    0.11360    2.52450    0.10850    -999.25    0.07180    5.18880   88.76060   88.76060   90.88620   66.65510   90.88620    5.18880    5.10380    5.66050    5.10380    0.27940    -999.25    0.32330    2.52450 -134.72610   -4.94550    5.66050
 3650.00000   12.45840   11.66450   12.45840    -999.25  201.01310    0.05400    0.05400    2.45790    0.14740    -999.25    0.11530    4.97480   92.81010   92.81010   85.33480   69.60540   85.33480    4.97480    5.24780    5.59880    5.24780    0.30760    -999.25    0.35120    2.45790 -133.62170   -4.07430    5.59880
 3700.00000   10.87100   10.79800   10.87100    -999.25  158.62690    0.06380    0.06380    2.54280    0.09780    -999.25    0.06050    6.30410   94.23080   94.23080  119.01470   90.66390  119.01470    6.30410    6.56710    8.27010    6.56710    0.30660    -999.25    0.35020    2.54280 -133.59390   -4.28120    8.27010
 3750.00000   10.51470   10.48020   10.51470    -999.25  158.29300    0.08030    0.08030    2.56020    0.08760    -999.25    0.04970    6.31740   90.83780   90.83780   92.62820   73.72470   92.62820    6.31740    6.50520    7.31000    6.50520    0.30120    -999.25    0.34490    2.56020 -133.72110   -4.64150    7.31000
 3800.00000   10.90290   10.82630   10.90290    -999.25  186.09150    0.06710    0.06710    2.51740    0.11270    -999.25    0.08000    5.37370   90.60110   90.60110   91.45560   70.51970   91.45560    5.37370    5.62260    6.05820    5.62260    0.28400    -999.25    0.32780    2.51740 -132.25490   -3.38090    6.05820
 3850.00000   11.45390   10.99760   11.45390    -999.25  206.58600    0.10150    0.10150    2.43340    0.16170    -999.25    0.12880    4.84060   91.45560   91.45560   84.24920   67.48400   84.24920    4.84060    4.98860    5.25520    4.98860    0.36160    -999.25    0.40440    2.43340 -133.01340   -4.13940    5.25520
 3900.00000   11.99970   11.41490   11.99970    -999.25  139.40000    0.07210    0.07210    2.51670    0.11310    -999.25    0.07670    7.17360   85.54470   85.54470   89.25730   63.81640   89.25730    7.17360    7.40380    7.63270    7.40380    0.29420    -999.25    0.33800    2.51670 -134.96030   -6.08630    7.63270
 3950.00000   12.14650   10.88000   12.14650  103.26290  154.11880    0.06890    0.06890    2.46920    0.14080    -999.25    0.10660    6.48850   88.28960   88.28960   87.73290   67.11630   87.73290    6.48850    6.43100    7.13320    6.43100    0.27310    -999.25    0.31700    2.46920 -134.31540   -5.44140    7.13320
 4000.00000   12.33160   10.34300   12.33160    -999.25  144.20860    0.03790    0.03790    2.48490    0.13160    -999.25    0.09960    6.93440   85.29990   85.29990   86.16680   65.57310   86.16680    6.93440    7.19850    7.84110    7.19850    0.22500    -999.25    0.26900    2.48490 -133.32860   -4.45460    7.84110
 4050.00000   12.28870   10.71560   12.28870    -999.25  150.51170    0.03930    0.03930    2.44710    0.15370    -999.25    0.11800    6.64400   92.29090   92.29090   99.10790   78.71230   99.10790    6.64400    6.89560    7.79600    6.89560    0.30160    -999.25    0.34530    2.44710 -131.50190   -2.62780    7.79600
 4100.00000   12.13210   11.46720   12.13210    -999.25  188.59740    0.10230    0.10230    2.48100    0.13390    -999.25    0.10110    5.30230   92.68060   92.68060   90.12180   73.76270   90.12180    5.30230    5.50490    5.73520    5.50490    0.30430    -999.25    0.34800    2.48100 -132.82780   -4.28870    5.73520
 4150.00000   11.45560   11.09260   11.45560    -999.25  156.84550    0.06710    0.06710    2.46780    0.14160    -999.25    0.10740    6.37570   87.92540   87.92540   89.75190   70.24980   89.75190    6.37570    6.61820    6.81330    6.61820    0.28670    -999.25    0.33050    2.46780 -132.73550   -4.61020    6.81330
 4200.00000   11.77570   11.45220   11.77570    -999.25  161.11880    0.10180    0.10180    2.56210    0.08650    -999.25    0.04760    6.20660   87.98880   87.98880   89.41170   70.49200   89.41170    6.20660    6.45070    7.07880    6.45070    0.27380    -999.25    0.31770    2.56210 -131.26240   -3.55370    7.07880
 4250.00000   11.18760   11.17720   11.18760    -999.25  113.53190    0.06160    0.06160    2.51270    0.11540    -999.25    0.08000    8.80810   81.16740   81.16740   77.86270   60.21800   77.86270    8.80810    9.37850   10.35510    9.37850    0.21030    -999.25    0.25420    2.51270 -132.67550   -5.38070   10.35510
 4300.00000   10.23140   11.32460   10.23140    -999.25  156.58030    0.18810    0.18810    2.16030    0.32150    -999.25    0.29000    6.38650   86.04520   86.04520   90.01010   75.73380   90.01010    6.38650    6.63640    7.13280    6.63640    0.31600    -999.25    0.35950    2.16030 -130.95400   -4.07310    7.13280
 4350.00000   11.05090   11.11540   11.05090    -999.25  153.98360    0.17440    0.17440    2.20380    0.29600    -999.25    0.26820    6.49420   85.12070   85.12070   90.05290   70.28220   90.05290    6.49420    6.77650    7.28820    6.77650    0.29110    -999.25    0.33490    2.20380 -130.20160   -3.73730    7.28820
 4400.00000   10.63250   10.58730   10.63250    -999.25  139.96580    0.22740    0.22740    2.22490    0.28370    -999.25    0.25920    7.14460   83.59650   83.59650   87.31940   65.41570   87.31940    7.14460    7.41600    8.14010    7.41600    0.29570    -999.25    0.33940    2.22490 -129.40720   -3.35680    8.14010
 4450.00000   11.41800   10.73250   11.41800    -999.25  171.07470    0.20980    0.20980    2.22460    0.28390    -999.25    0.25800    5.84540   88.96850   88.96850   89.32360   65.53500   89.32360    5.84540    6.17370    7.04470    6.17370    0.32530    -999.25    0.36870    2.22460 -128.50680   -3.01280    7.04470
 4500.00000   11.63230   10.43240   11.63230    -999.25  148.32610    0.21950    0.21950    2.32150    0.22720    -999.25    0.19620    6.74190   87.74880   87.74880   90.69910   63.40550   90.69910    6.74190    7.17210    7.72860    7.17210    0.33970    -999.25    0.38290    2.32150 -128.79340   -3.91560    7.72860
 4550.00000   10.56040    9.59880   10.56040    -999.25  156.27440    0.20580    0.20580    2.31430    0.23140    -999.25    0.20530    6.39900   93.54530   93.54530   94.61330   77.66470   94.61330    6.39900    6.85610    7.83520    6.85610    0.33250    -999.25    0.37580    2.31430 -128.32150   -4.06000    7.83520
 4600.00000   10.23750    9.69670   10.23750    -999.25  136.69420    0.25160    0.25160    2.36190    0.20350    -999.25    0.17210    7.31560   94.53710   94.53710  106.36410   80.09690  106.36410    7.31560    7.86660    9.94310    7.86660    0.33300    -999.25    0.37630    2.36190 -127.29790   -3.65670    9.94310
 4650.00000    9.15580    9.30350    9.15580    -999.25  143.59560    0.01210    0.01210    2.48530    0.13140    -999.25    0.09620    6.96400   91.51410   91.51410  105.93770   81.13230  105.93770    6.96400    7.46550    9.51130    7.46550    0.35060    -999.25    0.39360    2.48530 -126.90210   -3.87720    9.51130
 4700.00000    9.39480    9.51640    9.39480    -999.25  111.74060    0.02290    0.02290    2.48900    0.12920    -999.25    0.09430    8.94930   93.54640   93.54640  111.59490   90.31160  111.59490    8.94930    9.64280   12.69100    9.64280    0.34600    -999.25    0.38910    2.48900 -126.55640   -4.15180   12.69100
