~Version ---------------------------------------------------
VERS.      2.0 : CWLS log ASCII Standard -VERSION 2.0
WRAP.       NO : One line per depth step
CREA. 11/10/17 : LAS Creation Date
~Well ------------------------------------------------------
STRT.FT                         1200.0 : START DEPTH
STOP.FT                        11200.0 : STOP DEPTH
STEP.FT                       50.00000 : STEP LENGTH
NULL.                          -999.25 : NULL VALUE
COMP. AMOCO CANADA PETROLEUM CO., LTD. : COMPANY
WELL.    AMOCO A-1 NW ANTE 10-29-66-25 : WELL
FLD .                                  : FIELD
LOC .                                  : LOCATION
CTRY.                           CANADA : COUNTRY
SRVC.           Schlumberger of Canada : SERVICE COMPANY
DATE.                      20-Oct-1973 : LOGDATE
PROV.                          Alberta : PROVINCE
UWI .                 100102906625W500 : UNIQUE WELL ID
SLAT.WGS84                    54.74394 : SURFACE LATITUDE
SLON.WGS84                   -117.7384 : SURFACE LONGITUDE
~Curve Information -----------------------------------------
DEPT    .FT    : Depth Curve
CALDED  .IN    : CALIPER FROM DENSITY LOG
CALNED  .IN    : CALIPER FROM NEUTRON LOG
CALSED  .IN    : CALIPER FROM SONIC LOG
CALWS   .IN    : CALIPER [CALSED]
CONDWS  .MMHO  : CONDUCTIVITY [1000/DRESWS]
DCORWS  .G/C3  : DENSITY CORRECTION [DRHOED]
DENWS   .G/C3  : FORMATION BULK DENSITY [RHOBED]
DPHILSED.V/V   : DENSITY POROSITY LIME [M=2.71, F=1.00] FROM DENSITY LOG
DPOLSWS .V/V   : DENSITY POROSITY LIME [M=2.71, F=1.00] [CALCULATED FROM DENWS]
DRESWS  .OHMM  : DEEP RESISTIVITY [ILDED]
DRHOED  .G/C3  : BULK DENSITY CORRECTION FROM DENSITY LOG
DTED    .US/F  : DELTA-T (INTERVAL TRANSIT TIME) FROM SONIC LOG
DTWS    .US/F  : COMPRESSIONAL SONIC [DTED]
GRDED   .GAPI  : GAMMA RAY FROM DENSITY LOG
GRNED   .GAPI  : GAMMA RAY FROM NEUTRON LOG
GRSED   .GAPI  : GAMMA RAY FROM SONIC LOG
GRWS    .GAPI  : GAMMA RAY [GRSED]
ILDED   .OHMM  : DEEP INDUCTION FROM RESISTIVITY LOG
ILMED   .OHMM  : MEDIUM INDUCTION FROM RESISTIVITY LOG
LL8ED   .OHMM  : LATEROLOG8 FROM RESISTIVITY LOG
MRESWS  .OHMM  : MEDIUM RESISTIVITY [ILMED]
NPOLSWS .V/V   : NEUTRON POROSITY LIME [SNPLSED]
RHOBED  .G/C3  : BULK DENSITY FROM DENSITY LOG
SNPLSED .V/V   : SIDEWALL NEUTRON POROSITY LIME FROM NEUTRON LOG
SPRED   .MV    : SPONTANEOUS POTENTIAL FROM RESISTIVITY LOG
SPWS    .MV    : SPONTANEOUS POTENTIAL [BASE LINE 0 MV, SPRED]
SRESWS  .OHMM  : SHALLOW RESISTIVITY [LL8ED]
~Params ----------------------------------------------------
PD  .                     GL : PERMANENT DATUM
EPD .FT               2302.4 : ELEVATION PERMANENT DATUM
LMF .                     KB : LOG MEASURED FROM
DAPD.FT                 17.6 : FEET ABOVE PERMANENT DATUM
EKB .FT               2320.0 : KELLY BUSHING
EGL .FT               2302.4 : GROUND LEVEL
DATE.               10/20/73 : RUN DATE
RUN .                      1 : RUN NUMBER
DD  .FT                11236 : DEPTH DRILLER
DL  .FT                11235 : DEPTH LOGGER
BLI .FT                11234 : BOTTOM LOG INTERVAL
TLI .FT                 6400 : TOP LOG INTERVAL
CS  .IN                9.625 : CASING SIZE
CBD .FT                 1247 : CASING BOTTOM DRILLER
CBL .FT                 1247 : CASING BOTTOM LOGGER
BS  .IN                 8.75 : BIT SIZE
BSD .FT                11236 : BIT SIZE AT DEPTH
DFT .               GEL CHEM : DRILLING FLUID TYPE
DFD .                    9.2 : DRILLING FLUID DENSITY
DFV .                     62 : DRILLING FLUID VISCOSITY
DFPH.                    9.0 : DRILLING FLUID PH
DFL .                   10.2 : DRILLING FLUID LOSS
RMF .OHMM               1.15 : RESISTIVITY MUD FILTRATE SAMPLE
MFST.DEGF                 70 : MUD FILTRATE SAMPLE TEMPERATURE
RMB .OHMM                0.4 : RESISTIVITY MUD AT BHT
TCS .HRS                 4.5 : TIME CIRCULATED STOPPED
LUN .                   7667 : LOGGING UNIT NUMBER
LUL .                    EDM : LOGGING UNIT LOCATION
ENGI.               BENOWSKI : RECORDING ENGINEER
WITN.       SNYDMELLER FRAME : WITNESSED BY
CLNT.                A2DTECH : CLIENT CODE
ORIG.            2" 5" PRINT : ORIGIN OF DATA
UWI .       100102906625W500 : UNIQUE WELL ID
DICO. A2D Technologies, Inc. : DIGITIZING COMPANY
~Other -----------------------------------------------------
~ASCII -----------------------------------------------------
 1200.00000    -999.25    -999.25    -999.25    -999.25    -999.25    -999.25    -999.25    -999.25    -999.25    -999.25    -999.25    -999.25    -999.25    -999.25    -999.25   54.42460   54.42460    -999.25    -999.25    -999.25    -999.25    -999.25    -999.25    -999.25    -999.25    -999.25    -999.25
 1250.00000    -999.25    -999.25   15.00130   15.00130  243.52230    -999.25    -999.25    -999.25    -999.25    4.10640    -999.25  175.25120  175.25120    -999.25    -999.25   53.42040   53.42040    4.10640    -999.25    6.06840    -999.25    -999.25    -999.25    -999.25  -83.82930   -3.98540    6.06840
 1300.00000    -999.25    -999.25   12.11420   12.11420  471.96530    -999.25    -999.25    -999.25    -999.25    2.11880    -999.25  125.28760  125.28760    -999.25    -999.25  115.72190  115.72190    2.11880    1.91490    2.87280    1.91490    -999.25    -999.25    -999.25  -87.74240   -5.72410    2.87280
 1350.00000    -999.25    -999.25   10.79800   10.79800  199.60880    -999.25    -999.25    -999.25    -999.25    5.00980    -999.25  110.25840  110.25840    -999.25    -999.25   74.61850   74.61850    5.00980    4.53350    5.89980    4.53350    -999.25    -999.25    -999.25  -89.50460   -1.88600    5.89980
 1400.00000    -999.25    -999.25   11.06750   11.06750  436.91020    -999.25    -999.25    -999.25    -999.25    2.28880    -999.25  119.93630  119.93630    -999.25    -999.25   89.49400   89.49400    2.28880    2.05640    2.71220    2.05640    -999.25    -999.25    -999.25  -94.04060   -5.17220    2.71220
 1450.00000    -999.25    -999.25    9.68900    9.68900   96.50860    -999.25    -999.25    -999.25    -999.25   10.36660    -999.25  106.72070  106.72070    -999.25    -999.25   61.00670   61.00670   10.36660    9.51660   11.40950    9.51660    -999.25    -999.25    -999.25  -96.85140   -6.72690   11.40950
 1500.00000    -999.25    -999.25   10.80920   10.80920  224.22030    -999.25    -999.25    -999.25    -999.25    4.45990    -999.25  112.61100  112.61100    -999.25    -999.25   70.53180   70.53180    4.45990    4.18750    4.78070    4.18750    -999.25    -999.25    -999.25  -96.93840   -5.57040    4.78070
 1550.00000    -999.25    -999.25   13.16650   13.16650  453.41190    -999.25    -999.25    -999.25    -999.25    2.20550    -999.25  134.49940  134.49940    -999.25    -999.25   78.07080   78.07080    2.20550    2.17390    3.26980    2.17390    -999.25    -999.25    -999.25  -98.86800   -3.80590    3.26980
 1600.00000    -999.25    -999.25   11.72970   11.72970  275.26980    -999.25    -999.25    -999.25    -999.25    3.63280    -999.25  122.37950  122.37950    -999.25    -999.25   72.55310   72.55310    3.63280    3.68730    3.95930    3.68730    -999.25    -999.25    -999.25 -100.23000   -5.13400    3.95930
 1650.00000    -999.25    -999.25    9.37140    9.37140  155.12290    -999.25    -999.25    -999.25    -999.25    6.44650    -999.25  102.64540  102.64540    -999.25    -999.25   64.09030   64.09030    6.44650    5.82670    7.15300    5.82670    -999.25    -999.25    -999.25  -98.51750   -3.38770    7.15300
 1700.00000    -999.25    -999.25   11.65320   11.65320  234.31050    -999.25    -999.25    -999.25    -999.25    4.26790    -999.25  109.71250  109.71250    -999.25    -999.25   67.38510   67.38510    4.26790    3.96910    4.59350    3.96910    -999.25    -999.25    -999.25 -101.05200   -5.88820    4.59350
 1750.00000    -999.25    -999.25   11.20230   11.20230  235.42710    -999.25    -999.25    -999.25    -999.25    4.24760    -999.25  146.51350  146.51350    -999.25    -999.25   73.40750   73.40750    4.24760    3.74060    5.24320    3.74060    -999.25    -999.25    -999.25 -100.20510   -5.00770    5.24320
 1800.00000    -999.25    -999.25   10.47280   10.47280  173.91610    -999.25    -999.25    -999.25    -999.25    5.74990    -999.25   94.70510   94.70510    -999.25    -999.25   61.06490   61.06490    5.74990    5.36960    6.03980    5.36960    -999.25    -999.25    -999.25  -98.36650   -3.13530    6.03980
 1850.00000    -999.25    -999.25   10.56720   10.56720  106.76120    -999.25    -999.25    -999.25    -999.25    9.36670    -999.25  113.35950  113.35950    -999.25    -999.25   70.54590   70.54590    9.36670    7.71460    8.93770    7.71460    -999.25    -999.25    -999.25  -97.80350   -2.53850    8.93770
 1900.00000    -999.25    -999.25    9.80360    9.80360   90.85620    -999.25    -999.25    -999.25    -999.25   11.00640    -999.25  101.56720  101.56720    -999.25    -999.25   55.58540   55.58540   11.00640    9.55180    8.71900    9.55180    -999.25    -999.25    -999.25 -101.21520   -5.91640    8.71900
 1950.00000    -999.25    -999.25    9.68510    9.68510   37.68810    -999.25    -999.25    -999.25    -999.25   26.76980    -999.25   88.48890   88.48890    -999.25    -999.25   62.45370   62.45370   26.76980   26.36070   51.53310   26.36070    -999.25    -999.25    -999.25 -100.55940   -5.22660   51.53310
 2000.00000    -999.25    -999.25   10.70100   10.70100  265.37170    -999.25    -999.25    -999.25    -999.25    3.76830    -999.25  106.17590  106.17590    -999.25    -999.25   69.03780   69.03780    3.76830    3.50610    4.26860    3.50610    -999.25    -999.25    -999.25  -98.68160   -3.31520    4.26860
 2050.00000    -999.25    -999.25   14.81280   14.81280  251.33840    -999.25    -999.25    -999.25    -999.25    3.97870    -999.25  134.74000  134.74000    -999.25    -999.25   54.90820   54.90820    3.97870    3.74500    4.57950    3.74500    -999.25    -999.25    -999.25  -99.21830   -3.81810    4.57950
 2100.00000    -999.25    -999.25   11.62260   11.62260  267.51560    -999.25    -999.25    -999.25    -999.25    3.73810    -999.25  114.96520  114.96520    -999.25    -999.25   56.47920   56.47920    3.73810    3.56690    4.33790    3.56690    -999.25    -999.25    -999.25  -98.29330   -2.85930    4.33790
 2150.00000    -999.25    -999.25   11.25840   11.25840  184.95230    -999.25    -999.25    -999.25    -999.25    5.40680    -999.25  106.69190  106.69190    -999.25    -999.25   59.27500   59.27500    5.40680    4.93810    5.90250    4.93810    -999.25    -999.25    -999.25  -97.20860   -1.74080    5.90250
 2200.00000    -999.25    -999.25   12.56130   12.56130  226.55890    -999.25    -999.25    -999.25    -999.25    4.41550    -999.25  111.60600  111.60600    -999.25    -999.25   65.35460   65.35460    4.41550    4.00500    5.20460    4.00500    -999.25    -999.25    -999.25  -98.63030   -3.12850    5.20460
 2250.00000    -999.25    -999.25   11.26410   11.26410  228.50880    -999.25    -999.25    -999.25    -999.25    4.37620    -999.25  109.94570  109.94570    -999.25    -999.25   61.98980   61.98980    4.37620    3.88340    5.28190    3.88340    -999.25    -999.25    -999.25  -97.38790   -1.85240    5.28190
 2300.00000    -999.25    -999.25    8.67470    8.67470   96.35770    -999.25    -999.25    -999.25    -999.25   10.37800    -999.25   95.46980   95.46980    -999.25    -999.25   48.90970   48.90970   10.37800    9.36710    8.27910    9.36710    -999.25    -999.25    -999.25 -101.95670   -6.38740    8.27910
 2350.00000    -999.25    -999.25    8.71250    8.71250   77.85740    -999.25    -999.25    -999.25    -999.25   12.84400    -999.25   60.30430   60.30430    -999.25    -999.25   45.43480   45.43480   12.84400   11.96860   10.59050   11.96860    -999.25    -999.25    -999.25 -103.98110   -8.37800   10.59050
 2400.00000    -999.25    -999.25    9.32130    9.32130  176.26110    -999.25    -999.25    -999.25    -999.25    5.67340    -999.25   91.41070   91.41070    -999.25    -999.25   62.34840   62.34840    5.67340    5.41650    6.45640    5.41650    -999.25    -999.25    -999.25  -99.48690   -3.85000    6.45640
 2450.00000    -999.25    -999.25    9.71050    9.71050  167.96080    -999.25    -999.25    -999.25    -999.25    5.95380    -999.25   89.76400   89.76400    -999.25    -999.25   74.04850   74.04850    5.95380    6.37820    7.14470    6.37820    -999.25    -999.25    -999.25  -99.32240   -3.65150    7.14470
