~Version ---------------------------------------------------
VERS.      2.0 : CWLS log ASCII Standard -VERSION 2.0
WRAP.       NO : One line per depth step
CREA. 10/05/17 : LAS Creation Date
~Well ------------------------------------------------------
STRT.FT                  900.0 : START DEPTH
STOP.FT                11100.0 : STOP DEPTH
STEP.FT               50.00000 : STEP LENGTH
NULL.                   -999.0 : NULL VALUE
COMP.     CHEVRON STANDARD LTD : COMPANY
WELL. CHEVRON CLARK 10-2-59-18 : WELL
FLD .             KAYBOB SOUTH : FIELD
LOC .                          : LOCATION
CTRY.                   CANADA : COUNTRY
SRVC.             Schlumberger : SERVICE COMPANY
DATE.              17-Jul-1968 : LOGDATE
PROV.                  Alberta : PROVINCE
UWI .         100100205918W500 : UNIQUE WELL ID
SLAT.WGS84            54.07468 : SURFACE LATITUDE
SLON.WGS84           -116.5832 : SURFACE LONGITUDE
~Curve Information -----------------------------------------
DEPT    .FT    : Depth Curve
CALDED  .IN    : CALIPER FROM DENSITY LOG
CALNED  .IN    : CALIPER FROM NEUTRON LOG [ADJ. TO RESISTIVITY LOG]
CALSED  .IN    : CALIPER FROM SONIC LOG [ADJ. TO RESISTIVITY LOG]
CALWS   .IN    : CALIPER [CALSED SPL. TO CALDED @ 10654']
CONDWS  .MMHO  : CONDUCTIVITY [1000/DRESWS]
DCORWS  .G/C3  : DENSITY CORRECTION [DRHOED]
DENWS   .G/C3  : FORMATION BULK DENSITY [RHOBED]
DPHIDLED.V/V   : DENSITY POROSITY DOLOMITE [M=2.85, F=1.00] FROM DENSITY LOG [ADJ. TO RESISTIVITY LOG]
DPHILSED.V/V   : DENSITY POROSITY LIMESTONE [M=2.71,F=1.0] FROM DENSITY LOG [ADJ. TO RESISTIVITY LOG]
DPOLSWS .V/V   : DENSITY POROSITY LIMESTONE [CALC FROM DENWS,M=2.71, F=1.00]
DRESWS  .OHMM  : DEEP RESISTIVITY [ILDED]
DRHOED  .G/C3  : BULK DENSITY CORRECTION FROM DENSITY LOG [ADJ. TO RESISTIVITY LOG]
DTED    .US/F  : DELTA-T FROM SONIC LOG [ADJ. TO RESISTIVITY LOG]
DTWS    .US/F  : COMPRESSIONAL SONIC [DTED]
GRSED   .GAPI  : GAMMA RAY FROM SONIC LOG [ADJ. TO RESISTIVITY LOG]
GRWS    .GAPI  : GAMMA RAY [GRSED]
ILDED   .OHMM  : DEEP INDUCTION RESISTIVITY FROM RESISTIVITY LOG
ILMED   .OHMM  : MEDIUM INDUCTION RESISTIVITY FROM RESISTIVITY LOG
LL8ED   .OHMM  : LATEROLOG-8 RESISTIVITY FROM RESISTIVITY LOG
MRESWS  .OHMM  : MEDIUM RESISTIVITY [ILMED]
NPOLSWS .V/V   : NEUTRON POROSITY [SNPLSED]
RHOBED  .G/C3  : BULK DENSITY FROM DENSITY LOG
SNPLSED .V/V   : SIDEWALL NEUTRON POROSITY LIMESONTE FROM SNP LOG [ADJ. TO RESISTIVITY LOG]
SPRED   .MV    : SPONTANEOUS POTENTIAL FROM RESISTIVITY LOG
SPWS    .MV    : SPONTANEOUS POTENTIAL [BASELINE 0 MV,SPRED]
SRESWS  .OHMM  : SHALLOW RESISTIVITY [LL8ED]
~Params ----------------------------------------------------
PD  .                     GL : PERMANENT DATUM
EPD .FT                 3126 : ELEVATION PERMANENT DATUM
LMF .                     KB : LOG MEASURED FROM
DAPD.FT                   14 : FEET ABOVE PERMANENT DATUM
EKB .FT                 3140 : KELLY BUSHING
EDF .FT                 3126 : DRILLING FLOOR
DATE.               08/13/68 : RUN DATE
RUN .                      2 : RUN NUMBER
DD  .FT                11108 : DEPTH DRILLER
DL  .FT                11107 : DEPTH LOGGER
BLI .FT                11102 : BOTTOM LOG INTERVAL
TLI .FT                10629 : TOP LOG INTERVAL
CBD .FT                10630 : CASING BOTTOM DRILLER
CBL .FT                10629 : CASING BOTTOM LOGGER
BS  .IN                 6.25 : BIT SIZE
BSD .FT                11108 : BIT SIZE AT DEPTH
DFT .                    GEL : DRILLING FLUID TYPE
DFD .                    9.7 : DRILLING FLUID DENSITY
DFV .                     87 : DRILLING FLUID VISCOSITY
RMS .OHMM               1.52 : RESISTIVITY MUD SAMPLE
MST .DEGF                 70 : MUD SAMPLE TEMPERATURE
RMF .OHMM               1.25 : RESISTIVITY MUD FILTRATE SAMPLE
MFST.DEGF                 75 : MUD FILTRATE SAMPLE TEMPERATURE
RMC .OHMM               1.55 : RESISTIVITY MUD CAKE
MCST.DEGF                 70 : MUD CAKE SAMPLE TEMPERATURE
TCS .HRS                 1.5 : TIME CIRCULATED STOPPED
LUN .                   3702 : LOGGING UNIT NUMBER
LUL .                     DC : LOGGING UNIT LOCATION
ENGI.                   BIGG : RECORDING ENGINEER
WITN.         HOVDEBO GHAZAR : WITNESSED BY
CLNT.                A2DTECH : CLIENT CODE
ORIG.            2" 5" PRINT : ORIGIN OF DATA
UWI .       100100205918W500 : UNIQUE WELL ID
DICO. A2D Technologies, Inc. : DIGITIZING COMPANY
~Other -----------------------------------------------------
DIL-LAT/FDC/SNP/BCS LOG RAN
MATRIX VALUE NOT MENTION
~ASCII -----------------------------------------------------
# ...
 9000.00000     -999.0     -999.0   10.83190   10.83190    3.89100     -999.0     -999.0     -999.0     -999.0     -999.0  257.00630     -999.0   53.30300   53.30300   13.53640   13.53640  257.00630  191.19580  156.40760  191.19580     -999.0     -999.0     -999.0 -188.11110 -111.64840  156.40760
 9050.00000     -999.0     -999.0   11.11220   11.11220    3.15780     -999.0     -999.0     -999.0     -999.0     -999.0  316.67130     -999.0   53.82030   53.82030   14.80960   14.80960  316.67130  144.26870  116.72160  144.26870     -999.0     -999.0     -999.0 -177.74000 -101.21320  116.72160
 9100.00000     -999.0     -999.0   10.79200   10.79200    1.52020     -999.0     -999.0     -999.0     -999.0     -999.0  657.81900     -999.0   54.28650   54.28650   14.03100   14.03100  657.81900  178.48360  128.18330  178.48360     -999.0     -999.0     -999.0 -178.93190 -102.34050  128.18330
 9150.00000     -999.0     -999.0   10.67060   10.67060    9.31820     -999.0     -999.0     -999.0     -999.0     -999.0  107.31640     -999.0   52.29390   52.29390   11.47230   11.47230  107.31640  169.29950   79.04840  169.29950     -999.0     -999.0     -999.0 -180.53190 -103.87640   79.04840
 9200.00000     -999.0     -999.0   11.63630   11.63630   13.63480     -999.0     -999.0     -999.0     -999.0     -999.0   73.44940     -999.0   56.46210   56.46210   14.07270   14.07270   73.44940  125.63560   88.43750  125.63560     -999.0     -999.0     -999.0 -184.07370 -107.35360   88.43750
 9250.00000     -999.0     -999.0   10.68680   10.68680    4.54230     -999.0     -999.0     -999.0     -999.0     -999.0  220.15260     -999.0   55.63950   55.63950   14.79100   14.79100  220.15260  219.60650  246.99480  219.60650     -999.0     -999.0     -999.0 -176.84500 -100.06080  246.99480
 9300.00000     -999.0     -999.0    9.84450    9.84450   62.85240     -999.0     -999.0     -999.0     -999.0     -999.0   15.91030     -999.0   55.26300   55.26300   40.79800   40.79800   15.91030   17.71290   28.30240   17.71290     -999.0     -999.0     -999.0 -145.15910  -68.31070   28.30240
 9350.00000     -999.0     -999.0    9.80820    9.80820   13.77210     -999.0     -999.0     -999.0     -999.0     -999.0   72.61060     -999.0   49.49200   49.49200   32.01640   32.01640   72.61060 1531.47310 1169.06180 1531.47310     -999.0     -999.0     -999.0 -188.68920 -111.77630 1169.06180
 9400.00000     -999.0     -999.0   13.72460   13.72460   10.07870     -999.0     -999.0     -999.0     -999.0     -999.0   99.21930     -999.0   64.66770   64.66770   18.76800   18.76800   99.21930   51.38250   34.01020   51.38250     -999.0     -999.0     -999.0 -195.97210 -118.99500   34.01020
 9450.00000     -999.0     -999.0   11.33810   11.33810   38.05340     -999.0     -999.0     -999.0     -999.0     -999.0   26.28420     -999.0   57.45320   57.45320   24.86270   24.86270   26.28420   23.64980   19.95830   23.64980     -999.0     -999.0     -999.0 -175.92090  -98.87930   19.95830
 9500.00000     -999.0     -999.0   10.72230   10.72230    8.41740     -999.0     -999.0     -999.0     -999.0     -999.0  118.80100     -999.0   50.75790   50.75790   19.79040   19.79040  118.80100  278.13040  242.62410  278.13040     -999.0     -999.0     -999.0 -121.36550  -44.25970  242.62410
 9550.00000     -999.0     -999.0   10.36180   10.36180   14.96290     -999.0     -999.0     -999.0     -999.0     -999.0   66.83190     -999.0   53.96210   53.96210   30.52710   30.52710   66.83190   73.74020   81.86610   73.74020     -999.0     -999.0     -999.0  -97.85480  -20.68490   81.86610
 9600.00000     -999.0     -999.0    9.88790    9.88790   14.86190     -999.0     -999.0     -999.0     -999.0     -999.0   67.28610     -999.0   54.56590   54.56590   34.44510   34.44510   67.28610   67.92280   72.47160   67.92280     -999.0     -999.0     -999.0 -101.18890  -23.95440   72.47160
 9650.00000     -999.0     -999.0    9.84880    9.84880   32.11710     -999.0     -999.0     -999.0     -999.0     -999.0   31.13610     -999.0   55.60270   55.60270   32.12900   32.12900   31.13610   46.55800   42.19680   46.55800     -999.0     -999.0     -999.0  -99.98950  -22.69090   42.19680
 9700.00000     -999.0     -999.0    9.75650    9.75650   20.22710     -999.0     -999.0     -999.0     -999.0     -999.0   49.43870     -999.0   53.75120   53.75120   28.21880   28.21880   49.43870   90.47740   70.89460   90.47740     -999.0     -999.0     -999.0 -100.05370  -22.69050   70.89460
 9750.00000     -999.0     -999.0    9.78960    9.78960   19.29420     -999.0     -999.0     -999.0     -999.0     -999.0   51.82900     -999.0   53.13090   53.13090   24.51100   24.51100   51.82900  109.90660   91.54730  109.90660     -999.0     -999.0     -999.0  -95.91860  -18.49130   91.54730
 9800.00000     -999.0     -999.0   10.33300   10.33300   55.86280     -999.0     -999.0     -999.0     -999.0     -999.0   17.90100     -999.0   60.16830   60.16830   43.67000   43.67000   17.90100   20.88010   20.31960   20.88010     -999.0     -999.0     -999.0  -87.04580   -9.55440   20.31960
 9850.00000     -999.0     -999.0   10.71870   10.71870   67.50870     -999.0     -999.0     -999.0     -999.0     -999.0   14.81290     -999.0   61.68840   61.68840   44.17550   44.17550   14.81290   17.72960   17.17820   17.72960     -999.0     -999.0     -999.0  -89.49940  -11.94340   17.17820
 9900.00000     -999.0     -999.0   11.02380   11.02380   91.92530     -999.0     -999.0     -999.0     -999.0     -999.0   10.87840     -999.0   65.94510   65.94510   52.49320   52.49320   10.87840   11.99760   12.73690   11.99760     -999.0     -999.0     -999.0  -89.67490  -12.05480   12.73690
 9950.00000     -999.0     -999.0   11.22390   11.22390  100.17010     -999.0     -999.0     -999.0     -999.0     -999.0    9.98360     -999.0   67.29650   67.29650   48.10480   48.10480    9.98360   10.89120   13.80850   10.89120     -999.0     -999.0     -999.0  -92.15350  -14.46880   13.80850
 10000.00000     -999.0     -999.0   10.28490   10.28490   81.42330     -999.0     -999.0     -999.0     -999.0     -999.0   12.28150     -999.0   69.21430   69.21430   64.48920   64.48920   12.28150   13.20450   18.03320   13.20450     -999.0     -999.0     -999.0  -94.72060  -16.97180   18.03320
 10050.00000     -999.0     -999.0   10.55840   10.55840   80.96900     -999.0     -999.0     -999.0     -999.0     -999.0   12.35040     -999.0   63.86370   63.86370   42.27690   42.27690   12.35040   15.69410   20.16990   15.69410     -999.0     -999.0     -999.0  -95.10210  -17.28910   20.16990
 10100.00000     -999.0     -999.0   11.08950   11.08950  134.78540     -999.0     -999.0     -999.0     -999.0     -999.0    7.41920     -999.0   75.23120   75.23120   69.79090   69.79090    7.41920    8.16050    9.04090    8.16050     -999.0     -999.0     -999.0 -102.40970  -24.53220    9.04090
 10150.00000     -999.0     -999.0   11.31940   11.31940  149.81500     -999.0     -999.0     -999.0     -999.0     -999.0    6.67490     -999.0   77.01530   77.01530   73.63250   73.63250    6.67490    7.04680    8.38660    7.04680     -999.0     -999.0     -999.0 -102.85870  -24.91700    8.38660
 10200.00000     -999.0     -999.0    9.73540    9.73540   58.59330     -999.0     -999.0     -999.0     -999.0     -999.0   17.06680     -999.0   63.64910   63.64910   68.08440   68.08440   17.06680   19.40060   22.51060   19.40060     -999.0     -999.0     -999.0  -85.69500   -7.68880   22.51060
 10250.00000     -999.0     -999.0    9.86130    9.86130   55.37010     -999.0     -999.0     -999.0     -999.0     -999.0   18.06030     -999.0   61.84470   61.84470   61.21970   61.21970   18.06030   20.02810   23.05170   20.02810     -999.0     -999.0     -999.0  -86.10220   -8.03180   23.05170
 10300.00000     -999.0     -999.0   10.66020   10.66020   71.02780     -999.0     -999.0     -999.0     -999.0     -999.0   14.07900     -999.0   68.08860   68.08860   70.16280   70.16280   14.07900   13.89480   16.53960   13.89480     -999.0     -999.0     -999.0  -84.71760   -6.58310   16.53960
