~Version ---------------------------------------------------
VERS.      2.0 : CWLS log ASCII Standard -VERSION 2.0
WRAP.       NO : One line per depth step
CREA. 06/26/13 : LAS Creation Date
~Well ------------------------------------------------------
STRT.M                           500.0 : START DEPTH
STOP.M                          3700.0 : STOP DEPTH
STEP.M                        50.00000 : STEP LENGTH
NULL.                          -999.25 : NULL VALUE
COMP. AMOCO CANADA PETROLEUM CO., LTD. : COMPANY
WELL.            AMOCO TONY 10-9-62-23 : WELL
FLD .                                  : FIELD
LOC .                                  : LOCATION
CTRY.                           CANADA : COUNTRY
SRVC.                    Dresser Atlas : SERVICE COMPANY
DATE.                      10-Aug-1978 : LOGDATE
PROV.                          Alberta : PROVINCE
UWI .                 100100906223W500 : UNIQUE WELL ID
SLAT.WGS84                    54.35109 : SURFACE LATITUDE
SLON.WGS84                   -117.3832 : SURFACE LONGITUDE
~Curve Information -----------------------------------------
DEPT    .M      : DEPTH METER
ACED    .US/M   : ACOUSTIC FROM SONIC LOG [ADJ. TO RESISTIVITY LOG]
CALDED  .MM     : CALIPER FROM DENSITY LOG [ADJ. TO RESISTIVITY LOG]
CALSED  .MM     : CALIPER FROM SONIC LOG [ADJ. TO RESISTIVITY LOG]
CALWS   .MM     : CALIPER [CALED]
CONDWS  .MMHO   : CONDUCTIVITY [1000/DRESWS]
CORRED  .KG/M3  : DENSITY CORRECTION FROM DENSITY LOG [ADJ. TO RESISTIVITY LOG]
DCORWS  .KG/M3  : DENSITY CORRECTION [CORRED]
DENWS   .KG/M3  : FORMATION BULK DENSITY [RHOBED]
DPHILSED.V/V    : DENSITY POROSITY LIMESTONE [M=2710,F=1000] FROM DENSITY LOG [ADJ. TO RESISTIVITY LOG]
DPHISSED.V/V    : DENSITY POROSITY SANDSTONE [M=2650,F=1000FROM DENSITY LOG [ADJ. TO RESISTIVITY LOG]
DPOLSWS .V/V    : DENSITY POROSITY LIMESTONE [CALC FROM DENWS,M=2710,F=1000]
DRESWS  .OHMM   : DEEP RESISTIVITY [ILDED]
DTWS    .US/M   : COMPRESSIONAL SONIC [ACED]
GRDED   .GAPI   : GAMMA RAY FROM DENSITY LOG
GRSED   .GAPI   : GAMMA RAY FROM SONIC LOG [ADJ. TO RESISTIVITY LOG]
GRWS    .GAPI   : GAMMA RAY [GRSED SPL. TO GRDED @ 458.6 M] GRDED IN CSG 2455-2459 M ADDED 65 GAPI
ILDED   .OHMM   : DEEP INDUCTION RESISTIVITY FROM RESISTIVITY LOG
ILMED   .OHMM   : MEDIUM INDUCTION RESISTIVITY FROM RESISTIVITY LOG
MRESWS  .OHMM   : MEDIUM RESISTIVITY [ILMED]
NPHILSED.V/V    : NEUTRON POROSITY LIMESTONE FROM DENSITY LOG [ADJ. TO RESISTIVITY LOG]
NPHISSED.V/V    : NEUTRON POROSITY SANDSTONE FROM DENSITY LOG [ADJ. TO RESISTIVITY LOG]
NPOLSWS .V/V    : NEUTRON POROSITY LIMESTONE [CNCSSED CONVERTED TO LIMESTONE MATRIX,SPL. TO CNCLSED @ 2459M]
RHOBED  .KG/M3  : BULK DENSITY FROM DENSITY LOG [ADJ. TO RESISTIVITY LOG]
SFLED   .OHMM   : SPHERICALLY FOCUSED RESISTIVITY FROM RESISTIVITY LOG
SPRED   .MV     : SPONTANEOUS POTENTIAL FROM RESISTIVITY LOG
SPWS    .MV     : SPONTANEOUS POTENTIAL [BASELINE 0 MV,SPRED]
SRESWS  .OHMM   : SHALLOW RESISTIVITY [SFLED]
TENDED  .N      : TENSION FROM DENSITY LOG [ADJ. TO RESISTIVITY LOG]
~Params ----------------------------------------------------
PD  .                          GL : PERMANENT DATUM
EPD .M                        977 : ELEVATION PERMANENT DATUM
LMF .                          KB : LOG MEASURED FROM
DAPD.M                          8 : FEET ABOVE PERMANENT DATUM
DMF .                          KB : DRILLING MEASURED FROM
EKB .M                        985 : KELLY BUSHING
EGL .M                        977 : GROUND LEVEL
DATE.                    10/21/78 : RUN DATE
RUN .                           2 : RUN NUMBER
DD  .M                       3747 : DEPTH DRILLER
DL  .M                       3747 : DEPTH LOGGER
BLI .M                     3746.3 : BOTTOM LOG INTERVAL
TLI .M                     2464.5 : TOP LOG INTERVAL
CS  .MM                       244 : CASING SIZE
CBD .M                       2468 : CASING BOTTOM DRILLER
CBL .M                     2464.5 : CASING BOTTOM LOGGER
BS  .MM                       216 : BIT SIZE
BSD .M                       3747 : BIT SIZE AT DEPTH
DFT .                     MUD GEL : DRILLING FLUID TYPE
DFD .                        1090 : DRILLING FLUID DENSITY
DFV .                          71 : DRILLING FLUID VISCOSITY
DFPH.                           9 : DRILLING FLUID PH
DFL .                         9.9 : DRILLING FLUID LOSS
MSS .                    FLOWLINE : MUD SAMPLE SOURCE
RMS .OHMM                    2.82 : RESISTIVITY MUD SAMPLE
MST .DEGC                      24 : MUD SAMPLE TEMPERATURE
RMF .OHMM                    2.64 : RESISTIVITY MUD FILTRATE SAMPLE
MFST.DEGC                      24 : MUD FILTRATE SAMPLE TEMPERATURE
RMC .OHMM                    3.68 : RESISTIVITY MUD CAKE
MCST.DEGC                      24 : MUD CAKE SAMPLE TEMPERATURE
MFSS.                        MEAS : MUD FILTRATE SAMPLE SOURCE
MCSS.                        MEAS : MUD CAKE SAMPLE SOURCE
RMB .OHMM                    0.69 : RESISTIVITY MUD AT BHT
TCS .HRS                       10 : TIME CIRCULATED STOPPED
LUN .                     HL 6163 : LOGGING UNIT NUMBER
LUL .                         EDM : LOGGING UNIT LOCATION
ENGI.                      BURLET : RECORDING ENGINEER
WITN.                      WILSON : WITNESSED BY
CLNT.                     A2DTECH : CLIENT CODE
ORIG. 6.5" /100M 16.5"/100M PRINT : ORIGIN OF DATA
UWI .            100100906223W500 : UNIQUE WELL ID
DICO.      A2D Technologies, Inc. : DIGITIZING COMPANY
~Other -----------------------------------------------------
DIFL-CDL-CNL-ACOUSTIC LOG RAN
SP FLATTOP ON BACK UP GALVO DUE TO PANEL BEING SATURATED
~ASCII -----------------------------------------------------
  500.00000  307.66490  352.07030  385.88240  352.07030  146.50510  155.43200  155.43200 2040.58500    -999.25    0.36170    0.39150    6.82570  307.66490   73.95440   40.29940   73.95440    6.82570    5.30430    5.30430    -999.25    0.34760    0.30760 2040.58500   10.45960 -221.33960   -3.51030   10.45960 794989.24710
  550.00000  233.76540  361.18020  385.08530  361.18020   77.95510  134.74120  134.74120 2605.72560    -999.25    0.03010    0.06100   12.82790  233.76540   78.04800   39.73810   78.04800   12.82790    9.72100    9.72100    -999.25    0.19800    0.15800 2605.72560    9.00870 -219.89450   -4.94960    9.00870 796870.36410
  600.00000  296.41580  387.31530  387.21320  387.31530  130.18800  131.53360  131.53360 2405.31790    -999.25    0.15080    0.17820    7.68120  296.41580   78.84310   38.64780   78.84310    7.68120    6.67520    6.67520    -999.25    0.28660    0.24660 2405.31790    8.37180 -215.70630   -3.64570    8.37180 789508.32920
  650.00000  426.99530  388.65340  394.37770  388.65340  199.90400   93.22960   93.22960 1580.60230    -999.25    0.62370    0.66050    5.00240  426.99530  102.59030   45.38790  102.59030    5.00240    4.40360    4.40360    -999.25    0.46900    0.42930 1580.60230    5.24090 -217.46750   -7.93830    5.24090 799720.32420
  700.00000  249.56000  385.97690  384.91750  385.97690   65.47460  135.80880  135.80880 2567.30620    -999.25    0.04610    0.08340   15.27310  249.56000   62.43350   28.19870   62.43350   15.27310   13.21550   13.21550    -999.25    0.24820    0.20820 2567.30620   16.81530 -213.38010   -6.17130   16.81530 789986.38800
  750.00000  367.65090  388.11970  385.50210  388.11970  387.38670   21.13380   21.13380 1383.96040    -999.25    0.73660    0.77550    2.58140  367.65090   94.53600   43.19430   94.53600    2.58140    2.23590    2.23590    -999.25    0.51620    0.47780 1383.96040    4.60380 -213.10270   -8.21420    4.60380 802649.82610
  800.00000  321.74340  359.75950  382.80960  359.75950  249.76900  114.37580  114.37580 2387.06370    -999.25    0.15520    0.18890    4.00370  321.74340  108.87870   45.10040  108.87870    4.00370    3.37720    3.37720    -999.25    0.37480    0.33480 2387.06370    6.99220 -208.46230   -5.89420    6.99220 796724.69770
  850.00000  304.27850  344.00820  379.11890  344.00820  180.46310  114.97300  114.97300 2439.71920    -999.25    0.11520    0.15810    5.54130  304.27850   90.24210   43.99770   90.24210    5.54130    4.92030    4.92030    -999.25    0.35930    0.31930 2439.71920    7.19670 -209.43950   -9.01100    7.19670 798819.01570
  900.00000  330.62380  358.44000  367.76310  358.44000  135.41140  149.24130  149.24130 2484.48020    -999.25    0.09670    0.13190    7.38490  330.62380   94.97860   42.18600   94.97860    7.38490    6.66720    6.66720    -999.25    0.33800    0.29800 2484.48020   10.48100 -204.52140   -5.43650   10.48100 798469.43440
  950.00000  327.51580  348.72660  395.65150  348.72660  223.61860  144.63750  144.63750 2472.46920    -999.25    0.10260    0.13890    4.47190  327.51580   95.31520   41.14220   95.31520    4.47190    3.95050    3.95050    -999.25    0.38200    0.34200 2472.46920    6.56870 -203.31400   -5.57280    6.56870 799386.53090
 1000.00000  238.32030  351.78230  385.66260  351.78230  194.42390  121.01520  121.01520 2486.95780    -999.25    0.09610    0.13040    5.14340  238.32030   82.81220   42.52110   82.81220    5.14340    4.60110    4.60110    -999.25    0.39990    0.35990 2486.95780    9.43070 -203.17750   -6.77990    9.43070 794631.69090
 1050.00000  283.17330  357.16140  373.77100  357.16140  100.75360  124.82840  124.82840 2523.37570    -999.25    0.07220    0.10910    9.92520  283.17330   70.50140   36.23860   70.50140    9.92520    8.38330    8.38330    -999.25    0.32670    0.28670 2523.37570    9.27470 -202.99140   -7.93740    9.27470 796400.10950
 1100.00000  277.45160  334.82300  360.83990  334.82300  132.58910  108.14110  108.14110 2501.51930    -999.25    0.08620    0.12190    7.54210  277.45160   75.45050   35.60910   75.45050    7.54210    6.71280    6.71280    -999.25    0.34190    0.30190 2501.51930    7.72830 -199.82730   -6.11690    7.72830 795220.60700
 1150.00000  235.93950  357.90170  384.35790  357.90170  129.63780  191.07100  191.07100 2476.87990    -999.25    0.09800    0.13630    7.71380  235.93950   74.05820   36.12370   74.05820    7.71380    6.84420    6.84420    -999.25    0.34850    0.30850 2476.87990    7.85380 -198.39690   -5.92850    7.85380 794818.66830
 1200.00000  353.19820  373.95820  367.23930  373.95820  136.78210  156.15820  156.15820 1800.16190    -999.25    0.50860    0.53210    7.31090  353.19820   68.56240   34.56870   68.56240    7.31090    5.38410    5.38410    -999.25    0.42700    0.38700 1800.16190   18.81710 -211.27940   -9.46170   18.81710 809988.44840
 1250.00000  247.28720  373.56950  343.32000  373.56950   23.87680  123.37490  123.37490 2395.24900    -999.25    0.15240    0.18410   41.88170  247.28720   57.97350   24.75380   57.97350   41.88170   37.47610   37.47610    -999.25    0.29490    0.25490 2395.24900   41.21800 -233.06510  -32.79960   41.21800 798664.83570
 1300.00000  264.82870  345.16130  388.40300  345.16130  158.44350  171.05040  171.05040 2531.40260    -999.25    0.06450    0.10440    6.31140  264.82870   73.17690   38.95310   73.17690    6.31140    5.70640    5.70640    -999.25    0.44930    0.40930 2531.40260    9.41950 -205.26170   -5.99750    9.41950 794163.71740
 1350.00000  266.04750  373.54250  385.78050  373.54250  104.77130  298.08020  298.08020 2606.92240    -999.25    0.02300    0.06030    9.54460  266.04750  105.92580   54.41520  105.92580    9.54460    8.46380    8.46380    -999.25    0.47790    0.43830 2606.92240   12.04600 -206.14850   -6.88430   12.04600 799164.03490
 1400.00000  278.69740  357.95020  366.79270  357.95020   83.34440  205.38800  205.38800 2142.54440    -999.25    0.31400    0.33180   11.99840  278.69740   96.45470   47.83690   96.45470   11.99840   10.85940   10.85940    -999.25    0.45240    0.41250 2142.54440   13.66540 -204.27780   -5.01360   13.66540 794850.68440
 1450.00000  291.77780  383.17610  392.82380  383.17610  102.40450  199.50780  199.50780 1998.88090    -999.25    0.38700    0.41590    9.76520  291.77780   94.67590   49.78080   94.67590    9.76520    9.04310    9.04310    -999.25    0.46390    0.42410 1998.88090   10.78460 -204.84050   -6.52860   10.78460 796930.61540
 1500.00000  300.04760  366.11800  382.95380  366.11800  102.85210  240.80170  240.80170 2175.12890    -999.25    0.28700    0.31280    9.72270  300.04760  115.39360   53.91210  115.39360    9.72270    9.01250    9.01250    -999.25    0.46680    0.42700 2175.12890   10.79980 -203.71980   -6.40200   10.79980 784373.30170
 1550.00000  227.74700  336.13930  365.40690  336.13930   62.00400  266.81500  266.81500 2630.43770    -999.25    0.00890    0.04650   16.12800  227.74700   91.17280   45.58060   91.17280   16.12800   14.89880   14.89880    -999.25    0.35090    0.31090 2630.43770   15.11330 -220.51900  -24.62260   15.11330 797337.29580
 1600.00000  239.06500  339.08590  363.96900  339.08590   82.42660  136.65290  136.65290 1969.38090    -999.25    0.40200    0.43310   12.13200  239.06500  102.98010   52.37030  102.98010   12.13200   11.31390   11.31390    -999.25    0.40780    0.36780 1969.38090   13.03200 -199.52680   -6.87260   13.03200 789435.09190
 1650.00000  267.56720  345.67790  364.24620  345.67790  100.87870  292.88100  292.88100 2345.81740    -999.25    0.17910    0.21300    9.91290  267.56720  120.00850   56.17490  120.00850    9.91290    9.07310    9.07310    -999.25    0.40830    0.36830 2345.81740   11.92330 -197.46030   -7.51550   11.92330 798065.12480
 1700.00000  276.51170  346.58450  362.60350  346.58450   85.28130  231.93770  231.93770 2245.30980    -999.25    0.21360    0.27170   11.72590  276.51170  126.03350   55.08980  126.03350   11.72590   10.88960   10.88960    -999.25    0.42830    0.38830 2245.30980   15.07210 -194.49910   -7.26370   15.07210 796841.50920
