~Version ---------------------------------------------------
VERS.      2.0 : CWLS log ASCII Standard -VERSION 2.0
WRAP.       NO : One line per depth step
CREA. 12/13/17 : LAS Creation Date
~Well ------------------------------------------------------
STRT.FT                   900.0 : START DEPTH
STOP.FT                  9200.0 : STOP DEPTH
STEP.FT                50.00000 : STEP LENGTH
NULL.                   -999.25 : NULL VALUE
COMP.     TEXACO CANADA LIMITED : COMPANY
WELL. TEXACO SUNSET 16-17-69-19 : WELL
FLD .                           : FIELD
LOC .                           : LOCATION
CTRY.                    CANADA : COUNTRY
SRVC.                   Unknown : SERVICE COMPANY
DATE.               16-Oct-1970 : LOGDATE
PROV.                   Alberta : PROVINCE
UWI .          100161706919W500 : UNIQUE WELL ID
SLAT.WGS84               54.979 : SURFACE LATITUDE
SLON.WGS84            -116.8515 : SURFACE LONGITUDE
~Curve Information -----------------------------------------
DEPT  .FT    : Depth Curve
ACED  .US/F  : DELTA TIME FROM SONIC LOG [ADJ. TO RESISTIVITY LOG]
CALSED.IN    : CALIPER FROM SONIC LOG [ADJ. TO RESISTIVITY LOG]
CALWS .IN    : CALIPER [MCALED SPL. TO CALSED @ 4782']
CONDWS.MMHO  : CONDUCTIVITY [1000/DRESWS]
DRESWS.OHMM  : DEEP RESISTIVITY [ILDED]
DTWS  .US/F  : COMPRESSIONAL SONIC [ACED]
GRSED .GAPI  : GAMMA RAY FROM SONIC LOG [ADJ. TO RESISTIVITY LOG]
GRWS  .GAPI  : GAMMA RAY [GRSED]
ILDED .OHMM  : DEEP INDUCTION RESISTIVITY FROM RESISTIVITY LOG
ILMED .OHMM  : MEDIUM INDUCTION RESISTIVITY FROM RESISTIVITY LOG
MCALED.IN    : MICRO CALIPER FROM ML LOG
MRESWS.OHMM  : MEDIUM RESISTIVITY [ILMED]
SFLED .OHMM  : SPHERICALLY FOCUSED RESISTIVITY FROM RESISTIVITY LOG
SPRED .MV    : SPONTANEOUS POTENTIAL FROM RESISTIVITY LOG
SPWS  .MV    : SPONTANEOUS POTENTIAL [BASELINE 0 MV, SPRED]
SRESWS.OHMM  : SHALLOW RESISTIVITY [SFLED]
~Params ----------------------------------------------------
PD  .                     GL : PERMANENT DATUM
EPD .FT               2413.8 : ELEVATION PERMANENT DATUM
LMF .                     KB : LOG MEASURED FROM
DAPD.FT                    2 : FEET ABOVE PERMANENT DATUM
DMF .                     KB : DRILLING MEASURED FROM
EKB .FT                 2428 : KELLY BUSHING
EGL .FT               2413.8 : GROUND LEVEL
DATE.               10/16/70 : RUN DATE
RUN .                      1 : RUN NUMBER
DD  .FT                 9205 : DEPTH DRILLER
DL  .FT                 9205 : DEPTH LOGGER
BLI .FT                 9204 : BOTTOM LOG INTERVAL
TLI .FT                  929 : TOP LOG INTERVAL
CS  .IN                8.625 : CASING SIZE
CBD .FT                  929 : CASING BOTTOM DRILLER
CBL .FT                  929 : CASING BOTTOM LOGGER
BS  .IN                7.875 : BIT SIZE
BSD .FT                 9205 : BIT SIZE AT DEPTH
DFT .                MUD GEL : DRILLING FLUID TYPE
DFD .                    9.4 : DRILLING FLUID DENSITY
DFV .                     75 : DRILLING FLUID VISCOSITY
DFPH.                    9.5 : DRILLING FLUID PH
DFL .                    8.4 : DRILLING FLUID LOSS
MSS .                   CIRC : MUD SAMPLE SOURCE
RMS .OHMM                0.9 : RESISTIVITY MUD SAMPLE
MST .DEGF                 65 : MUD SAMPLE TEMPERATURE
RMF .OHMM                0.8 : RESISTIVITY MUD FILTRATE SAMPLE
MFST.DEGF                 65 : MUD FILTRATE SAMPLE TEMPERATURE
RMC .OHMM                1.4 : RESISTIVITY MUD CAKE
MCST.DEGF                 65 : MUD CAKE SAMPLE TEMPERATURE
MFSS.                   MEAS : MUD FILTRATE SAMPLE SOURCE
MCSS.                   MEAS : MUD CAKE SAMPLE SOURCE
RMB .OHMM                0.3 : RESISTIVITY MUD AT BHT
TCS .HRS                   3 : TIME CIRCULATED STOPPED
LUN .                   6090 : LOGGING UNIT NUMBER
LUL .                    V V : LOGGING UNIT LOCATION
ENGI.                 OFFORD : RECORDING ENGINEER
WITN.        PATTERSON IRVIN : WITNESSED BY
CLNT.                A2DTECH : CLIENT CODE
ORIG.            2" 5" PRINT : ORIGIN OF DATA
UWI .       100161706919W500 : UNIQUE WELL ID
DICO. A2D Technologies, Inc. : DIGITIZING COMPANY
~Other -----------------------------------------------------
~ASCII -----------------------------------------------------
# ...
 7350.00000   48.01380    8.57260    8.57260   15.33030   65.23040   48.01380   27.04460   27.04460   65.23040   80.86470    8.31370   80.86470  253.19100 -173.52510 -130.65450  253.19100
 7400.00000   54.13560    8.46330    8.46330  389.59020    2.56680   54.13560   39.26070   39.26070    2.56680    4.35090    6.87830    4.35090   19.28680 -196.44930 -154.21970   19.28680
 7450.00000   53.56970    7.87670    7.87670   61.73950   16.32320   53.56970   38.08670   38.08670   16.32320   27.45080    8.27620   27.45080   80.06030 -140.58380  -98.99940   80.06030
 7500.00000   45.95040    8.11710    8.11710   11.41470   87.60630   45.95040   28.94890   28.94890   87.60630   85.77380    9.14190   85.77380  157.61710 -131.11690  -90.17360  157.61710
 7550.00000   52.63240    8.13090    8.13090   42.02250   23.79680   52.63240   34.56790   34.56790   23.79680   27.12660    8.69150   27.12660   31.59460 -118.96550  -78.66320   31.59460
 7600.00000   56.10560    8.65240    8.65240   40.79600   24.51220   56.10560   49.47880   49.47880   24.51220   26.70300    9.46360   26.70300   33.85370  -98.71620  -59.05910   33.85370
 7650.00000   48.85120    8.12420    8.12420    8.64620  115.65710   48.85120   33.35220   33.35220  115.65710  108.96210    8.66100  108.96210  264.18330 -126.35460  -87.33850  264.18330
 7700.00000   61.01380    8.45480    8.45480   87.48590   11.44160   61.01380   82.16660   82.16660   11.44160   12.81580    8.84370   12.81580   15.82190  -93.87770  -55.50680   15.82190
 7750.00000   70.80270    9.04790    9.04790  136.97320    7.30070   70.80270   68.50770   68.50770    7.30070    8.33060   10.70430    8.33060   10.91780  -77.81780  -40.08800   10.91780
 7800.00000   66.05670   10.77580   10.77580   88.25270   11.33110   66.05670   72.29330   72.29330   11.33110   12.80810   13.43640   12.80810   14.16190  -62.44120  -25.35240   14.16190
 7850.00000   72.95380   12.92820   12.92820  149.59980    6.68450   72.95380   91.29220   91.29220    6.68450    7.48840   15.87570    7.48840    8.26750  -52.61790  -16.17430    8.26750
 7900.00000   83.01340   14.74540   14.74540  242.15420    4.12960   83.01340  106.15610  106.15610    4.12960    4.42230   15.80950    4.42230    4.94690  -37.88270   -2.08010    4.94690
 7950.00000   79.08070   14.81100   14.81100  203.44710    4.91540   79.08070   85.17700   85.17700    4.91540    5.26440   15.82240    5.26440    5.83060  -40.35650   -5.19910    5.83060
 8000.00000   83.15640   14.12860   14.12860  217.21660    4.60370   83.15640   92.21630   92.21630    4.60370    4.99780   15.88810    4.99780    5.24240  -68.96310  -34.44680    5.24240
 8050.00000   78.84980   14.21980   14.21980  214.07320    4.67130   78.84980   92.28070   92.28070    4.67130    5.08230   15.80530    5.08230    5.61820  -94.41930  -60.54400    5.61820
 8100.00000   81.16910   14.86040   14.86040  221.85250    4.50750   81.16910   91.02010   91.02010    4.50750    4.89990   15.81940    4.89990    5.39130 -111.80770  -78.57760    5.39130
 8150.00000   81.25170   13.93940   13.93940  223.35890    4.47710   81.25170   91.40890   91.40890    4.47710    4.87190   15.83420    4.87190    5.45140  -97.52660  -64.93750    5.45140
 8200.00000   66.71090    9.67110    9.67110   66.53960   15.03620   66.71090   83.34140   83.34140   15.03620   16.97350    8.69690   16.97350   18.60200  -85.49270  -53.54880   18.60200
 8250.00000   61.02060    9.59040    9.59040   97.20250   10.28780   61.02060   74.59780   74.59780   10.28780   11.16510    8.80140   11.16510   12.32650  -83.24800  -51.94520   12.32650
 8300.00000   72.00080   10.18390   10.18390   98.90610   10.11060   72.00080   88.29250   88.29250   10.11060   11.04900    9.35930   11.04900   11.86330  -71.59260  -40.93080   11.86330
 8350.00000   68.29500    8.88880    8.88880   82.67670   12.09530   68.29500  105.44200  105.44200   12.09530   13.16390    8.86070   13.16390   14.02700  -57.99680  -27.98020   14.02700
 8400.00000   70.43740    9.72770    9.72770  113.10430    8.84140   70.43740   90.21510   90.21510    8.84140   10.16930    9.49430   10.16930   10.83330  -60.35950  -30.98390   10.83330
 8450.00000   71.96100    9.50430    9.50430   92.85610   10.76930   71.96100   96.00950   96.00950   10.76930   12.01240    9.98820   12.01240   13.33660  -38.91630  -10.18590   13.33660
 8500.00000   69.72090    9.17070    9.17070  100.56920    9.94340   69.72090   98.75090   98.75090    9.94340   11.24050    8.98580   11.24050   13.32040  -28.05810    0.03130   13.32040
 8550.00000   94.76300   10.36130   10.36130  161.81750    6.17980   94.76300   93.52040   93.52040    6.17980    7.21630    9.23980    7.21630    9.38260  -47.13330  -19.68500    9.38260
 8600.00000   73.39560   10.45260   10.45260  129.87180    7.69990   73.39560   99.96270   99.96270    7.69990    8.37090    9.83390    8.37090    9.63940  -85.21540  -58.41230    9.63940
 8650.00000   78.62630   11.54550   11.54550  176.33570    5.67100   78.62630  102.44360  102.44360    5.67100    6.74330   10.79040    6.74330    8.37890 -133.88910 -107.72700    8.37890
 8700.00000   56.08940    8.06250    8.06250   22.32900   44.79280   56.08940   48.41540   48.41540   44.79280   57.61940    7.90820   57.61940   75.41270  -93.04280  -67.52590   75.41270
 8750.00000   85.61910   10.69930   10.69930  100.15220    9.98480   85.61910  124.49150  124.49150    9.98480   10.69220   10.04550   10.69220   17.87060  -88.98600  -64.11010   17.87060
 8800.00000   61.26790    8.40790    8.40790   70.20250   14.24450   61.26790   81.86130   81.86130   14.24450   21.94780    8.21450   21.94780   19.31720  -39.16440  -14.92960   19.31720
 8850.00000   49.60920    8.30180    8.30180    5.81100  172.08670   49.60920   30.07360   30.07360  172.08670  245.36840    7.76630  245.36840  549.13860  -50.80950  -27.21990  549.13860
 8900.00000   48.96580    8.22540    8.22540    2.74920  363.74620   48.96580   28.28560   28.28560  363.74620  475.80680    7.84370  475.80680  641.53900  -89.80330  -66.85470  641.53900
 8950.00000   49.02320    7.96980    7.96980    1.94730  515.31960   49.02320   36.42750   36.42750  515.31960  463.23280    7.80640  463.23280 1024.97240  -84.57130  -62.26790 1024.97240
 9000.00000   49.62060    7.83920    7.83920   12.37500   80.80790   49.62060   34.17780   34.17780   80.80790   60.47680    7.79660   60.47680  247.61400 -107.14110  -85.47870  247.61400
 9050.00000   49.13310    7.75410    7.75410    2.19660  455.24910   49.13310   27.95100   27.95100  455.24910  337.63070    7.78120  337.63070 1220.69120 -156.92700 -135.90570 1220.69120
 9100.00000   49.05460    7.87850    7.87850    0.73720 1356.45980   49.05460   35.64940   35.64940 1356.45980  670.14830    7.97920  670.14830 1021.95510 -121.56360 -101.18750 1021.95510
 9150.00000   56.10100    7.59930    7.59930   45.25360   22.09770   56.10100  142.87660  142.87660   22.09770   29.53280    7.89190   29.53280   34.39340  -80.94320  -61.20810   34.39340
 9200.00000    -999.25    8.66750    8.66750    -999.25    -999.25    -999.25    -999.25    -999.25    -999.25    -999.25    7.54030    -999.25    5.22340    -999.25    -999.25    5.22340
