~Version ---------------------------------------------------
VERS.      2.0 : CWLS log ASCII Standard -VERSION 2.0
WRAP.       NO : One line per depth step
CREA. 11/14/17 : LAS Creation Date
~Well ------------------------------------------------------
STRT.FT                         300.0 : START DEPTH
STOP.FT                       10450.0 : STOP DEPTH
STEP.FT                      50.00000 : STEP LENGTH
NULL.                         -999.25 : NULL VALUE
COMP.      THE CALIFORNIA STANDARD CO : COMPANY
WELL. CALSTAN B.A. LOSEGUN 12-5-63-19 : WELL
FLD .                                 : FIELD
LOC .                                 : LOCATION
CTRY.                          CANADA : COUNTRY
SRVC.          Schlumberger of Canada : SERVICE COMPANY
DATE.                     10-Jan-1958 : LOGDATE
PROV.                         Alberta : PROVINCE
UWI .                100120506319W500 : UNIQUE WELL ID
SLAT.WGS84                    54.4238 : SURFACE LATITUDE
SLON.WGS84                  -116.8449 : SURFACE LONGITUDE
~Curve Information -----------------------------------------
DEPT  .FT         : Depth Curve
CALWS .IN         : CALIPER [MCALED]
CONDWS.MMHO       : CONDUCTIVITY [1000/DRESWS]
DRESWS.OHMM       : DEEP RESISTIVITY [LNED]
GRNED .UgRa-Eq/T  : GAMMA RAY FROM GRN LOG
GRWS  .GAPI       : GAMMA RAY [GRNED*16.50]
LNED  .OHMM       : LONG NORMAL RESISTIVITY FROM EL LOG
LT18ED.OHMM       : LATERAL 18' FROM EL LOG
MCALED.IN         : MICROLOG CALIPER FROM ML LOG
NEUTED.CPS        : NEUTRON FROM GRN LOG
NEUTWS.CPS        : NEUTRON [NEUTED]
SNED  .OHMM       : SHORT NORMAL RESISTIVITY FROM EL LOG
SPRED .MV         : SPONTANEOUS POTENTIAL FROM EL LOG
SPWS  .MV         : SPONTANEOUS POTENTIAL [BASELINE 0 MV, SPRED]
SRESWS.OHMM       : SHALLOW RESISTIVITY [SNED]
~Params ----------------------------------------------------
LMF .                     KB : LOG MEASURED FROM
DMF .                     KB : DRILLING MEASURED FROM
EKB .FT                 2631 : KELLY BUSHING
DATE.               01/10/58 : RUN DATE
RUN .                      1 : RUN NUMBER
DD  .FT                10462 : DEPTH DRILLER
DL  .FT                10466 : DEPTH LOGGER
BLI .FT                10465 : BOTTOM LOG INTERVAL
TLI .FT                  827 : TOP LOG INTERVAL
CBD .FT                  828 : CASING BOTTOM DRILLER
CBL .FT                  827 : CASING BOTTOM LOGGER
BS  .IN                    9 : BIT SIZE
BSD .FT                10462 : BIT SIZE AT DEPTH
DFT .                    GEL : DRILLING FLUID TYPE
DFD .                   10.7 : DRILLING FLUID DENSITY
DFV .                    130 : DRILLING FLUID VISCOSITY
DFPH.                    9.5 : DRILLING FLUID PH
DFL .                    5.7 : DRILLING FLUID LOSS
MSS .             CIRCULATED : MUD SAMPLE SOURCE
RMS .OHMM               2.32 : RESISTIVITY MUD SAMPLE
MST .DEGF                 68 : MUD SAMPLE TEMPERATURE
RMF .OHMM               1.16 : RESISTIVITY MUD FILTRATE SAMPLE
MFST.DEGF                 76 : MUD FILTRATE SAMPLE TEMPERATURE
RMC .OHMM               2.52 : RESISTIVITY MUD CAKE
MCST.DEGF                 76 : MUD CAKE SAMPLE TEMPERATURE
TCS .HRS                   5 : TIME CIRCULATED STOPPED
LUN .                   1534 : LOGGING UNIT NUMBER
LUL .                     VV : LOGGING UNIT LOCATION
ENGI.                DEMAERE : RECORDING ENGINEER
WITN.                JOHNSON : WITNESSED BY
CLNT.                A2DTECH : CLIENT CODE
ORIG.            2" 5" PRINT : ORIGIN OF DATA
UWI .       100120506319W500 : UNIQUE WELL ID
DICO. A2D Technologies, Inc. : DIGITIZING COMPANY
~Other -----------------------------------------------------
~ASCII -----------------------------------------------------
  300.00000    -999.25    -999.25    -999.25    2.15930   35.62850    -999.25    -999.25    -999.25  135.25970  135.25970    -999.25    -999.25    -999.25    -999.25
  350.00000    -999.25    -999.25    -999.25    3.14340   51.86610    -999.25    -999.25    -999.25  154.33020  154.33020    -999.25    -999.25    -999.25    -999.25
  400.00000    -999.25    -999.25    -999.25    2.04210   33.69470    -999.25    -999.25    -999.25  126.44190  126.44190    -999.25    -999.25    -999.25    -999.25
  450.00000    -999.25    -999.25    -999.25    2.47190   40.78640    -999.25    -999.25    -999.25  131.27340  131.27340    -999.25    -999.25    -999.25    -999.25
  500.00000    -999.25    -999.25    -999.25    4.21210   69.49970    -999.25    -999.25    -999.25  148.75020  148.75020    -999.25    -999.25    -999.25    -999.25
  550.00000    -999.25    -999.25    -999.25    3.43480   56.67340    -999.25    -999.25    -999.25  129.36220  129.36220    -999.25    -999.25    -999.25    -999.25
  600.00000    -999.25    -999.25    -999.25    2.73810   45.17870    -999.25    -999.25    -999.25  140.34450  140.34450    -999.25    -999.25    -999.25    -999.25
  650.00000    -999.25    -999.25    -999.25    2.98000   49.17000    -999.25    -999.25    -999.25  163.22720  163.22720    -999.25    -999.25    -999.25    -999.25
  700.00000    -999.25    -999.25    -999.25    2.03380   33.55770    -999.25    -999.25    -999.25  128.81840  128.81840    -999.25    -999.25    -999.25    -999.25
  750.00000    -999.25    -999.25    -999.25    3.24710   53.57720    -999.25    -999.25    -999.25  136.31730  136.31730    -999.25    -999.25    -999.25    -999.25
  800.00000    -999.25    -999.25    -999.25    2.09490   34.56500    -999.25    -999.25    -999.25  135.33110  135.33110    -999.25    -999.25    -999.25    -999.25
  850.00000    -999.25   86.03330   11.62340    4.57610   75.50570   11.62340    9.44180    -999.25  189.06610  189.06610    6.93460  -59.57390   -1.78100    6.93460
  900.00000    -999.25   86.58440   11.55130    4.38190   72.30050   11.55130   11.31320    -999.25  165.88860  165.88860    8.62180  -65.52510  -10.61240    8.62180
  950.00000    -999.25  127.65200    7.83380    4.62900   76.37850    7.83380   15.08350    -999.25  174.17470  174.17470    4.49520  -59.45610   -7.60360    4.49520
 1000.00000    -999.25  160.75360    6.22070    3.78230   62.40800    6.22070    8.60890    -999.25  199.56400  199.56400    5.52680  -55.59580   -6.78350    5.52680
 1050.00000    -999.25  182.13660    5.49160    4.87130   80.37560    5.49160    7.87940    -999.25  194.29810  194.29810    4.60680  -52.47660   -6.51490    4.60680
 1100.00000    -999.25  152.93790    6.53860    4.39830   72.57200    6.53860    2.93030    -999.25  172.81260  172.81260    4.16560  -54.40170   -9.71270    4.16560
 1150.00000    -999.25  174.72960    5.72410    4.34060   71.61990    5.72410   13.38130    -999.25  158.57610  158.57610    3.88850  -51.19250   -5.38000    3.88850
 1200.00000    -999.25  199.57290    5.01070    4.32840   71.41860    5.01070    5.20950    -999.25  159.63530  159.63530    3.40810  -51.71850   -4.77520    3.40810
 1250.00000    -999.25  463.39200    2.15800    5.54200   91.44300    2.15800    5.69230    -999.25  157.52720  157.52720    3.77220  -52.76390   -4.69710    3.77220
 1300.00000    -999.25  173.80890    5.75400    4.83680   79.80720    5.75400    6.31880    -999.25  152.08030  152.08030    3.59090  -55.61630   -6.42600    3.59090
 1350.00000    -999.25  127.82980    7.82290    3.56830   58.87690    7.82290   10.60740    -999.25  184.29420  184.29420    8.22730  -58.52600   -8.20480    8.22730
 1400.00000    -999.25  211.42100    4.73050    4.71880   77.86100    4.73050    5.60170    -999.25  176.45940  176.45940    3.44170  -56.56520   -5.12050    3.44170
 1450.00000    -999.25  310.54940    3.22010    5.06870   83.63360    3.22010    6.75710    -999.25  153.35480  153.35480    3.20870  -56.27030   -3.69470    3.20870
 1500.00000    -999.25  131.26460    7.61820    4.11190   67.84640    7.61820    7.62160    -999.25  191.67780  191.67780    7.48460  -56.37520   -2.67610    7.48460
 1550.00000    -999.25  139.55710    7.16620    3.80760   62.82540    7.16620    6.13690    -999.25  169.69820  169.69820    4.90810  -58.39000   -4.46070    4.90810
 1600.00000    -999.25  262.26760    3.81290    4.86230   80.22800    3.81290    3.47940    -999.25  166.45900  166.45900    2.64410  -57.89790   -4.32340    2.64410
 1650.00000    -999.25  261.52750    3.82440    4.53840   74.88280    3.82440    3.96650    -999.25  165.23230  165.23230    4.86800  -56.20630   -2.98430    4.86800
 1700.00000    -999.25  157.69640    6.34130    4.69740   77.50710    6.34130    3.75150    -999.25  155.81960  155.81960    3.54430  -57.55690   -4.68970    3.54430
 1750.00000    -999.25   68.34900   14.63080    5.17350   85.36270   14.63080   11.71980    -999.25  200.54500  200.54500   12.22450  -60.77570   -8.26090   12.22450
 1800.00000    -999.25  255.43700    3.91830    4.36700   72.05550    3.91830    6.45450    -999.25  192.23380  192.23380    4.34030  -54.02340   -1.86110    4.34030
 1850.00000    -999.25  262.39140    3.81110    4.82750   79.65370    3.81110    3.84230    -999.25  179.72250  179.72250    2.97360  -54.34220   -2.53470    2.97360
 1900.00000    -999.25  135.23870    7.39460    4.97500   82.08830    7.39460   13.08590    -999.25  191.70240  191.70240    9.36820  -60.74060   -9.28550    9.36820
 1950.00000    -999.25  205.96050    4.85530    4.56980   75.40170    4.85530    5.94000    -999.25  188.39380  188.39380    3.80020  -54.24400   -3.14370    3.80020
 2000.00000    -999.25  176.91600    5.65240    4.21780   69.59370    5.65240    3.37500    -999.25  164.31920  164.31920    5.53560  -54.48590   -3.73810    5.53560
 2050.00000    -999.25  165.44910    6.04520    4.57260   75.44790    6.04520    5.42870    -999.25  156.04590  156.04590    3.66920  -51.22290   -0.82760    3.66920
 2100.00000    -999.25  257.47980    3.88380    4.76690   78.65380    3.88380    5.81340    -999.25  163.84420  163.84420    3.37930  -51.39540   -1.35480    3.37930
 2150.00000    -999.25  276.08040    3.62580    4.52800   74.71200    3.62580    4.78260    -999.25  175.06860  175.06860    3.76470  -50.33110   -0.56880    3.76470
 2200.00000    -999.25   92.35060   10.82830    3.87850   63.99520   10.82830    8.37480    -999.25  198.39880  198.39880    9.14720  -59.91630  -10.15400    9.14720
 2250.00000    -999.25  117.70800    8.49560    3.10670   51.26060    8.49560    9.17660    -999.25  198.10340  198.10340    8.12850  -52.50240   -2.60820    8.12850
 2300.00000    -999.25  164.73390    6.07670    4.00070   66.01150    6.07670    8.37780    -999.25  167.71190  167.71190    4.63050  -52.81700   -2.46720    4.63050
 2350.00000    -999.25  148.19640    6.74780    4.30920   71.10180    6.74780    5.98830    -999.25  175.58360  175.58360    4.39620  -52.59050   -1.78210    4.39620
 2400.00000    -999.25  181.27220    5.51670    4.43450   73.16930    5.51670    5.64840    -999.25  154.58520  154.58520    3.62050  -53.24830   -1.98440    3.62050
 2450.00000    -999.25   80.46860   12.42720    3.01910   49.81510   12.42720   13.37800    -999.25  222.52370  222.52370   13.02530  -55.52370   -3.80120   13.02530
 2500.00000    -999.25  166.11570    6.01990    3.50750   57.87370    6.01990    5.93970    -999.25  160.43530  160.43530    3.81060  -54.53970   -2.36160    3.81060
 2550.00000    -999.25  229.16300    4.36600    3.95870   65.31770    4.36600    5.56580    -999.25  158.86490  158.86490    5.29940  -54.28880   -1.65510    5.29940
 2600.00000    -999.25  123.40190    8.10360    3.45600   57.02400    8.10360   14.32910    -999.25  168.16980  168.16980    6.34190  -61.48900   -8.39670    6.34190
 2650.00000    -999.25   41.53100   24.07890    3.44440   56.83180   24.07890   20.68060    -999.25  178.93270  178.93270   17.81470  -61.66110   -8.11320   17.81470
 2700.00000    -999.25  174.47440    5.73150    3.97790   65.63540    5.73150    7.06650    -999.25  170.49260  170.49260    5.28870  -54.63570   -0.62920    5.28870
