~Version ---------------------------------------------------
VERS.      2.0 : CWLS log ASCII Standard -VERSION 2.0
WRAP.       NO : One line per depth step
CREA. 09/04/14 : LAS Creation Date
~Well ------------------------------------------------------
STRT.FT                      650.0 : START DEPTH
STOP.FT                    10650.0 : STOP DEPTH
STEP.FT                   50.00000 : STEP LENGTH
NULL.                      -999.25 : NULL VALUE
COMP.              SUN OIL COMPANY : COMPANY
WELL. SUN SHELL ROSEVEAR 6-6-55-14 : WELL
FLD .                              : FIELD
LOC .                              : LOCATION
CTRY.                       CANADA : COUNTRY
SRVC.       Schlumberger of Canada : SERVICE COMPANY
DATE.                  23-Jun-1971 : LOGDATE
PROV.                      Alberta : PROVINCE
UWI .             100060605514W500 : UNIQUE WELL ID
SLAT.WGS84                53.72017 : SURFACE LATITUDE
SLON.WGS84                -116.074 : SURFACE LONGITUDE
~Curve Information -----------------------------------------
DEPT   .FT                : Depth Curve
CALD   .IN   45 280 00 00 : CALIPER FROM DENSITY LOG
CALN   .IN   41 280 60 00 : CALIPER FROM NEUTRON LOG
CALS   .IN   60 280 50 00 : CALIPER FROM SONIC LOG
CILD   .MMHO 07 110 46 00 : INDUCTION DEEP CONDUCTIVITY
CORR   .G/C3 45 356 01 00 : DENSITY CORRECTION
DPHI_LS.DEC  45 890 10 00 : DENSITY POROSITY LIMESTONE
DPHI_SS.DEC  45 890 12 00 : DENSITY POROSITY SANDSTONE
DT     .US/F 60 500 00 00 : DELTA-T (INTERVAL TRANSIT TIME)
GRN    .GAPI 41 310 01 00 : GAMMA RAY FROM GRN LOG
GRS    .GAPI 60 310 01 00 : GAMMA RAY FROM SONIC LOG
ILD    .OHMM 07 120 46 00 : INDUCTION DEEP RESISTIVITY
ILM    .OHMM 07 120 44 00 : INDUCTION MEDIUM RESISTIVITY
LL8    .OHMM 07 220 08 00 : LATEROLOG 8
RHOB   .G/C3 45 350 01 00 : BULK DENSITY
SNP1   .DEC  41 890 01 00 : 
SNP_LS .DEC  41 890 01 00 : SIDEWALL NEUTRON POROSITY [LIMESTONE]
SPR    .MV   07 010 01 00 : SPONTANEOUS POTENTIAL FROM RESISTIVITY LOG
~Params ----------------------------------------------------
PD  .                     GL : PERMANENT DATUM
EPD .FT                 2803 : ELEVATION PERMANENT DATUM
LMF .                     KB : LOG MEASURED FROM
DAPD.FT                   13 : FEET ABOVE PERMANENT DATUM
EKB .FT                 2816 : KELLY BUSHING
EGL .FT                 2803 : GROUND LEVEL
DATE.               07/14/71 : RUN DATE
RUN .                      2 : RUN NUMBER
DD  .FT                10687 : DEPTH DRILLER
DL  .FT                10692 : DEPTH LOGGER
BLI .FT                10686 : BOTTOM LOG INTERVAL
TLI .FT                 5078 : TOP LOG INTERVAL
CBD .FT                 5077 : CASING BOTTOM DRILLER
CBL .FT                 5078 : CASING BOTTOM LOGGER
BS  .IN                 8.75 : BIT SIZE
BSD .FT                10687 : BIT SIZE AT DEPTH
DFT .               GEL CHEM : DRILLING FLUID TYPE
DFD .                    9.8 : DRILLING FLUID DENSITY
DFV .                     80 : DRILLING FLUID VISCOSITY
DFPH.                     10 : DRILLING FLUID PH
DFL .                   10.2 : DRILLING FLUID LOSS
MSS .               FLOWLINE : MUD SAMPLE SOURCE
RMS .OHMM               2.12 : RESISTIVITY MUD SAMPLE
MST .DEGF                 76 : MUD SAMPLE TEMPERATURE
RMF .OHMM               1.66 : RESISTIVITY MUD FILTRATE SAMPLE
MFST.DEGF                 76 : MUD FILTRATE SAMPLE TEMPERATURE
RMB .OHMM               0.62 : RESISTIVITY MUD AT BHT
TCS .HRS                 3.5 : TIME CIRCULATED STOPPED
LUN .                   5628 : LOGGING UNIT NUMBER
LUL .                    EDM : LOGGING UNIT LOCATION
ENGI.                 HUTZAL : RECORDING ENGINEER
WITN.                   HERB : WITNESSED BY
CLNT.                A2DTECH : CLIENT CODE
ORIG.            2" 5" PRINT : ORIGIN OF DATA
UWI .       100060605514W500 : UNIQUE WELL ID
DICO. A2D Technologies, Inc. : DIGITIZING COMPANY
~Other -----------------------------------------------------
~ASCII -----------------------------------------------------
# ...
 6800.00000    9.88900    9.71270    9.54400    -999.25    0.09430    -999.25   -0.02490   69.52360   73.99650   75.29630   13.65420   15.11110   17.25090    2.67230    -999.25    0.15440  -61.76420
 6850.00000    9.78370   10.13250    9.52630    -999.25    0.06860    -999.25   -0.04140   60.89610   34.39800   42.84120   17.31920   28.67320  149.09870    2.58140    -999.25    0.10610  -60.92520
 6900.00000    9.78870    9.67000    9.39910    -999.25    0.16700    -999.25   -0.01930   74.85350   82.36160   73.86110   25.67940   26.92550   36.19020    2.61200    -999.25    0.11960  -63.35370
 6950.00000    9.18290    9.42000    9.18030    -999.25    0.08640    -999.25    0.02430   66.96190   34.47440   33.42600   19.12720   20.50930   21.64290    2.57490    -999.25    0.07780  -85.92760
 7000.00000   11.01460   11.10210    9.74420    -999.25    0.20690    -999.25    0.09380   78.36960   74.11040   82.33240   25.72530   29.80750   44.29550    2.50020    -999.25    0.18180  -63.90270
 7050.00000   10.19440   10.30080    9.82380    -999.25    0.13980    -999.25   -0.00270   75.86370   90.69080   91.02840   15.99480   17.96730   21.82690    2.71450    -999.25    0.20080  -64.20430
 7100.00000   10.14480   10.66490    9.82610    -999.25    0.18660    0.01440    0.01640   70.57370   74.79950   79.64110   13.05430   13.82500   16.14790    2.62460    0.05950    0.15170  -67.66390
 7150.00000   11.82640   14.30600   10.44990    -999.25    0.22010    0.29880    -999.25  102.04870   79.12020   79.14000    8.18350    8.86270   11.46230    2.29470    0.30010    -999.25  -55.72910
 7200.00000    8.51220    8.51350    8.45160    -999.25    0.07530    0.14560    -999.25   61.86010   25.50960   28.16020   12.35750   21.50130   78.06690    2.43710    0.00910    0.12520 -163.30560
 7250.00000    8.83020    8.94090    8.41720    -999.25    0.07030    0.01000    -999.25   57.63950   12.54750   16.27760  375.56600 1751.08070 1443.69460    2.67610   -0.09100    0.02800  -74.44220
 7300.00000    8.94830    9.02310    8.74970    -999.25    0.08090    0.02150    -999.25   57.28780   25.45630   22.99990 1033.47190 1701.63790  898.35760    2.65300   -0.07160    0.04470  -61.35550
 7350.00000    9.47610    9.60180    9.20990    -999.25    0.01330    0.03050    -999.25   50.26290  191.05580  120.22840   71.57080   75.43490  125.13050    2.57910   -0.03570    0.06890  -74.87210
 7400.00000    9.52140    9.64390    9.10450    -999.25    0.02930   -0.03990    -999.25   55.56420   71.51150   61.65280   40.86360   42.36600   66.33950    2.77300   -0.07730    0.03930  -56.31100
 7450.00000   10.86100   11.35350    9.96700    -999.25    0.12390   -0.02010    -999.25   51.78020   15.80020   12.89230  522.32730 1505.61650  523.91250    2.70850   -0.10110    0.01720 -145.78270
 7500.00000    9.06450   11.54110    9.44480    -999.25    0.05830   -0.03780    -999.25   58.68760   50.83750   53.69660    8.09960    8.73660   11.70430    2.77620    0.01180    0.12610  -96.47840
 7550.00000    9.02790    9.21530    8.90900    -999.25    0.04910   -0.04390    -999.25   58.80150   63.78930   59.93980    7.65110    9.92840   14.75150    2.77320   -0.05600    0.05870  -87.87910
 7600.00000    8.96070    9.15610    8.79930    -999.25    0.02930   -0.01800    -999.25   54.16880   54.77440   48.87070   22.69010   29.51200   48.25800    2.76450   -0.07520    0.03900  -81.79840
 7650.00000    9.14710    9.29070    9.07220    -999.25    0.03020   -0.02870    -999.25   57.65010   40.97220   46.45540    8.17660   10.87770   22.72780    2.74740   -0.04260    0.07030  -80.01490
 7700.00000    9.12940    9.08520    8.90900    -999.25    0.04090   -0.05980    -999.25   54.02070   31.62650   31.69820   67.62730   80.56020  109.39690    2.79970   -0.08680    0.02990  -83.49800
 7750.00000    9.38680    9.27470    9.07780    -999.25    0.00940    0.01280    -999.25   50.45850    7.92170    9.06360  415.18290 1653.45130 1197.85940    2.67600   -0.07990    0.04010 -136.23820
 7800.00000    8.96690    9.01590    8.78030    -999.25    0.05380   -0.06330    -999.25   53.87490   35.97260   37.26640   24.26430   33.70880   47.98590    2.79270   -0.08770    0.02830  -76.98180
 7850.00000    9.00890    9.18280    8.94260    -999.25    0.05370   -0.03590    -999.25   55.28020   30.55130   33.04800   48.90570   58.79220   68.36980    2.77660   -0.09130    0.02640  -52.24110
 7900.00000    9.04860    9.24600    9.00400    -999.25    0.04310   -0.03370    -999.25   56.04920   33.79960   32.98700   36.02180   47.84740   63.04950    2.75470   -0.08570    0.03130  -48.88910
 7950.00000    9.02930    9.19730    9.04770    -999.25    0.06630   -0.05060    -999.25   57.68820   41.86980   41.20450   31.41360   35.11990   47.85690    2.80150   -0.08280    0.03630  -52.27040
 8000.00000    9.01410    9.13680    8.84650    -999.25    0.02990   -0.02230    -999.25   67.33900   38.59020  118.02030  320.92490 1216.86060  931.55340    2.73610   -0.09710    0.02060  -67.51110
 8050.00000   11.28080   11.27810    9.07280    -999.25    0.24300    0.06560    -999.25   48.81180   12.28190   15.70570  452.72070 1692.94530 1435.24300    2.58130   -0.05490    0.06240  -85.67210
 8100.00000   10.92720   10.91490    9.46800    -999.25    0.24700    0.02830    -999.25   49.80890   12.45520   12.89210 1500.23210 1707.73490 1416.78670    2.64150   -0.07830    0.04150 -128.69270
 8150.00000   10.97160   10.92700    9.55480    -999.25    -999.25    0.13770    -999.25   53.45220   13.18580   15.70940   98.60520  110.06870  134.90230    2.53890   -0.00670    0.10640 -142.76390
 8200.00000   11.21930   11.31810    9.40680    -999.25    0.24830    0.01090    -999.25   49.77000   10.09540   10.00410  169.44540  182.40210  129.93560    2.67210   -0.09490    0.02200 -156.93790
 8250.00000   10.14830   10.24300    8.83550    -999.25    0.13600   -0.00290    -999.25   55.44230   12.50890   13.48590   10.65670   15.95820   60.60770    2.68360    0.05660    0.17510 -161.32460
 8300.00000   13.48200   13.85720    9.52680    -999.25    0.20130    0.07860    -999.25   50.03990   11.28480   14.91350  304.80420 1660.46590  502.02630    2.55580   -0.06060    0.05470 -159.26290
 8350.00000   10.50160   10.61860    9.31400    -999.25    0.15640    0.02930    -999.25   49.31160   10.09820   11.46070  257.30230  245.56070  174.28870    2.62720   -0.07600    0.04070 -153.62460
 8400.00000    8.73330    8.93650    8.66080    -999.25    0.07450   -0.05080    -999.25   48.78840   10.48140   12.86870   53.95830   77.08110  269.90620    2.76810   -0.05950    0.05430 -162.65440
 8450.00000   11.28950   11.12100    9.38210    -999.25    -999.25    0.00870    -999.25   49.91690   11.70630   11.59980  112.55950  109.91100  100.85490    2.67350   -0.06380    0.05330 -140.04030
 8500.00000    9.85460    9.98310    8.95990    -999.25    0.09160   -0.04670    -999.25   48.33860    9.65720    9.42670   96.16500  108.56460  124.07670    2.75430   -0.10620    0.01200 -135.54550
 8550.00000    8.82880    9.01730    9.06020    -999.25    0.04590    0.00320    -999.25   50.83880    9.69240   11.62010   48.00770   59.29590   92.93810    2.68060   -0.08160    0.03340 -142.66240
 8600.00000   12.18010   12.18600    9.68340    -999.25    0.24770    0.11400    -999.25   51.61410    9.45730   10.36240  910.81450 1568.30300 1260.47350    2.50390   -0.02530    0.08690 -131.51720
 8650.00000    9.06090    9.12190    8.72780    -999.25    0.14600   -0.04380    -999.25   48.42370   10.18750   14.33210   56.29460   94.31850  251.72470    2.75480   -0.07380    0.04490 -155.00920
 8700.00000    8.75440   10.56030    9.04770    -999.25    0.03960   -0.08180    -999.25   48.53900   30.54480   16.16110   95.00140  146.79050  410.93520    2.84930   -0.05040    0.06430 -134.50720
 8750.00000    8.98370    9.23000    8.84670    -999.25    0.03930    0.01260    -999.25   55.31850   63.43830   49.81790   18.84760   22.12400   25.32880    2.69640   -0.08140    0.03730  -42.64980
 8800.00000   14.96610   13.46310    8.83730    -999.25    0.16920    0.29970    -999.25   52.75200   26.38510   23.55710   37.16420   40.55760   46.05700    2.09800    0.09820    0.22090 -120.39320
