~Version ---------------------------------------------------
VERS.      2.0 : CWLS log ASCII Standard -VERSION 2.0
WRAP.       NO : One line per depth step
CREA. 11/15/17 : LAS Creation Date
~Well ------------------------------------------------------
STRT.FT                                  300.0 : START DEPTH
STOP.FT                                 8650.0 : STOP DEPTH
STEP.FT                               50.00000 : STEP LENGTH
NULL.                                  -999.25 : NULL VALUE
COMP. CONOCOPHILLIPS CANADA ENERGY PARTNERSHIP : COMPANY
WELL.       ATLANTIS UNIT S THREECK 9-17-34-25 : WELL
FLD .                                          : FIELD
LOC .                                          : LOCATION
CTRY.                                   CANADA : COUNTRY
SRVC.                   Schlumberger of Canada : SERVICE COMPANY
DATE.                              23-Jul-1959 : LOGDATE
PROV.                                  Alberta : PROVINCE
UWI .                         100091703425W400 : UNIQUE WELL ID
SLAT.WGS84                            51.92011 : SURFACE LATITUDE
SLON.WGS84                            -113.503 : SURFACE LONGITUDE
~Curve Information -----------------------------------------
DEPT  .FT         : Depth Curve
CALMED.IN         : CALIPER FROM MICRO LATEROLOG
CALWS .IN         : CALIPER [MCALED SPL. TO CALMED @ 6192']
CILDED.MMHO       : CONDUCTIVITY INDUCTION LOG FROM INDUCTION ELERICAL LOG
CONDWS.MMHO       : CONDUCTIVITY [1000/DRESWS]
DRESWS.OHMM       : DEEP RESISTIVITY [1000/CILDED, IF <5 ILDED, ILDED]
GRNED .UgRa-Eq/T  : GAMMA RAY  FROM GAMMA RAY NEUTRON LOG
GRWS  .GAPI       : GAMMA RAY [GRNED*16.50]
ILDED .OHMM       : DEEP INDUCTION RESISTIVITY FROM INDUCTION ELERICAL LOG
MCALED.IN         : MICROLOG CALIPER FROM MICROLOG
MLLED .OHMM       : MICRO-LATEROLOG RESISTIVITY FROM MICRO LATEROLOG
NEUTED.CPS        : NEUTRON FROM  GAMMA RAY NEUTRON LOG
NEUTWS.CPS        : NEUTRON [NEUTED]
SNED  .OHMM       : SHORT NORMAL 16 'FROM INDUCTION ELERICAL LOG
SPRED .MV         : SPONTANEOUS POTENTIAL FROM RESISTIVITY LOG
SPWS  .MV         : SPONTANEOUS POTENTIAL [SPRED]
SRESWS.OHMM       : SHALLOW RESISTIVITY [SNED]
~Params ----------------------------------------------------
PD  .                     KB : PERMANENT DATUM
EKB .FT                 2985 : KELLY BUSHING
EGL .FT               2971.8 : GROUND LEVEL
DATE.               07/23/59 : RUN DATE
RUN .                      2 : RUN NUMBER
DD  .FT                 8668 : DEPTH DRILLER
DL  .FT                 8667 : DEPTH LOGGER
BLI .FT                 8662 : BOTTOM LOG INTERVAL
TLI .FT                 6271 : TOP LOG INTERVAL
CBD .FT                 1211 : CASING BOTTOM DRILLER
CBL .FT                 1211 : CASING BOTTOM LOGGER
BS  .IN                    9 : BIT SIZE
BSD .FT                 8668 : BIT SIZE AT DEPTH
DFT .                    GEL : DRILLING FLUID TYPE
DFD .                   10.2 : DRILLING FLUID DENSITY
DFV .                     78 : DRILLING FLUID VISCOSITY
DFPH.                    6.4 : DRILLING FLUID PH
DFL .                      7 : DRILLING FLUID LOSS
RMS .OHMM                1.4 : RESISTIVITY MUD SAMPLE
MST .DEGF                 70 : MUD SAMPLE TEMPERATURE
RMF .OHMM                  1 : RESISTIVITY MUD FILTRATE SAMPLE
MFST.DEGF                 70 : MUD FILTRATE SAMPLE TEMPERATURE
RMC .OHMM                1.4 : RESISTIVITY MUD CAKE
MCST.DEGF                 70 : MUD CAKE SAMPLE TEMPERATURE
RMB .OHMM               0.63 : RESISTIVITY MUD AT BHT
TCS .HRS                 1.5 : TIME CIRCULATED STOPPED
LUN .                   2548 : LOGGING UNIT NUMBER
LUL .                      C : LOGGING UNIT LOCATION
ENGI.                 YUNKER : RECORDING ENGINEER
WITN.                DOMENKO : WITNESSED BY
CLNT.                A2DTECH : CLIENT CODE
ORIG.            2" 5" PRINT : ORIGIN OF DATA
UWI .       100091703425W400 : UNIQUE WELL ID
DICO. A2D Technologies, Inc. : DIGITIZING COMPANY
~Other -----------------------------------------------------
~ASCII -----------------------------------------------------
# ...
 6750.00000    9.02620    9.02620    5.99000    4.22400  236.74210    0.57250    9.44630  236.74210    -999.25  464.91530  325.36720  325.36720  179.83850  -74.22590  -37.25560  179.83850
 6800.00000    9.11990    9.11990   17.01020   15.21760   65.71360    0.61990   10.22840   65.71360    -999.25  445.02000  303.50260  303.50260   81.93680  -99.96090  -63.18060   81.93680
 6850.00000    8.85110    8.85110    8.26870    6.29170  158.93970    0.46490    7.67080  158.93970    -999.25   22.83620  325.84380  325.84380  118.43260  -93.80260  -57.21350  118.43260
 6900.00000    8.84640    8.84640   20.50880   20.26180   49.35400    2.42130   39.95150   49.35400    -999.25   40.79200  309.43600  309.43600   79.65110 -106.36050  -69.96140   79.65110
 6950.00000    8.98860    8.98860   15.34290   14.77020   67.70390    1.05790   17.45540   67.70390    -999.25  262.24590  308.62750  308.62750   57.64940 -189.46920 -153.26140   57.64940
 7000.00000    8.83730    8.83730  193.11050  193.11050    5.17840    1.07650   17.76230    4.96500    -999.25  538.11410  221.84000  221.84000   21.60270 -185.29540 -149.27750   21.60270
 7050.00000    9.20810    9.20810  296.04260  296.04260    3.37790    0.68030   11.22500    3.00380    -999.25  182.37250  223.20380  223.20380    7.16090 -185.40810 -149.58020    7.16090
 7100.00000    8.94380    8.94380   24.08800   21.38360   46.76480    3.30890   54.59680   46.76480    -999.25   66.48590  243.45880  243.45880   49.49040 -107.66320  -72.02650   49.49040
 7150.00000    9.12980    9.12980   24.04550   21.37730   46.77860    5.34710   88.22720   46.77860    -999.25   54.10100  261.73200  261.73200   48.57800  -85.33240  -49.88570   48.57800
 7200.00000    9.20760    9.20760   18.48450   18.12470   55.17340    5.11910   84.46520   55.17340    -999.25   89.45120  259.32510  259.32510   59.70570  -78.19520  -42.93980   59.70570
 7250.00000    9.26650    9.26650   14.62930   12.93620   77.30250    4.15890   68.62180   77.30250    -999.25  147.96150  246.58020  246.58020   71.49440  -49.40050  -14.33500   71.49440
 7300.00000    9.48190    9.48190   31.47910   28.12800   35.55180    4.23540   69.88410   35.55180    -999.25   35.42200  225.17100  225.17100   37.84910  -56.09280  -21.21730   37.84910
 7350.00000    9.45400    9.45400   29.43770   27.34560   36.56900    5.50850   90.89020   36.56900    -999.25   58.28370  228.62830  228.62830   40.05870  -51.24330  -16.47720   40.05870
 7400.00000    9.38270    9.38270   20.68620   19.81920   50.45600    5.39480   89.01420   50.45600    -999.25   81.08100  250.42340  250.42340    -999.25  -46.69210  -11.82670    -999.25
 7450.00000    9.46660    9.46660   22.92250   21.19250   47.18650    4.38150   72.29470   47.18650    -999.25   76.73490  245.12470  245.12470   49.87920  -42.78620   -7.82090   49.87920
 7500.00000    9.43920    9.43920   19.06020   19.83420   50.41800    4.95120   81.69480   50.41800    -999.25  103.72520  237.07800  237.07800   55.92170  -72.83350  -37.76890   55.92170
 7550.00000    9.56320    9.56320    5.11190    4.75380  210.35880    5.53330   91.29940  210.35880    -999.25  694.21150  258.32290  258.32290  242.81930  -65.29040  -30.12650  242.81930
 7600.00000    9.26950    9.26950    5.62820    4.67340  213.97620    1.65030   27.23000  213.97620    -999.25  705.50840  324.97240  324.97240  207.76460  -54.11640  -18.85250  207.76460
 7650.00000    9.16920    9.16920    5.65160    4.59900  217.43670    1.27640   21.06060  217.43670    -999.25 1000.00000  337.68630  337.68630  171.62700  -74.80310  -39.43990  171.62700
 7700.00000    9.13360    9.13360    5.44050    4.26670  234.37110    1.33680   22.05720  234.37110    -999.25  648.28620  347.99570  347.99570  224.17790  -74.48940  -39.02630  224.17790
 7750.00000   10.70480   10.70480    4.24210    3.33130  300.18720    1.30630   21.55400  300.18720    -999.25   35.43850  317.59840  317.59840  226.65710  -72.04960  -36.48720  226.65710
 7800.00000   13.66740   13.66740    8.14630    6.70900  149.05300    0.91610   15.11570  149.05300    -999.25   67.52140  310.07960  310.07960  153.46460 -105.74140  -70.07970  153.46460
 7850.00000   11.36000   11.36000   14.81840   13.86860   72.10520    0.71910   11.86520   72.10520    -999.25   95.31550  287.67580  287.67580  104.93010 -124.57660  -88.81490  104.93010
 7900.00000   10.46950   10.46950    9.05750    8.10180  123.42920    0.85780   14.15370  123.42920    -999.25  383.53550  359.54320  359.54320   92.16060 -119.37710  -83.51610   92.16060
 7950.00000    9.43420    9.43420    5.81610    4.99030  200.38710    1.00350   16.55780  200.38710    -999.25  775.86620  381.96540  381.96540  140.34000 -122.60190  -86.64100  140.34000
 8000.00000    9.10120    9.10120    6.02730    5.32110  187.93090    2.17630   35.90890  187.93090    -999.25  127.60790  286.79800  286.79800  118.55620  -64.28560  -28.22540  118.55620
 8050.00000   10.47320   10.47320    8.59850    7.62400  131.16430    1.36300   22.48950  131.16430    -999.25   69.00450  269.30920  269.30920   94.46280 -144.23070 -108.07120   94.46280
 8100.00000    9.19520    9.19520   14.71870   14.10700   70.88670    0.47910    7.90520   70.88670    -999.25  326.28570  304.95210  304.95210   68.60660 -164.07050 -127.81110   68.60660
 8150.00000   10.76170   10.76170    5.09680    4.64540  215.26660    0.98570   16.26410  215.26660    -999.25   63.71530  298.46800  298.46800  189.70470 -114.36960  -78.01090  189.70470
 8200.00000    9.16990    9.16990    5.98190    5.73610  174.33570    2.06870   34.13360  174.33570    -999.25  570.32570  250.62000  250.62000  126.47360  -61.72720  -25.26850  126.47360
 8250.00000    9.26700    9.26700    5.45440    5.01030  199.58730    1.89560   31.27740  199.58730    -999.25  180.36020  297.13320  297.13320  162.61730  -87.31690  -50.75890  162.61730
 8300.00000    9.12270    9.12270   26.93240   25.71410   38.88920    3.44000   56.76000   38.88920    -999.25   60.90550  206.27130  206.27130   47.39200 -103.38650  -66.72920   47.39200
 8350.00000    9.15380    9.15380    5.45730    5.33610  187.40160    1.59660   26.34390  187.40160    -999.25  305.49550  294.74070  294.74070  145.49030  -91.98200  -55.22480  145.49030
 8400.00000   11.08650   11.08650   10.12760    9.61210  104.03540    1.32740   21.90210  104.03540    -999.25   68.88880  288.68640  288.68640   94.09520 -129.56790  -92.71140   94.09520
 8450.00000    9.06820    9.06820    6.73030    6.38320  156.66230    0.81930   13.51850  156.66230    -999.25  150.36550  292.65130  292.65130  130.69670 -114.84350  -77.88700  130.69670
 8500.00000    8.87920    8.87920   12.06830   11.86360   84.29170    2.39800   39.56700   84.29170    -999.25  349.65030  230.88710  230.88710   79.06290  -55.80220  -18.74640   79.06290
 8550.00000    9.02810    9.02810    8.77010    9.48810  105.39520    2.72040   44.88660  105.39520    -999.25  403.05080  248.67700  248.67700  115.91840  -50.38750  -13.28600  115.91840
 8600.00000    8.84830    8.84830   39.26270   41.54100   24.07260    1.79170   29.56310   24.07260    -999.25  376.64710  248.25670  248.25670   29.94330 -109.19980  -72.09830   29.94330
 8650.00000    8.96170    8.96170   36.90120   34.81420   28.72390    2.04550   33.75080   28.72390    -999.25  227.50090  264.44340  264.44340   35.69810 -144.57910 -107.47760   35.69810
