~Version ---------------------------------------------------
VERS. 2.0 : CWLS log ASCII Standard -VERSION 2.0
WRAP.  NO : ONE LINE PER DEPTH STEP
~Well ------------------------------------------------------
STRT.M                       450.0 : START DEPTH
STOP.M                      3600.0 : STOP DEPTH
STEP.M                    50.00000 : STEP LENGTH
NULL.                      -999.25 : NULL VALUE
COMP. HUSKY OIL OPERATIONS LIMITED : COMPANY
WELL.  HUSKY ANTE CREEK 7-27-66-26 : WELL
FLD .                              : FIELD
LOC .                              : LOCATION
CTRY.                       CANADA : COUNTRY
SRVC.                      Unknown : SERVICE COMPANY
DATE.                  24-Feb-1984 : LOGDATE
PROV.                      Alberta : PROVINCE
UWI .             100072706626W500 : UNIQUE WELL ID
SLAT.WGS84                54.74152 : SURFACE LATITUDE
SLON.WGS84               -117.8404 : SURFACE LONGITUDE
~Curve Information -----------------------------------------
DEPT   .M                  : 
GRD    .GAPI               : GAMMA RAY FROM DENSITY
CALD   .MM    70 280 01 00 : CALIPER
DRHO   .KG/M3 45 356 01 00 : BULK DENSITY CORRECTION
RHOB   .KG/M3 45 350 01 00 : BULK DENSITY
TEND   .KG                 : TENSION FROM DENSITY LOG
NPHI_SS.DEC   42 890 03 00 : 
DPHI_SS.DEC   45 890 12 00 : DENSITY POROSITY SANDSTONE
DPHI_LS.DEC   45 890 12 00 : DENSITY POROSITY LIMESTONE
NPHI_LS.DEC                : NEUTRON POROSITY LIMESTONE
MCAL   .MM                 : MLT [MICROLOG] CALIPER
GRR    .GAPI  99 310 01 00 : GAMMA RAY FROM RESISTIVITY LOG
SPR    .MV                 : SPONTANEOUS POTENTIAL FROM RESISTIVITY
LLD    .OHMM               : LATEROLOG DEEP RESISTIVITY
LLS    .OHMM               : LATEROLOG SHALLOW
MSFL   .OHMM  07 270 04 00 : MICROSPHERICALLY FOCUSED LOG RES.
CALR   .MM    07 280 01 00 : CALIPER FROM RESISTIVITY
PROX   .OHMM  15 270 04 00 : PROXIMITY LOG RESISTIVITY
GRS    .GAPI               : GAMMA RAY FROM SONIC LOG
DT     .US/M  60 520 00 00 : SONIC INTERVAL TRANSIT TIME
CALS   .MM                 : 
TENS   .KG    35 635 01 00 : TENSION FROM GRN LOG
~Params ----------------------------------------------------
PD  .                         GL : PERMANENT DATUM
EPD .M                    785.37 : ELEVATION PERMANENT DATUM
LMF .                         KB : LOG MEASURED FROM
DAPD.M                      7.45 : FEET ABOVE PERMANENT DATUM
DMF .                         KB : DRILLING MEASURED FROM
EKB .M                    792.82 : KELLY BUSHING
EGL .M                    785.37 : GROUND LEVEL
DATE.                   02/24/84 : RUN DATE
RUN .                          1 : RUN NUMBER
DD  .M                      3597 : DEPTH DRILLER
DL  .M                      3595 : DEPTH LOGGER
BLI .M                      3595 : BOTTOM LOG INTERVAL
TLI .M                       486 : TOP LOG INTERVAL
CS  .MM                    244.5 : CASING SIZE
CBD .M                       486 : CASING BOTTOM DRILLER
CBL .M                       486 : CASING BOTTOM LOGGER
BS  .MM                      222 : BIT SIZE
BSD .M                      3597 : BIT SIZE AT DEPTH
DFT .                   GEL CHEM : DRILLING FLUID TYPE
DFD .                       1125 : DRILLING FLUID DENSITY
DFV .                         69 : DRILLING FLUID VISCOSITY
DFPH.                       10.5 : DRILLING FLUID PH
DFL .                          9 : DRILLING FLUID LOSS
MSS .                   FLOWLINE : MUD SAMPLE SOURCE
RMS .OHMM                   1.36 : RESISTIVITY MUD SAMPLE
MST .DEGC                   15.6 : MUD SAMPLE TEMPERATURE
RMF .OHMM                   1.08 : RESISTIVITY MUD FILTRATE SAMPLE
MFST.DEGC                   17.8 : MUD FILTRATE SAMPLE TEMPERATURE
RMC .OHMM                   1.62 : RESISTIVITY MUD CAKE
MCST.DEGC                   21.1 : MUD CAKE SAMPLE TEMPERATURE
MFSS.                   MEASURED : MUD FILTRATE SAMPLE SOURCE
MCSS.                   MEASURED : MUD CAKE SAMPLE SOURCE
RMB .OHMM                  0.506 : RESISTIVITY MUD AT BHT
TCS .HRS                     100 : TIME CIRCULATED STOPPED
TLAB.HRS                     915 : TIME LOGGER AT BOTTOM
LUN .                       8211 : LOGGING UNIT NUMBER
LUL .                        EDM : LOGGING UNIT LOCATION
ENGI.             PIERACCI PENNY : RECORDING ENGINEER
WITN.                      STIEL : WITNESSED BY
CLNT.                    A2DTECH : CLIENT CODE
ORIG. 6.5"/100M 16.5"/100M PRINT : ORIGIN OF DATA
UWI .           100072706626W500 : UNIQUE WELL ID
DICO.     A2D Technologies, Inc. : DIGITIZING COMPANY
~Other -----------------------------------------------------
~ASCII -----------------------------------------------------
# ...
 2100.00000   80.12510  266.01820    6.99330 2510.38380 1585.21510    0.19630    0.08570    -999.25    -999.25    -999.25   73.68760   11.23910    9.14480   11.05100   19.16290  212.44650    -999.25   86.01010  216.36860  259.69200 1476.24830
 2150.00000   86.82730  258.44460  -10.62410 2591.49540 1633.97470    0.12630    0.03610    -999.25    -999.25    -999.25   80.83190  -37.81380   16.83050   18.39040   29.13860  241.16310    -999.25   74.74640  208.93750  261.52150 1520.25040
 2200.00000   52.71790  237.47200  -20.34800 2614.36330 1647.65760    0.07320    0.02240    -999.25    -999.25    -999.25   55.98570  -25.57680   30.50630   33.82020   39.38210  234.82990    -999.25   63.26160  196.96940  245.31850 1554.35790
 2250.00000  109.49700  255.47650   -5.91470 2665.67650 1657.16960    0.16230    0.00040    0.03330    0.11420    -999.25  108.94400  -25.06010   43.30210   46.73490   53.84500  242.60260    -999.25   93.52760  209.66780  265.39890 1533.97170
 2300.00000   19.91990  262.59720    0.49260 2758.86330 1734.91380    -999.25    -999.25   -0.02750    0.08800    -999.25   23.80680   -4.06410   61.36540   52.42740  149.03410  246.58820    -999.25   22.76530  153.90340  250.37630 1453.14710
 2350.00000   31.83480  241.41840    6.95300 2801.80640 1753.98210    -999.25    -999.25   -0.05410    0.03150    -999.25   33.39280  -67.61950  549.22300  486.40810  145.23900  245.91690    -999.25   39.17380  157.97600  238.73160 1664.95610
 2400.00000   22.66710  235.25900   41.84360 2623.87740 1772.92210    -999.25    -999.25    0.05230    0.10840    -999.25   23.11690  -96.05170   25.52820   30.45790   33.68690  232.56250    -999.25   22.84490  185.08150  223.74810 1665.22680
 2450.00000   26.98530  312.05460  250.39890 2564.66530 1818.57290    -999.25    -999.25    0.07170    0.10550    -999.25   34.93180  -88.50210   14.00870   12.18930    9.37930  234.79910    -999.25   30.56590  185.68790  253.34900 1739.83230
 2500.00000   10.14910  250.17940   -1.20590 2696.26880 1820.78760    -999.25    -999.25    0.00720    0.02260    -999.25    9.62440  -71.33660   46.96580   65.28600  130.26210  230.24420    -999.25   11.40220  163.39220  235.99230 1709.44010
 2550.00000   30.98950  335.69350  192.50870 2331.80520 1874.76670    -999.25    -999.25    0.25200    0.03810    -999.25   45.66930   -7.61520   63.14120   52.22580   16.38850  273.40630    -999.25   44.12110  177.48360  261.58930 1782.69120
 2600.00000   16.47440  333.42190  249.04100 2675.96170 1897.07470    -999.25    -999.25    0.02010    0.00260    -999.25   14.16890  -21.05650  778.42880  671.97260   11.03880  285.20150    -999.25   17.09240  166.07130  265.00310 1779.94800
 2650.00000   62.47480  452.34420  107.35840 1942.49440 1941.32900    -999.25    -999.25    0.44560    0.25890    -999.25   65.49660   20.44170   12.91340   11.72030    3.89510  271.41250    -999.25   76.73410  222.23060  318.48410 1823.90490
 2700.00000    8.28410  313.69250   18.80820 2699.47090 1953.88790    -999.25    -999.25    0.00490    0.01090    -999.25    9.85990  -35.85560  299.41610  257.14870  445.06330  252.97260    -999.25   11.77050  168.90850  262.95340 1855.79490
 2750.00000   43.66580  257.26610    1.40800 2690.64090 1930.12400    -999.25    -999.25    0.01040    0.02130    -999.25   49.78080   84.93180   90.05280   86.69500  102.09880  264.85830    -999.25   46.85910  183.47830  264.26490 1885.16470
 2800.00000   18.46380  322.68010  250.01730 2621.64330 2046.47660    -999.25    -999.25    0.04940    0.00890    -999.25   21.28010  -76.51120  323.60950  322.18250    8.39270  265.83430    -999.25   18.58700  171.06440  264.93370 1890.80990
 2850.00000   16.17700  328.40620  251.16530 2464.50630 2094.37040    -999.25    -999.25    0.12710    0.00550    -999.25   17.17420  -95.67230  903.84660  711.64740   95.21710  228.70950    -999.25   16.97650  163.32110  249.62390 1946.93590
 2900.00000    9.95450  304.24750    -999.25 2768.24540 2105.20070    -999.25    -999.25   -0.03270   -0.00220    -999.25    9.95490 -108.17730  827.61220  687.77620  286.77260  227.87940    -999.25   10.37220  163.87690  250.02650 1948.46620
 2950.00000   11.42420  355.98070  249.16040 2630.44410 2137.93240    -999.25    -999.25    0.04600    0.00090    -999.25   12.43370  -63.99020  747.88670  465.78060  114.80400  233.55850    -999.25   10.70670  166.08800  249.02700 2001.17310
 3000.00000    9.20210  289.18440  116.03650 2502.03200 2118.13960    -999.25    -999.25    0.12000   -0.00080    -999.25   12.09640  -63.06500 5533.19140 2218.23510  345.92250  224.46480    -999.25   12.96200  166.40770  236.09720 2015.33040
 3050.00000   13.01650  248.79160  201.08540 2700.69530 2180.59960    -999.25    -999.25   -0.00090    0.01000    -999.25   12.87790  -31.59260   75.66090   95.08320  287.03580  224.70520    -999.25   13.17520  164.94810  236.36520 2041.48230
 3100.00000   17.42200  237.38780   -0.10230 2758.14550 2194.71260    -999.25    -999.25   -0.02620    0.00330    -999.25   18.52550   13.80630 25455.42190 15841.94820 1842.10990  244.82380    -999.25   18.50240  156.38240  236.11530 2069.06100
 3150.00000   11.01390  229.64410   26.97300 2919.91750 2207.34670    -999.25    -999.25   -0.12060    0.00040    -999.25   10.95570    9.94030 15333.02830 10622.61130 1886.00770  249.57640    -999.25   14.47500  161.48460  250.26270 2079.94480
 3200.00000   35.45390  248.14380   21.40670 2673.20830 2229.89820    -999.25    -999.25    0.02730    0.05370    -999.25   39.48370  -12.21660  120.44420   88.81330   75.47310  250.77920    -999.25   35.62750  189.52880  255.99660 2120.82840
 3250.00000   85.85040  280.83420  -11.78460 2086.89750 2255.62300    -999.25    -999.25    0.32430    0.18980    -999.25   84.51670  271.21450   13.06930   15.03620   12.39920  233.95710    -999.25   84.99900  255.31300  258.06940 2132.58740
 3300.00000   80.21570  417.70320  143.56950 2132.97780 2314.30200    -999.25    -999.25    0.35240    0.34110    -999.25   79.25860   -0.95620    3.29140    3.11610    5.26790  283.21530    -999.25   81.88180  268.54100  344.93430 2236.91600
 3350.00000   78.15900  331.41270  241.48630 2429.58540 2407.29860    -999.25    -999.25    0.16320    0.22300    -999.25   81.85050   19.42260    5.47980    5.79620    7.62400  254.81320    -999.25   86.44950  235.02470  281.26420 2259.57980
 3400.00000   75.24090  261.00660    0.71860 2679.73360 2430.55030    -999.25    -999.25    0.01540    0.19420    -999.25   72.91930  190.85310    6.27620    6.75440    9.26290  240.91660    -999.25   83.72330  228.59510  258.08440 2294.34280
 3450.00000   64.74570  234.25690   -5.25390 2629.56930 2387.01810    -999.25    -999.25    0.04730    0.15570  230.91030   51.24050   63.37570   37.09430   40.25080   83.43730  230.81250   54.04310   59.03140  204.52430  239.99670 2329.26900
 3500.00000   21.67130  241.45140   12.31570 2681.40630 2386.51340    -999.25    -999.25    0.01820    0.01320  244.38070   31.17840   21.11500   72.59280   57.44400   23.94110  245.45870   99.79380   37.78990  183.96590  234.78830 2316.52760
 3550.00000   23.31290  216.42070   18.98870 2659.42700 2424.50710    -999.25    -999.25    0.02940    0.02130  221.38100   53.27660  -17.27250  621.36410  314.95750   55.68100  218.50990   11.36190   27.31080  172.34680  238.21190 2350.53100
 3600.00000    -999.25    -999.25    -999.25    -999.25 1884.21670    -999.25    -999.25    -999.25    -999.25    -999.25    -999.25    -999.25    -999.25    -999.25    -999.25    -999.25    -999.25    -999.25    -999.25    -999.25    -999.25
