~Version ---------------------------------------------------
VERS.      2.0 : CWLS log ASCII Standard -VERSION 2.0
WRAP.       NO : One line per depth step
CREA. 12/11/17 : LAS Creation Date
~Well ------------------------------------------------------
STRT.FT                        300.0 : START DEPTH
STOP.FT                      10150.0 : STOP DEPTH
STEP.FT                     50.00000 : STEP LENGTH
NULL.                        -999.25 : NULL VALUE
COMP.           PETROFINA CANADA LTD : COMPANY
WELL. FINA AMOCO HB PASSCK 7-2-62-17 : WELL
FLD .                                : FIELD
LOC .                                : LOCATION
CTRY.                         CANADA : COUNTRY
SRVC.                   Schlumberger : SERVICE COMPANY
DATE.                    14-Mar-1978 : LOGDATE
PROV.                        Alberta : PROVINCE
UWI .               100070206217W500 : UNIQUE WELL ID
SLAT.WGS84                  54.33347 : SURFACE LATITUDE
SLON.WGS84                 -116.4328 : SURFACE LONGITUDE
~Curve Information -----------------------------------------
DEPT    .FT    : Depth Curve
CALDED  .IN    : CALIPER FROM DENSITY LOG [ADJ. TO RESISTIVITY LOG]
CALSED  .IN    : CALIPER FROM SONIC LOG
CALWS   .IN    : CALIPER [CALDED SPL. TO CALSED FROM 1027'-2457']
CILDED  .MMHO  : CONDUCTIVITY FROM RESISTIVITY LOG
CONDWS  .MMHO  : CONDUCTIVITY [1000/DRESWS]
DCORWS  .G/C3  : DENSITY CORRECTION [DRHOED]
DENWS   .G/C3  : FORMATION BULK DENSITY [CALC. FROM DPOLSWS, M=2.71, F=1.00]
DPHILSED.V/V   : DENSITY POROSITY LIMESTONE [M=2.71, F=1.00] FROM DENSITY LOG [ADJ. TO RESISTIVITY LOG]
DPHISSED.V/V   : DENSITY POROSITY SANDSTONE [M=2.65, F=1.00] FROM DENSITY LOG [ADJ. TO RESISTIVITY LOG]
DPOLSWS .V/V   : DENSITY POROSITY LIMESTONE [DPHISSED CONVERTED TO LIMESTONE MATRIX, M=2.71, F=1.00 SPL.TO DPHILSED @ 6300']
DRESWS  .OHMM  : DEEP RESISTIVITY [ILDED]
DRHOED  .G/C3  : DENSITY CORRECTION FROM DENSITY LOG [ADJ. TO RESISTIVITY LOG]
DTED    .US/F  : DELTA TIME FROM SONIC LOG
DTWS    .US/F  : COMPRESSIONAL SONIC [DTED]
GRDED   .GAPI  : GAMMA RAY FROM DENSITY LOG [ADJ. TO RESISTIVITY LOG]
GRSED   .GAPI  : GAMMA RAY FROM SONIC LOG
GRWS    .GAPI  : GAMM RAY [GRDED SPL. TO GRSED @ 35'] GRWS IN CSG. (+25 GAPI) FROM (994'-1027')
ILDED   .OHMM  : DEEP INDUCTION LOG RESISTIVITY FROM RESISTIVITY LOG
ILMED   .OHMM  : MEDIUM INDUCTION LOG RESISTIVITY FROM RESISTIVITY LOG
LL8ED   .OHMM  : 8 INCH LATEROLOG RESISTIVITY FROM RESISTIVITY LOG
MRESWS  .OHMM  : MEDIUM RESISTIVITY [ILMED]
NPHILSED.V/V   : NEUTRON POROSITY LIMESTONE FROM DENSITY LOG [ADJ. TO RESISTIVITY LOG]
NPHISSED.V/V   : NEUTRON POROSITY SANDSTONE FROM DENSITY LOG [ADJ. TO RESISTIVITY LOG]
NPOLSWS .V/V   : NEUTRON POROSITY LIMESTONE [NPHISSED MATRIX (SLB) CONVERSION FOR LIMESTONE, SPL.TO NPHILSED @ 6300']
RHOBED  .G/C3  : BULK DENSITY FROM DENSITY LOG [ADJ. TO RESISTIVITY LOG]
SPRED   .MV    : SPONTANEOUS POTENTIAL FROM RESISTIVITY LOG
SPWS    .MV    : SPONTANEOUS POTENTIAL [BASELINE 0 MV, SPRED]
SRESWS  .OHMM  : SHALLOW RESISTIVITY [LL8ED]
~Params ----------------------------------------------------
PD  .                     GL : PERMANENT DATUM
EPD .FT               2914.3 : ELEVATION PERMANENT DATUM
LMF .                     KB : LOG MEASURED FROM
DAPD.FT                 17.6 : FEET ABOVE PERMANENT DATUM
EKB .FT               2931.9 : KELLY BUSHING
EGL .FT               2914.3 : GROUND LEVEL
DATE.               03/14/78 : RUN DATE
RUN .                      2 : RUN NUMBER
DD  .FT                10155 : DEPTH DRILLER
DL  .FT                10163 : DEPTH LOGGER
BLI .FT                10157 : BOTTOM LOG INTERVAL
TLI .FT                 1027 : TOP LOG INTERVAL
CBD .FT                 1028 : CASING BOTTOM DRILLER
CBL .FT                 1027 : CASING BOTTOM LOGGER
BS  .IN                 8.75 : BIT SIZE
BSD .FT                10155 : BIT SIZE AT DEPTH
DFT .               GEL CHEM : DRILLING FLUID TYPE
DFD .                    9.3 : DRILLING FLUID DENSITY
DFV .                     90 : DRILLING FLUID VISCOSITY
DFPH.                     11 : DRILLING FLUID PH
DFL .                    9.0 : DRILLING FLUID LOSS
MSS .               FLOWLINE : MUD SAMPLE SOURCE
RMS .OHMM               1.87 : RESISTIVITY MUD SAMPLE
MST .DEGF                 74 : MUD SAMPLE TEMPERATURE
RMF .OHMM               1.52 : RESISTIVITY MUD FILTRATE SAMPLE
MFST.DEGF                 72 : MUD FILTRATE SAMPLE TEMPERATURE
RMB .OHMM               0.62 : RESISTIVITY MUD AT BHT
TCS .HRS                 3.5 : TIME CIRCULATED STOPPED
LUN .                   7730 : LOGGING UNIT NUMBER
LUL .                    EDM : LOGGING UNIT LOCATION
ENGI.               ACKERMAN : RECORDING ENGINEER
WITN.                 DAVIES : WITNESSED BY
CLNT.                A2DTECH : CLIENT CODE
ORIG.            2" 5" PRINT : ORIGIN OF DATA
UWI .       100070206217W500 : UNIQUE WELL ID
DICO. A2D Technologies, Inc. : DIGITIZING COMPANY
~Other -----------------------------------------------------
DIL-CNFD-BHC TOOLS RUN
DIL AND BHC TOOL CURVES FROM 1024' TO 2452' FROM 2" SCALE SECTION
~ASCII -----------------------------------------------------
# ...
 9050.00000    9.97890    9.77120    9.97890    -999.25  113.93930    0.06970    2.20910    0.29290    -999.25    0.29290    8.77660    0.06970   68.96890   68.96890   81.96670   87.57700   87.57700    8.77660    9.17610   10.34670    9.17610    0.22330    -999.25    0.22330    2.24310  -35.30100  -15.70830   10.34670
 9100.00000   12.49410   12.26410   12.49410    -999.25  174.58410    0.21560    2.26540    0.26000    -999.25    0.26000    5.72790    0.21560   77.06830   77.06830   99.02210  102.09110  102.09110    5.72790    5.24080    7.46490    5.24080    0.33140    -999.25    0.33140    2.25560  -57.32410  -38.15650    7.46490
 9150.00000    9.26330    9.39350    9.26330    -999.25   82.44700    0.06830    2.73960   -0.01730    -999.25   -0.01730   12.12900    0.06830   64.56510   64.56510   78.70150   83.43310   83.43310   12.12900   12.73580   16.01550   12.73580    0.14740    -999.25    0.14740    2.72810  -28.43700   -9.69170   16.01550
 9200.00000    9.28240    9.47810    9.28240    -999.25  105.57710    0.13120    2.76720   -0.03350    -999.25   -0.03350    9.47180    0.13120   66.85200   66.85200  104.90390  106.63480  106.63480    9.47180   10.16280   14.34160   10.16280    0.17960    -999.25    0.17960    2.76560  -29.70300  -11.38280   14.34160
 9250.00000    8.94280    9.19300    8.94280    -999.25   62.48910    0.01490    2.70090    0.00540    -999.25    0.00540   16.00280    0.01490   61.85100   61.85100   75.93310   77.81850   77.81850   16.00280   18.13350   27.70570   18.13350    0.15040    -999.25    0.15040    2.69470  -20.75530   -2.85740   27.70570
 9300.00000    9.55810    9.90460    9.55810    -999.25  114.20220    0.17330    2.65660    0.03120    -999.25    0.03120    8.75640    0.17330   67.67060   67.67060  115.29570  124.54500  124.54500    8.75640    9.68340   13.17880    9.68340    0.21680    -999.25    0.21680    2.64770  -24.49510   -7.01950   13.17880
 9350.00000    8.95530    9.25420    8.95530    -999.25  132.65940    0.08330    2.64380    0.03870    -999.25    0.03870    7.53810    0.08330   68.92160   68.92160   98.82800  106.60960  106.60960    7.53810    8.43420   12.84350    8.43420    0.19260    -999.25    0.19260    2.66940  -25.96990   -8.91940   12.84350
 9400.00000    8.46990    8.91400    8.46990    -999.25  109.44150    0.00820    2.71150   -0.00090    -999.25   -0.00090    9.13730    0.00820   66.59710   66.59710   92.33510   96.43520   96.43520    9.13730    9.79950   13.52950    9.79950    0.16430    -999.25    0.16430    2.71010  -26.31870   -9.69050   13.52950
 9450.00000    7.97730    9.13180    7.97730    -999.25  127.31480    0.10540    2.47250    0.13890    -999.25    0.13890    7.85500    0.10540   71.55990   71.55990  110.52660  119.86370  119.86370    7.85500    8.75200   13.27810    8.75200    0.23490    -999.25    0.23490    2.46240  -29.46530  -13.51570   13.27810
 9500.00000    8.32900    8.79900    8.32900    -999.25    0.62150    0.01240    2.61050    0.05820    -999.25    0.05820 1609.10710    0.01240   59.84140   59.84140  114.67710  120.73350  120.73350 1609.10710 1465.07530 1385.68800 1465.07530    0.07870    -999.25    0.07870    2.61610  -80.80230  -67.68340 1385.68800
 9550.00000    8.37370    8.81470    8.37370    -999.25    0.61860    0.00260    2.49850    0.12370    -999.25    0.12370 1616.45390    0.00260   71.78750   71.78750  185.99570  202.72700  202.72700 1616.45390 1488.41650 1367.04990 1488.41650    0.18880    -999.25    0.18880    2.49780  -69.20930  -58.92110 1367.04990
 9600.00000    8.41590    8.79870    8.41590    -999.25   25.37040    0.00540    2.70980    0.00010    -999.25    0.00010   39.41600    0.00540   57.16860   57.16860   58.94080   63.78780   63.78780   39.41600   41.70410   53.28760   41.70410    0.12080    -999.25    0.12080    2.70870  -25.39140  -17.95250   53.28760
 9650.00000   11.59230   13.55750   11.59230    -999.25   48.60980    0.18090    2.33110    0.22160    -999.25    0.22160   20.57200    0.18090   82.37120   82.37120  124.15290  130.49390  130.49390   20.57200   18.08310   28.35390   18.08310    0.33010    -999.25    0.33010    2.36050  -35.98160  -31.37340   28.35390
 9700.00000    8.30600    8.75730    8.30600    -999.25    1.78460   -0.01170    2.66450    0.02660    -999.25    0.02660  560.62330   -0.01170   54.69920   54.69920   52.40090   58.88170   58.88170  560.62330  414.30600  607.15030  414.30600    0.09880    -999.25    0.09880    2.66140  -40.93580  -37.68710  607.15030
 9750.00000   10.01400    9.23960   10.01400    -999.25    0.62000    0.15950    2.62840    0.04770    -999.25    0.04770 1612.91170    0.15950   45.65560   45.65560    9.46160   11.88800   11.88800 1612.91170  704.29130  876.95230  704.29130    0.03540    -999.25    0.03540    2.62100  -92.32180  -89.07310  876.95230
 9800.00000    8.59820    8.98600    8.59820    -999.25    0.80960    0.10660    2.69820    0.00690    -999.25    0.00690 1235.20540    0.10660   47.94910   47.94910    6.86590    6.80830    6.80830 1235.20540 1381.06230  802.64430 1381.06230    0.00360    -999.25    0.00360    2.71370  -64.52850  -61.27980  802.64430
 9850.00000    8.20940    8.78870    8.20940    -999.25    0.60570    0.03930    2.76390   -0.03150    -999.25   -0.03150 1651.09300    0.03930   48.13200   48.13200   18.58860   23.35660   23.35660 1651.09300 1504.63560 1355.66480 1504.63560    0.00350    -999.25    0.00350    2.75380 -116.73190 -113.48320 1355.66480
 9900.00000    8.25090    8.65720    8.25090    -999.25    5.71020    0.03580    2.76690   -0.03330    -999.25   -0.03330  175.12580    0.03580   47.94370   47.94370   16.84040   16.88230   16.88230  175.12580  217.95840  227.74310  217.95840    0.03060    -999.25    0.03060    2.74610 -130.36370 -127.11500  227.74310
 9950.00000    8.00620    8.64920    8.00620    -999.25   99.94950    0.10400    2.64680    0.03690    -999.25    0.03690   10.00520    0.10400   52.50960   52.50960   10.65920   13.18060   13.18060   10.00520   12.74940   35.98990   12.74940    0.19940    -999.25    0.19940    2.64150 -140.00120 -136.75250   35.98990
 10000.00000    8.20300    8.79550    8.20300    -999.25    0.72290    0.02290    2.71120   -0.00070    -999.25   -0.00070 1383.33790    0.02290   46.98810   46.98810   15.34570   18.00220   18.00220 1383.33790  942.15690 1160.75840  942.15690    0.01900    -999.25    0.01900    2.71060 -132.38660 -129.13790 1160.75840
 10050.00000    8.64750    8.80730    8.64750    -999.25    0.58990    0.18360    2.57470    0.07910    -999.25    0.07910 1695.17640    0.18360   49.33450   49.33450   15.65020   18.70030   18.70030 1695.17640 1542.14050 1127.05410 1542.14050    0.00970    -999.25    0.00970    2.56420 -137.92890 -134.68020 1127.05410
 10100.00000    8.25850    8.71220    8.25850    -999.25   24.48950    0.02920    2.67530    0.02030    -999.25    0.02030   40.83390    0.02920   61.26250   61.26250  173.56720  186.52280  186.52280   40.83390   51.60270   65.50140   51.60270    0.14610    -999.25    0.14610    2.65170   -7.57030   -4.32160   65.50140
 10150.00000    8.16840    8.59770    8.16840    -999.25   29.70000    0.02440    2.71320   -0.00190    -999.25   -0.00190   33.67000    0.02440   53.50720   53.50720    -999.25    -999.25    -999.25   33.67000   39.99670   99.52870   39.99670    -999.25    -999.25    -999.25    2.70980  -11.89030   -8.64160   99.52870
