~Version ---------------------------------------------------
VERS.      2.0 : CWLS log ASCII Standard -VERSION 2.0
WRAP.       NO : One line per depth step
CREA. 08/02/17 : LAS Creation Date
~Well ------------------------------------------------------
STRT.FT                            1100.0 : START DEPTH
STOP.FT                           10850.0 : STOP DEPTH
STEP.FT                          50.00000 : STEP LENGTH
NULL.                             -999.25 : NULL VALUE
COMP.        PAN AMERICAN PETROLEUM CORP. : COMPANY
WELL. PAN AM ET AL E-3 KAYBOBS 6-26-59-18 : WELL
FLD .                        KAYBOB SOUTH : FIELD
LOC .                                     : LOCATION
CTRY.                              CANADA : COUNTRY
SRVC.                        Schlumberger : SERVICE COMPANY
DATE.                         16-Jul-1969 : LOGDATE
PROV.                             Alberta : PROVINCE
UWI .                    100062605918W500 : UNIQUE WELL ID
SLAT.WGS84                       54.12901 : SURFACE LATITUDE
SLON.WGS84                       -116.593 : SURFACE LONGITUDE
~Curve Information -----------------------------------------
DEPT   .FT        : Depth Curve
CALSED .IN        : CALIPER FROM SONIC LOG [ADJ. TO RESISTIVITY LOG]
CALWS  .IN        : CALIPER [CALSED]
CONDWS .MMHO      : CONDUCTIVITY [1000/DRESWS]
DRESWS .OHMM      : DEEP RESISTIVITY [ILDED]
DTED   .US/F      : DELTA-T FROM SONIC LOG [ADJ. TO RESISTIVITY LOG]
DTWS   .US/F      : COMPRESSIONAL SONIC [DTED]
GRSED  .GAPI      : GAMMA RAY FROM SONIC LOG [ADJ. TO RESISTIVITY LOG]
GRTED  .GAPI      : THEORETICAL GAMMA RAY VALUE TDT FROM TDT LOG [ADJ. TO RESISTIVITY LOG]
GRWS   .GAPI      : GAMMA RAY [GRSED]
ILDED  .OHMM      : DEEP INDUCTION RESISTIVITY FROM RESISTIVITY LOG
ILMED  .OHMM      : MEDIUM INDUCTION RESISTIVITY FROM RESISTIVITY LOG
LL8ED  .OHMM      : LATEROLOG 8 FROM RESISTIVITY LOG
MRESWS .OHMM      : MEDIUM RESISTIVITY [ILMED]
RATIOED.UNITLESS  : RATIO FROM TDT LOG [ADJ. TO RESISTIVITY LOG]
SIGMAED.CU        : SIGMA FROM TDT LOG [ADJ. TO RESISTIVITY LOG]
SIGMED .CU        : SIGM FROM TDT LOG [ADJ. TO RESISTIVITY LOG]
SPRED  .MV        : SPONTANEOUS POTENTIAL FROM RESISTIVITY LOG
SPWS   .MV        : SPONTANEOUS POTENTIAL [BASELINE 0MV, SPRED]
SRESWS .OHMM      : SHALLOW RESISTIVITY [LL8ED]
TAUED  .us        : NEUTRON DECAY TIME FROM TDT LOG [ADJ. TO RESISTIVITY LOG]
TRATED .UNITLESS  : NEAR/FAR CAPTURE RATIO FROM TDT LOG [ADJ. TO RESISTIVITY LOG]
~Params ----------------------------------------------------
PD  .              2" OUTLET : PERMANENT DATUM
EPD .FT               2964.7 : ELEVATION PERMANENT DATUM
LMF .                     KB : LOG MEASURED FROM
DAPD.FT                 14.3 : FEET ABOVE PERMANENT DATUM
EKB .FT               2979.0 : KELLY BUSHING
EGL .FT               2964.7 : GROUND LEVEL
DATE.               07/16/69 : RUN DATE
RUN .                      1 : RUN NUMBER
DD  .FT                10855 : DEPTH DRILLER
DL  .FT                10862 : DEPTH LOGGER
BLI .FT                10858 : BOTTOM LOG INTERVAL
TLI .FT                 1104 : TOP LOG INTERVAL
CBD .FT                 1104 : CASING BOTTOM DRILLER
CBL .FT                 1104 : CASING BOTTOM LOGGER
BS  .IN                 8.75 : BIT SIZE
BSD .FT                10855 : BIT SIZE AT DEPTH
DFT .               GEL CHEM : DRILLING FLUID TYPE
DFD .                    9.3 : DRILLING FLUID DENSITY
DFV .                     90 : DRILLING FLUID VISCOSITY
DFPH.                    9.0 : DRILLING FLUID PH
DFL .                    9.2 : DRILLING FLUID LOSS
MSS .                   CIRC : MUD SAMPLE SOURCE
RMS .OHMM                1.6 : RESISTIVITY MUD SAMPLE
MST .DEGF                 62 : MUD SAMPLE TEMPERATURE
RMF .OHMM               1.29 : RESISTIVITY MUD FILTRATE SAMPLE
MFST.DEGF                 67 : MUD FILTRATE SAMPLE TEMPERATURE
RMC .OHMM               1.35 : RESISTIVITY MUD CAKE
MCST.DEGF                 62 : MUD CAKE SAMPLE TEMPERATURE
TCS .HRS                   2 : TIME CIRCULATED STOPPED
LUN .                   7502 : LOGGING UNIT NUMBER
LUL .                    EDM : LOGGING UNIT LOCATION
ENGI.                 EDGSON : RECORDING ENGINEER
WITN.                  REMUS : WITNESSED BY
CLNT.                A2DTECH : CLIENT CODE
ORIG.            2" 5" PRINT : ORIGIN OF DATA
UWI .       100062605918W500 : UNIQUE WELL ID
DICO. A2D Technologies, Inc. : DIGITIZING COMPANY
~Other -----------------------------------------------------
~ASCII -----------------------------------------------------
# ...
 7700.00000    9.00930    9.00930  210.40230    4.75280   60.74580   60.74580   51.56210    -999.25   51.56210    4.75280    5.23380   11.15340    5.23380    -999.25    -999.25    -999.25 -120.11260  -52.87180   11.15340    -999.25    -999.25
 7750.00000    9.04600    9.04600   52.89770   18.90440   54.85910   54.85910   47.16080    -999.25   47.16080   18.90440   24.45170   50.36990   24.45170    -999.25    -999.25    -999.25 -123.34360  -56.65480   50.36990    -999.25    -999.25
 7800.00000    9.14440    9.14440  174.68360    5.72470   62.60920   62.60920   34.41230    -999.25   34.41230    5.72470    6.32860   10.96730    6.32860    -999.25    -999.25    -999.25 -115.34630  -49.20950   10.96730    -999.25    -999.25
 7850.00000    9.11740    9.11740   20.36440   49.10520   53.37820   53.37820   37.40910    -999.25   37.40910   49.10520   69.92830  257.38160   69.92830    -999.25    -999.25    -999.25  -76.87800  -11.29690  257.38160    -999.25    -999.25
 7900.00000    9.03520    9.03520    1.86330  536.68260   49.98150   49.98150   17.36490    -999.25   17.36490  536.68260 1484.51010  739.30970 1484.51010    -999.25    -999.25    -999.25 -148.86590  -83.83680  739.30970    -999.25    -999.25
 7950.00000    9.37010    9.37010    6.21350  160.94080   53.50280   53.50280    7.97150    -999.25    7.97150  160.94080 1123.50130  750.15400 1123.50130    -999.25    -999.25    -999.25 -153.71660  -89.24310  750.15400    -999.25    -999.25
 8000.00000    9.07080    9.07080   14.75660   67.76650   55.69450   55.69450   24.67120    -999.25   24.67120   67.76650  112.41610  165.97490  112.41610    -999.25    -999.25    -999.25 -118.24770  -54.32620  165.97490    -999.25    -999.25
 8050.00000    9.19580    9.19580   21.44590   46.64680   52.31180   52.31180   16.48820    -999.25   16.48820   46.64680   56.60670  152.19970   56.60670    -999.25    -999.25    -999.25 -115.43470  -52.06520  152.19970    -999.25    -999.25
 8100.00000    8.99580    8.99580   36.08650   27.71120   58.02960   58.02960   44.31480    -999.25   44.31480   27.71120   32.60640   39.15810   32.60640    -999.25    -999.25    -999.25  -66.94390   -4.13010   39.15810    -999.25    -999.25
 8150.00000    8.88570    8.88570   18.78760   53.22650   55.67410   55.67410   37.94790    -999.25   37.94790   53.22650   71.43060   81.84410   71.43060    -999.25    -999.25    -999.25  -69.38100   -7.11920   81.84410    -999.25    -999.25
 8200.00000    8.89710    8.89710    2.11740  472.26730   52.78330   52.78330   30.32320    -999.25   30.32320  472.26730 1440.26370  726.44620 1440.26370    -999.25    -999.25    -999.25  -78.83270  -17.12650  726.44620    -999.25    -999.25
 8250.00000    8.94990    8.94990   13.02910   76.75110   65.97960   65.97960   88.22100    -999.25   88.22100   76.75110  111.61750  120.82620  111.61750    -999.25    -999.25    -999.25  -64.90520   -3.80050  120.82620    -999.25    -999.25
 8300.00000    9.22220    9.22220    0.76360 1310.36470   53.64850   53.64850   15.28180    -999.25   15.28180 1310.36470 1461.87890 2218.31250 1461.87890    -999.25    -999.25    -999.25  -93.30520  -33.04180 2218.31250    -999.25    -999.25
 8350.00000    9.22540    9.22540    0.71170 1405.13780   50.24760   50.24760   10.35980    -999.25   10.35980 1405.13780 1524.26310 1160.04170 1524.26310    -999.25    -999.25    -999.25 -139.78400  -80.36750 1160.04170    -999.25    -999.25
 8400.00000    9.38780    9.38780    0.72760 1374.35730   49.81140   49.81140   17.58220    -999.25   17.58220 1374.35730 1484.78810  611.43020 1484.78810    -999.25    -999.25    -999.25 -134.86460  -76.28940  611.43020    -999.25    -999.25
 8450.00000    9.46780    9.46780    0.69990 1428.82170   50.54340   50.54340   11.73510    -999.25   11.73510 1428.82170 1515.18180 1554.11190 1515.18180    -999.25    -999.25    -999.25 -153.24130  -95.51290 1554.11190    -999.25    -999.25
 8500.00000    9.71450    9.71450    1.15450  866.19820   48.05360   48.05360    9.31360    -999.25    9.31360  866.19820 1522.20090 1366.74760 1522.20090    -999.25    -999.25    -999.25 -162.78340 -105.89640 1366.74760    -999.25    -999.25
 8550.00000    9.54080    9.54080    0.68210 1465.98110   48.91540   48.91540   13.84100    -999.25   13.84100 1465.98110 1517.93740 2213.83440 1517.93740    -999.25    -999.25    -999.25 -161.01700 -104.97130 2213.83440    -999.25    -999.25
 8600.00000    9.56490    9.56490    2.54220  393.36480   50.34600   50.34600   12.92640    -999.25   12.92640  393.36480 1413.49580 2184.64670 1413.49580    -999.25    -999.25    -999.25 -163.95110 -108.75220 2184.64670    -999.25    -999.25
 8650.00000    9.47210    9.47210    2.18290  458.11370   48.56990   48.56990    8.59670    -999.25    8.59670  458.11370  310.34420  256.65700  310.34420    -999.25    -999.25    -999.25 -168.13480 -113.77720  256.65700    -999.25    -999.25
 8700.00000    9.60780    9.60780    0.73440 1361.67810   50.20060   50.20060    8.79160    -999.25    8.79160 1361.67810 1485.82040 2228.57500 1485.82040    -999.25    -999.25    -999.25 -169.40080 -115.89010 2228.57500    -999.25    -999.25
 8750.00000    9.57040    9.57040    0.70210 1424.23100   49.38660   49.38660    7.40170    -999.25    7.40170 1424.23100 1535.43810 2191.14360 1535.43810    -999.25    -999.25    -999.25 -162.12250 -109.45310 2191.14360    -999.25    -999.25
 8800.00000    9.66940    9.66940    0.70580 1416.82960   48.84970   48.84970    9.80560    -999.25    9.80560 1416.82960 1515.48940 2191.49900 1515.48940    -999.25    -999.25    -999.25 -160.44300 -108.61490 2191.49900    -999.25    -999.25
 8850.00000    9.51960    9.51960    1.23870  807.30250   49.39730   49.39730   12.84520    -999.25   12.84520  807.30250 1545.36100 2250.58740 1545.36100    -999.25    -999.25    -999.25 -163.50830 -112.52710 2250.58740    -999.25    -999.25
 8900.00000    9.59520    9.59520    2.74390  364.44950   50.48670   50.48670    8.53660    -999.25    8.53660  364.44950 1433.09360  487.51510 1433.09360    -999.25    -999.25    -999.25 -161.73540 -111.59550  487.51510    -999.25    -999.25
 8950.00000    9.42530    9.42530    1.93310  517.31710   54.02790   54.02790   10.41040    -999.25   10.41040  517.31710 1300.66960  402.96140 1300.66960    -999.25    -999.25    -999.25 -166.74010 -117.44700  402.96140    -999.25    -999.25
 9000.00000    8.97150    8.97150    0.61980 1613.42540   49.64850   49.64850   12.31350    -999.25   12.31350 1613.42540 1537.08530 2262.01270 1537.08530    -999.25    -999.25    -999.25 -154.86130 -106.40950 2262.01270    -999.25    -999.25
 9050.00000    9.60000    9.60000   55.57460   18.11670   58.86630   58.86630   71.79350    -999.25   71.79350   18.11670   16.29290   58.20600   16.29290    -999.25    -999.25    -999.25  -90.31930  -42.70890   58.20600    -999.25    -999.25
 9100.00000    9.04400    9.04400    0.63450 1576.10140   48.48290   48.48290   12.30240    -999.25   12.30240 1576.10140 1698.83760 2270.05400 1698.83760    -999.25    -999.25    -999.25 -144.52380  -97.76020 2270.05400    -999.25    -999.25
 9150.00000    9.62120    9.62120    5.23670  190.95830   50.85840   50.85840   11.83810    -999.25   11.83810  190.95830  401.62330  296.07630  401.62330    -999.25    -999.25    -999.25 -150.11440 -104.19210  296.07630    -999.25    -999.25
 9200.00000    9.66480    9.66480   25.29960   39.52630   56.57690   56.57690   25.85240    -999.25   25.85240   39.52630   28.82480   31.08110   28.82480    -999.25    -999.25    -999.25 -136.53120  -91.45580   31.08110    -999.25    -999.25
 9250.00000    8.96300    8.96300    5.72050  174.80880   51.49810   51.49810   32.73860    -999.25   32.73860  174.80880  181.55400  164.54300  181.55400    -999.25    -999.25    -999.25  -77.26490  -33.03080  164.54300    -999.25    -999.25
 9300.00000    8.96170    8.96170    5.70340  175.90730   53.29420   53.29420   36.54780    -999.25   36.54780  175.90730  211.85930  161.25490  211.85930    -999.25    -999.25    -999.25  -49.27490   -5.88210  161.25490    -999.25    -999.25
