~Version ---------------------------------------------------
VERS.      2.0 : CWLS log ASCII Standard -VERSION 2.0
WRAP.       NO : One line per depth step
CREA. 01/03/18 : LAS Creation Date
~Well ------------------------------------------------------
STRT.FT                     650.0 : START DEPTH
STOP.FT                    7900.0 : STOP DEPTH
STEP.FT                  50.00000 : STEP LENGTH
NULL.                     -999.25 : NULL VALUE
COMP.       CALGARY CRUDE OIL LTD : COMPANY
WELL. CCOL ET AL SWAN H 4-2-70-11 : WELL
FLD .                             : FIELD
LOC .                             : LOCATION
CTRY.                      CANADA : COUNTRY
SRVC.      Schlumberger of Canada : SERVICE COMPANY
DATE.                 24-Jan-1969 : LOGDATE
PROV.                     Alberta : PROVINCE
UWI .            100040207011W500 : UNIQUE WELL ID
SLAT.WGS84               55.02638 : SURFACE LATITUDE
SLON.WGS84              -115.5739 : SURFACE LONGITUDE
~Curve Information -----------------------------------------
DEPT  .FT    : Depth Curve
CALSED.IN    : CALIPER FROM SONIC LOG [DEPTH ADJ. TO ILDED]
CALWS .IN    : CALIPER [CALSED]
CILDED.MMHO  : CONDUCTIVITY FROM IEL
CONDWS.MMHO  : CONDUCTIVITY [1000/DRESWS]
DRESWS.OHMM  : DEEP RESISTIVITY [IF ILDED<1;THEN 1000/CILDED;ELSE ILDED]
DTED  .US/F  : DELTA TIME FROM SONIC LOG [DEPTH ADJ. TO ILDED]
DTWS  .US/F  : DELTA TIME [DTED]
GRSED .GAPI  : GAMMA RAY FROM SONIC LOG [DEPTH ADJ. TO ILDED]
GRWS  .GAPI  : GAMMA RAY [GRSED]
ILDED .OHMM  : INDUCTION LOG DEEP RESISTIVITY FROM IEL
SNED  .OHMM  : 16 INCH SHORT NORMAL RESISTIVITY FROM IEL
SPRED .MV    : SPONTANEOUS POTENTIAL FROM IEL
SPWS  .MV    : SPONTANEOUS POTENTIAL [BASELINE 0 MV] [SPRED]
SRESWS.OHMM  : SHALLOW RESISTIVITY [SNED]
~Params ----------------------------------------------------
PD  .                     GL : PERMANENT DATUM
EPD .FT                 3088 : ELEVATION PERMANENT DATUM
LMF .                     KB : LOG MEASURED FROM
DAPD.FT                   15 : FEET ABOVE PERMANENT DATUM
EKB .FT                 3103 : KELLY BUSHING
EGL .FT                 3088 : GROUND LEVEL
DATE.               01/24/69 : RUN DATE
RUN .                      1 : RUN NUMBER
DD  .FT                 7915 : DEPTH DRILLER
DL  .FT                 7916 : DEPTH LOGGER
BLI .FT                 7915 : BOTTOM LOG INTERVAL
TLI .FT                  622 : TOP LOG INTERVAL
CBD .FT                  622 : CASING BOTTOM DRILLER
CBL .FT                  622 : CASING BOTTOM LOGGER
BS  .IN                7.875 : BIT SIZE
BSD .FT                 7915 : BIT SIZE AT DEPTH
DFT .                    GEL : DRILLING FLUID TYPE
DFD .                    9.9 : DRILLING FLUID DENSITY
DFV .                     92 : DRILLING FLUID VISCOSITY
DFPH.                    8.5 : DRILLING FLUID PH
DFL .                    9.6 : DRILLING FLUID LOSS
RMS .OHMM               2.35 : RESISTIVITY MUD SAMPLE
MST .DEGF                 40 : MUD SAMPLE TEMPERATURE
RMF .OHMM               1.61 : RESISTIVITY MUD FILTRATE SAMPLE
MFST.DEGF                 56 : MUD FILTRATE SAMPLE TEMPERATURE
RMC .OHMM               2.12 : RESISTIVITY MUD CAKE
MCST.DEGF                 58 : MUD CAKE SAMPLE TEMPERATURE
TCS .HRS                 2.5 : TIME CIRCULATED STOPPED
LUN .                   4508 : LOGGING UNIT NUMBER
LUL .                    EDM : LOGGING UNIT LOCATION
ENGI.               CHADDOCK : RECORDING ENGINEER
WITN.                   SABO : WITNESSED BY
CLNT.                A2DTECH : CLIENT CODE
ORIG.            2" 5" PRINT : ORIGIN OF DATA
UWI .       100040207011W500 : UNIQUE WELL ID
DICO. A2D Technologies, Inc. : DIGITIZING COMPANY
~Other -----------------------------------------------------
~ASCII -----------------------------------------------------
  650.00000    -999.25    -999.25  357.03750  312.19760    3.20310    -999.25    -999.25    -999.25    -999.25    3.20310    5.71330  -54.11800   -3.75550    5.71330
  700.00000    -999.25    -999.25  123.40180  121.30480    8.24370    -999.25    -999.25    -999.25    -999.25    8.24370    9.49120  -63.48790  -16.32790    9.49120
  750.00000    -999.25    -999.25  232.16870  222.26170    4.49920    -999.25    -999.25    -999.25    -999.25    4.49920    7.22570  -50.37160   -6.41410    7.22570
  800.00000    -999.25    -999.25   86.16940   81.42660   12.28100    -999.25    -999.25    -999.25    -999.25   12.28100   11.14170  -52.44920  -11.69420   11.14170
  850.00000    -999.25    -999.25  353.46620  316.00570    3.16450    -999.25    -999.25    -999.25    -999.25    3.16450    6.21700  -41.14470   -3.59220    6.21700
  900.00000    -999.25    -999.25  216.08790  207.07360    4.82920    -999.25    -999.25    -999.25    -999.25    4.82920    8.22810  -39.89500   -4.70630    8.22810
  950.00000    -999.25    -999.25  205.22850  200.37270    4.99070    -999.25    -999.25    -999.25    -999.25    4.99070    8.63500  -37.27770   -2.18550    8.63500
 1000.00000    -999.25    -999.25  117.88790  119.89830    8.34040    -999.25    -999.25    -999.25    -999.25    8.34040   10.36580  -44.48830   -9.49260   10.36580
 1050.00000    -999.25    -999.25  209.35350  204.85510    4.88150    -999.25    -999.25    -999.25    -999.25    4.88150    8.93660  -40.68850   -5.78920    8.93660
 1100.00000    -999.25    -999.25  247.33190  224.47190    4.45490    -999.25    -999.25    -999.25    -999.25    4.45490    7.67820  -40.17710   -5.37430    7.67820
 1150.00000    -999.25    -999.25  202.08550  183.42570    5.45180    -999.25    -999.25    -999.25    -999.25    5.45180    8.37240  -42.71490   -8.00860    8.37240
 1200.00000    -999.25    -999.25  229.85450  218.82320    4.56990    -999.25    -999.25    -999.25    -999.25    4.56990    7.51390  -41.32740   -6.71750    7.51390
 1250.00000    -999.25    -999.25  187.20500  176.79710    5.65620    -999.25    -999.25    -999.25    -999.25    5.65620    7.78830  -43.49270   -8.97930    7.78830
 1300.00000    -999.25    -999.25  280.86650  255.56490    3.91290    -999.25    -999.25    -999.25    -999.25    3.91290    6.91320  -41.04280   -6.62590    6.91320
 1350.00000    -999.25    -999.25  140.94980  137.47590    7.27400    -999.25    -999.25    -999.25    -999.25    7.27400   10.19100  -52.27660  -17.95610   10.19100
 1400.00000    -999.25    -999.25  115.74200  115.63500    8.64790    -999.25    -999.25    -999.25    -999.25    8.64790   10.17910  -54.73790  -20.51390   10.17910
 1450.00000    -999.25    -999.25  209.91450  205.15770    4.87430    -999.25    -999.25    -999.25    -999.25    4.87430    6.11940  -41.27940   -7.15190    6.11940
 1500.00000    -999.25    -999.25  231.45830  221.28300    4.51910    -999.25    -999.25    -999.25    -999.25    4.51910    6.04610  -37.67980   -3.64870    6.04610
 1550.00000    -999.25    -999.25  180.21800  168.62550    5.93030    -999.25    -999.25    -999.25    -999.25    5.93030    7.41820  -53.61640  -19.68180    7.41820
 1600.00000    -999.25    -999.25  282.68070  249.28330    4.01150    -999.25    -999.25    -999.25    -999.25    4.01150    5.41000  -48.42520  -14.58710    5.41000
 1650.00000    -999.25    -999.25  228.92470  218.24530    4.58200    -999.25    -999.25    -999.25    -999.25    4.58200    6.16470  -58.10870  -24.36700    6.16470
 1700.00000    -999.25    -999.25  307.19020  266.75200    3.74880    -999.25    -999.25    -999.25    -999.25    3.74880    4.92660  -49.18140  -15.53620    4.92660
 1750.00000    -999.25    -999.25  287.88170  259.57840    3.85240    -999.25    -999.25    -999.25    -999.25    3.85240    5.05960  -41.15120   -7.60240    5.05960
 1800.00000    -999.25    -999.25  276.95760  255.09550    3.92010    -999.25    -999.25    -999.25    -999.25    3.92010    5.23670  -35.00740   -1.55510    5.23670
 1850.00000    -999.25    -999.25  254.61740  230.38820    4.34050    -999.25    -999.25    -999.25    -999.25    4.34050    5.84370  -40.27610   -6.16390    5.84370
 1900.00000    -999.25    -999.25  189.19090  176.81280    5.65570    -999.25    -999.25    -999.25    -999.25    5.65570    6.75280  -51.45720  -16.18090    6.75280
 1950.00000    -999.25    -999.25  196.45590  186.39680    5.36490    -999.25    -999.25    -999.25    -999.25    5.36490    6.88990  -52.54030  -16.09980    6.88990
 2000.00000    -999.25    -999.25  236.05630  221.69510    4.51070    -999.25    -999.25    -999.25    -999.25    4.51070    6.64390  -45.22310   -7.61850    6.64390
 2050.00000    -999.25    -999.25  218.03900  209.66120    4.76960    -999.25    -999.25    -999.25    -999.25    4.76960    7.08420  -46.39520   -7.62640    7.08420
 2100.00000    -999.25    -999.25  195.24150  183.87760    5.43840    -999.25    -999.25    -999.25    -999.25    5.43840    7.83210  -50.75040  -10.81750    7.83210
 2150.00000    -999.25    -999.25  213.22310  205.93500    4.85590    -999.25    -999.25    -999.25    -999.25    4.85590    6.43420  -53.36990  -12.27280    6.43420
 2200.00000    -999.25    -999.25  206.22770  196.73030    5.08310    -999.25    -999.25    -999.25    -999.25    5.08310    6.53440  -60.51190  -18.25070    6.53440
 2250.00000    -999.25    -999.25  187.39970  175.44480    5.69980    -999.25    -999.25    -999.25    -999.25    5.69980    6.61510  -59.98800  -16.56260    6.61510
 2300.00000    -999.25    -999.25  189.34130  176.53810    5.66450    -999.25    -999.25    -999.25    -999.25    5.66450    6.70430  -61.08490  -16.49540    6.70430
 2350.00000    -999.25    -999.25  176.79560  166.51960    6.00530    -999.25    -999.25    -999.25    -999.25    6.00530    6.95720  -62.95880  -17.20510    6.95720
 2400.00000    -999.25    -999.25  200.91450  196.39030    5.09190    -999.25    -999.25    -999.25    -999.25    5.09190    6.36960  -69.65410  -22.73630    6.36960
 2450.00000    -999.25    -999.25  220.96780  209.28380    4.77820    -999.25    -999.25    -999.25    -999.25    4.77820    6.24460  -66.16790  -18.08590    6.24460
 2500.00000    -999.25    -999.25  223.27620  215.62410    4.63770    -999.25    -999.25    -999.25    -999.25    4.63770    6.45230  -63.36810  -14.12200    6.45230
 2550.00000    -999.25    -999.25  227.82450  217.77480    4.59190    -999.25    -999.25    -999.25    -999.25    4.59190    6.67580  -60.62610  -10.21580    6.67580
 2600.00000    -999.25    -999.25  192.21340  184.58020    5.41770    -999.25    -999.25    -999.25    -999.25    5.41770    8.03140  -59.91130   -8.40320    8.03140
 2650.00000    -999.25    -999.25  217.39320  209.91650    4.76380    -999.25    -999.25    -999.25    -999.25    4.76380    6.44560  -60.24970   -8.08750    6.44560
 2700.00000    -999.25    -999.25  277.07120  255.31700    3.91670    -999.25    -999.25    -999.25    -999.25    3.91670    5.70040  -58.07510   -5.25880    5.70040
 2750.00000    -999.25    -999.25  306.03360  279.72030    3.57500    -999.25    -999.25    -999.25    -999.25    3.57500    5.17520  -63.39850   -9.92810    5.17520
 2800.00000    -999.25    -999.25  289.21230  272.76940    3.66610    -999.25    -999.25    -999.25    -999.25    3.66610    5.34560  -71.95780  -17.83330    5.34560
 2850.00000    -999.25    -999.25  289.91960  271.18640    3.68750    -999.25    -999.25    -999.25    -999.25    3.68750    4.95340  -73.35130  -18.57270    4.95340
 2900.00000    -999.25    -999.25  298.88120  270.71660    3.69390    -999.25    -999.25    -999.25    -999.25    3.69390    5.29690  -72.60090  -17.16820    5.29690
 2950.00000    -999.25    -999.25  308.82410  284.81100    3.51110    -999.25    -999.25    -999.25    -999.25    3.51110    5.17860  -71.06100  -14.97420    5.17860
 3000.00000    -999.25    -999.25  466.27010  417.15330    2.39720    -999.25    -999.25    -999.25    -999.25    2.39720    4.01050  -62.69800   -5.95710    4.01050
 3050.00000    -999.25    -999.25  489.54300  429.57170    2.32790    -999.25    -999.25    -999.25    -999.25    2.32790    3.70920  -62.72860   -5.33360    3.70920
