~Version ---------------------------------------------------
VERS.      2.0 : CWLS log ASCII Standard -VERSION 2.0
WRAP.       NO : One line per depth step
CREA. 11/10/17 : LAS Creation Date
~Well ------------------------------------------------------
STRT.FT                    1200.0 : START DEPTH
STOP.FT                   11350.0 : STOP DEPTH
STEP.FT                  50.00000 : STEP LENGTH
NULL.                     -999.25 : NULL VALUE
COMP.      PHILLIPS PETROLEUM CO. : COMPANY
WELL. PHILLIPS A TONY 10-27-62-21 : WELL
FLD .                          WC : FIELD
LOC .                             : LOCATION
CTRY.                      CANADA : COUNTRY
SRVC.      Schlumberger of Canada : SERVICE COMPANY
DATE.                 01-Mar-1958 : LOGDATE
PROV.                     Alberta : PROVINCE
UWI .            100102706221W500 : UNIQUE WELL ID
SLAT.WGS84               54.39406 : SURFACE LATITUDE
SLON.WGS84              -117.0596 : SURFACE LONGITUDE
~Curve Information -----------------------------------------
DEPT  .FT         : Depth Curve
CALMED.IN         : CALIPER FROM MICROLOG
CALWS .IN         : CALIPER [CALMED]
CONDWS.MMHO       : CONDUCTIVITY [1000/DRESWS]
DRESWS.OHMM       : DEEP RESISTIVITY [LNED]
GRNED .UgRa-Eq/T  : GAMMA RAY FROM GRN LOG [ADJ. TO EL LOG]
GRWS  .GAPI       : GAMMA RAY [GRNED*16.5]
LATED .OHMM       : 18 FOOT 8 INCH LATERAL RESISTIVITY FROM EL LOG
LLED  .OHMM       : LATERAL RESISTIVITY FROM LL RESISTIVITY LOG [ADJ. TO EL LOG]
LNED  .OHMM       : 64 INCH LONG NORMAL RESISTIVITY FROM EL LOG
NEUTED.CPS        : NEUTRON FROM GRN LOG [ADJ. TO EL LOG]
NEUTWS.CPS        : NEUTRON [NEUTED]
SNED  .OHMM       : 16 INCH SHORT NORMAL RESISTIVITY FROM EL LOG
SPR1ED.MV         : SPONTANEOUS POTENTIAL FROM LL RESISTIVITY LOG [ADJ. TO EL LOG]
SPRED .MV         : SPONTANEOUS POTENTIAL FROM EL LOG
SPWS  .MV         : SPONTANEOUS POTENTIAL [BASELINE 0MV, SPRED]
SRESWS.OHMM       : SHALLOW RESISTIVITY [SNED]
~Params ----------------------------------------------------
LMF .                     KB : LOG MEASURED FROM
DMF .                     KB : DRILLING MEASURED FROM
EKB .FT                 2925 : KELLY BUSHING
EDF .FT                 2922 : DRILLING FLOOR
EGL .FT                 2910 : GROUND LEVEL
DATE.               03/01/58 : RUN DATE
RUN .                      1 : RUN NUMBER
DD  .FT                11400 : DEPTH DRILLER
DL  .FT                11400 : DEPTH LOGGER
BLI .FT                11399 : BOTTOM LOG INTERVAL
TLI .FT                 1533 : TOP LOG INTERVAL
CBD .FT                 1532 : CASING BOTTOM DRILLER
CBL .FT                 1533 : CASING BOTTOM LOGGER
BS  .IN                12.25 : BIT SIZE
BSD .FT                11400 : BIT SIZE AT DEPTH
DFT .                    GEL : DRILLING FLUID TYPE
DFD .                   10.6 : DRILLING FLUID DENSITY
DFV .                    115 : DRILLING FLUID VISCOSITY
DFPH.                    9.7 : DRILLING FLUID PH
DFL .                      4 : DRILLING FLUID LOSS
RMF .OHMM               0.41 : RESISTIVITY MUD FILTRATE SAMPLE
MFST.DEGF                 71 : MUD FILTRATE SAMPLE TEMPERATURE
RMC .OHMM                1.2 : RESISTIVITY MUD CAKE
MCST.DEGF                 74 : MUD CAKE SAMPLE TEMPERATURE
RMB .OHMM               0.53 : RESISTIVITY MUD AT BHT
TCS .HRS                   6 : TIME CIRCULATED STOPPED
LUN .                   1785 : LOGGING UNIT NUMBER
LUL .                     WC : LOGGING UNIT LOCATION
ENGI.                LAVERTY : RECORDING ENGINEER
WITN.         FOSTER TIBBITT : WITNESSED BY
CLNT.                A2DTECH : CLIENT CODE
ORIG.            2" 5" PRINT : ORIGIN OF DATA
UWI .       100102706221W500 : UNIQUE WELL ID
DICO. A2D Technologies, Inc. : DIGITIZING COMPANY
~Other -----------------------------------------------------
~ASCII -----------------------------------------------------
# ...
 3350.00000   13.24860   13.24860   83.14140   12.02770    4.89820   80.82030   21.96340   22.27440   12.02770  195.88790  195.88790    9.65830 -166.56300 -167.11130   -7.83510    9.65830
 3400.00000    8.23310    8.23310   22.18160   45.08380    4.24420   70.02970   17.34590   38.01290   45.08380  236.93400  236.93400   31.38670 -180.20250 -180.87990  -22.00670   31.38670
 3450.00000   10.18980   10.18980  138.08150    7.24210    4.97590   82.10240   15.75700   12.57100    7.24210  230.43160  230.43160    8.07180 -161.80750 -163.33770   -4.87000    8.07180
 3500.00000   12.14830   12.14830  157.17590    6.36230    4.77260   78.74790    8.21380    6.57170    6.36230  206.75520  206.75520    5.25000 -158.90440 -160.89860   -2.24590    5.25000
 3550.00000    9.07000    9.07000   76.67170   13.04330    3.84030   63.36410   22.92600   11.10290   13.04330  304.55160  304.55160   19.50090 -165.33700 -167.51830   -8.06080   19.50090
 3600.00000   12.67350   12.67350  142.25360    7.02970    4.99580   82.43070   11.84710    7.49810    7.02970  192.11350  192.11350    5.28890 -163.30300 -162.43950   -2.17190    5.28890
 3650.00000   12.98710   12.98710  127.08920    7.86860    5.29400   87.35180   10.19040    7.62300    7.86860  188.81600  188.81600    5.42980 -163.21070 -161.80300   -1.53540    5.42980
 3700.00000   11.22140   11.22140  119.49290    8.36870    5.50260   90.79290    9.59260    7.91830    8.36870  187.11680  187.11680    6.30070 -161.33050 -161.41530   -1.14770    6.30070
 3750.00000   12.10690   12.10690  103.99010    9.61630    6.13990  101.30840   12.13340    9.34430    9.61630  183.63660  183.63660    7.22640 -162.59320 -162.81220   -2.54460    7.22640
 3800.00000   12.13700   12.13700  107.03260    9.34290    6.48270  106.96540   13.61090    9.74160    9.34290  184.64310  184.64310    7.74040 -162.84380 -163.63970   -3.37210    7.74040
 3850.00000   14.08790   14.08790   99.79540   10.02050    6.46010  106.59170   11.69750    9.89970   10.02050  181.42920  181.42920    7.97660 -162.72250 -163.91080   -3.64320    7.97660
 3900.00000   13.97010   13.97010   67.27410   14.86470    8.41600  138.86400   12.37070   13.36740   14.86470  194.64390  194.64390   11.45010 -162.85820 -162.97930   -2.71170   11.45010
 3950.00000   13.79530   13.79530   57.95720   17.25410    6.67390  110.11940   18.29800   15.93280   17.25410  199.03440  199.03440   12.47410 -162.20580 -163.25480   -2.82890   12.47410
 4000.00000   15.01360   15.01360   80.56460   12.41240    7.94110  131.02810   14.71020   12.16080   12.41240  184.49720  184.49720    9.07440 -161.83870 -163.65350   -2.51990    9.07440
 4050.00000   15.10800   15.10800  110.52660    9.04760    8.54200  140.94300   13.55660    9.67990    9.04760  190.89610  190.89610    7.21150 -162.60710 -163.11450   -1.27320    7.21150
 4100.00000   15.72290   15.72290  113.35680    8.82170    8.01990  132.32840   11.46870    9.23790    8.82170  179.11270  179.11270    6.97600 -160.83700 -164.03680   -1.51380    6.97600
 4150.00000   14.18220   14.18220   84.11630   11.88840    7.49770  123.71120   14.37860   11.46780   11.88840  201.80840  201.80840    8.81830 -164.21390 -164.55850   -1.40530    8.81830
 4200.00000   12.75740   12.75740   58.90630   16.97610    6.85040  113.03160   22.75810   15.39380   16.97610  214.46180  214.46180   12.37270 -171.46710 -167.34170   -6.93410   12.37270
 4250.00000   11.66660   11.66660  102.00850    9.80310    7.41160  122.29140   13.49740   10.52600    9.80310  192.72250  192.72250    8.50710 -162.94560 -162.90980   -4.64890    8.50710
 4300.00000   11.44190   11.44190  105.45820    9.48300    7.62080  125.74320   12.15890   10.39430    9.48300  184.50650  184.50650    8.23790 -163.67320 -161.61990   -3.35900    8.23790
 4350.00000    9.53360    9.53360  115.67250    8.64510    7.06140  116.51310   11.42470    9.63320    8.64510  189.68070  189.68070    7.75580 -159.70970 -161.67640   -3.41550    7.75580
 4400.00000   13.13190   13.13190   89.23940   11.20590    6.80660  112.30810   13.98020   10.82850   11.20590  195.39300  195.39300    8.59420 -159.82920 -161.26160   -3.00070    8.59420
 4450.00000    9.20460    9.20460   55.62320   17.97810    6.07760  100.28040   17.85490   18.06920   17.97810  220.90820  220.90820   16.74070 -174.89960 -176.84430  -18.58340   16.74070
 4500.00000   12.45840   12.45840   66.30600   15.08160    7.22640  119.23560   18.92550   13.82860   15.08160  211.74450  211.74450   11.27800 -160.73880 -161.24460   -3.05400   11.27800
 4550.00000   11.40560   11.40560   65.20220   15.33710    7.26850  119.93020   17.23620   13.00530   15.33710  195.88110  195.88110   11.18980 -158.53680 -160.09120   -2.28230   11.18980
 4600.00000   11.09360   11.09360   81.16360   12.32080    6.93100  114.36150   17.74960   13.26710   12.32080  204.82410  204.82410   10.53390 -156.59370 -159.68990   -2.26530   10.53390
 4650.00000   12.21250   12.21250   81.62610   12.25100    6.93980  114.50750   13.75960   11.40580   12.25100  201.91950  201.91950    9.45300 -157.45510 -159.27040   -2.22750    9.45300
 4700.00000   12.19810   12.19810   97.31790   10.27560    7.78600  128.46900   12.73790   10.22710   10.27560  186.39860  186.39860    8.62210 -160.01360 -158.80420   -2.14560    8.62210
 4750.00000   13.29640   13.29640   86.79800   11.52100    7.21360  119.02440   12.38770   11.17040   11.52100  199.07500  199.07500    9.49800 -157.79150 -158.76510   -2.48820    9.49800
 4800.00000   12.36180   12.36180   94.25380   10.60970    8.23260  135.83790   11.42510   10.20830   10.60970  188.94090  188.94090    8.87050 -158.74890 -157.55060   -1.65540    8.87050
 4850.00000   11.90930   11.90930   78.37050   12.75990    8.32400  137.34600   12.97920   12.43240   12.75990  183.14210  183.14210   10.71940 -161.26730 -157.54280   -2.03180   10.71940
 4900.00000   12.38350   12.38350   74.54790   13.41420    8.33980  137.60670   14.50180   12.83520   13.41420  184.47210  184.47210   11.01300 -162.44280 -157.71760   -2.58840   11.01300
 4950.00000    9.79180    9.79180   47.81510   20.91390    8.06810  133.12370   16.97710   15.23990   20.91390  188.37410  188.37410   15.19260 -161.28990 -156.82180   -2.07680   15.19260
 5000.00000   11.27350   11.27350   72.50110   13.79290    7.82560  129.12240   15.64300   13.11140   13.79290  184.54350  184.54350   11.15510 -162.07480 -157.12080   -2.75750   11.15510
 5050.00000    9.37120    9.37120   52.09740   19.19480    8.07760  133.28040   14.86680   18.62490   19.19480  195.72810  195.72810   16.17810 -162.24530 -156.52710   -2.54560   16.17810
 5100.00000   10.73900   10.73900   45.03330   22.20580    7.02510  115.91420   29.27810   18.75380   22.20580  196.08250  196.08250   16.78380 -156.85230 -155.95270   -2.35540   16.78380
 5150.00000    9.11040    9.11040   26.18880   38.21330   10.03940  165.64930   31.30200   43.32810   38.21330  174.69970  174.69970   34.09140 -152.07190 -153.86610   -0.63240   34.09140
 5200.00000   11.42520   11.42520  100.90720    9.91010    6.07470  100.23260   14.23480    9.80970    9.91010  193.11350  193.11350    8.01870 -156.81150 -159.12860   -6.20590    8.01870
 5250.00000   11.86520   11.86520  133.92440    7.46690    6.58700  108.68550    8.94850    7.70710    7.46690  198.26110  198.26110    6.61380 -154.51880 -156.71760   -4.10390    6.61380
 5300.00000    9.80210    9.80210   76.96960   12.99210    6.72010  110.88080    9.41490   11.27430   12.99210  211.21640  211.21640   11.17040 -161.37530 -160.19080   -7.88620   11.17040
 5350.00000   12.86430   12.86430  134.16520    7.45350    6.80340  112.25610    9.02620    7.49510    7.45350  186.04850  186.04850    6.36490 -152.12880 -155.39500   -3.40140    6.36490
 5400.00000   11.35780   11.35780   81.54500   12.26350    6.61700  109.18050   11.49060   11.95170   12.26350  236.30020  236.30020    9.98730 -155.48210 -156.97570   -5.29120    9.98730
 5450.00000   12.60380   12.60380  135.84560    7.36130    6.91140  114.03810    9.19200    7.85310    7.36130  195.13050  195.13050    6.39150 -155.30010 -154.49310   -3.11960    6.39150
