~Version ---------------------------------------------------
VERS. 2.0 : CWLS log ASCII Standard -VERSION 2.0
WRAP.  NO : ONE LINE PER DEPTH STEP
~Well ------------------------------------------------------
STRT.M                              300.0 : START DEPTH
STOP.M                             3350.0 : STOP DEPTH
STEP.M                           50.00000 : STEP LENGTH
NULL.                             -999.25 : NULL VALUE
COMP. UNION OIL COMPANY OF CANADA LIMITED : COMPANY
WELL.    UNION ET AL FOX CREEK 6-29-61-18 : WELL
FLD .                           FOX CREEK : FIELD
LOC .                                     : LOCATION
CTRY.                              CANADA : COUNTRY
SRVC.                        Schlumberger : SERVICE COMPANY
DATE.                         02-Nov-1982 : LOGDATE
PROV.                             Alberta : PROVINCE
UWI .                    100062906118W500 : UNIQUE WELL ID
SLAT.WGS84                       54.30155 : SURFACE LATITUDE
SLON.WGS84                      -116.6681 : SURFACE LONGITUDE
~Curve Information -----------------------------------------
DEPT    .M      : DEPTH METERS
CALDED  .MM     : CALIPER FROM DENSITY LOG
CALSED  .MM     : CALIPER FROM SONIC LOG
CALWS   .MM     : CALIPER [CALDED]
CONDWS  .MMHO   : CONDUCTIVITY [1000/DRESWS]
DCORED  .KG/M3  : DENSITY CORRECTION FROM DENSITY LOG
DCORWS  .KG/M3  : DENSITY CORRECTION [DCORED]
DENWS   .KG/M3  : BULK DENSITY [M=2650/2710 AT 2101 F=1000] [CALCULATED FROM DPHISSED/DPHILSED]
DPHILSED.V/V    : DENSITY POROSITY [M=2710 F=1000] FROM DENSITY LOG
DPHISSED.V/V    : DENSITY POROSITY [M=2650 F=1000] FROM DENSITY LOG
DPOLSWS .V/V    : DENSITY POROSITY [M=2710 F=1000] [CALCULATED FROM DENWS]
DRESWS  .OHMM   : DEEP RESISTIVITY [ILDED]
DTED    .US/M   : DELTA TIME FROM SONIC LOG
DTWS    .US/M   : DELTA TIME [DTED]
GRDED   .GAPI   : GAMMA RAY FROM DENSITY LOG
GRSED   .GAPI   : GAMMA RAY FROM SONIC LOG
GRWS    .GAPI   : GAMMA RAY [MERGED GRSED/GRDED AT 3364]  CSG @ 456m
HDED    .MM     : HOLD DIAMETER FROM DENSITY LOG
ILDED   .OHMM   : INDUCTION LOG DEEP RESISTIVITY
ILMED   .OHMM   : INDUCTION LOG MEDIUM RESISTIVITY
MRESWS  .OHMM   : MEDIUM RESISTIVITY [ILMED]
NPHILSED.V/V    : NEUTRON POROSITY LIMESTONE FROM DENSITY LOG
NPHISSED.V/V    : NEUTRON POROSITY SANDSTONE FROM DENSITY LOG
NPOLSWS .V/V    : NEUTON POROSITY LIMESTONE [NPHISSED CONVERTED TO LIMESTONE FROM POWER LOG FROM START TO 2101.2, THEN NPHILSED TO END]
RHOBED  .KG/M3  : BULK DENSITY FROM DENSITY LOG
SFLUED  .OHMM   : SPHERICALLY FOCUSED LOG RESISTIVITY
SPRED   .MV     : SPONTANEOUS POTENTIAL FROM RESISTIVITY LOG
SPWS    .MV     : SPONTANEOUS POTENTIAL [BASELINE 0 MV] [SPRED]
SRESWS  .OHMM   : SHALLOW RESISTIVITY [SFLUED]
~Params ----------------------------------------------------
PD  .                         GL : PERMANENT DATUM
EPD .M                     964.7 : ELEVATION PERMANENT DATUM
LMF .                         KB : LOG MEASURED FROM
DAPD.M                         7 : FEET ABOVE PERMANENT DATUM
DMF .                         KB : DRILLING MEASURED FROM
EKB .M                     971.7 : KELLY BUSHING
EGL .M                     964.7 : GROUND LEVEL
DATE.                   11/02/82 : RUN DATE
RUN .                          1 : RUN NUMBER
DD  .M                    3374.1 : DEPTH DRILLER
DL  .M                      3375 : DEPTH LOGGER
BLI .M                      3374 : BOTTOM LOG INTERVAL
TLI .M                       456 : TOP LOG INTERVAL
CS  .MM                      244 : CASING SIZE
CBD .M                       456 : CASING BOTTOM DRILLER
CBL .M                       456 : CASING BOTTOM LOGGER
BS  .MM                      222 : BIT SIZE
BSD .M                    3374.1 : BIT SIZE AT DEPTH
DFT .                   GEL CHEM : DRILLING FLUID TYPE
DFD .                       1110 : DRILLING FLUID DENSITY
DFV .                         95 : DRILLING FLUID VISCOSITY
DFPH.                         12 : DRILLING FLUID PH
DFL .                          8 : DRILLING FLUID LOSS
MSS .                   FLOWLINE : MUD SAMPLE SOURCE
RMS .OHMM                   1.74 : RESISTIVITY MUD SAMPLE
MST .DEGC                   18.9 : MUD SAMPLE TEMPERATURE
RMF .OHMM                   1.39 : RESISTIVITY MUD FILTRATE SAMPLE
MFST.DEGC                   18.3 : MUD FILTRATE SAMPLE TEMPERATURE
MFSS.                  MUD PRESS : MUD FILTRATE SAMPLE SOURCE
RMB .OHMM                  0.637 : RESISTIVITY MUD AT BHT
TCS .HRS                     700 : TIME CIRCULATED STOPPED
TLAB.HRS                    1630 : TIME LOGGER AT BOTTOM
LUN .                       8156 : LOGGING UNIT NUMBER
LUL .                        EDS : LOGGING UNIT LOCATION
ENGI.                  LABRECQUE : RECORDING ENGINEER
WITN.                     MACRAE : WITNESSED BY
CLNT.                    A2DTECH : CLIENT CODE
ORIG. 6.5"/100M 16.5"/100M PRINT : ORIGIN OF DATA
UWI .           100062906118W500 : UNIQUE WELL ID
DICO.     A2D Technologies, Inc. : DIGITIZING COMPANY
~Other -----------------------------------------------------
~ASCII -----------------------------------------------------
  300.00000    -999.25    -999.25    -999.25    -999.25    -999.25    -999.25    -999.25    -999.25    -999.25    -999.25    -999.25    -999.25    -999.25    -999.25    -999.25    -999.25    -999.25    -999.25    -999.25    -999.25    -999.25    -999.25    -999.25    -999.25    -999.25    -999.25    -999.25    -999.25
  350.00000    -999.25    -999.25    -999.25    -999.25    -999.25    -999.25    -999.25    -999.25    -999.25    -999.25    -999.25    -999.25    -999.25    -999.25    -999.25    -999.25    -999.25    -999.25    -999.25    -999.25    -999.25    -999.25    -999.25    -999.25    -999.25    -999.25    -999.25    -999.25
  400.00000    -999.25    -999.25    -999.25    -999.25    -999.25    -999.25    -999.25    -999.25    -999.25    -999.25    -999.25    -999.25    -999.25    -999.25    -999.25    -999.25    -999.25    -999.25    -999.25    -999.25    -999.25    -999.25    -999.25    -999.25    -999.25    -999.25    -999.25    -999.25
  450.00000    -999.25    -999.25    -999.25    -999.25    -999.25    -999.25    -999.25    -999.25    -999.25    -999.25    -999.25    -999.25    -999.25   48.86650    -999.25    -999.25    -999.25    -999.25    -999.25    -999.25    -999.25    0.64890    0.60720    -999.25    -999.25    -999.25    -999.25    -999.25
  500.00000  214.56600  254.92040  214.56600  184.13490  167.56990  167.56990 2254.16500    -999.25    0.23990    0.26660    5.43080  338.18880  338.18880   79.05440   95.84270   95.84270  320.48550    5.43080    4.92520    4.92520    -999.25    0.41230    0.36970 2325.54050    3.20140  -92.07270   -6.35900    3.20140
  550.00000  218.65990  251.79360  218.65990  532.19800   97.33420   97.33420 1820.38000    -999.25    0.50280    0.52020    1.87900  406.92460  406.92460   78.35290   98.64940   98.64940  326.17090    1.87900    1.72720    1.72720    -999.25    0.48490    0.44320 1813.76950    2.11770  -88.67700   -3.49150    2.11770
  600.00000  216.99110  253.65090  216.99110  286.40160   84.88160   84.88160 1801.24000    -999.25    0.51440    0.53140    3.49160  378.49350  378.49350   76.62200   88.88620   88.88620  317.41700    3.49160    3.30460    3.30460    -999.25    0.50700    0.46530 1835.20610    3.07670  -87.76220   -3.10480    3.07670
  650.00000  237.20340  246.58470  237.20340  296.93860  130.10060  130.10060 1960.13500    -999.25    0.41810    0.43850    3.36770  350.42970  350.42970   66.09930   80.61110   80.61110  326.29490    3.36770    3.17830    3.17830    -999.25    0.41190    0.36930 1984.52100    3.11820  -87.18810   -3.05890    3.11820
  700.00000  226.09820  233.82680  226.09820  243.92030  165.09270  165.09270 2042.47000    -999.25    0.36820    0.39040    4.09970  361.77510  361.77510   73.84090   85.37670   85.37670  300.56820    4.09970    3.81110    3.81110    -999.25    0.45840    0.41670 2097.56640    3.66160  -84.40900   -0.80800    3.66160
  750.00000  211.38190  238.64440  211.38190  183.32140  153.33910  153.33910 2109.95510    -999.25    0.32730    0.35090    5.45490  312.79920  312.79920   85.44320   88.11540   88.11540  303.87780    5.45490    5.16120    5.16120    -999.25    0.36100    0.31750 2095.78740    4.87600  -86.71060   -3.63780    4.87600
  800.00000  219.08530  224.13670  219.08530   85.29440   55.75240   55.75240 2389.30000    -999.25    0.15800    0.18750   11.72410  288.79750  288.79750   58.01400   63.41200   63.41200  232.52240   11.72410   11.13640   11.13640    -999.25    0.33230    0.28850 2375.65110   10.33200  -88.57550   -6.03080   10.33200
  850.00000  219.69170  247.45010  219.69170  214.98900  106.07170  106.07170 2218.36010    -999.25    0.26160    0.28750    4.65140  324.06310  324.06310   74.96390   90.09630   90.09630  253.89490    4.65140    4.24950    4.24950    -999.25    0.40630    0.36360 2216.67920    4.04200  -84.56290   -4.76780    4.04200
  900.00000  214.04640  227.14630  214.04640  120.96870   16.19790   16.19790 2448.37010    -999.25    0.12220    0.15300    8.26660  294.56790  294.56790   69.25190   67.34970   67.34970  231.51380    8.26660    7.91540    7.91540    -999.25    0.36120    0.31770 2455.88770    7.70280  -86.23070   -7.05820    7.70280
  950.00000  193.66810  243.03610  193.66810  204.77960  127.59450  127.59450 2225.12500    -999.25    0.25750    0.28360    4.88330  313.57160  313.57160   70.62270   73.29560   73.29560  306.57610    4.88330    4.62010    4.62010    -999.25    0.42630    0.38400 2222.80520    4.46340  -82.08590   -3.02640    4.46340
 1000.00000  203.72040  224.74130  203.72040   58.54220   22.34390   22.34390 2340.12990    -999.25    0.18780    0.21630   17.08170  288.52730  288.52730   47.84230   49.15130   49.15130  239.84650   17.08170   17.66030   17.66030    -999.25    0.31290    0.26900 2335.32710   16.39360  -96.86580  -17.91930   16.39360
 1050.00000  192.42090  254.98960  192.42090   60.52060   -0.25890   -0.25890 2409.10010    -999.25    0.14600    0.17600   16.52330  265.53980  265.53980   45.01410   44.05220   44.05220  275.18330   16.52330   16.18370   16.18370    -999.25    0.28400    0.24000 2407.90550   15.44660  -87.74610   -8.91270   15.44660
 1100.00000  212.98060  226.04710  212.98060   82.74100    7.58030    7.58030 2435.16990    -999.25    0.13020    0.16070   12.08590  279.61640  279.61640   56.96570   54.74560   54.74560  235.07520   12.08590   12.34650   12.34650    -999.25    0.30580    0.26180 2434.07400   11.69380  -87.83700   -9.11660   11.69380
 1150.00000  230.41530  227.96350  230.41530   74.53790   38.45760   38.45760 2387.32010    -999.25    0.15920    0.18870   13.41600  261.22290  261.22290   42.20470   48.63470   48.63470  241.69030   13.41600   14.88380   14.88380    -999.25    0.35630    0.31270 2384.79790   26.68600  -85.65900   -7.05160   26.68600
 1200.00000  217.04490  231.93100  217.04490  124.01720  119.19060  119.19060 2270.83010    -999.25    0.22980    0.25680    8.06340  299.08530  299.08530   95.33350   93.80200   93.80200  279.73590    8.06340    7.61500    7.61500    -999.25    0.37680    0.33350 2270.82150    7.63130  -81.83290   -3.33850    7.63130
 1250.00000  185.66050  246.70410  185.66050   81.49300  156.37650  156.37650 2578.06010    -999.25    0.04360    0.07720   12.27100  270.87630  270.87630   82.30500  100.39660  100.39660  311.95970   12.27100   12.50510   12.50510    -999.25    0.27360    0.22960 2572.04350   14.66660  -83.17620   -4.79480   14.66660
 1300.00000  188.60660  254.51200  188.60660  137.54400   48.95290   48.95290 2466.52000    -999.25    0.11120    0.14240    7.27040  268.35460  268.35460   95.65730  106.12200  106.12200  331.62060    7.27040    7.47970    7.47970    -999.25    0.32660    0.28270 2463.20510    7.77170  -81.79600   -4.23370    7.77170
 1350.00000  192.59510  240.59000  192.59510  126.10980   73.94150   73.94150 2346.39990    -999.25    0.18400    0.21260    7.92960  287.26040  287.26040   97.18230  115.48840  115.48840  300.07570    7.92960    8.14670    8.14670    -999.25    0.33110    0.28730 2339.95430    9.53180  -79.95730   -3.50260    9.53180
 1400.00000  210.29080  232.37180  210.29080  129.49850   88.65820   88.65820 2418.17500    -999.25    0.14050    0.17070    7.72210  278.72110  278.72110   96.13160  113.67060  113.67060  247.17670    7.72210    7.97060    7.97060    -999.25    0.33820    0.29440 2432.36940    8.15210  -79.21420   -3.86700    8.15210
 1450.00000  191.74430  240.73130  191.74430  128.52810   11.90310   11.90310 2510.08010    -999.25    0.08480    0.11690    7.78040  282.78670  282.78670  112.48080  124.55080  124.55080  269.44690    7.78040    8.00030    8.00030    -999.25    0.31580    0.27190 2505.94340    8.02940  -78.28430   -4.04470    8.02940
 1500.00000  257.06830  247.22050  257.06830  124.48180  146.16280  146.16280 2427.74510    -999.25    0.13470    0.16510    8.03330  289.01250  289.01250  109.89640  121.77850  121.77850  232.39520    8.03330    8.25060    8.25060    -999.25    0.35890    0.31540 2414.64790    9.41770  -77.66300   -4.53090    9.41770
