~Version ---------------------------------------------------
VERS.      2.0 : CWLS log ASCII Standard -VERSION 2.0
WRAP.       NO : One line per depth step
CREA. 12/15/17 : LAS Creation Date
~Well ------------------------------------------------------
STRT.FT                         950.0 : START DEPTH
STOP.FT                        9250.0 : STOP DEPTH
STEP.FT                      50.00000 : STEP LENGTH
NULL.                         -999.25 : NULL VALUE
COMP.   TEXACO CANADA ENTERPRISES LTD : COMPANY
WELL. TEXCAN ET AL MAHASKA 7-10-58-13 : WELL
FLD .                                 : FIELD
LOC .                                 : LOCATION
CTRY.                          CANADA : COUNTRY
SRVC.                         Unknown : SERVICE COMPANY
DATE.                     11-Jan-1974 : LOGDATE
PROV.                         Alberta : PROVINCE
UWI .                100071005813W500 : UNIQUE WELL ID
SLAT.WGS84                   53.99612 : SURFACE LATITUDE
SLON.WGS84                  -115.8404 : SURFACE LONGITUDE
~Curve Information -----------------------------------------
DEPT    .FT    : Depth Curve
CALDED  .IN    : CALIPER FROM DENSITY LOG
CALSED  .IN    : CALIPER FROM SONIC LOG
CALWS   .IN    : CALIPER [CALSED]
CONDWS  .MMHO  : CONDUCTIVITY [1000/DRESWS]
DCORED  .G/C3  : DENSITY CORRECTION FROM DENSITY LOG [ADJ TO RESISTIVITY LOG]
DCORWS  .G/C3  : DENSITY CORRECTION [DCORED]
DENWS   .G/C3  : FORMATION BULK DENSITY [RHOBED]
DPHILSED.V/V   : DENSITY POROSITY LIMESTONE [M=2.71, F=1.00] FROM DENSITY LOG [ADJ TO RESISTIVITY LOG]
DPHISSED.V/V   : DENSITY POROSITY SANDSTONE [M=2.65, F=1.00] FROM DENSITY LOG [ADJ TO RESISTIVITY LOG]
DPOLSWS .V/V   : DENSITY POROSITY LIMESTONE [CALC FROM DENWS,M=2.71, F=1.00]
DRESWS  .OHMM  : DEEP RESISTIVITY [ILDED]
DTED    .US/F  : INTERVAL TRANSIT TIMEM=2.65, F=1.00 FROM SONIC LOG [ADJ TO RESISTIVITY LOG]
DTWS    .US/F  : COMPRESSIONAL SONIC [DTED]
GRDED   .GAPI  : GAMMA RAY FROM DENSITY LOG
GRSED   .GAPI  : GAMMA RAY FROM SONIC LOG
GRWS    .GAPI  : GAMMA RAY [GRSED]
ILDED   .OHMM  : INDUCTION LOG DEEP FROM RESISTIVITY LOG
ILMED   .OHMM  : INDUCTION LOG MEDIUM FROM RESISTIVITY LOG
LL8ED   .OHMM  : LATEROLOG-8 FROM RESISTIVITY LOG
MRESWS  .OHMM  : MEDIUM RESISTIVITY [ILMED]
NPHILSED.V/V   : NEUTRON POROSITY LIMESTONE FROM DENSITY LOG [ADJ TO RESISTIVITY LOG]
NPHISSED.V/V   : NEUTRON POROSITY SANDSTONE FROM DENSITY LOG [ADJ TO RESISTIVITY LOG]
NPOLSWS .V/V   : NEUTRON POROSITY LIMESTONE [NPHISSED MATRIX CONVERTED TO LIMESTONE (SLB-CNL) & SPL @ 5728' TO NPHILSED]
RHOBED  .G/C3  : BULK DENSITY FROM DENSITY LOG [ADJ TO RESISTIVITY LOG]
SPRED   .MV    : SPONTANEOUS POTENTIAL FROM RESISTIVITY LOG
SPWS    .MV    : SPONTANEOUS POTENTIAL [BASELINE 0MV, SPRED]
SRESWS  .OHMM  : SHALLOW RESISTIVITY [LL8ED]
~Params ----------------------------------------------------
PD  .                     GL : PERMANENT DATUM
EPD .FT               2427.8 : ELEVATION PERMANENT DATUM
LMF .                     KB : LOG MEASURED FROM
DAPD.FT                 18.2 : FEET ABOVE PERMANENT DATUM
DMF .                     KB : DRILLING MEASURED FROM
EKB .FT                 2446 : KELLY BUSHING
EGL .FT               2427.8 : GROUND LEVEL
DATE.               01/11/74 : RUN DATE
RUN .                      1 : RUN NUMBER
DD  .FT                 9279 : DEPTH DRILLER
DL  .FT                 9280 : DEPTH LOGGER
BLI .FT                 9274 : BOTTOM LOG INTERVAL
TLI .FT                  960 : TOP LOG INTERVAL
CBD .FT                  960 : CASING BOTTOM DRILLER
CBL .FT                  960 : CASING BOTTOM LOGGER
BS  .IN                 8.75 : BIT SIZE
BSD .FT                 9279 : BIT SIZE AT DEPTH
DFT .               GEL CHEM : DRILLING FLUID TYPE
DFD .                    9.2 : DRILLING FLUID DENSITY
DFV .                    130 : DRILLING FLUID VISCOSITY
DFPH.                      9 : DRILLING FLUID PH
DFL .                     11 : DRILLING FLUID LOSS
MSS .               FLOWLINE : MUD SAMPLE SOURCE
RMS .OHMM               2.59 : RESISTIVITY MUD SAMPLE
MST .DEGF                 50 : MUD SAMPLE TEMPERATURE
RMF .OHMM               1.92 : RESISTIVITY MUD FILTRATE SAMPLE
MFST.DEGF                 50 : MUD FILTRATE SAMPLE TEMPERATURE
TCS .HRS                   5 : TIME CIRCULATED STOPPED
LUN .                   7636 : LOGGING UNIT NUMBER
LUL .                    EDM : LOGGING UNIT LOCATION
ENGI.                  BOYKO : RECORDING ENGINEER
WITN.         PRIER CHAUDHRY : WITNESSED BY
CLNT.                A2DTECH : CLIENT CODE
ORIG.            2" 5" PRINT : ORIGIN OF DATA
UWI .       100071005813W500 : UNIQUE WELL ID
DICO. A2D Technologies, Inc. : DIGITIZING COMPANY
~Other -----------------------------------------------------
DIL-FDC-CNL-GR-SLC-GR TOOL RUN
RHOB & DRHO VERIFIED FROM SMALL SCALE LOG
~ASCII -----------------------------------------------------
# ...
 4850.00000   10.23310    9.83020    9.83020  107.50490    0.15120    0.15120    2.49230    -999.25    0.10640    0.12730    9.30190   78.87000   78.87000    -999.25   93.42220   93.42220    9.30190   10.05360   12.11910   10.05360    -999.25    0.32470    0.28080    2.49230  -78.61530   -5.52500   12.11910
 4900.00000    9.34640    8.94480    8.94480   56.78790    0.07150    0.07150    2.47520    -999.25    0.11300    0.13730   17.60940   75.45210   75.45210    -999.25   21.71820   21.71820   17.60940   26.05240   39.52370   26.05240    -999.25    0.17000    0.12700    2.47520 -129.53960  -56.64730   39.52370
 4950.00000   14.64800   13.84100   13.84100  626.99860   -0.00150   -0.00150    2.21130    -999.25    0.27300    0.29160    1.59490  164.08040  164.08040    -999.25   67.31650   67.31650    1.59490    1.53650    2.30280    1.53650    -999.25    0.68820    0.66060    2.21130  -78.13220   -6.45380    2.30280
 5000.00000   10.66650    9.94250    9.94250  102.11170    0.00920    0.00920    2.57870    -999.25    0.03970    0.07680    9.79320   69.92830   69.92830    -999.25   54.88410   54.88410    9.79320   10.53590   13.48730   10.53590    -999.25    0.29330    0.24930    2.57870  -81.82240  -13.72810   13.48730
 5050.00000   10.11920    9.79530    9.79530   97.20250    0.02270    0.02270    2.52660    -999.25    0.07670    0.10730   10.28780   72.69360   72.69360    -999.25   70.94200   70.94200   10.28780   10.98220   13.21200   10.98220    -999.25    0.29990    0.25590    2.52660  -78.18410  -13.67390   13.21200
 5100.00000   10.44290    9.86710    9.86710   88.56380    0.05740    0.05740    2.50320    -999.25    0.08620    0.12090   11.29130   75.66600   75.66600    -999.25   84.49340   84.49340   11.29130   11.99290   15.99510   11.99290    -999.25    0.45940    0.41800    2.50320  -73.34470  -12.41870   15.99510
 5150.00000   10.78000   10.20410   10.20410   94.06540    0.01830    0.01830    2.53450    -999.25    0.06770    0.10260   10.63090   70.75800   70.75800    -999.25   60.83330   60.83330   10.63090   10.93310   17.77050   10.93310    -999.25    0.28610    0.24210    2.53450  -72.07050  -14.65340   17.77050
 5200.00000    9.88660    9.78370    9.78370  103.24610    0.02580    0.02580    2.58720    -999.25    0.03130    0.07180    9.68560   71.08190   71.08190    -999.25   73.52430   73.52430    9.68560   10.83900   14.70330   10.83900    -999.25    0.28380    0.23980    2.58720  -73.74340  -16.15280   14.70330
 5250.00000    9.86760    9.50500    9.50500  172.11410    0.03550    0.03550    2.51050    -999.25    0.08550    0.11670    5.81010   73.86760   73.86760    -999.25   62.40100   62.40100    5.81010    7.44030   15.78420    7.44030    -999.25    0.29910    0.25510    2.51050 -104.19650  -46.43240   15.78420
 5300.00000   10.25250    9.89870    9.89870  188.88240    0.03080    0.03080    2.48960    -999.25    0.10150    0.12890    5.29430   75.93050   75.93050    -999.25   59.72860   59.72860    5.29430    5.55450    7.06560    5.55450    -999.25    0.28510    0.24110    2.48960  -83.86140  -25.92370    7.06560
 5350.00000   11.37980   10.24950   10.24950  115.72070    0.13010    0.13010    2.02470    -999.25    0.35760    0.40080    8.64150   77.95280   77.95280    -999.25   73.79230   73.79230    8.64150   10.42250   21.68900   10.42250    -999.25    0.67300    0.64420    2.02470  -70.95040  -12.83920   21.68900
 5400.00000    9.84280    9.71320    9.71320  109.91550   -0.00130   -0.00130    2.50090    -999.25    0.09510    0.12230    9.09790   72.37310   72.37310    -999.25   49.32610   49.32610    9.09790    9.83000   14.77240    9.83000    -999.25    0.23100    0.18720    2.50090  -83.16650  -24.88180   14.77240
 5450.00000   10.10250    9.73220    9.73220  129.92410    0.02280    0.02280    2.60000    -999.25    0.02760    0.06430    7.69680   75.43910   75.43910    -999.25   77.41170   77.41170    7.69680    8.57950   11.93230    8.57950    -999.25    0.30130    0.25730    2.60000  -74.53720  -16.07900   11.93230
 5500.00000   10.40100    9.94610    9.94610  126.39670    0.08000    0.08000    2.59340    -999.25    0.02290    0.06820    7.91160   74.65200   74.65200    -999.25   67.31990   67.31990    7.91160    8.38300   11.61000    8.38300    -999.25    0.31510    0.27120    2.59340  -70.97020  -12.33840   11.61000
 5550.00000   10.35880    9.89800    9.89800  128.90920    0.17000    0.17000    2.56090    -999.25    0.04570    0.08720    7.75740   78.19420   78.19420    -999.25   93.79690   93.79690    7.75740    8.64400   10.74770    8.64400    -999.25    0.31820    0.27430    2.56090  -70.07570  -11.27040   10.74770
 5600.00000    9.73650    9.26120    9.26120   60.75410    0.03400    0.03400    2.62810    -999.25    0.01620    0.04790   16.45980   65.72870   65.72870    -999.25   52.55360   52.55360   16.45980   18.45840   44.22370   18.45840    -999.25    0.17490    0.13190    2.62810  -68.84120   -9.86240   44.22370
 5650.00000    9.66920    9.56500    9.56500   91.65400    0.00590    0.00590    2.53460    -999.25    0.07890    0.10260   10.91060   78.86670   78.86670    -999.25   97.91030   97.91030   10.91060   13.19290   22.19150   13.19290    -999.25    0.29780    0.25380    2.53460  -68.77100   -9.61860   22.19150
 5700.00000   10.19310    9.92530    9.92530   68.35880    0.07120    0.07120    2.55610    -999.25    0.05220    0.09000   14.62870   76.81960   76.81960    -999.25   98.08680   98.08680   14.62870   15.76320   19.47250   15.76320    -999.25    0.27700    0.23300    2.55610  -63.72460   -4.39870   19.47250
 5750.00000   12.18350   10.62040   10.62040  234.53260    0.23950    0.23950    2.39470    0.17010    -999.25    0.18440    4.26380   83.27390   83.27390    -999.25   80.75510   80.75510    4.26380    4.66250    7.07290    4.66250    0.38800    -999.25    0.38800    2.39470  -67.06390  -12.67480    7.07290
 5800.00000    8.75390    9.02800    9.02800   46.04030    0.04940    0.04940    2.56390    0.09030    -999.25    0.08540   21.72010   60.35950   60.35950    -999.25   28.53010   28.53010   21.72010   24.33200   61.54670   24.33200    0.11010    -999.25    0.11010    2.56390 -117.59550  -68.30120   61.54670
 5850.00000    8.25820    9.10370    9.10370    2.59660    0.01800    0.01800    2.62800    0.03520    -999.25    0.04800  385.12130   53.86620   53.86620    -999.25   14.76050   14.76050  385.12130  327.10580  819.88790  327.10580    0.05450    -999.25    0.05450    2.62800  -45.98950   -1.79000  819.88790
 5900.00000    9.09740    9.22980    9.22980    3.42180    0.03960    0.03960    2.65490    0.02870    -999.25    0.03220  292.24050   57.44320   57.44320    -999.25   42.37850   42.37850  292.24050  268.05100  347.11870  268.05100    0.11270    -999.25    0.11270    2.65490  -41.03550   -1.93080  347.11870
 5950.00000    9.09600    9.31140    9.31140   84.99790    0.08260    0.08260    2.61210    0.05100    -999.25    0.05730   11.76500   57.09270   57.09270    -999.25   51.31580   51.31580   11.76500   15.97020   22.11920   15.97020    0.18520    -999.25    0.18520    2.61210 -105.34540  -67.91110   22.11920
 6000.00000    9.03260    8.52980    8.52980  100.84810    0.07170    0.07170    2.53430    0.09880    -999.25    0.10270    9.91590   60.28140   60.28140    -999.25   30.06240   30.06240    9.91590   16.04170   74.09870   16.04170    0.22060    -999.25    0.22060    2.53430 -196.36990 -159.90470   74.09870
 6050.00000    9.71370    9.32620    9.32620   78.45540    0.24600    0.24600    2.70800    0.00140    -999.25    0.00120   12.74610   58.66490   58.66490    -999.25   67.59910   67.59910   12.74610   13.60580   16.78510   13.60580    0.15090    -999.25    0.15090    2.70800 -100.37910  -64.88300   16.78510
 6100.00000    9.66570    9.58830    9.58830  209.70080    0.01800    0.01800    2.66490    0.01060    -999.25    0.02640    4.76870   61.97890   61.97890    -999.25   62.20450   62.20450    4.76870    4.97740    8.60440    4.97740    0.16310    -999.25    0.16310    2.66490 -106.86730  -72.34030    8.60440
