~Version ---------------------------------------------------
VERS.      2.0 : CWLS log ASCII Standard -VERSION 2.0
WRAP.       NO : One line per depth step
CREA. 11/20/17 : LAS Creation Date
~Well ------------------------------------------------------
STRT.FT                          1000.0 : START DEPTH
STOP.FT                         10550.0 : STOP DEPTH
STEP.FT                        50.00000 : STEP LENGTH
NULL.                           -999.25 : NULL VALUE
COMP.                  LL&E  CANADA LTD : COMPANY
WELL. LL&E ET AL SAKWATAMAU 10-22-61-14 : WELL
FLD .                                   : FIELD
LOC .                                   : LOCATION
CTRY.                            CANADA : COUNTRY
SRVC.                      Schlumberger : SERVICE COMPANY
DATE.                       05-Jan-1969 : LOGDATE
PROV.                           Alberta : PROVINCE
UWI .                  100102206114W500 : UNIQUE WELL ID
SLAT.WGS84                     54.29276 : SURFACE LATITUDE
SLON.WGS84                    -116.0087 : SURFACE LONGITUDE
~Curve Information -----------------------------------------
DEPT   .FT    : Depth Curve
CALDED .IN    : CALIPER FROM DENSITY LOG
CALSED .IN    : CALIPER FROM SONIC LOG
CALWS  .IN    : CALIPER [CALSED]
CILDED .MMHO  : CONDUCTIVITY FROM RESISTIVITY LOG
CONDWS .MMHO  : CONDUCTIVITY [1000/DRESWS]
DCORED .G/C3  : DENSITY CORRECTION FROM DENSITY LOG
DCORWS .G/C3  : DENSITY CORRECTION [DCORED]
DENWS  .G/C3  : FORMATION BULK DENSITY [RHOBED]
DPOLSWS.V/V   : DENSITY POROSITY LIMESTONE [CALC. FROM DENWS M=2.71, F=1.00 ASSUMED]
DRESWS .OHMM  : DEEP RESISTIVITY [ILDED]
DTED   .US/F  : DELTA TIME FROM SONIC LOG
DTWS   .US/F  : COMPRESSIONAL SONIC [DTED]
GRSED  .GAPI  : GAMMA RAY FROM SONIC LOG
GRWS   .GAPI  : GAMMA RAY [GRSED]
ILDED  .OHMM  : DEEP  INDUCTIONRESISTIVITY FROM RESISTIVITY LOG
RHOBED .G/C3  : BULK DENSITY FROM DENSITY LOG
SNED   .OHMM  : SHORT NORMAL RESISTIVITY FROM RESISTIVITY LOG
SPRED  .MV    : SPONTANEOUS POTENTIAL FROM RESISTIVITY LOG
SPWS   .MV    : SPONTANEOUS POTENTIAL [BASELINE 0 MV, SPRED]
SRESWS .OHMM  : SHALLOW RESISTIVITY [SNED]
~Params ----------------------------------------------------
PD  .                     GL : PERMANENT DATUM
EPD .FT              3084.84 : ELEVATION PERMANENT DATUM
LMF .                     KB : LOG MEASURED FROM
DAPD.FT                16.05 : FEET ABOVE PERMANENT DATUM
EKB .FT              3100.89 : KELLY BUSHING
EGL .FT              3084.84 : GROUND LEVEL
DATE.               01/05/69 : RUN DATE
RUN .                      1 : RUN NUMBER
DD  .FT                10596 : DEPTH DRILLER
DL  .FT                10595 : DEPTH LOGGER
BLI .FT                10594 : BOTTOM LOG INTERVAL
TLI .FT                 1003 : TOP LOG INTERVAL
CBD .FT                 1003 : CASING BOTTOM DRILLER
CBL .FT                 1003 : CASING BOTTOM LOGGER
BS  .IN                 8.75 : BIT SIZE
BSD .FT                10596 : BIT SIZE AT DEPTH
DFT .                    GEL : DRILLING FLUID TYPE
DFD .                    9.7 : DRILLING FLUID DENSITY
DFV .                     97 : DRILLING FLUID VISCOSITY
DFPH.                     11 : DRILLING FLUID PH
DFL .                    6.6 : DRILLING FLUID LOSS
RMS .OHMM               2.32 : RESISTIVITY MUD SAMPLE
MST .DEGF                 60 : MUD SAMPLE TEMPERATURE
RMF .OHMM                1.7 : RESISTIVITY MUD FILTRATE SAMPLE
MFST.DEGF                 64 : MUD FILTRATE SAMPLE TEMPERATURE
RMC .OHMM               2.51 : RESISTIVITY MUD CAKE
MCST.DEGF                 62 : MUD CAKE SAMPLE TEMPERATURE
TCS .HRS                   5 : TIME CIRCULATED STOPPED
LUN .                   7501 : LOGGING UNIT NUMBER
LUL .                    EDM : LOGGING UNIT LOCATION
ENGI.               STUEHMER : RECORDING ENGINEER
WITN.               LEVEILLE : WITNESSED BY
CLNT.                A2DTECH : CLIENT CODE
ORIG.            2" 5" PRINT : ORIGIN OF DATA
UWI .       100102206114W500 : UNIQUE WELL ID
DICO. A2D Technologies, Inc. : DIGITIZING COMPANY
~Other -----------------------------------------------------
IEL-FDC-BHC LOG RUN
~ASCII -----------------------------------------------------
# ...
 6250.00000    -999.25   11.90550   11.90550    9.90940   10.28310    -999.25    -999.25    -999.25    -999.25   97.24650   50.82390   50.82390   28.67890   28.67890   97.24650    -999.25   93.42060  -84.16840  -39.04650   93.42060
 6300.00000    -999.25    9.46750    9.46750   27.11880   28.40320    -999.25    -999.25    -999.25    -999.25   35.20730   53.07200   53.07200   19.97650   19.97650   35.20730    -999.25   78.47110 -193.76440 -147.71380   78.47110
 6350.00000    -999.25    9.99040    9.99040   26.73320   27.44910    -999.25    -999.25    -999.25    -999.25   36.43110   51.34250   51.34250   15.97200   15.97200   36.43110    -999.25  106.21450 -215.01890 -168.03650  106.21450
 6400.00000    -999.25    9.80920    9.80920  232.69110  239.63000    -999.25    -999.25    -999.25    -999.25    4.17310   64.61390   64.61390   68.75170   68.75170    4.17310    -999.25   10.70150  -65.71140  -18.23190   10.70150
 6450.00000    -999.25    9.09030    9.09030   78.20230   78.98460    -999.25    -999.25    -999.25    -999.25   12.66070   58.04980   58.04980   55.72850   55.72850   12.66070    -999.25   21.99890  -60.95780  -15.41630   21.99890
 6500.00000    -999.25    9.64910    9.64910  142.23570  142.44200    -999.25    -999.25    -999.25    -999.25    7.02040   55.79010   55.79010   31.43220   31.43220    7.02040    -999.25   13.10430  -82.75770  -39.13500   13.10430
 6550.00000    -999.25    8.81400    8.81400    3.74110    1.83610    -999.25    -999.25    -999.25    -999.25  544.62770   51.58870   51.58870   19.43490   19.43490  544.62770    -999.25   96.26130 -100.05090  -58.35650   96.26130
 6600.00000    -999.25    8.95930    8.95930   31.28450   31.64020    -999.25    -999.25    -999.25    -999.25   31.60540   56.75520   56.75520   37.60810   37.60810   31.60540    -999.25   61.20310  -60.89350  -21.12750   61.20310
 6650.00000    -999.25    9.09420    9.09420   21.43040   20.08170    -999.25    -999.25    -999.25    -999.25   49.79670   51.43910   51.43910   19.03670   19.03670   49.79670    -999.25   57.92310  -95.37540  -57.53770   57.92310
 6700.00000    -999.25    8.45590    8.45590   27.51040   28.82260    -999.25    -999.25    -999.25    -999.25   34.69500   55.40500   55.40500   29.62850   29.62850   34.69500    -999.25   45.03870  -61.61550  -25.71590   45.03870
 6750.00000    -999.25    8.47700    8.47700   24.47970   24.41850    -999.25    -999.25    -999.25    -999.25   40.95250   55.60620   55.60620   28.65150   28.65150   40.95250    -999.25   51.00210  -55.59120  -21.61030   51.00210
 6800.00000    -999.25    8.69170    8.69170   31.44340   32.24640    -999.25    -999.25    -999.25    -999.25   31.01120   56.68290   56.68290   37.84430   37.84430   31.01120    -999.25   43.10450  -45.97610  -13.92350   43.10450
 6850.00000    -999.25    8.62850    8.62850   28.79840   29.53560    -999.25    -999.25    -999.25    -999.25   33.85750   56.01830   56.01830   41.49690   41.49690   33.85750    -999.25   44.51750  -44.59540  -14.47120   44.51750
 6900.00000    9.79540    9.25920    9.25920   14.24710   14.16040    -999.25    -999.25    2.66580    0.02580   70.61960   63.01810   63.01810   65.40380   65.40380   70.61960    2.66580   71.65940  -30.33840   -2.14250   71.65940
 6950.00000    9.97270    9.51440    9.51440  104.07320  103.31410    0.01630    0.01630    2.67490    0.02050    9.68170   60.94220   60.94220   73.65100   73.65100    9.68170    2.67490   17.03300  -61.03720  -31.18040   17.03300
 7000.00000   10.19200    9.48490    9.48490    3.52850    3.25520    0.00070    0.00070    2.69910    0.00640  307.20160   49.99170   49.99170   21.19450   21.19450  307.20160    2.69910  147.69440  -51.04790  -19.40080  147.69440
 7050.00000   10.35350    9.36560    9.36560    3.16840    2.50310    0.01350    0.01350    2.68750    0.01320  399.50840   50.52660   50.52660   15.22240   15.22240  399.50840    2.68750  123.83900 -113.71400  -82.30350  123.83900
 7100.00000   11.34380    9.63560    9.63560    9.32870    8.52420    0.17960    0.17960    2.61980    0.05270  117.31330   51.40450   51.40450   15.51210   15.51210  117.31330    2.61980  104.02440 -119.57360  -88.39970  104.02440
 7150.00000   11.76550    9.90900    9.90900    9.96470    9.80930    0.13420    0.13420    2.59010    0.07010  101.94400   50.88400   50.88400   14.10680   14.10680  101.94400    2.59010   96.59040 -137.57620 -106.63890   96.59040
 7200.00000    9.83220    8.81440    8.81440    1.72440    3.69910    0.06440    0.06440    2.63070    0.04640  270.50250   49.34970   49.34970   15.49890   15.49890  270.50250    2.63070  124.45940 -114.22230  -83.52280  124.45940
 7250.00000   13.34280   10.69610   10.69610    4.65220    4.00720    0.15830    0.15830    2.45330    0.15010  249.55250   51.78260   51.78260   18.50160   18.50160  249.55250    2.45330  102.12010 -134.63160 -104.16750  102.12010
 7300.00000    9.38740    8.40570    8.40570   26.40910   27.68430    0.14900    0.14900    2.49960    0.12300   36.12150   53.89600   53.89600   14.91300   14.91300   36.12150    2.49960   95.38010 -208.89550 -178.66810   95.38010
 7350.00000    9.92800    9.09910    9.09910    5.96530    5.60360    0.02710    0.02710    2.75840   -0.02830  178.45770   49.71580   49.71580   15.82490   15.82490  178.45770    2.75840  120.31940 -153.98050 -123.98970  120.31940
 7400.00000   10.60670    9.72550    9.72550   24.86750   26.09640    0.00030    0.00030    2.66730    0.02500   38.31950   51.73380   51.73380   15.68310   15.68310   38.31950    2.66730   92.78110 -159.31920 -129.56500   92.78110
 7450.00000   10.90690    9.69730    9.69730   11.81630   11.38300    0.01290    0.01290    2.70220    0.00450   87.91250   50.07820   50.07820   18.15020   18.15020   87.91250    2.70220   81.52680 -131.33700 -101.82060   81.52680
 7500.00000   10.71470    9.43350    9.43350   15.94060   14.71180    0.00700    0.00700    2.68490    0.01470   67.97250   51.61350   51.61350   16.76890   16.76890   67.97250    2.68490   99.97130 -144.51990 -115.23890   99.97130
 7550.00000   10.84540    9.41630    9.41630   36.26150   36.95870    0.03580    0.03580    2.62070    0.05220   27.05720   55.65100   55.65100   16.03400   16.03400   27.05720    2.62070   77.14940 -199.01820 -169.97380   77.14940
 7600.00000   10.40290    9.46280    9.46280    8.62680    8.09350    0.08520    0.08520    2.66820    0.02440  123.55670   48.95450   48.95450   14.53950   14.53950  123.55670    2.66820  114.74260 -138.18910 -109.38130  114.74260
 7650.00000    9.69770    8.86020    8.86020   16.93800   16.99170    0.03670    0.03670    2.62740    0.04830   58.85220   52.80440   52.80440   19.23800   19.23800   58.85220    2.62740  107.58850 -193.86470 -165.29350  107.58850
 7700.00000    9.69540    9.75950    9.75950    1.42100    3.69290    0.01570    0.01570    2.80750   -0.05700  270.81650   47.98950   47.98950   18.52990   18.52990  270.81650    2.80750  167.14280 -127.25160  -98.91820  167.14280
 7750.00000   11.51760   10.55390   10.55390  166.37340  172.65490    0.01640    0.01640    2.61300    0.05670    5.79190   61.23810   61.23810   84.87150   84.87150    5.79190    2.61300   10.58660  -56.39840  -28.30040   10.58660
 7800.00000    9.39950    9.13650    9.13650   25.17020   26.56400    0.06090    0.06090    2.76100   -0.02980   37.64490   49.24470   49.24470   22.55970   22.55970   37.64490    2.76100   76.60450 -110.79730  -82.93590   76.60450
 7850.00000    -999.25    9.40870    9.40870   33.58300   34.52860    -999.25    -999.25    -999.25    -999.25   28.96150   51.57170   51.57170   34.76310   34.76310   28.96150    -999.25   35.29460  -92.01580  -64.39100   35.29460
 7900.00000    -999.25    9.01060    9.01060   41.34500   50.32360    -999.25    -999.25    -999.25    -999.25   19.87140   51.72310   51.72310   25.92120   25.92120   19.87140    -999.25   31.75490  -95.47370  -68.08560   31.75490
 7950.00000    -999.25    9.27900    9.27900   16.40740   17.34330    -999.25    -999.25    -999.25    -999.25   57.68610   52.43490   52.43490   31.71250   31.71250   57.68610    -999.25   64.87480  -33.29540   -6.14510   64.87480
