~Version ---------------------------------------------------
VERS.      2.0 : CWLS log ASCII Standard -VERSION 2.0
WRAP.       NO : One line per depth step
CREA. 01/05/18 : LAS Creation Date
~Well ------------------------------------------------------
STRT.FT                   1000.0 : START DEPTH
STOP.FT                   9850.0 : STOP DEPTH
STEP.FT                 50.00000 : STEP LENGTH
NULL.                    -999.25 : NULL VALUE
COMP.    TRIAD OIL COMPANY, LTD. : COMPANY
WELL. TRIAD BP KAYBOB 2-14-64-18 : WELL
FLD .                     KAYBOB : FIELD
LOC .                            : LOCATION
CTRY.                     CANADA : COUNTRY
SRVC.               Schlumberger : SERVICE COMPANY
DATE.                29-Feb-1964 : LOGDATE
PROV.                    Alberta : PROVINCE
UWI .           100021406418W500 : UNIQUE WELL ID
SLAT.WGS84              54.53307 : SURFACE LATITUDE
SLON.WGS84             -116.6057 : SURFACE LONGITUDE
~Curve Information -----------------------------------------
DEPT    .FT    : Depth Curve
CALWS   .IN    : CALIPER [MCALED]
CILDED  .MMHO  : DEEP CONDUCTIVITY INDUCTION FROM RESISTIVITY LOG
CONDWS  .MMHO  : CONDUCTIVITY [1000/DRESWS]
DRESWS  .OHMM  : DEEP RESISTIVITY [1000/CILDED, IF ILDED < 1, ILDED]
DT1ED   .US/F  : DELTA TIME FROM SONIC LOG [ADJ. TO RESISTIVITY LOG]
DTED    .US/F  : DELTA TIME FROM SONIC LOG [ADJ. TO RESISTIVITY LOG]
DTWS    .US/F  : COMPRESSIONAL SONIC [DTED]
GRDED   .GAPI  : GAMMA RAY FROM DENSITY LOG [ADJ. TO RESISTIVITY LOG]
GRED    .GAPI  : GAMMA RAY FROM SBT-CCL-SBL LOG [ADJ. TO RESISTIVITY LOG]
GRSED   .GAPI  : GAMMA RAY FROM SONIC LOG [ADJ. TO RESISTIVITY LOG]
GRWS    .GAPI  : GAMMA RAY [GRSED]
ILDED   .OHMM  : DEEP INDUCTION FROM RESISTIVITY LOG
MCALED  .IN    : MLT CALIPER FROM MICROLOG
NPORSSED.V/V   : NEUTRON POROSITY SANDSTONE FROM DENSITY LOG [ADJ. TO RESISTIVITY LOG]
NPOSSWS .V/V   : NEUTRON POROSITY SANDSTONE [NPORSSED]
SNED    .OHMM  : SHORT NORMAL 16" FROM RESISTIVITY LOG
SPRED   .MV    : SELF POTENTIAL FROM RESISTIVITY LOG
SPWS    .MV    : SELF POTENTIAL [BASELINE 0MV, SPRED]
SRESWS  .OHMM  : SHALLOW RESISTIVITY [SNED]
~Params ----------------------------------------------------
PD  .                     GL : PERMANENT DATUM
EPD .FT                 2679 : ELEVATION PERMANENT DATUM
LMF .                     KB : LOG MEASURED FROM
DAPD.FT                 12.5 : FEET ABOVE PERMANENT DATUM
EKB .FT               2691.5 : KELLY BUSHING
EGL .FT                 2679 : GROUND LEVEL
DATE.               02/29/64 : RUN DATE
RUN .                      1 : RUN NUMBER
DD  .FT                 9881 : DEPTH DRILLER
DL  .FT                 9881 : DEPTH LOGGER
BLI .FT                 9880 : BOTTOM LOG INTERVAL
TLI .FT                  988 : TOP LOG INTERVAL
CBD .FT                  990 : CASING BOTTOM DRILLER
CBL .FT                  988 : CASING BOTTOM LOGGER
BS  .IN                7.625 : BIT SIZE
BSD .FT                 9881 : BIT SIZE AT DEPTH
DFT .               GEL CHEM : DRILLING FLUID TYPE
DFD .                    9.9 : DRILLING FLUID DENSITY
DFV .                    148 : DRILLING FLUID VISCOSITY
DFPH.                     10 : DRILLING FLUID PH
DFL .                    7.8 : DRILLING FLUID LOSS
RMS .OHMM               2.32 : RESISTIVITY MUD SAMPLE
MST .DEGF                 70 : MUD SAMPLE TEMPERATURE
RMF .OHMM               1.83 : RESISTIVITY MUD FILTRATE SAMPLE
MFST.DEGF                 68 : MUD FILTRATE SAMPLE TEMPERATURE
RMC .OHMM               3.17 : RESISTIVITY MUD CAKE
MCST.DEGF                 60 : MUD CAKE SAMPLE TEMPERATURE
RMB .OHMM               0.91 : RESISTIVITY MUD AT BHT
TCS .HRS                   4 : TIME CIRCULATED STOPPED
LUN .                   3534 : LOGGING UNIT NUMBER
LUL .                    WCT : LOGGING UNIT LOCATION
ENGI.                HAMPTON : RECORDING ENGINEER
WITN.                OBERTOS : WITNESSED BY
CLNT.                A2DTECH : CLIENT CODE
ORIG.            2" 5" PRINT : ORIGIN OF DATA
UWI .       100021406418W500 : UNIQUE WELL ID
DICO. A2D Technologies, Inc. : DIGITIZING COMPANY
~Other -----------------------------------------------------
IEL-CNL-BHC-SBT-CCL-SBL LOG
ALL RESISTIVITY CURVES ARE FROM TOP TO 4577' FROM 2" SECTION AND FROM 4577' TO FR FROM LARGE SECTION
~ASCII -----------------------------------------------------
# ...
 8400.00000    8.00910   15.93590   15.76220   63.44300    -999.25   53.00640   53.00640    -999.25    -999.25   34.82470   34.82470   63.44300    8.00910    -999.25    -999.25   81.07560  -83.79980  -26.85920   81.07560
 8450.00000    8.73630   66.73570   75.22810   13.29290    -999.25   60.95100   60.95100    -999.25    -999.25   57.66130   57.66130   13.29290    8.73630    -999.25    -999.25   22.29850  -69.31040  -12.35440   22.29850
 8500.00000    8.13320   41.73750   45.59730   21.93110    -999.25   57.18800   57.18800    -999.25    -999.25   50.71080   50.71080   21.93110    8.13320    -999.25    -999.25   32.31700  -65.53580   -8.87180   32.31700
 8550.00000   11.94310  148.33600  164.74190    6.07010    -999.25   70.94160   70.94160    -999.25    -999.25   66.97630   66.97630    6.07010   11.94310    -999.25    -999.25    9.95560 -110.29780  -54.33340    9.95560
 8600.00000   11.71770  157.81880  174.29500    5.73740    -999.25   71.63350   71.63350    -999.25    -999.25   65.68560   65.68560    5.73740   11.71770    -999.25    -999.25    8.46840 -104.31400  -49.04910    8.46840
 8650.00000   10.28560  158.67350  176.12770    5.67770    -999.25   70.31560   70.31560    -999.25    -999.25   78.62060   78.62060    5.67770   10.28560    -999.25    -999.25    9.48000 -100.92600  -46.36070    9.48000
 8700.00000   14.82790  213.40870  227.77490    4.39030    -999.25   82.17750   82.17750    -999.25    -999.25   61.16200   61.16200    4.39030   14.82790    -999.25    -999.25    5.39740 -109.56650  -55.70080    5.39740
 8750.00000   11.92790  205.35420  224.23030    4.45970    -999.25   78.16820   78.16820    -999.25    -999.25   94.34630   94.34630    4.45970   11.92790    -999.25    -999.25    7.06900 -105.53300  -52.36690    7.06900
 8800.00000   14.81750  202.07010  217.49530    4.59780    -999.25   78.45260   78.45260    -999.25    -999.25   78.36650   78.36650    4.59780   14.81750    -999.25    -999.25    6.24450 -107.47690  -55.01040    6.24450
 8850.00000   10.48340  115.54290  126.30730    7.91720    -999.25   68.30210   68.30210    -999.25    -999.25   72.87410   72.87410    7.91720   10.48340    -999.25    -999.25   12.69210 -114.49880  -62.73190   12.69210
 8900.00000    8.90730   75.12680   84.64820   11.81360    -999.25   63.42440   63.42440    -999.25    -999.25   67.34410   67.34410   11.81360    8.90730    -999.25    -999.25   19.18370  -82.45180  -31.38450   19.18370
 8950.00000    9.18020   93.18950  102.67050    9.73990    -999.25   67.65550   67.65550    -999.25    -999.25   90.90420   90.90420    9.73990    9.18020    -999.25    -999.25   15.87280  -61.34180  -10.97400   15.87280
 9000.00000    8.46540   81.02930   87.60170   11.41530    -999.25   66.23650   66.23650    -999.25    -999.25   74.77600   74.77600   11.41530    8.46540    -999.25    -999.25   18.49970  -74.89760  -25.84310   18.49970
 9050.00000    9.06250   98.05090  106.34560    9.40330    -999.25   68.41870   68.41870    -999.25    -999.25   84.09660   84.09660    9.40330    9.06250    -999.25    -999.25   14.96280  -71.33820  -24.05990   14.96280
 9100.00000   10.75090  148.47580  156.38440    6.39450    -999.25   69.80500   69.80500    -999.25    -999.25   88.85080   88.85080    6.39450   10.75090    -999.25    -999.25   10.27640 -106.81780  -61.31560   10.27640
 9150.00000    8.05040  100.66380  110.57050    9.04400    -999.25   66.51090   66.51090    -999.25    -999.25   75.60720   75.60720    9.04400    8.05040    -999.25    -999.25   16.12220  -90.33990  -46.61390   16.12220
 9200.00000    8.51230  123.20260  131.71410    7.59220    -999.25   66.75610   66.75610    -999.25    -999.25   78.64350   78.64350    7.59220    8.51230    -999.25    -999.25   13.30610 -105.43400  -63.48420   13.30610
 9250.00000    7.60070    4.23340    4.24730  235.44320    -999.25   65.56670   65.56670    -999.25   64.23080   76.20270   76.20270  235.44320    7.60070    -999.25    -999.25  353.33670  -80.41230  -40.23860  353.33670
 9300.00000    7.59240    3.81390    4.59790  217.48910    -999.25   69.36290   69.36290    -999.25   96.20520  113.86870  113.86870  217.48910    7.59240    -999.25    -999.25  159.49030  -93.42850  -55.03100  159.49030
 9350.00000    7.59050    9.19340    9.23110  108.32900    -999.25   52.79900   52.79900    -999.25   23.63180   33.60740   33.60740  108.32900    7.59050    -999.25    -999.25  135.75030  -89.40110  -52.77980  135.75030
 9400.00000    8.04350   14.99000   16.87320   59.26560    -999.25   73.69720   73.69720    -999.25   85.11790  100.65230  100.65230   59.26560    8.04350    -999.25    -999.25   86.26900 -100.16300  -65.31780   86.26900
 9450.00000    7.60230   13.39630   12.94030   77.27770    -999.25   55.68120   55.68120    -999.25   44.67090   56.30740   56.30740   77.27770    7.60230    -999.25    -999.25  103.33650 -104.84690  -71.77790  103.33650
 9500.00000    7.66170   16.92140   17.26760   57.91180    -999.25   54.34830   54.34830    -999.25   40.47180   47.21750   47.21750   57.91180    7.66170    -999.25    -999.25   73.93760  -71.45940  -40.16660   73.93760
 9550.00000    7.61760    4.11890    4.52760  220.86980    -999.25   49.58800   49.58800    -999.25   26.93320   34.75240   34.75240  220.86980    7.61760    -999.25    -999.25  262.43560  -45.57110  -16.05440  262.43560
 9600.00000    7.60800    1.39580    2.00000  500.00000   51.48260   50.17340   50.17340    -999.25   24.82100   37.32400   37.32400  500.00000    7.60800    -999.25    -999.25  403.16960  -55.98310  -28.24260  403.16960
 9650.00000    7.58350   10.98930   10.80660   92.53640   56.56730   55.78240   55.78240    -999.25   43.63630   57.77760   57.77760   92.53640    7.58350    -999.25    -999.25  101.63930  -35.63000   -9.66570  101.63930
 9700.00000    7.01800   29.65990   29.63140   33.74800   51.83800   50.92010   50.92010    -999.25   15.10160   16.54080   16.54080   33.74800    7.01800    -999.25    -999.25  109.31500 -194.02500 -169.08530  109.31500
 9750.00000    7.50350    1.30120    2.00000  500.00000   50.89790   48.48900   48.48900    -999.25   11.78100   14.50160   14.50160  500.00000    7.50350    -999.25    -999.25  492.99910 -179.92590 -154.48510  492.99910
 9800.00000    7.37630   11.54880   10.78380   92.73140   51.89460   50.37230   50.37230    -999.25    -999.25   17.64380   17.64380   92.73140    7.37630    -999.25    -999.25  131.86700 -153.69110 -127.74920  131.86700
 9850.00000    5.86670 1308.31880 3176.62010    0.31480   66.71800   63.68790   63.68790    -999.25    -999.25    -999.25    -999.25    0.31480    5.86670    -999.25    -999.25   11.93590 -202.13070 -175.68770   11.93590
