~Version ---------------------------------------------------
VERS.      2.0 : CWLS log ASCII Standard -VERSION 2.0
WRAP.       NO : One line per depth step
CREA. 12/01/17 : LAS Creation Date
~Well ------------------------------------------------------
STRT.FT                        300.0 : START DEPTH
STOP.FT                      17800.0 : STOP DEPTH
STEP.FT                     50.00000 : STEP LENGTH
NULL.                        -999.25 : NULL VALUE
COMP.           BPOG OPERATIONS LTD. : COMPANY
WELL. BP MOBIL CREE ROUGH 4-21-38-12 : WELL
FLD .                                : FIELD
LOC .                                : LOCATION
CTRY.                         CANADA : COUNTRY
SRVC.                   Schlumberger : SERVICE COMPANY
DATE.                    26-Oct-1973 : LOGDATE
PROV.                        Alberta : PROVINCE
UWI .               100042103812W500 : UNIQUE WELL ID
SLAT.WGS84                  52.27739 : SURFACE LATITUDE
SLON.WGS84                 -115.6641 : SURFACE LONGITUDE
~Curve Information -----------------------------------------
DEPT  .FT    : Depth Curve
CALSED.IN    : CALIPER FROM SONIC LOG [ADJ. TO RESISTIVITY LOG]
CALWS .IN    : CALIPER [CALSED]
CILDED.MMHO  : CONDUCTIVITY FROM RESISTIVITY LOG
CONDWS.MMHO  : CONDUCTIVITY [1000/DRESWS]
DRESWS.OHMM  : DEEP RESISTIVITY [ILDED]
DTED  .US/F  : DELTA-T FROM SONIC LOG [ADJ. TO RESISTIVITY LOG]
DTWS  .US/F  : COMPRESSIONAL SONIC [DTED]
GRNED .CU    : GAMMA RAY FROM GRN LOG [ADJ. TO RESISTIVITY LOG]
GRSED .CU    : GAMMA RAY FROM SONIC LOG [ADJ. TO RESISTIVITY LOG]
GRWS  .GAPI  : GAMMA RAY [GRSED] GRWS IN CSG. @ 13195'-13297' @ 10API ADDED
ILDED .OHMM  : DEEP INDUCTION RESISTIVITY FROM RESISTIVITY LOG
ILMED .OHMM  : MEDIUM INDUCTION RESISTIVITY FROM RESISTIVITY LOG
LL8ED .OHMM  : LATEROLOG 8 FROM RESISTIVITY LOG
MRESWS.OHMM  : MEDIUM RESISTIVITY [ILMED]
NEUTED.CU    : NEUTRON FROM GRN LOG [ADJ. TO RESISTIVITY LOG]
NEUTWS.CU    : NEUTRON [NEUTED]
SNED  .OHMM  : SHORT NORMAL RESISTIVITY 16" FROM RESISTIVITY LOG
SPRED .MV    : SPONTANEOUS POTENTIAL FROM RESISTIVITY LOG
SPWS  .MV    : SPONTANEOUS POTENTIAL [BASELINE 0 MV,SPRED]
SRESWS.OHMM  : SHALLOW RESISTIVITY [LL8ED SPL. TO SNED @ 2008']
~Params ----------------------------------------------------
PD  .                     GL : PERMANENT DATUM
EPD .FT                 5371 : ELEVATION PERMANENT DATUM
LMF .                     KB : LOG MEASURED FROM
DAPD.FT                   24 : FEET ABOVE PERMANENT DATUM
EKB .FT                 5395 : KELLY BUSHING
EGL .FT                 5371 : GROUND LEVEL
DATE.               10/26/73 : RUN DATE
RUN .                      2 : RUN NUMBER
DD  .FT                17815 : DEPTH DRILLER
DL  .FT                17792 : DEPTH LOGGER
BLI .FT                17791 : BOTTOM LOG INTERVAL
TLI .FT                13299 : TOP LOG INTERVAL
CBD .FT                13265 : CASING BOTTOM DRILLER
CBL .FT                13299 : CASING BOTTOM LOGGER
BS  .IN                 8.25 : BIT SIZE
BSD .FT                17815 : BIT SIZE AT DEPTH
DFT .               GEL CHEM : DRILLING FLUID TYPE
DFD .                    8.9 : DRILLING FLUID DENSITY
DFV .                     41 : DRILLING FLUID VISCOSITY
DFPH.                    9.5 : DRILLING FLUID PH
DFL .                   11.9 : DRILLING FLUID LOSS
RMS .OHMM               1.05 : RESISTIVITY MUD SAMPLE
MST .DEGF                 72 : MUD SAMPLE TEMPERATURE
RMF .OHMM               0.76 : RESISTIVITY MUD FILTRATE SAMPLE
MFST.DEGF                 70 : MUD FILTRATE SAMPLE TEMPERATURE
RMB .OHMM               0.31 : RESISTIVITY MUD AT BHT
TCS .HRS                   5 : TIME CIRCULATED STOPPED
LUN .                   7640 : LOGGING UNIT NUMBER
LUL .                     RD : LOGGING UNIT LOCATION
ENGI.           NIXON KOVACS : RECORDING ENGINEER
WITN.      WILLIAMS COSTELLO : WITNESSED BY
CLNT.                A2DTECH : CLIENT CODE
ORIG.            2" 5" PRINT : ORIGIN OF DATA
UWI .       100042103812W500 : UNIQUE WELL ID
DICO. A2D Technologies, Inc. : DIGITIZING COMPANY
~Other -----------------------------------------------------
DIL-IEL-BHC-GRN LOG RUN.
SNED MISSING IN SEVERAL DEPTH AS PER PRINT.
~ASCII -----------------------------------------------------
# ...
 5550.00000   12.46180   12.46180    4.85660    3.50870  285.00830   57.76590   57.76590    -999.25   61.50160   61.50160  285.00830    -999.25    -999.25    -999.25    -999.25    -999.25    -999.25    -999.25    -999.25    -999.25
 5600.00000   12.30050   12.30050    3.39020    2.81780  354.88220   47.49570   47.49570    -999.25   41.79250   41.79250  354.88220    -999.25    -999.25    -999.25    -999.25    -999.25    -999.25    -999.25    -999.25    -999.25
 5650.00000   12.43520   12.43520    1.66260    1.31960  757.77800   44.61300   44.61300    -999.25   21.74470   21.74470  757.77800    -999.25    -999.25    -999.25    -999.25    -999.25    -999.25    -999.25    -999.25    -999.25
 5700.00000   12.04750   12.04750    1.64680    1.46820  681.13900   46.65670   46.65670    -999.25   30.50810   30.50810  681.13900    -999.25    -999.25    -999.25    -999.25    -999.25    -999.25    -999.25    -999.25    -999.25
 5750.00000   12.43940   12.43940    2.08740    1.46610  682.08060   44.87240   44.87240    -999.25   23.21840   23.21840  682.08060    -999.25    -999.25    -999.25    -999.25    -999.25    -999.25    -999.25    -999.25    -999.25
 5800.00000   12.16000   12.16000    3.04160    2.31410  432.12630   49.03250   49.03250    -999.25   21.82560   21.82560  432.12630    -999.25    -999.25    -999.25    -999.25    -999.25    -999.25    -999.25    -999.25    -999.25
 5850.00000   12.08900   12.08900    4.40110    3.80380  262.89180   50.50700   50.50700    -999.25   21.66360   21.66360  262.89180    -999.25    -999.25    -999.25    -999.25    -999.25    -999.25    -999.25    -999.25    -999.25
 5900.00000   12.16970   12.16970   11.58050   11.21040   89.20320   54.60630   54.60630    -999.25   39.77720   39.77720   89.20320    -999.25    -999.25    -999.25    -999.25    -999.25    -999.25    -999.25    -999.25    -999.25
 5950.00000   11.97820   11.97820   11.41810   11.14810   89.70430   59.00100   59.00100    -999.25   62.87500   62.87500   89.70430    -999.25    -999.25    -999.25    -999.25    -999.25    -999.25    -999.25    -999.25    -999.25
 6000.00000   12.59120   12.59120    5.10040    4.68050  213.65070   53.50840   53.50840    -999.25   19.61990   19.61990  213.65070    -999.25    -999.25    -999.25    -999.25    -999.25    -999.25    -999.25    -999.25    -999.25
 6050.00000   12.51180   12.51180   11.92750   10.41370   96.02720   58.79290   58.79290    -999.25   64.62720   64.62720   96.02720    -999.25    -999.25    -999.25    -999.25    -999.25    -999.25    -999.25    -999.25    -999.25
 6100.00000   12.44120   12.44120    3.13870    2.28280  438.05250   47.17230   47.17230    -999.25   13.26600   13.26600  438.05250    -999.25    -999.25    -999.25    -999.25    -999.25    -999.25    -999.25    -999.25    -999.25
 6150.00000   12.06350   12.06350    4.27400    2.27720  439.13490   47.82300   47.82300    -999.25   13.91070   13.91070  439.13490    -999.25    -999.25    -999.25    -999.25    -999.25    -999.25    -999.25    -999.25    -999.25
 6200.00000   11.98370   11.98370    2.36520    2.29830  435.11940   47.32250   47.32250    -999.25   16.00740   16.00740  435.11940    -999.25    -999.25    -999.25    -999.25    -999.25    -999.25    -999.25    -999.25    -999.25
 6250.00000   12.02000   12.02000    3.70030    2.56880  389.28300   48.46800   48.46800    -999.25   15.36720   15.36720  389.28300    -999.25    -999.25    -999.25    -999.25    -999.25    -999.25    -999.25    -999.25    -999.25
 6300.00000   12.00550   12.00550    2.95820    1.73950  574.87820   47.26810   47.26810    -999.25   19.93250   19.93250  574.87820    -999.25    -999.25    -999.25    -999.25    -999.25    -999.25    -999.25    -999.25    -999.25
 6350.00000   12.04310   12.04310    2.86540    1.52900  654.01180   49.11620   49.11620    -999.25   28.98920   28.98920  654.01180    -999.25    -999.25    -999.25    -999.25    -999.25    -999.25    -999.25    -999.25    -999.25
 6400.00000   12.08970   12.08970    0.10830    0.87750 1139.65060   48.06510   48.06510    -999.25   24.91760   24.91760 1139.65060    -999.25    -999.25    -999.25    -999.25    -999.25    -999.25    -999.25    -999.25    -999.25
 6450.00000   12.06950   12.06950    0.01220    0.87770 1139.36900   48.26680   48.26680    -999.25   23.65270   23.65270 1139.36900    -999.25    -999.25    -999.25    -999.25    -999.25    -999.25    -999.25    -999.25    -999.25
 6500.00000   12.03640   12.03640    0.01610    0.87550 1142.24800   48.11500   48.11500    -999.25   27.53430   27.53430 1142.24800    -999.25    -999.25    -999.25    -999.25    -999.25    -999.25    -999.25    -999.25    -999.25
 6550.00000   12.52170   12.52170    8.87670    8.02240  124.65070   61.99200   61.99200    -999.25  102.29890  102.29890  124.65070    -999.25    -999.25    -999.25    -999.25    -999.25    -999.25    -999.25    -999.25    -999.25
 6600.00000   12.84980   12.84980    3.57430    2.84890  351.01770   51.78070   51.78070    -999.25   58.89060   58.89060  351.01770    -999.25    -999.25    -999.25    -999.25    -999.25    -999.25    -999.25    -999.25    -999.25
 6650.00000   12.78150   12.78150    2.64290    2.48710  402.07400   53.99650   53.99650    -999.25   33.34110   33.34110  402.07400    -999.25    -999.25    -999.25    -999.25    -999.25    -999.25    -999.25    -999.25    -999.25
 6700.00000   12.85310   12.85310    1.83970    2.16180  462.57280   52.80070   52.80070    -999.25   29.19680   29.19680  462.57280    -999.25    -999.25    -999.25    -999.25    -999.25    -999.25    -999.25    -999.25    -999.25
 6750.00000   12.42940   12.42940    2.63030    2.80510  356.49890   56.86600   56.86600    -999.25   30.75570   30.75570  356.49890    -999.25    -999.25    -999.25    -999.25    -999.25    -999.25    -999.25    -999.25    -999.25
 6800.00000   12.44000   12.44000    0.08920    0.87520 1142.59270   47.74630   47.74630    -999.25   11.62270   11.62270 1142.59270    -999.25    -999.25    -999.25    -999.25    -999.25    -999.25    -999.25    -999.25    -999.25
 6850.00000   13.03400   13.03400   13.20290   12.88560   77.60620   68.89160   68.89160    -999.25   38.52010   38.52010   77.60620    -999.25    -999.25    -999.25    -999.25    -999.25    -999.25    -999.25    -999.25    -999.25
 6900.00000   12.44240   12.44240    4.75830    4.32350  231.29590   53.69850   53.69850    -999.25   25.46770   25.46770  231.29590    -999.25    -999.25    -999.25    -999.25    -999.25    -999.25    -999.25    -999.25    -999.25
 6950.00000   13.09110   13.09110    2.41960    2.61450  382.55310   52.70070   52.70070    -999.25   20.90820   20.90820  382.55310    -999.25    -999.25    -999.25    -999.25    -999.25    -999.25    -999.25    -999.25    -999.25
 7000.00000   12.90370   12.90370    3.96030    3.64580  274.28890   52.04730   52.04730    -999.25   25.68860   25.68860  274.28890    -999.25    -999.25    -999.25    -999.25    -999.25    -999.25    -999.25    -999.25    -999.25
 7050.00000   12.17450   12.17450    6.48590    5.72890  174.55320   57.64000   57.64000    -999.25   38.99460   38.99460  174.55320    -999.25    -999.25    -999.25    -999.25    -999.25    -999.25    -999.25    -999.25    -999.25
 7100.00000   12.21770   12.21770    2.01930    2.21240  451.99920   48.13270   48.13270    -999.25   11.49540   11.49540  451.99920    -999.25    -999.25    -999.25    -999.25    -999.25    -999.25    -999.25    -999.25    -999.25
 7150.00000   12.74040   12.74040   42.27470   41.88080   23.87730   72.87930   72.87930    -999.25   76.41340   76.41340   23.87730    -999.25    -999.25    -999.25    -999.25    -999.25    -999.25    -999.25    -999.25    -999.25
 7200.00000   12.82580   12.82580   39.84600   40.00780   24.99520   71.21630   71.21630    -999.25   70.07030   70.07030   24.99520    -999.25    -999.25    -999.25    -999.25    -999.25    -999.25    -999.25    -999.25    -999.25
 7250.00000   13.05880   13.05880   44.28310   44.27600   22.58560   73.51970   73.51970    -999.25   75.71390   75.71390   22.58560    -999.25    -999.25    -999.25    -999.25    -999.25    -999.25    -999.25    -999.25    -999.25
