~Version ---------------------------------------------------
VERS.      2.0 : CWLS log ASCII Standard -VERSION 2.0
WRAP.       NO : One line per depth step
CREA. 10/04/13 : LAS Creation Date
~Well ------------------------------------------------------
STRT.M                                400.0 : START DEPTH
STOP.M                               2800.0 : STOP DEPTH
STEP.M                             50.00000 : STEP LENGTH
NULL.                               -999.25 : NULL VALUE
COMP. CONOCOPHILLIPS CANADA RESOURCES CORP. : COMPANY
WELL.         GULF ET AL LPINECK 6-14-31-27 : WELL
FLD .                                       : FIELD
LOC .                                       : LOCATION
CTRY.                                CANADA : COUNTRY
SRVC.                          Schlumberger : SERVICE COMPANY
DATE.                           20-Aug-1988 : LOGDATE
PROV.                               Alberta : PROVINCE
UWI .                      100061403127W400 : UNIQUE WELL ID
SLAT.WGS84                         51.65514 : SURFACE LATITUDE
SLON.WGS84                        -113.7265 : SURFACE LONGITUDE
~Curve Information -----------------------------------------
DEPT    .M      : DEPTH METER
C1ED    .MM     : CALIPER 1 FROM DENSITY LOG [ADJ. TO RESISTIVITY LOG]
C2ED    .MM     : CALIPER 2 FROM DENSITY LOG [ADJ. TO RESISTIVITY LOG]
CALDED  .MM     : CALIPER FROM DENSITY LOG [ADJ. TO RESISTIVITY LOG]
CALSED  .MM     : CALIPER FROM SONIC LOG
CALWS   .MM     : CALIPER [CALDED]
CONDWS  .MMHO   : CONDUCTIVITY [1000/DRESWS]
DCORWS  .KG/M3  : DENSITY CORRECTION [DRHOED]
DENWS   .KG/M3  : FORMATION BULK DENSITY [CALC FROM DPOLSWS, M=2710, F=1000]
DPHILSED.V/V    : DENSITY POROSITY LIMESTONE [M=2710, F=1000] FROM DENSITY LOG [ADJ. TO RESISTIVITY LOG]
DPHISSED.V/V    : DENSITY POROSITY SANDSTONE [M=2650, F=1000] FROM DENSITY LOG [ADJ. TO RESISTIVITY LOG]
DPOLSWS .V/V    : DENSITY POROSITY LIMESTONE [DPHISSED MATRIX CONVERTED TO LS(M=2710,F=1000) & SPL TO DPHILSED @ 1959M]
DRESWS  .OHMM   : DEEP RESISTIVITY [ILDED]
DRHOED  .KG/M3  : DENSITY CORRECTION FROM DENSITY LOG [ADJ. TO RESISTIVITY LOG]
DTED    .US/M   : DELTA TIME FROM SONIC LOG
DTWS    .US/M   : COMPRESSIONAL SONIC [DTED]
GRDED   .GAPI   : GAMMA RAY FROM DENSITY LOG [ADJ. TO RESISTIVITY LOG]
GRSED   .GAPI   : GAMMA RAY FROM SONIC LOG
GRWS    .GAPI   : GAMMA RAY [GRSED SPL. TO GRDED @ 2824M]
ILDED   .OHMM   : DEEP INDUCTION RESISTIVITY FROM RESISTIVITY LOG
ILMED   .OHMM   : MEDIUM INDUCTION RESISTIVITY FROM RESISTIVITY LOG
MRESWS  .OHMM   : MEDIUM RESISTIVITY [ILMED]
NPHILSED.V/V    : NEUTRON POROSITY LIMESTONE FROM DENSITY LOG [ADJ. TO RESISTIVITY LOG]
NPHISSED.V/V    : NEUTRON POROSITY SANDSTONE FROM DENSITY LOG [ADJ. TO RESISTIVITY LOG]
NPOLSWS .V/V    : NEUTRON POROSITY LIMESTONE [NPHISSED MATRIX CONVERTED TO LS & SPL TO NPHILSED @ 1959M]
RHOBED  .KG/M3  : BULK DENSITY FROM DENSITY LOG [ADJ. TO RESISTIVITY LOG]
SFLUED  .OHMM   : SPHERICALLY FOCUSED LOG RESISTIVITY FROM RESISTIVITY LOG
SPRED   .MV     : SPONTANEOUS POTENTIAL FROM RESISTIVITY LOG
SPWS    .MV     : SPONTANEOUS POTENTIAL [BASELINE 0 MV, SPRED]
SRESWS  .OHMM   : SHALLOW RESISTIVITY [SFLUED]
TENDED  .N      : TENSION FROM DENSITY LOG [ADJ. TO RESISTIVITY LOG]
TENRED  .N      : TOTAL TENSION FROM RESISTIVITY LOG
~Params ----------------------------------------------------
PD  .                         GL : PERMANENT DATUM
EPD .M                     925.4 : ELEVATION PERMANENT DATUM
LMF .                         KB : LOG MEASURED FROM
DAPD.M                       4.8 : FEET ABOVE PERMANENT DATUM
DMF .                         KB : DRILLING MEASURED FROM
EKB .M                     930.2 : KELLY BUSHING
EDF .M                     929.9 : DRILLING FLOOR
EGL .M                     925.4 : GROUND LEVEL
DATE.                   08/26/88 : RUN DATE
RUN .                          1 : RUN NUMBER
DD  .M                      2848 : DEPTH DRILLER
DL  .M                      2845 : DEPTH LOGGER
BLI .M                      2844 : BOTTOM LOG INTERVAL
TLI .M                     424.5 : TOP LOG INTERVAL
CS  .MM                      244 : CASING SIZE
CBD .M                       426 : CASING BOTTOM DRILLER
CBL .M                     424.5 : CASING BOTTOM LOGGER
BS  .MM                      222 : BIT SIZE
BSD .M                      2848 : BIT SIZE AT DEPTH
DFT .                   GEL CHEM : DRILLING FLUID TYPE
DFD .                       1085 : DRILLING FLUID DENSITY
DFV .                         61 : DRILLING FLUID VISCOSITY
DFPH.                       10.5 : DRILLING FLUID PH
DFL .                        6.4 : DRILLING FLUID LOSS
MSS .                   FLOWLINE : MUD SAMPLE SOURCE
RMS .OHMM                   0.62 : RESISTIVITY MUD SAMPLE
MST .DEGC                     18 : MUD SAMPLE TEMPERATURE
RMF .OHMM                  0.561 : RESISTIVITY MUD FILTRATE SAMPLE
MFST.DEGC                     20 : MUD FILTRATE SAMPLE TEMPERATURE
MFSS.                      PRESS : MUD FILTRATE SAMPLE SOURCE
RMB .OHMM                  0.254 : RESISTIVITY MUD AT BHT
TCS .HRS                    1730 : TIME CIRCULATED STOPPED
TLAB.HRS                    2324 : TIME LOGGER AT BOTTOM
LUN .                       8063 : LOGGING UNIT NUMBER
LUL .                   RED DEER : LOGGING UNIT LOCATION
ENGI.              CURTIS BROCHU : RECORDING ENGINEER
WITN.                    STEVENS : WITNESSED BY
CLNT.                    A2DTECH : CLIENT CODE
ORIG. 6.5"/100M 16.5"/100M PRINT : ORIGIN OF DATA
UWI .           100061403127W400 : UNIQUE WELL ID
DICO.     A2D Technologies, Inc. : DIGITIZING COMPANY
~Other -----------------------------------------------------
DIL-SFL-BHC RUN IN COMBO & CNFD LOG RUN
GRD,C1,C2,CALD FROM TOP-1594.5M & RHOB FROM SMALL SCALE LOG
NEUTRON CONVERSION: SCHLUMBERGER, CNL(NPHI)
~ASCII -----------------------------------------------------
  400.00000    -999.25    -999.25    -999.25    -999.25    -999.25    -999.25    -999.25    -999.25    -999.25    -999.25    -999.25    -999.25    -999.25    -999.25    -999.25    -999.25   51.82870   51.82870    -999.25    -999.25    -999.25    -999.25    -999.25    -999.25    -999.25    -999.25    -999.25    -999.25    -999.25    -999.25    -999.25
  450.00000  226.21930  301.89880  321.42120  245.32190  321.42120  128.91250    -999.25    -999.25    -999.25    -999.25    -999.25    7.75720    -999.25  323.14370  323.14370   84.75290   88.64690   88.64690    7.75720    6.12600    6.12600    -999.25    -999.25    -999.25    -999.25    6.54980  -95.61360  -10.98100    6.54980    -999.25 5148.29160
  500.00000  227.92390  247.47540  269.75670  243.68390  269.75670  207.03080    -999.25    -999.25    -999.25    -999.25    -999.25    4.83020    -999.25  322.67400  322.67400   86.19140   82.44110   82.44110    4.83020    3.97480    3.97480    -999.25    -999.25    -999.25    -999.25    5.22800  -90.41820   -6.01570    5.22800    -999.25 5428.85740
  550.00000  242.79780  283.38600  299.20250  259.15410  299.20250  212.03960    -999.25    -999.25    -999.25    -999.25    -999.25    4.71610    -999.25  301.30750  301.30750   76.69410   74.00770   74.00770    4.71610    4.36630    4.36630    -999.25    -999.25    -999.25    -999.25    4.98510  -91.86030   -8.10430    4.98510    -999.25 5588.62150
  600.00000  216.11260  276.23570  286.90940  243.56610  286.90940  148.80070    -999.25    -999.25    -999.25    -999.25    -999.25    6.72040    -999.25  289.47460  289.47460   76.29920   71.11090   71.11090    6.72040    5.98040    5.98040    -999.25    -999.25    -999.25    -999.25    5.41230  -92.64670   -9.58260    5.41230    -999.25 5884.35930
  650.00000  214.73410  266.01260  273.40610  245.44300  273.40610  119.30040    -999.25    -999.25    -999.25    -999.25    -999.25    8.38220    -999.25  276.64250  276.64250   66.82480   71.37400   71.37400    8.38220    8.03820    8.03820    -999.25    -999.25    -999.25    -999.25    7.87990  -86.83590   -6.15620    7.87990    -999.25 6046.60020
  700.00000  223.30300  246.91390  259.55420  233.61070  259.55420  133.34760    -999.25    -999.25    -999.25    -999.25    -999.25    7.49920    -999.25  276.30530  276.30530   84.46970   78.33860   78.33860    7.49920    6.56340    6.56340    -999.25    -999.25    -999.25    -999.25    6.18130 -109.62710  -10.30130    6.18130    -999.25 6250.61520
  750.00000  224.65170  271.30280  281.66610  232.19990  281.66610  174.22210    -999.25    -999.25    -999.25    -999.25    -999.25    5.73980    -999.25  292.84690  292.84690   98.99420   92.38480   92.38480    5.73980    5.51860    5.51860    -999.25    -999.25    -999.25    -999.25    6.58380 -116.11950  -11.82490    6.58380    -999.25 6415.95470
  800.00000  222.17070  256.77150  271.19200  241.97750  271.19200  262.88120    -999.25    -999.25    -999.25    -999.25    -999.25    3.80400    -999.25  299.75610  299.75610   69.85160   78.18580   78.18580    3.80400    3.58450    3.58450    -999.25    -999.25    -999.25    -999.25    3.37880 -113.86050   -5.12660    3.37880    -999.25 6553.30250
  850.00000  252.88380  224.79310  241.72770  239.75410  241.72770  164.23600    -999.25    -999.25    -999.25    -999.25    -999.25    6.08880    -999.25  270.52220  270.52220   65.77290   60.55260   60.55260    6.08880    5.93700    5.93700    -999.25    -999.25    -999.25    -999.25    5.65250 -118.59200   -9.89750    5.65250    -999.25 6706.93690
  900.00000  257.05650  222.68960  228.76540  233.34980  228.76540  176.93480    -999.25    -999.25    -999.25    -999.25    -999.25    5.65180    -999.25  337.49940  337.49940   56.97290   64.94620   64.94620    5.65180    4.75940    4.75940    -999.25    -999.25    -999.25    -999.25    4.04840 -113.95150   -5.65500    4.04840    -999.25 7082.47670
  950.00000  229.60980  220.64160  223.36830  218.63420  223.36830   40.65060    -999.25    -999.25    -999.25    -999.25    -999.25   24.59990    -999.25  233.98830  233.98830   46.26460   44.59670   44.59670   24.59990   23.21580   23.21580    -999.25    -999.25    -999.25    -999.25   22.46850 -122.63910  -13.89100   22.46850    -999.25 7260.72140
 1000.00000  229.03690  235.39570  230.01960  233.27720  230.01960  109.84300    -999.25    -999.25    -999.25    -999.25    -999.25    9.10390    -999.25  231.15590  231.15590   58.23850   48.34450   48.34450    9.10390    8.83300    8.83300    -999.25    -999.25    -999.25    -999.25    7.68680 -113.76990   -5.34790    7.68680    -999.25 7300.75540
 1050.00000  220.71960  221.74840  227.50240  221.10350  227.50240   85.10200    -999.25    -999.25    -999.25    -999.25    -999.25   11.75060    -999.25  246.59690  246.59690   57.99970   49.85190   49.85190   11.75060   12.13040   12.13040    -999.25    -999.25    -999.25    -999.25   15.80470 -126.72620  -18.91800   15.80470    -999.25 7510.43880
 1100.00000  223.53220  328.59280  334.91530  241.01240  334.91530  202.36360    -999.25    -999.25    -999.25    -999.25    -999.25    4.94160    -999.25  302.91790  302.91790   69.44980   70.06310   70.06310    4.94160    4.57480    4.57480    -999.25    -999.25    -999.25    -999.25    4.76720 -111.98430   -3.96190    4.76720    -999.25 7835.80970
 1150.00000  335.07320  258.00450  275.17870  254.03370  275.17870  102.50630    -999.25    -999.25    -999.25    -999.25    -999.25    9.75550    -999.25  259.64260  259.64260   91.30510   85.31200   85.31200    9.75550   10.58660   10.58660    -999.25    -999.25    -999.25    -999.25    8.96720 -119.83670   -6.35220    8.96720    -999.25 7939.92080
 1200.00000  266.87780  254.64320  257.79210  253.89850  257.79210   83.17670    -999.25    -999.25    -999.25    -999.25    -999.25   12.02260    -999.25  268.31490  268.31490  114.31600  110.68230  110.68230   12.02260   12.99890   12.99890    -999.25    -999.25    -999.25    -999.25   14.61830 -119.30260   -4.89890   14.61830    -999.25 8230.68460
 1250.00000  289.90230  221.75140  226.67400  231.04430  226.67400   85.47080    -999.25    -999.25    -999.25    -999.25    -999.25   11.69990    -999.25  269.87310  269.87310   97.19740  104.91010  104.91010   11.69990   12.45770   12.45770    -999.25    -999.25    -999.25    -999.25   12.16520 -117.04900   -5.23530   12.16520    -999.25 8489.39450
 1300.00000  290.36260  221.09810  220.34840  236.02590  220.34840  117.11660    -999.25    -999.25    -999.25    -999.25    -999.25    8.53850    -999.25  267.06430  267.06430  106.86720   94.62110   94.62110    8.53850    8.35610    8.35610    -999.25    -999.25    -999.25    -999.25    8.69920 -113.56150   -5.15140    8.69920    -999.25 8508.91910
 1350.00000  279.94030  222.44100  225.45480  228.86840  225.45480  125.00780    -999.25    -999.25    -999.25    -999.25    -999.25    7.99950    -999.25  282.36870  282.36870  112.76450   96.71520   96.71520    7.99950    7.80060    7.80060    -999.25    -999.25    -999.25    -999.25    8.41370 -111.77430   -6.30460    8.41370    -999.25 8791.20320
 1400.00000  310.71760  223.85790  227.52600  243.39650  227.52600  120.92630    -999.25    -999.25    -999.25    -999.25    -999.25    8.26950    -999.25  260.61020  260.61020  108.88100  104.74980  104.74980    8.26950    8.12830    8.12830    -999.25    -999.25    -999.25    -999.25    8.38400 -110.31300   -7.08090    8.38400    -999.25 9042.74260
 1450.00000  365.92360  219.30850  232.94580  258.64620  232.94580  117.13310    -999.25    -999.25    -999.25    -999.25    -999.25    8.53730    -999.25  268.69000  268.69000  103.87830   97.33860   97.33860    8.53730    7.70020    7.70020    -999.25    -999.25    -999.25    -999.25    8.00970 -108.43930   -7.19520    8.00970    -999.25 9112.81270
 1500.00000  434.78390  227.84190  242.65850  267.15500  242.65850  137.79800    -999.25    -999.25    -999.25    -999.25    -999.25    7.25700    -999.25  284.64140  284.64140   94.61690   99.51600   99.51600    7.25700    6.73680    6.73680    -999.25    -999.25    -999.25    -999.25    7.75190 -106.90460   -7.33710    7.75190    -999.25 9308.02870
