~Version ---------------------------------------------------
VERS.      2.0 : CWLS log ASCII Standard -VERSION 2.0
WRAP.       NO : One line per depth step
CREA. 12/11/17 : LAS Creation Date
~Well ------------------------------------------------------
STRT.FT                         700.0 : START DEPTH
STOP.FT                        9950.0 : STOP DEPTH
STEP.FT                      50.00000 : STEP LENGTH
NULL.                         -999.25 : NULL VALUE
COMP.      CANADIAN SUPERIOR OIL LTD. : COMPANY
WELL. CDN. SUP. SAKWATAMAU 10-4-63-15 : WELL
FLD .                  SAKWATAMAU  WC : FIELD
LOC .                                 : LOCATION
CTRY.                          CANADA : COUNTRY
SRVC.                      Lane Wells : SERVICE COMPANY
DATE.                     12-Feb-1963 : LOGDATE
PROV.                         Alberta : PROVINCE
UWI .                100100406315W500 : UNIQUE WELL ID
SLAT.WGS84                   54.42373 : SURFACE LATITUDE
SLON.WGS84                  -116.2015 : SURFACE LONGITUDE
~Curve Information -----------------------------------------
DEPT  .FT    : Depth Curve
CALWS .IN    : CALIPER [MCALED]
CILED .MMHO  : CONDUCTIVITY FROM RESISTIVITY LOG
CONDWS.MMHO  : CONDUCTIVITY [1000/DRESWS]
DRESWS.OHMM  : DEEP RESISTIVITY [1000/CILED IF ILED<=5, ILED]
DTED  .US/F  : DELTA-T FROM SONIC LOG [ADJ. TO RESISTIVITY LOG]
DTWS  .US/F  : COMPRESSIONAL SONIC [DTED]
GRSED .GAPI  : GAMMA RAY FROM SONIC LOG
GRWS  .GAPI  : GAMMA RAY [GRSED]
ILED  .OHMM  : INDUCTION RESISTIVITY FROM RESISTIVITY LOG
MCALED.IN    : MICRO CALIPER FROM ML LOG
MINVED.OHMM  : MICRO INVERSE FROM ML LOG
MNORED.OHMM  : MICRO NORMAL FROM ML LOG
SNED  .OHMM  : SHORT NORMAL RESISTIVITY FROM RESISTIVITY LOG
SPRED .MV    : SPONTANEOUS POTENTIAL FROM RESISTIVITY LOG
SPWS  .MV    : SPONTANEOUS POTENTIAL [BASELINE 0 MV, SPRED]
SRESWS.OHMM  : SHALLOW RESISTIVITY [SNED]
~Params ----------------------------------------------------
PD  .                     GL : PERMANENT DATUM
EPD .FT                 3236 : ELEVATION PERMANENT DATUM
LMF .                     KB : LOG MEASURED FROM
DAPD.FT                   13 : FEET ABOVE PERMANENT DATUM
DMF .                     KB : DRILLING MEASURED FROM
EKB .FT                 3249 : KELLY BUSHING
EGL .FT                 3236 : GROUND LEVEL
DATE.               02/12/63 : RUN DATE
RUN .                      2 : RUN NUMBER
DD  .FT                 9959 : DEPTH DRILLER
DL  .FT                 9954 : DEPTH LOGGER
BLI .FT                 9953 : BOTTOM LOG INTERVAL
TLI .FT                 6500 : TOP LOG INTERVAL
CS  .IN                10.75 : CASING SIZE
CBD .FT                  679 : CASING BOTTOM DRILLER
CBL .FT                  678 : CASING BOTTOM LOGGER
BS  .IN                    9 : BIT SIZE
BSD .FT                 9959 : BIT SIZE AT DEPTH
DFT .                MUD GEL : DRILLING FLUID TYPE
DFD .                   10.2 : DRILLING FLUID DENSITY
DFV .                     98 : DRILLING FLUID VISCOSITY
DFPH.                     10 : DRILLING FLUID PH
DFL .                    6.8 : DRILLING FLUID LOSS
MSS .                   CIRC : MUD SAMPLE SOURCE
RMS .OHMM                2.2 : RESISTIVITY MUD SAMPLE
MST .DEGF                 70 : MUD SAMPLE TEMPERATURE
RMF .OHMM                2.5 : RESISTIVITY MUD FILTRATE SAMPLE
MFST.DEGF                 52 : MUD FILTRATE SAMPLE TEMPERATURE
RMC .OHMM                2.8 : RESISTIVITY MUD CAKE
MCST.DEGF                 61 : MUD CAKE SAMPLE TEMPERATURE
MFSS.                   MEAS : MUD FILTRATE SAMPLE SOURCE
MCSS.                   MEAS : MUD CAKE SAMPLE SOURCE
RMB .OHMM               0.83 : RESISTIVITY MUD AT BHT
TCS .HRS                   7 : TIME CIRCULATED STOPPED
LUN .                   8035 : LOGGING UNIT NUMBER
LUL .                    EDM : LOGGING UNIT LOCATION
ENGI.                  BLAND : RECORDING ENGINEER
WITN.                SIEMENS : WITNESSED BY
CLNT.                A2DTECH : CLIENT CODE
ORIG.            2" 5" PRINT : ORIGIN OF DATA
UWI .       100100406315W500 : UNIQUE WELL ID
DICO. A2D Technologies, Inc. : DIGITIZING COMPANY
~Other -----------------------------------------------------
IEL-ML-ADSL LOG RUN
RESISTIVITY DATA FROM LINEAR SCALE OF 5" and 2" SECTION LOG
~ASCII -----------------------------------------------------
  700.00000    -999.25   77.60010   63.28030   15.80270    -999.25    -999.25    -999.25    -999.25   15.80270    -999.25    -999.25    -999.25   14.40980  -67.81500  -17.56070   14.40980
  750.00000    -999.25  178.89790  142.57400    7.01390    -999.25    -999.25    -999.25    -999.25    7.01390    -999.25    -999.25    -999.25    6.29560  -67.42590  -17.17160    6.29560
  800.00000    -999.25  124.56200  101.39900    9.86530    -999.25    -999.25    -999.25    -999.25    9.86530    -999.25    -999.25    -999.25    7.91790  -66.84770  -16.59340    7.91790
  850.00000    -999.25  290.59740  199.50920    5.01230    -999.25    -999.25    -999.25    -999.25    5.01230    -999.25    -999.25    -999.25    3.71530  -58.63900   -8.38470    3.71530
  900.00000    -999.25  178.57780  140.81730    7.10140    -999.25    -999.25    -999.25    -999.25    7.10140    -999.25    -999.25    -999.25    6.25790  -53.61670   -3.36240    6.25790
  950.00000    -999.25  109.20570   96.87860   10.32220    -999.25    -999.25    -999.25    -999.25   10.32220    -999.25    -999.25    -999.25   11.48660  -55.62690   -5.98180   11.48660
 1000.00000    -999.25  169.89200  138.96800    7.19590    -999.25    -999.25    -999.25    -999.25    7.19590    -999.25    -999.25    -999.25    5.31980  -51.51080   -2.62730    5.31980
 1050.00000    -999.25  170.20800  141.48930    7.07320    -999.25    -999.25    -999.25    -999.25    7.07320    -999.25    -999.25    -999.25    4.99310  -52.22840   -4.10260    4.99310
 1100.00000    -999.25  119.24000  101.34280    9.86750    -999.25    -999.25    -999.25    -999.25    9.86750    -999.25    -999.25    -999.25    7.81160  -52.47220   -5.11180    7.81160
 1150.00000    -999.25   51.55490   51.83550   19.29180    -999.25    -999.25    -999.25    -999.25   19.29180    -999.25    -999.25    -999.25   12.74530  -59.04820  -12.44930   12.74530
 1200.00000    -999.25  112.99110   96.84760   10.32550    -999.25    -999.25    -999.25    -999.25   10.32550    -999.25    -999.25    -999.25    8.07630  -53.35500   -7.51770    8.07630
 1250.00000    -999.25   53.77660   46.72590   21.40140    -999.25    -999.25    -999.25    -999.25   21.40140    -999.25    -999.25    -999.25   14.72470  -57.11460  -12.03880   14.72470
 1300.00000    -999.25  119.44120  111.29210    9.00240    -999.25    -999.25    -999.25    -999.25    9.00240    -999.25    -999.25    -999.25    7.43120  -51.02900   -6.71090    7.43120
 1350.00000    -999.25   49.33580   46.82790   21.35480    -999.25    -999.25    -999.25    -999.25   21.35480    -999.25    -999.25    -999.25   16.79030  -56.16130  -12.54950   16.79030
 1400.00000    -999.25  135.04340  120.14180    8.32350    -999.25    -999.25    -999.25    -999.25    8.32350    -999.25    -999.25    -999.25    7.20470  -51.25640   -7.91400    7.20470
 1450.00000    -999.25  229.59800  174.88020    5.71820    -999.25    -999.25    -999.25    -999.25    5.71820    -999.25    -999.25    -999.25    5.25270  -47.46330   -4.39030    5.25270
 1500.00000    -999.25  172.44490  138.83880    7.20260    -999.25    -999.25    -999.25    -999.25    7.20260    -999.25    -999.25    -999.25    5.95930  -48.52260   -5.71890    5.95930
 1550.00000    -999.25  134.33180  114.92420    8.70500    -999.25    -999.25    -999.25    -999.25    8.70500    -999.25    -999.25    -999.25    7.72770  -49.16580   -6.63020    7.72770
 1600.00000    -999.25  200.70440  157.24750    6.35940    -999.25    -999.25    -999.25    -999.25    6.35940    -999.25    -999.25    -999.25    5.52130  -47.49350   -5.22850    5.52130
 1650.00000    -999.25   95.77480   85.97570   11.63120    -999.25    -999.25    -999.25    -999.25   11.63120    -999.25    -999.25    -999.25   10.87580  -50.28400   -8.28840   10.87580
 1700.00000    -999.25  197.33790  158.33310    6.31580    -999.25    -999.25    -999.25    -999.25    6.31580    -999.25    -999.25    -999.25    5.72600  -47.85950   -6.13330    5.72600
 1750.00000    -999.25  177.79310  147.00480    6.80250    -999.25    -999.25    -999.25    -999.25    6.80250    -999.25    -999.25    -999.25    7.84820  -47.34700   -5.89010    7.84820
 1800.00000    -999.25  283.62120  197.70930    5.05810    -999.25    -999.25    -999.25    -999.25    5.05810    -999.25    -999.25    -999.25    4.36810  -44.57800   -3.38920    4.36810
 1850.00000    -999.25  240.82710  162.57250    6.15110    -999.25    -999.25    -999.25    -999.25    6.15110    -999.25    -999.25    -999.25    5.32930  -47.61170   -6.69360    5.32930
 1900.00000    -999.25  254.57960  190.68890    5.24410    -999.25    -999.25    -999.25    -999.25    5.15050    -999.25    -999.25    -999.25    4.72130  -46.56450   -5.91570    4.72130
 1950.00000    -999.25  162.94880  132.16320    7.56640    -999.25    -999.25    -999.25    -999.25    7.56640    -999.25    -999.25    -999.25    6.86370  -47.58650   -7.20710    6.86370
 2000.00000    -999.25  273.28450  216.89900    4.61040    -999.25    -999.25    -999.25    -999.25    5.06220    -999.25    -999.25    -999.25    4.43390  -46.38250   -6.04350    4.43390
 2050.00000    -999.25  196.51690  151.55160    6.59910    -999.25    -999.25    -999.25    -999.25    6.59910    -999.25    -999.25    -999.25    5.62410  -47.27590   -6.93690    5.62410
 2100.00000    -999.25  236.36310  178.49810    5.60230    -999.25    -999.25    -999.25    -999.25    5.60230    -999.25    -999.25    -999.25    4.92070  -47.05650   -6.71750    4.92070
 2150.00000    -999.25  262.90600  185.67000    5.38590    -999.25    -999.25    -999.25    -999.25    5.38590    -999.25    -999.25    -999.25    4.90040  -47.38800   -7.04900    4.90040
 2200.00000    -999.25  130.92230  103.86910    9.62750    -999.25    -999.25    -999.25    -999.25    9.62750    -999.25    -999.25    -999.25    8.96590  -48.60120   -8.26220    8.96590
 2250.00000    -999.25  198.95190  157.52500    6.34820    -999.25    -999.25    -999.25    -999.25    6.34820    -999.25    -999.25    -999.25    5.86420  -42.41940   -2.08040    5.86420
 2300.00000    -999.25  114.77550   95.21550   10.50720    -999.25    -999.25    -999.25    -999.25   10.50720    -999.25    -999.25    -999.25    9.87270  -52.00710  -12.21160    9.87270
 2350.00000    -999.25  215.23420  172.67880    5.79110    -999.25    -999.25    -999.25    -999.25    5.79110    -999.25    -999.25    -999.25    5.07000  -43.58350   -4.96280    5.07000
 2400.00000    -999.25  552.32140  552.32140    1.81050    -999.25    -999.25    -999.25    -999.25    3.24000    -999.25    -999.25    -999.25    2.52810  -40.35540   -2.90360    2.52810
 2450.00000    -999.25   72.70690   68.59090   14.57920    -999.25    -999.25    -999.25    -999.25   14.57920    -999.25    -999.25    -999.25   16.00710  -51.25230  -14.96940   16.00710
 2500.00000    -999.25  116.39850   99.73470   10.02660    -999.25    -999.25    -999.25    -999.25   10.02660    -999.25    -999.25    -999.25   10.48440  -48.43470  -12.72750   10.48440
 2550.00000    -999.25  183.21510  137.03570    7.30930    -999.25    -999.25    -999.25    -999.25    7.30930    -999.25    -999.25    -999.25    6.41090  -45.61610  -10.22880    6.41090
 2600.00000    -999.25   85.34300   82.19090   12.16680    -999.25    -999.25    -999.25    -999.25   12.16680    -999.25    -999.25    -999.25   11.26720  -51.92860  -16.86440   11.26720
 2650.00000    -999.25  172.62790  137.91010    7.25110    -999.25    -999.25    -999.25    -999.25    7.25110    -999.25    -999.25    -999.25    6.79810  -43.23030   -8.48760    6.79810
 2700.00000    -999.25  143.31110  124.01720    8.06340    -999.25    -999.25    -999.25    -999.25    8.06340    -999.25    -999.25    -999.25    8.68670  -49.48620  -15.06500    8.68670
 2750.00000    -999.25   89.47880   82.56210   12.11210    -999.25    -999.25    -999.25    -999.25   12.11210    -999.25    -999.25    -999.25   11.69390  -52.09710  -17.99740   11.69390
 2800.00000    -999.25  128.84770  116.48790    8.63220    -999.25    -999.25    -999.25    -999.25    8.63220    -999.25    -999.25    -999.25    7.98270  -49.30160  -15.52180    7.98270
