~Version ---------------------------------------------------
VERS.      2.0 : CWLS log ASCII Standard -VERSION 2.0
WRAP.       NO : One line per depth step
CREA. 09/29/17 : LAS Creation Date
~Well ------------------------------------------------------
STRT.FT                      2600.0 : START DEPTH
STOP.FT                     12600.0 : STOP DEPTH
STEP.FT                    50.00000 : STEP LENGTH
NULL.                       -999.25 : NULL VALUE
COMP. AMOCO CANADA COMPANY LIMITED. : COMPANY
WELL.        AMOCO NIPAC 6-20-50-15 : WELL
FLD .                               : FIELD
LOC .                               : LOCATION
CTRY.                        CANADA : COUNTRY
SRVC.                  Schlumberger : SERVICE COMPANY
DATE.                   07-Aug-1978 : LOGDATE
PROV.                       Alberta : PROVINCE
UWI .              100062005015W500 : UNIQUE WELL ID
SLAT.WGS84                 53.32816 : SURFACE LATITUDE
SLON.WGS84                -116.1619 : SURFACE LONGITUDE
~Curve Information -----------------------------------------
DEPT    .FT    : Depth Curve
CALDED  .IN    : CALIPER FROM DENSITY LOG [ADJ. TO RESISTIVITY LOG]
CALSED  .IN    : CALIPER FROM SONIC LOG [ADJ. TO RESISTIVITY LOG]
CALWS   .IN    : CALIPER [CALSED]
CONDWS  .MMHO  : CONDUCTIVITY [1000/DRESWS]
DCORED  .G/C3  : DENSITY CORRECTION FROM DENSITY LOG [ADJ. TO RESISTIVITY LOG]
DCORWS  .G/C3  : DENSITY CORRECTION [DCORED]
DENWS   .G/C3  : BULK DENSITY [RHOBED]
DPHILSED.V/V   : DENSITY POROSITY LIMESTONE [M=2.71, F=1.00] FROM DENSITY LOG [ADJ. TO RESISTIVITY LOG]
DPHISSED.V/V   : DENSITY POROSITY SANDSTONE [M=2.65, F=1.00] FROM DENSITY LOG [ADJ. TO RESISTIVITY LOG]
DPOLSWS .V/V   : DENSITY POROSITY LIMESTONE [CALC FROM DENWS,M=2.71, F=1.00]
DRESWS  .OHMM  : DEEP RESISTIVITY [ILDED]
DTED    .US/F  : DELTA-T FROM SONIC LOG [ADJ. TO RESISTIVITY LOG]
DTWS    .US/F  : COMPRESSIONAL SONIC [DTED]
GRDED   .GAPI  : GAMMA RAY FROM DENSITY LOG [ADJ. TO RESISTIVITY LOG]
GRSED   .GAPI  : GAMMA RAY  FRPM SONIC LOG [ADJ. TO RESISTIVITY LOG]
GRWS    .GAPI  : GAMMA RAY [GRDED]
ILDED   .OHMM  : DEEP INDUCTION RESISTIVITY FROM RESISTIVITY LOG
ILMED   .OHMM  : MEDIUM INDUCTION RESISTIVITY FROM RESISTIVITY LOG
LL8ED   .OHMM  : LATEROLOG 8 RESISTIVITY FROM RESISTIVITY LOG
MRESWS  .OHMM  : MEDIUM RESISTIVITY [ILMED]
NPHILSED.V/V   : NEUTRON POROSITY LIMESTONE FROM DENSITY LOG [ADJ. TO RESISTIVITY LOG]
NPHISSED.V/V   : NEUTRON POROSITY SANDSTONE FROM DENSITY LOG [ADJ. TO RESISTIVITY LOG]
NPOLSWS .V/V   : NEUTRON POROSITY LIMESTONE [NPHISSED CONVERTED TO LIMESTONE MATRIX, SPL. TO NPHILSED @ 8990' ]
RHOBED  .G/C3  : BULK DENSITY  FROM DENSITY LOG [ADJ. TO RESISTIVITY LOG]
SFLED   .OHMM  : SPHERICALLY FOCUSED RESISTIVITY FROM RESISTIVITY LOG
SPRED   .MV    : SPONTANEOUS POTENTIAL FROM RESISTIVITY LOG
SPWS    .MV    : SPONTANEOUS POTENTIAL [BASELINE 0 MV,SPRED]
SRESWS  .OHMM  : SHALLOW RESISTIVITY [LL8ED SPL. TO SFLED @ 8997']
~Params ----------------------------------------------------
PD  .                     GL : PERMANENT DATUM
EPD .FT               101.84 : ELEVATION PERMANENT DATUM
LMF .                     KB : LOG MEASURED FROM
DAPD.FT                 6.22 : FEET ABOVE PERMANENT DATUM
DMF .                     KB : DRILLING MEASURED FROM
EKB .FT              1017.06 : KELLY BUSHING
EGL .FT              1010.84 : GROUND LEVEL
DATE.               08/07/78 : RUN DATE
RUN .                      3 : RUN NUMBER
DD  .FT               3846.6 : DEPTH DRILLER
DL  .FT                 3846 : DEPTH LOGGER
BLI .FT                 3845 : BOTTOM LOG INTERVAL
TLI .FT                 3290 : TOP LOG INTERVAL
CBD .FT                 2742 : CASING BOTTOM DRILLER
CBL .FT                 2741 : CASING BOTTOM LOGGER
BS  .MM                  216 : BIT SIZE
BSD .FT               3846.6 : BIT SIZE AT DEPTH
RMF .OHMM               1.36 : RESISTIVITY MUD FILTRATE SAMPLE
MFST.DEGF               22.2 : MUD FILTRATE SAMPLE TEMPERATURE
RMC .OHMM               0.94 : RESISTIVITY MUD CAKE
MCST.DEGF               24.4 : MUD CAKE SAMPLE TEMPERATURE
LUN .                   7809 : LOGGING UNIT NUMBER
LUL .                    EDM : LOGGING UNIT LOCATION
ENGI.            GUNN DRONEN : RECORDING ENGINEER
WITN.                CULSHAW : WITNESSED BY
CLNT.                A2DTECH : CLIENT CODE
ORIG.            2" 5" PRINT : ORIGIN OF DATA
UWI .       100062005015W500 : UNIQUE WELL ID
DICO. A2D Technologies, Inc. : DIGITIZING COMPANY
~Other -----------------------------------------------------
DIL-SFL/CNFD/BCS LOG RAN
SPRED HAS GAPS AT MANY INTERVAL DUE TO NOT VISIBILITY OF SP IN PRINT
GR RAN RAN THROUGH CASING FROM 8980'-9000' SO GRWS ADDED +10 API.
NEUTRON MATRIX CONVERSION FOR LIMESTONE USING SCHLUMBERGER CHART
MUD CONTAIN BARITE
~ASCII -----------------------------------------------------
 2600.00000   13.98050   13.32380   13.32380   84.09010    0.05480    0.05480    2.51030    -999.25    0.08510    0.11680   11.89200   77.88740   77.88740   52.81340   55.79310   52.81340   11.89200   11.75490   11.11790   11.75490    -999.25    0.23850    0.19470    2.51030    -999.25  -56.28430  -12.47160   11.11790
 2650.00000   14.01820   13.00400   13.00400  107.29610    0.07540    0.07540    2.58640    -999.25    0.03840    0.07230    9.32000   79.34460   79.34460   65.68470   67.51190   65.68470    9.32000    9.54250   10.51100    9.54250    -999.25    0.28700    0.24300    2.58640    -999.25  -53.79660   -9.83440   10.51100
 2700.00000   13.20600   12.78210   12.78210   72.99380    0.03270    0.03270    2.47730    -999.25    0.10720    0.13610   13.69980   80.19500   80.19500   59.15210   61.77090   59.15210   13.69980   12.97900   13.30410   12.97900    -999.25    0.25190    0.20800    2.47730    -999.25  -64.50040  -20.34440   13.30410
 2750.00000   13.21480   12.77560   12.77560  123.30760    0.03510    0.03510    2.53000    -999.25    0.07290    0.10530    8.10980   81.69120   81.69120   75.71200   80.29580   75.71200    8.10980    8.46860    9.02870    8.46860    -999.25    0.28420    0.24020    2.53000    -999.25  -51.22670   -6.87800    9.02870
 2800.00000   14.03740   12.86850   12.86850   59.72860    0.06310    0.06310    2.50100    -999.25    0.09480    0.12220   16.74250   77.00740   77.00740   58.43570   69.47590   58.43570   16.74250   15.79290   16.04870   15.79290    -999.25    0.22980    0.18600    2.50100    -999.25  -57.48630  -12.94530   16.04870
 2850.00000   14.20040   13.01650   13.01650   77.13010    0.08080    0.08080    2.51330    -999.25    0.08320    0.11500   12.96510   77.90110   77.90110   60.50260   61.96890   60.50260   12.96510   13.70710   14.54740   13.70710    -999.25    0.22020    0.17650    2.51330    -999.25  -58.13410  -13.39930   14.54740
 2900.00000   14.93590   13.08480   13.08480  104.96150    0.06120    0.06120    2.56290    -999.25    0.04910    0.08610    9.52730   72.79860   72.79860   69.21960   77.10280   69.21960    9.52730   10.54770   14.76280   10.54770    -999.25    0.21180    0.16820    2.56290    -999.25  -53.12160   -8.19410   14.76280
 2950.00000   14.64930   13.11450   13.11450   35.08810    0.06910    0.06910    2.56700    -999.25    0.04890    0.08360   28.49970   72.99880   72.99880   54.22700   58.50510   54.22700   28.49970   24.06620   22.68990   24.06620    -999.25    0.19040    0.14710    2.56700    -999.25  -60.73380  -15.61240   22.68990
 3000.00000   17.00350   12.84780   12.84780  309.77970   -0.00010   -0.00010    2.00920    -999.25    0.40650    0.40980    3.22810   93.11400   93.11400   81.46180   92.47350   81.46180    3.22810    3.02520    4.77220    3.02520    -999.25    0.41810    0.37560    2.00920    -999.25  -51.22080   -5.90670    4.77220
 3050.00000   15.47350   13.00270   13.00270  171.21720    0.11160    0.11160    1.99360    -999.25    0.39630    0.41890    5.84850   99.65940   99.65940   70.89090   82.92750   70.89090    5.84850    6.40910    7.92440    6.40910    -999.25    0.41470    0.37210    1.99360    -999.25  -51.47600   -5.96960    7.92440
 3100.00000   15.57210   13.03440   13.03440  143.56060    0.08340    0.08340    1.92980    -999.25    0.42750    0.45630    6.96570   85.25520   85.25520   79.32680   79.72060   79.32680    6.96570    6.39020    7.02320    6.39020    -999.25    0.30670    0.26270    1.92980    -999.25  -52.74800   -7.10890    7.02320
 3150.00000   15.42880   12.99470   12.99470  109.47030    0.01450    0.01450    2.24740    -999.25    0.25080    0.27050    9.13490   83.94020   83.94020   87.60940   99.06220   87.60940    9.13490    9.33050   10.25680    9.33050    -999.25    0.34010    0.29640    2.24740    -999.25  -53.80720   -8.06480   10.25680
 3200.00000   14.48070   13.13310   13.13310   40.42000    0.07350    0.07350    2.55360    -999.25    0.05840    0.09150   24.74020   72.17480   72.17480   39.30840   39.92730   39.30840   24.74020   24.04600   23.30030   24.04600    -999.25    0.19370    0.15040    2.55360    -999.25  -72.33450  -26.48830   23.30030
 3250.00000   15.80900   13.14760   13.14760  166.78620    0.03190    0.03190    2.34910    -999.25    0.17710    0.21110    5.99570   85.28080   85.28080   67.75440   74.31420   67.75440    5.99570    5.69610    7.08140    5.69610    -999.25    0.35630    0.31270    2.34910    -999.25  -52.66700   -6.71750    7.08140
 3300.00000   15.59570   12.80280   12.80280  162.88250    0.04060    0.04060    2.39020    -999.25    0.15630    0.18700    6.14070   92.47640   92.47640   66.22430   74.49730   66.22430    6.14070    6.37820    6.66950    6.37820    -999.25    0.37270    0.32940    2.39020    -999.25  -51.18460   -5.13200    6.66950
 3350.00000   16.48890   13.00470   13.00470  328.83920   -0.04420   -0.04420    1.66760    -999.25    0.56480    0.60960    3.04100  125.20930  125.20930   65.80570   72.12120   65.80570    3.04100    2.80710    4.41920    2.80710    -999.25    0.48670    0.44630    1.66760    -999.25  -49.86050   -3.70400    4.41920
 3400.00000   14.42530   13.01640   13.01640  129.04720    0.13560    0.13560    2.07970    -999.25    0.34270    0.36860    7.74910   84.76410   84.76410   61.84590   63.29840   61.84590    7.74910    8.01120    8.19200    8.01120    -999.25    0.34450    0.30080    2.07970    -999.25  -49.68680   -3.42700    8.19200
 3450.00000   14.03360   13.09570   13.09570  166.90590    0.02150    0.02150    1.98690    -999.25    0.39370    0.42290    5.99140   85.97660   85.97660   61.71590   62.93780   61.71590    5.99140    6.42180    7.30220    6.42180    -999.25    0.37990    0.33670    1.98690    -999.25  -48.82650   -2.46280    7.30220
 3500.00000   12.75310   12.65320   12.65320  111.69810    0.06930    0.06930    2.49220    -999.25    0.09500    0.12740    8.95270   78.11840   78.11840   64.86800   76.73120   64.86800    8.95270    9.46850   10.76170    9.46850    -999.25    0.30610    0.26210    2.49220    -999.25  -50.21090   -3.74400   10.76170
 3550.00000   13.14430   12.85810   12.85810  114.49950    0.04970    0.04970    2.46580    -999.25    0.12400    0.14280    8.73380   85.51580   85.51580   77.25220   86.58450   77.25220    8.73380    9.19360   15.01920    9.19360    -999.25    0.35870    0.31520    2.46580    -999.25  -51.20760   -4.63760   15.01920
 3600.00000   13.13160   12.92700   12.92700  164.04200    0.04620    0.04620    2.47560    -999.25    0.10680    0.13710    6.09600   86.18890   86.18890   80.92460   84.65150   80.92460    6.09600    6.44750    7.58630    6.44750    -999.25    0.32600    0.28210    2.47560    -999.25  -52.23370   -5.55980    7.58630
 3650.00000   13.11350   12.83610   12.83610  140.42770    0.06490    0.06490    2.54500    -999.25    0.06800    0.09650    7.12110   78.70920   78.70920   75.53820   79.78720   75.53820    7.12110    7.70930    9.16530    7.70930    -999.25    0.27700    0.23300    2.54500    -999.25  -53.33970   -6.56260    9.16530
 3700.00000   12.72880   12.56590   12.56590   21.64180    0.08390    0.08390    2.54390    -999.25    0.05760    0.09710   46.20690   61.70760   61.70760   35.58010   39.12240   35.58010   46.20690   40.81970   41.06620   40.81970    -999.25    0.20830    0.16480    2.54390    -999.25  -60.22720  -13.34610   41.06620
 3750.00000   12.66580   12.86690   12.86690  124.61060    0.03530    0.03530    2.46460    -999.25    0.11410    0.14350    8.02500   76.75990   76.75990   67.01450   94.54090   67.01450    8.02500    8.75650   13.24340    8.75650    -999.25    0.38860    0.34550    2.46460    -999.25  -53.73660   -6.75230   13.24340
 3800.00000   12.81520   12.87500   12.87500   51.46680    0.04690    0.04690    2.41720    -999.25    0.14600    0.17120   19.45310   73.78090   73.78090   53.55490   60.97220   53.55490   19.45310   20.05360   19.95830   20.05360    -999.25    0.31190    0.26800    2.41720    -999.25  -55.40820   -8.32090   19.95830
