~Version ---------------------------------------------------
VERS. 2.0 : CWLS log ASCII Standard -VERSION 2.0
WRAP.  NO : ONE LINE PER DEPTH STEP
~Well ------------------------------------------------------
STRT.F                                   347.3 : START DEPTH
STOP.F                                  9458.8 : STOP DEPTH
STEP.F                                 0.50000 : STEP LENGTH
NULL.                                  -999.25 : NULL VALUE
COMP. THE BRITISH AMERICAN OIL COMPANY LIMITED : COMPANY
WELL.              B.A. GOOSE RIVER 4-32-66-18 : WELL
FLD .                                          : FIELD
LOC .                                          : LOCATION
CTRY.                                   CANADA : COUNTRY
SRVC.                             Schlumberger : SERVICE COMPANY
DATE.                              02-Dec-1964 : LOGDATE
PROV.                                  Alberta : PROVINCE
UWI .                         100043206618W500 : UNIQUE WELL ID
SLAT.WGS84                            54.75185 : SURFACE LATITUDE
SLON.WGS84                           -116.6939 : SURFACE LONGITUDE
~Curve Information -----------------------------------------
DEPT.F    0   1   0  0 : 1 MEASURED DEPTH
GRN .GAPI 35 310 01 00 : GAMMA RAY FROM GRN LOG
NEUT.NAPI 35 330 01 00 : NEUTRON
GR  .GAPI 30 310 00 00 : GAMMA RAY
CILD.MMHO 05 110 46 00 : INDUCTION DEEP CONDUCTIVITY
ILD .OHMM 05 120 46 00 : INDUCTION DEEP RESISTIVITY
SN  .OHMM 05 040 16 00 : SHORT NORMAL RESISTIVITY
SPR .MV   05 010 01 00 : SPONTANEOUS POTENTIAL FROM RESISTIVITY LOG
GRS .GAPI 60 310 01 00 : GAMMA RAY FROM SONIC LOG
DT  .US/F 60 500 00 00 : DELTA-T (INTERVAL TRANSIT TIME)
CALS.IN   60 280 50 00 : CALIPER FROM SONIC LOG
DT_1.US/F 60 500 31 00 : DELTA-T (INTERVAL TRANSIT TIME)
~Params ----------------------------------------------------
PD  .                     GL : PERMANENT DATUM
EPD .FT                 2485 : ELEVATION PERMANENT DATUM
LMF .                     KB : LOG MEASURED FROM
DAPD.FT                   15 : FEET ABOVE PERMANENT DATUM
EKB .FT                 2500 : KELLY BUSHING
EGL .FT                 2485 : GROUND LEVEL
DATE.               12/02/64 : RUN DATE
RUN .                      1 : RUN NUMBER
DD  .FT                 9461 : DEPTH DRILLER
DL  .FT                 9460 : DEPTH LOGGER
BLI .FT                 9459 : BOTTOM LOG INTERVAL
TLI .FT                  781 : TOP LOG INTERVAL
CBD .FT                  784 : CASING BOTTOM DRILLER
CBL .FT                  781 : CASING BOTTOM LOGGER
BS  .IN                7.625 : BIT SIZE
BSD .FT                 9461 : BIT SIZE AT DEPTH
DFT .               GEL CHEM : DRILLING FLUID TYPE
DFD .                    9.8 : DRILLING FLUID DENSITY
DFV .                     95 : DRILLING FLUID VISCOSITY
DFPH.                    9.5 : DRILLING FLUID PH
DFL .                    7.4 : DRILLING FLUID LOSS
RMS .OHMM               2.38 : RESISTIVITY MUD SAMPLE
MST .DEGF                 64 : MUD SAMPLE TEMPERATURE
RMF .OHMM                2.1 : RESISTIVITY MUD FILTRATE SAMPLE
MFST.DEGF                 66 : MUD FILTRATE SAMPLE TEMPERATURE
RMC .OHMM               2.32 : RESISTIVITY MUD CAKE
MCST.DEGF                 66 : MUD CAKE SAMPLE TEMPERATURE
RMB .OHMM               0.84 : RESISTIVITY MUD AT BHT
TCS .HRS                   6 : TIME CIRCULATED STOPPED
LUN .                   3534 : LOGGING UNIT NUMBER
LUL .                    V V : LOGGING UNIT LOCATION
ENGI.               CHENOSKY : RECORDING ENGINEER
WITN.                  WEISS : WITNESSED BY
CLNT.                A2DTECH : CLIENT CODE
ORIG.            2" 5" PRINT : ORIGIN OF DATA
UWI .       100043206618W500 : UNIQUE WELL ID
DICO. A2D Technologies, Inc. : DIGITIZING COMPANY
~Other -----------------------------------------------------
~ASCII -----------------------------------------------------
# ...
 1353.80000    -999.25    -999.25    -999.25  225.87660    4.20470    3.89680  -38.03090   57.76230  132.90860   10.86790    -999.25
 1354.30000    -999.25    -999.25    -999.25  222.46630    4.17880    4.01700  -38.17440   54.77770  126.30880   10.84260    -999.25
 1354.80000    -999.25    -999.25    -999.25  217.49730    4.28150    4.13720  -38.29610   54.44690  126.31540   11.49270    -999.25
 1355.30000    -999.25    -999.25    -999.25  212.83830    4.43600    4.25740  -38.08460   55.42390  124.35760   11.43740    -999.25
 1355.80000    -999.25    -999.25    -999.25  209.68830    4.59050    4.37760  -38.10690   58.74550  118.40650   10.27940    -999.25
 1356.30000    -999.25    -999.25    -999.25  205.64360    4.74500    4.49790  -38.11750   60.53050  113.37210   10.11990    -999.25
 1356.80000    -999.25    -999.25    -999.25  197.73230    4.90310    4.61810  -37.76810   57.44990  108.63510   11.15660    -999.25
 1357.30000    -999.25    -999.25    -999.25  184.09590    5.35030    4.73830  -37.74720   54.38540  106.60020   11.59280    -999.25
 1357.80000    -999.25    -999.25    -999.25  170.47770    5.79760    5.03320  -37.65060   56.13820  107.32600   11.65260    -999.25
 1358.30000    -999.25    -999.25    -999.25  159.42440    6.24490    5.48140  -37.94520   61.28140  110.15820   10.88240    -999.25
 1358.80000    -999.25    -999.25    -999.25  148.53330    6.69220    5.92970  -38.55530   59.62060  111.91290   10.38060    -999.25
 1359.30000    -999.25    -999.25    -999.25  138.91460    7.28570    6.37800  -39.10480   56.73720  113.19960   10.45010    -999.25
 1359.80000    -999.25    -999.25    -999.25  125.12160    8.16740    6.82630  -39.76780   58.03780  111.38870   10.88400    -999.25
 1360.30000    -999.25    -999.25    -999.25  112.84680    9.03610    7.30710  -41.55530   59.62110  110.54360   11.01630    -999.25
 1360.80000    -999.25    -999.25    -999.25  101.05850    9.97400    7.74960  -43.04380   60.70060  110.12440   10.12710    -999.25
 1361.30000    -999.25    -999.25    -999.25   93.90410   10.68780    8.12290  -44.78640   60.74510  109.06560    8.98330    -999.25
 1361.80000    -999.25    -999.25    -999.25   87.88080   11.18170    8.54280  -47.16890   56.34950  106.81080    8.55430    -999.25
 1362.30000    -999.25    -999.25    -999.25   84.61050   11.62350    8.94070  -48.41910   52.15700  105.37900    8.53820    -999.25
 1362.80000    -999.25    -999.25    -999.25   82.62480   11.92220    9.29100  -48.52270   51.95670  105.62090    8.50300    -999.25
 1363.30000    -999.25    -999.25    -999.25   81.01320   12.14800    9.59040  -48.79590   54.03200  107.74670    8.36180    -999.25
 1363.80000    -999.25    -999.25    -999.25   79.69840   12.38150    9.85750  -48.88280   54.97100  109.87220    8.22880    -999.25
 1364.30000    -999.25    -999.25    -999.25   78.09900   12.60240   10.20570  -48.59120   55.79500  112.39560    8.20130    -999.25
 1364.80000    -999.25    -999.25    -999.25   76.54580   12.77350   10.49760  -48.84770   54.01510  114.88110    8.20530    -999.25
 1365.30000    -999.25    -999.25    -999.25   74.38980   13.44710   10.84290  -49.15060   51.41820  115.52160    8.21790    -999.25
 1365.80000    -999.25    -999.25    -999.25   72.22410   13.85580   11.05780  -49.46920   50.70950  116.16290    8.21580    -999.25
 1366.30000    -999.25    -999.25    -999.25   70.07090   14.21030   11.31680  -49.43410   52.17370  116.31320    8.19300    -999.25
 1366.80000    -999.25    -999.25    -999.25   69.23730   14.31720   11.58490  -49.24600   49.98740  116.42610    8.14760    -999.25
 1367.30000    -999.25    -999.25    -999.25   69.18610   14.26740   11.84530  -48.79840   50.48770  116.58080    8.10230    -999.25
 1367.80000    -999.25    -999.25    -999.25   69.11920   14.22950   12.07890  -48.47830   51.48580  115.91850    8.09400    -999.25
 1368.30000    -999.25    -999.25    -999.25   69.13220   14.29720   12.15850  -48.29390   52.83960  115.64150    8.10680    -999.25
 1368.80000    -999.25    -999.25    -999.25   68.76720   14.52160   12.21760  -48.28380   54.33800  116.73840    8.13720    -999.25
 1369.30000    -999.25    -999.25    -999.25   68.46750   14.55730   12.21210  -48.27380   52.91150  117.05650    8.16750    -999.25
 1369.80000    -999.25    -999.25    -999.25   68.51020   14.22130   12.14280  -48.22260   50.97950  116.60840    8.19780    -999.25
 1370.30000    -999.25    -999.25    -999.25   70.34960   13.73200   12.03380  -48.22190   50.77590  116.92950    8.22360    -999.25
 1370.80000    -999.25    -999.25    -999.25   73.61670   13.12040   11.92480  -48.36800   50.95450  116.84120    8.12870    -999.25
 1371.30000    -999.25    -999.25    -999.25   76.96320   12.63630   11.81580  -48.57470   47.57130  115.45630    7.98340    -999.25
 1371.80000    -999.25    -999.25    -999.25   78.57440   12.48610   11.70680  -49.03410   48.55180  113.85320    7.85000    -999.25
 1372.30000    -999.25    -999.25    -999.25   78.84240   12.46990   11.59780  -49.62720   49.88870  112.73160    7.85000    -999.25
 1372.80000    -999.25    -999.25    -999.25   78.80410   12.48580   11.48880  -49.72920   50.53580  112.28970    7.81020    -999.25
 1373.30000    -999.25    -999.25    -999.25   78.17110   12.50170   11.44490  -49.45530   50.52220  112.53080    7.58730    -999.25
 1373.80000    -999.25    -999.25    -999.25   77.92510   12.51760   11.47580  -49.15830   50.20090  112.99890    7.74240    -999.25
 1374.30000    -999.25    -999.25    -999.25   78.10670   12.52440   11.50220  -48.86280   49.67370  113.64430    8.06350    -999.25
 1374.80000    -999.25    -999.25    -999.25   77.93560   12.62230   11.52510  -48.34990   46.23150  114.04040    8.23100    -999.25
 1375.30000    -999.25    -999.25    -999.25   76.81200   12.88630   11.58130  -48.46890   44.63800  114.10360    8.27020    -999.25
 1375.80000    -999.25    -999.25    -999.25   75.57320   13.11430   11.73400  -49.48900   45.80390  114.88530    8.27040    -999.25
 1376.30000    -999.25    -999.25    -999.25   74.29540   13.30140   11.89360  -49.94690   45.96000  116.08420    8.27010    -999.25
 1376.80000    -999.25    -999.25    -999.25   73.45110   13.42070   11.96040  -50.29120   46.45450  115.98810    8.27860    -999.25
 1377.30000    -999.25    -999.25    -999.25   72.79040   13.56220   11.98360  -50.43120   46.50450  116.18190    8.27910    -999.25
 1377.80000    -999.25    -999.25    -999.25   72.15340   13.69030   12.03670  -50.24020   45.90000  117.10210    8.27070    -999.25
 1378.30000    -999.25    -999.25    -999.25   72.27880   13.64100   12.09100  -50.25220   46.88380  117.86660    8.31040    -999.25
 1378.80000    -999.25    -999.25    -999.25   72.52540   13.50600   12.11100  -50.26410   47.52740  117.28790    8.33880    -999.25
 1379.30000    -999.25    -999.25    -999.25   73.34870   13.30970   12.10880  -50.27610   46.35910  116.86560    8.38310    -999.25
 1379.80000    -999.25    -999.25    -999.25   74.24800   13.19960   12.07730  -50.07730   44.86270  116.80130    8.37570    -999.25
 1380.30000    -999.25    -999.25    -999.25   74.39090   13.08670   11.92500  -49.63110   43.27290  116.68910    8.34120    -999.25
 1380.80000    -999.25    -999.25    -999.25   75.13660   12.94470   11.92350  -49.29330   43.90610  116.79700    8.31660    -999.25
 1381.30000    -999.25    -999.25    -999.25   76.00980   12.81610   11.81470  -48.97810   44.12060  116.80650    8.29740    -999.25
 1381.80000    -999.25    -999.25    -999.25   77.15320   12.67810   11.73930  -48.48330   39.40620  116.73830    8.27820    -999.25
 1382.30000    -999.25    -999.25    -999.25   78.42220   12.53820   11.70960  -48.27840   38.14460  116.97260    8.27260    -999.25
 1382.80000    -999.25    -999.25    -999.25   78.93040   12.42770   11.69000  -48.01990   40.31640  116.68520    8.33310    -999.25
 1383.30000    -999.25    -999.25    -999.25   79.27200   12.49160   11.78000  -47.90650   41.87190  116.42710    8.37850    -999.25
 1383.80000    -999.25    -999.25    -999.25   79.25360   12.55560   11.87320  -47.89400   43.29240  115.89200    8.37580    -999.25
