~Version ---------------------------------------------------
VERS.      2.0 : CWLS log ASCII Standard -VERSION 2.0
WRAP.       NO : One line per depth step
CREA. 07/27/17 : LAS Creation Date
~Well ------------------------------------------------------
STRT.FT                        1000.0 : START DEPTH
STOP.FT                       10600.0 : STOP DEPTH
STEP.FT                      50.00000 : STEP LENGTH
NULL.                         -999.25 : NULL VALUE
COMP.      THE CALIFORNIA STANDARD CO : COMPANY
WELL. CALSTAN EAST MEEKWAP 10-1-65-18 : WELL
FLD .                                 : FIELD
LOC .                                 : LOCATION
CTRY.                          CANADA : COUNTRY
SRVC.          Schlumberger of Canada : SERVICE COMPANY
DATE.                     17-Feb-1961 : LOGDATE
PROV.                         Alberta : PROVINCE
UWI .                100100106518W500 : UNIQUE WELL ID
SLAT.WGS84                   54.59797 : SURFACE LATITUDE
SLON.WGS84                  -116.5799 : SURFACE LONGITUDE
~Curve Information -----------------------------------------
DEPT  .FT         : Depth Curve
CALWS .IN         : CALIPER [MCALED]
CILDED.MMHO       : CONDUCTIVITY FROM RESISTIVITY LOG
CONDWS.MMHO       : CONDUCTIVITY [1000/DRESWS]
DRESWS.OHMM       : DEEP RESISTIVITY [1000/CILDED IF ILDED <1, ILDED]
DTED  .US/F       : DELTA-T FROM SONIC LOG
DTWS  .US/F       : COMPRESSIONAL SONIC [DTED]
GRSED .UgRa-Eq/T  : GAMMA RAY FROM SONIC LOG
GRWS  .GAPI       : GAMMA RAY [GRSED*16.5, CONVERTED TO GAPI]
ILDED .OHMM       : DEEP INDUCTION FROM RESISTIVITY LOG
MCALED.IN         : CALIPER FROM MICROLOG
SNED  .OHMM       : SHORT NORMAL FROM RESISTIVITY LOG
SPRED .MV         : SPONTANEOUS POTENTIAL FROM RESISTIVITY LOG
SPWS  .MV         : SPONTANEOUS POTENTIAL [BASELINE 0 MV, SPRED]
SRESWS.OHMM       : SHALLOW RESISTIVITY [SNED]
~Params ----------------------------------------------------
LMF .                     KB : LOG MEASURED FROM
DMF .                     KB : DRILLING MEASURED FROM
EKB .FT                 2634 : KELLY BUSHING
EGL .FT                 2620 : GROUND LEVEL
DATE.               02/17/61 : RUN DATE
RUN .                      2 : RUN NUMBER
DD  .FT                10617 : DEPTH DRILLER
DL  .FT                10607 : DEPTH LOGGER
BLI .FT                10606 : BOTTOM LOG INTERVAL
TLI .FT                 5200 : TOP LOG INTERVAL
CBD .FT                 1008 : CASING BOTTOM DRILLER
CBL .FT                 1009 : CASING BOTTOM LOGGER
BS  .IN                    9 : BIT SIZE
BSD .FT                10617 : BIT SIZE AT DEPTH
DFT .                    GEL : DRILLING FLUID TYPE
DFD .                   10.6 : DRILLING FLUID DENSITY
DFV .                     90 : DRILLING FLUID VISCOSITY
DFPH.                    9.5 : DRILLING FLUID PH
DFL .                    8.8 : DRILLING FLUID LOSS
RMS .OHMM               4.45 : RESISTIVITY MUD SAMPLE
MST .DEGF                 66 : MUD SAMPLE TEMPERATURE
RMF .OHMM                3.6 : RESISTIVITY MUD FILTRATE SAMPLE
MFST.DEGF                 67 : MUD FILTRATE SAMPLE TEMPERATURE
RMC .OHMM                2.3 : RESISTIVITY MUD CAKE
MCST.DEGF                 81 : MUD CAKE SAMPLE TEMPERATURE
RMB .OHMM               2.13 : RESISTIVITY MUD AT BHT
TCS .HRS                 5.5 : TIME CIRCULATED STOPPED
LUN .                   2549 : LOGGING UNIT NUMBER
LUL .                     SH : LOGGING UNIT LOCATION
ENGI.             ARMBRUSTER : RECORDING ENGINEER
WITN.                 MCDADE : WITNESSED BY
CLNT.                A2DTECH : CLIENT CODE
ORIG.            2" 5" PRINT : ORIGIN OF DATA
UWI .       100100106518W500 : UNIQUE WELL ID
DICO. A2D Technologies, Inc. : DIGITIZING COMPANY
~Other -----------------------------------------------------
~ASCII -----------------------------------------------------
# ...
 5900.00000    8.60080   31.61400   25.72500   39.38800   53.74790   53.74790    3.42760   56.55540   39.38800    8.60080   61.26010 -424.39200 -120.25620   61.26010
 5950.00000    9.14350   25.30240   21.29550   46.95830   58.51030   58.51030    3.40660   56.20890   46.95830    9.14350   50.49340 -386.46450  -87.65160   50.49340
 6000.00000    9.66280   10.78840    9.64990  103.62840   50.38600   50.38600    2.35870   38.91850  103.62840    9.66280  126.62650 -386.94450  -93.41970  126.62650
 6050.00000    8.67080  389.68380  274.13440    3.65680   57.90780   57.90780    3.49700   57.70050    3.65680    8.67080   18.63660 -469.63000 -181.39330   18.63660
 6100.00000    9.20400   52.70510   46.41250   21.54590   57.39310   57.39310    3.48050   57.42830   21.54590    9.20400   34.61240 -358.29950  -75.38560   34.61240
 6150.00000    9.22020   16.43740   13.97810   71.54030   52.45850   52.45850    2.04500   33.74250   71.54030    9.22020   79.17850 -303.39550  -25.76970   79.17850
 6200.00000    9.74680   38.19650   32.56510   30.70770   56.26530   56.26530    2.09970   34.64500   30.70770    9.74680  111.16550 -328.30580  -53.18470  111.16550
 6250.00000    8.67040   60.77720   52.42710   19.07410   52.27270   52.27270    2.29230   37.82290   19.07410    8.67040   79.14660 -348.28930  -74.29740   79.14660
 6300.00000    9.22640   20.00020   17.65820   56.68580   52.98760   52.98760    2.48730   41.04050   56.68580    9.22640  119.24780 -389.84300 -116.98030  119.24780
 6350.00000    9.78010  306.77570  232.50410    4.30100   70.02280   70.02280    5.11260   84.35790    4.30100    9.78010    6.39960 -401.21710 -129.49110    6.39960
 6400.00000    9.03270   97.83070   84.68720   11.83310   64.71620   64.71620    4.59170   75.76310   11.83310    9.03270   14.50530 -423.28460 -152.68780   14.50530
 6450.00000   10.81630  127.70740  109.99290    9.09150   60.06070   60.06070    3.37290   55.65290    9.09150   10.81630   18.14750 -481.67980 -212.21960   18.14750
 6500.00000   10.08450   56.61710   49.33960   20.26770   63.60370   63.60370    4.24480   70.03920   20.26770   10.08450   20.29680 -393.20610 -124.87510   20.29680
 6550.00000    9.62810   19.88080   16.41260   61.10130   57.37220   57.37220    2.22100   36.64650   61.10130    9.62810   86.12020 -385.52340 -118.32160   86.12020
 6600.00000    8.87570    5.99260    5.28440  189.23470   55.52790   55.52790    2.30880   38.09520  189.23470    8.87570  111.28710 -296.68590  -30.62080  111.28710
 6650.00000    8.84010   13.71680   10.88920   91.84740   56.87320   56.87320    3.03890   50.14180   91.84740    8.84010   74.92950 -269.81090   -3.76360   74.92950
 6700.00000    8.75030    6.39630    5.84210  171.17120   54.83850   54.83850    2.47260   40.79790  171.17120    8.75030  121.49410 -332.69260  -64.17120  121.49410
 6750.00000    8.71170    6.23810    3.66680  272.71630   55.82760   55.82760    2.77890   45.85180  272.71630    8.71170  193.49050 -357.26830  -86.03820  193.49050
 6800.00000    8.80300    7.44120    5.91010  169.20220   58.04850   58.04850    2.92660   48.28890  169.20220    8.80300  119.73810 -354.31210  -80.37330  119.73810
 6850.00000    8.84460    9.96830    6.93490  144.19830   57.81810   57.81810    3.43050   56.60320  144.19830    8.84460  105.31100 -398.35980 -121.69450  105.31100
 6900.00000    8.60040   12.94630   10.38960   96.26870   58.84180   58.84180    3.91120   64.53480   96.26870    8.60040   75.74190 -444.80110 -165.42700   75.74190
 6950.00000    8.78860   54.16830   43.64730   22.91090   61.85020   61.85020    4.99210   82.36960   22.91090    8.78860   33.08760 -475.69890 -193.59830   33.08760
 7000.00000    8.80200    5.46180    3.23430  309.18740   53.40600   53.40600    2.51170   41.44300  309.18740    8.80200  183.00030 -424.59190 -139.78260  183.00030
 7050.00000    8.83220    2.01790    2.99150  339.99560   52.19750   52.19750    2.02960   33.48840  339.99560    8.83220  183.86910 -411.60150 -124.08350  183.86910
 7100.00000    8.84560    1.32230    1.99280  501.81260   52.27990   52.27990    2.42150   39.95470  501.81260    8.84560  234.11350 -348.83720  -58.59270  234.11350
 7150.00000    9.97640    2.76910    3.11070  321.56690   52.03360   52.03360    2.11250   34.85620  321.56690    9.97640  191.90220 -362.47620  -69.52300  191.90220
 7200.00000    9.18520    1.37640    3.09290  323.32220   50.78730   50.78730    2.14490   35.39090  323.32220    9.18520  184.09480 -322.26350  -26.58380  184.09480
 7250.00000   10.28290    1.09680    2.00300  499.24390   51.05490   51.05490    1.99970   32.99500  499.24390   10.28290  208.15720 -306.33250   -8.13840  208.15720
 7300.00000    8.42980   14.07070   12.77490   78.34050   53.43150   53.43150    2.06150   34.01470   78.34050    8.42980  146.15820 -353.27130  -53.38720  146.15820
 7350.00000    9.04910   18.07850   14.32380   69.81400   52.11220   52.11220    2.16800   35.77200   69.81400    9.04910  143.97030 -383.34540  -81.76010  143.97030
 7400.00000    8.81290    6.20790    6.32170  158.30730   52.26240   52.26240    1.95400   32.24100  158.30730    8.81290  138.83610 -415.13360 -111.85830  138.83610
 7450.00000    9.15370    7.23090    6.17590  161.91920   50.87240   50.87240    1.95220   32.21130  161.91920    9.15370  124.62710 -470.30500 -165.32860  124.62710
 7500.00000    9.41940    2.58000    2.00000  500.00400   49.46360   49.46360    2.04360   33.71940  500.00400    9.41940  199.65830 -490.43240 -183.76600  199.65830
 7550.00000    9.18250    2.74180    2.61940  382.05140   49.56300   49.56300    1.94310   32.06110  382.05140    9.18250  171.22620 -484.57570 -176.21930  171.22620
 7600.00000    8.09820   32.50670   27.30930   36.61750   51.35940   51.35940    1.96570   32.43400   36.61750    8.09820  124.10800 -506.67480 -196.61720  124.10800
 7650.00000    7.84420   40.94760   35.26810   28.36530   52.67380   52.67380    2.40780   39.72870   28.36530    7.84420  113.13510 -428.91050 -117.16290  113.13510
 7700.00000    7.94220   32.34520   27.53180   36.32170   49.80350   49.80350    2.15000   35.47500   36.32170    7.94220  102.81920 -432.73240 -119.28370  102.81920
 7750.00000    8.43410    7.23210    6.00790  166.44840   49.17960   49.17960    1.97460   32.58090  166.44840    8.43410  187.09460 -456.56820 -141.42940  187.09460
 7800.00000    8.01150   13.93210   11.53910   86.66840   53.28610   53.28610    2.42440   40.00260   86.66840    8.01150  133.10340 -489.58030 -172.75150  133.10340
 7850.00000   10.37940    8.89920    5.90710  169.28830   49.35950   49.35950    2.28180   37.64970  169.28830   10.37940   97.07380 -485.98390 -167.45400   97.07380
 7900.00000    8.60390    7.03470    6.57600  153.29280   52.65760   52.65760    2.31300   38.16450  153.29280    8.60390  113.23000 -389.90490  -69.68500  113.23000
 7950.00000    8.77400    8.69690    7.92790  126.13690   53.97630   53.97630    2.82770   46.65700  126.13690    8.77400   94.95740 -338.82960  -16.90850   94.95740
 8000.00000    9.11630   39.37400   32.58850   30.68570   56.82280   56.82280    2.99170   49.36300   30.68570    9.11630   28.79160 -330.00090  -10.71970   28.79160
 8050.00000    8.88080   20.96680   17.96270   56.25530   56.76910   56.76910    2.62370   43.29100   56.25530    8.88080   50.70790 -364.59160  -55.36170   50.70790
 8100.00000    9.15510    2.97770    2.08480  479.65790   57.04160   57.04160    1.78610   29.47060  479.65790    9.15510  329.32790 -396.42250  -97.25650  329.32790
 8150.00000    9.07230   68.88460   61.14230   16.35550   63.93630   63.93630    3.70330   61.10450   16.35550    9.07230   21.82480 -360.86230  -71.69450   21.82480
 8200.00000   10.36530  120.94010  104.74060    9.54740   74.79000   74.79000    4.94260   81.55290    9.54740   10.36530   12.55430 -365.33420  -86.23030   12.55430
 8250.00000    8.89880   99.11230   88.44470   11.30650   68.23850   68.23850    4.51900   74.56350   11.30650    8.89880   13.63000 -364.44310  -95.33740   13.63000
 8300.00000    9.84610  139.55400  125.46000    7.97070   71.69700   71.69700    4.28940   70.77510    7.97070    9.84610    9.66820 -350.50170  -91.39420    9.66820
