~Version ---------------------------------------------------
VERS.      2.0 : CWLS log ASCII Standard -VERSION 2.0
WRAP.       NO : One line per depth step
CREA. 11/15/17 : LAS Creation Date
~Well ------------------------------------------------------
STRT.FT                         300.0 : START DEPTH
STOP.FT                        9050.0 : STOP DEPTH
STEP.FT                      50.00000 : STEP LENGTH
NULL.                         -999.25 : NULL VALUE
COMP.      TEXACO EXPLORATION COMPANY : COMPANY
WELL. TEXACO C&E WIMBORNE 13-25-32-26 : WELL
FLD .                                 : FIELD
LOC .                                 : LOCATION
CTRY.                          CANADA : COUNTRY
SRVC.          Schlumberger of Canada : SERVICE COMPANY
DATE.                     20-Oct-1957 : LOGDATE
PROV.                         Alberta : PROVINCE
UWI .                100132503226W400 : UNIQUE WELL ID
SLAT.WGS84                   51.77784 : SURFACE LATITUDE
SLON.WGS84                  -113.5678 : SURFACE LONGITUDE
~Curve Information -----------------------------------------
DEPT  .FT         : Depth Curve
CALWS .IN         : CALIPER [MCALED]
CILDED.MMHO       : INDUCTION DEEP CONDUCTIVITY FROM RESISTIVITY LOG
CONDWS.MMHO       : CONDUCTIVITY [1000/DRESWS]
DRESWS.OHMM       : DEEP RESISTIVITY [1000/CILDED IF ILDED <5, ILDED]
GRNED .UgRa-Eq/T  : GAMMA RAY FROM GRN LOG
GRWS  .GAPI       : GAMMA RAY [GRNED*16.50]
ILDED .OHMM       : INDUCTION DEEP RESISTIVITY FROM RESISTIVITY LOG
MCALED.IN         : MLT (MICROLOG) CALIPER FROM MICROLOG
NEUTED.CPS        : NEUTRON FROM GRN LOG
NEUTWS.CPS        : NEUTRON [NEUTED]
SNED  .OHMM       : SHORT NORMAL RESISTIVITY FROM RESISTIVITY LOG
SPRED .MV         : SPONTANEOUS POTENTIAL FROM RESISTIVITY LOG
SPWS  .MV         : SPONTANEOUS POTENTIAL [SPRED]
SRESWS.OHMM       : SHALLOW RESISTIVITY [SNED]
~Params ----------------------------------------------------
LMF .                     KB : LOG MEASURED FROM
DMF .                     KB : DRILLING MEASURED FROM
EKB .FT                 3183 : KELLY BUSHING
EGL .FT                 3170 : GROUND LEVEL
DATE.               10/20/57 : RUN DATE
RUN .                      1 : RUN NUMBER
DD  .FT                 9085 : DEPTH DRILLER
DL  .FT                 9088 : DEPTH LOGGER
BLI .FT                 9083 : BOTTOM LOG INTERVAL
TLI .FT                 1204 : TOP LOG INTERVAL
CBD .FT                 1204 : CASING BOTTOM DRILLER
CBL .FT                 1204 : CASING BOTTOM LOGGER
BS  .IN                    9 : BIT SIZE
BSD .FT                 9085 : BIT SIZE AT DEPTH
DFT .               GYP BASE : DRILLING FLUID TYPE
DFD .                   10.3 : DRILLING FLUID DENSITY
DFV .                     80 : DRILLING FLUID VISCOSITY
DFPH.                      8 : DRILLING FLUID PH
DFL .                    5.6 : DRILLING FLUID LOSS
RMS .OHMM                1.3 : RESISTIVITY MUD SAMPLE
MST .DEGF                 77 : MUD SAMPLE TEMPERATURE
RMF .OHMM                0.8 : RESISTIVITY MUD FILTRATE SAMPLE
MFST.DEGF                 81 : MUD FILTRATE SAMPLE TEMPERATURE
RMC .OHMM                1.7 : RESISTIVITY MUD CAKE
MCST.DEGF                 79 : MUD CAKE SAMPLE TEMPERATURE
RMB .OHMM                0.6 : RESISTIVITY MUD AT BHT
TCS .HRS                   4 : TIME CIRCULATED STOPPED
LUN .                  15750 : LOGGING UNIT NUMBER
LUL .                     RD : LOGGING UNIT LOCATION
ENGI.                BOSWELL : RECORDING ENGINEER
WITN.                 GOTAAS : WITNESSED BY
CLNT.                A2DTECH : CLIENT CODE
ORIG.            2" 5" PRINT : ORIGIN OF DATA
UWI .       100132503226W400 : UNIQUE WELL ID
DICO. A2D Technologies, Inc. : DIGITIZING COMPANY
~Other -----------------------------------------------------
~ASCII -----------------------------------------------------
# ...
 5200.00000   10.86350  207.13240  207.13240    4.82780    6.94450  114.58430    4.50540   10.86350  173.64180  173.64180    6.05050  -70.65380   -4.61970    6.05050
 5250.00000   11.16850  172.56380  164.89950    6.06430    6.19570  102.22910    6.06430   11.16850  183.96580  183.96580   10.35880  -73.58500   -6.56780   10.35880
 5300.00000    9.30380   66.29890   67.49600   14.81570    5.93850   97.98530   14.81570    9.30380  221.90650  221.90650   17.04420  -73.13440   -5.70840   17.04420
 5350.00000    9.32420   47.12200   50.38110   19.84870    4.42610   73.03060   19.84870    9.32420  247.69990  247.69990   21.65530  -76.99440   -9.15690   21.65530
 5400.00000   11.07190  196.62590  196.62590    5.08580    6.54860  108.05190    4.72670   11.07190  181.19930  181.19930    6.38690  -70.59850   -2.35220    6.38690
 5450.00000   11.72830  493.62440  493.62440    2.02580    6.16010  101.64170    2.17600   11.72830  249.78850  249.78850    3.03560  -70.96990   -2.31220    3.03560
 5500.00000   10.11830  142.97060  147.79130    6.76630    3.64360   60.11940    6.76630   10.11830  250.18140  250.18140    8.24950  -78.04930   -9.47760    8.24950
 5550.00000    9.72990   44.12090   35.54800   28.13100    2.79190   46.06640   28.13100    9.72990  274.04560  274.04560   25.89740  -80.83360  -13.22070   25.89740
 5600.00000    9.77210   61.84490   63.77800   15.67940    3.60190   59.43140   15.67940    9.77210  213.81670  213.81670   16.99090  -77.64160  -10.99370   16.99090
 5650.00000    9.87570   62.52460   65.91050   15.17210    5.83920   96.34680   15.17210    9.87570  215.09260  215.09260   18.75180  -71.43060   -5.74150   18.75180
 5700.00000    9.88420   56.11390   59.27540   16.87040    4.10850   67.79030   16.87040    9.88420  257.40730  257.40730   18.16520  -78.03520  -17.98280   18.16520
 5750.00000    9.89140   70.32740   73.59920   13.58710    4.01090   66.17990   13.58710    9.89140  255.01840  255.01840   18.45470  -74.01900  -27.38300   18.45470
 5800.00000   10.39950   79.25920   79.69650   12.54760    6.90790  113.98040   12.54760   10.39950  185.02770  185.02770   13.20130  -43.65580   -6.03680   13.20130
 5850.00000    9.48100   17.72230   22.31800   44.80680    2.79450   46.10930   44.80680    9.48100  295.80310  295.80310   42.14900  -44.42800   -5.68060   42.14900
 5900.00000    9.18430   64.94440   69.75980   14.33490    3.26130   53.81150   14.33490    9.18430  204.51690  204.51690   18.43190  -85.38380  -45.51540   18.43190
 5950.00000    9.52850   22.80260   25.62060   39.03110    3.37390   55.66940   39.03110    9.52850  215.70890  215.70890   46.01490  -45.20020   -4.20340   46.01490
 6000.00000   10.19300   33.23450   36.86340   27.12720    3.91570   64.60900   27.12720   10.19300  203.24380  203.24380   35.33830  -57.13740  -18.83580   35.33830
 6050.00000   10.40740    4.15040    6.17770  161.87160    1.16420   19.20930  161.87160   10.40740  351.94720  351.94720  109.07120  -79.91890  -44.76140  109.07120
 6100.00000   10.13760    2.61770    4.08930  244.53770    1.37730   22.72540  244.53770   10.13760  327.91310  327.91310  102.81140  -88.35410  -56.36140  102.81140
 6150.00000    9.48020   14.00160   18.97690   52.69560    2.13940   35.30010   52.69560    9.48020  318.68450  318.68450   50.38070  -48.93130  -20.08270   50.38070
 6200.00000    9.92860   17.11220   17.43170   57.36680    4.10960   67.80840   57.36680    9.92860  284.21510  284.21510   66.12920  -30.04140   -4.35760   66.12920
 6250.00000   10.01690   12.97310   15.48130   64.59390    3.88590   64.11740   64.59390   10.01690  282.60780  282.60780   49.17960  -27.37100   -4.83130   49.17960
 6300.00000    9.84470    6.22700    9.53900  104.83280    3.08550   50.91080  104.83280    9.84470  312.07370  312.07370   58.89410  -26.74590   -5.15070   58.89410
 6350.00000    9.64490   24.79200   28.92470   34.57250    3.78130   62.39140   34.57250    9.64490  284.52450  284.52450   35.23030  -27.34370   -6.17710   35.23030
 6400.00000    9.69920   31.18190   35.43690   28.21920    3.75690   61.98880   28.21920    9.69920  268.48760  268.48760   29.79730  -26.92340   -6.18260   29.79730
 6450.00000    9.87990   49.82680   48.98480   20.41450    4.26270   70.33450   20.41450    9.87990  238.41590  238.41590   23.45530  -26.56160   -6.24940   23.45530
 6500.00000    9.84910   46.51100   48.56770   20.58980    4.34240   71.64960   20.58980    9.84910  237.47060  237.47060   24.73820  -26.50320   -6.61680   24.73820
 6550.00000    9.71440   48.41480   50.17030   19.93210    4.25110   70.14320   19.93210    9.71440  248.43420  248.43420   26.69810  -26.36550   -6.90490   26.69810
 6600.00000    9.78500   50.49330   52.17360   19.16680    4.27100   70.47150   19.16680    9.78500  259.07590  259.07590   29.32920  -26.18440   -7.15240   29.32920
 6650.00000    9.70320   48.12070   50.03750   19.98500    5.58700   92.18550   19.98500    9.70320  214.40960  214.40960   26.85320  -27.23990   -8.63370   26.85320
 6700.00000    9.67090   38.94630   43.00210   23.25470    8.27480  136.53420   23.25470    9.67090  199.08940  199.08940   31.12460  -21.69740   -3.51980   31.12460
 6750.00000    9.21530   10.00870   12.98040   77.03940    1.91180   31.54470   77.03940    9.21530  296.60410  296.60410   64.02280  -53.18980  -34.50990   64.02280
 6800.00000    9.36960    3.90920    6.59640  151.59820    1.07580   17.75070  151.59820    9.36960  363.03730  363.03730   71.58850  -34.82040  -15.44680   71.58850
 6850.00000    9.39110   19.00680   22.10320   45.24230    1.85980   30.68670   45.24230    9.39110  293.21550  293.21550   52.29180  -28.98620   -8.91430   52.29180
 6900.00000    9.80820   30.54240   33.11520   30.19760    1.52040   25.08660   30.19760    9.80820  225.97700  225.97700   41.77500  -36.40570  -15.64010   41.77500
 6950.00000    9.33840    4.29140    6.50230  153.79240    1.12520   18.56580  153.79240    9.33840  256.10700  256.10700   84.34520  -55.87970  -34.41580   84.34520
 7000.00000    9.38860    3.37360    2.24170  446.08320    1.45150   23.94980  446.08320    9.38860  289.01980  289.01980  117.34450  -41.53560  -19.37790  117.34450
 7050.00000    9.22780   41.03070   43.76650   22.84850    2.31640   38.22060   22.84850    9.22780  194.60640  194.60640   36.77610  -50.55970  -27.70830   36.77610
 7100.00000    9.23180   10.25640   13.14130   76.09570    1.53500   25.32750   76.09570    9.23180  275.02380  275.02380   92.81320  -62.55710  -39.00740   92.81320
 7150.00000    9.24880    3.06710    3.67010  272.47550    1.68280   27.76620  272.47550    9.24880  332.54780  332.54780  118.47970  -61.79370  -37.55030  118.47970
 7200.00000    9.28930    1.85700    5.16020  193.79140    0.92720   15.29880  193.79140    9.28930  300.10880  300.10880  129.05990  -61.63710  -36.69540  129.05990
 7250.00000    9.34540    3.25060    2.30060  434.66080    1.13910   18.79520  434.66080    9.34540  337.18060  337.18060  115.15690  -56.57520  -30.93970  115.15690
 7300.00000    9.30350    1.51060    2.33860  427.60800    0.86630   14.29390  427.60800    9.30350  350.34220  350.34220  141.09960  -57.35390  -31.02470  141.09960
 7350.00000    9.27230    0.60480    3.01930  331.20090    1.43630   23.69900  331.20090    9.27230  314.59440  314.59440  133.11110  -79.19770  -52.17020  133.11110
 7400.00000    9.16000    2.13350    2.09750  476.76480    2.01030   33.17000  476.76480    9.16000  308.90810  308.90810  155.29740 -118.00820  -90.28700  155.29740
 7450.00000    9.18970    1.52010    2.70080  370.25790    1.22270   20.17460  370.25790    9.18970  288.26170  288.26170  144.84260 -160.73970 -132.32020  144.84260
 7500.00000    9.12730    8.02560    9.23960  108.22960    1.05420   17.39430  108.22960    9.12730  288.17560  288.17560   98.83730 -173.58330 -144.47000   98.83730
 7550.00000    9.17160    9.39870   13.27970   75.30310    2.95580   48.77070   75.30310    9.17160  257.49460  257.49460   64.30410 -119.03830  -89.23130   64.30410
 7600.00000    9.18760    7.53750   10.76510   92.89250    4.87840   80.49360   92.89250    9.18760  256.11280  256.11280   60.85870 -108.42980  -77.92450   60.85870
