~Version ---------------------------------------------------
VERS.      2.0 : CWLS log ASCII Standard -VERSION 2.0
WRAP.       NO : One line per depth step
CREA. 10/15/14 : LAS Creation Date
~Well ------------------------------------------------------
STRT.M                       300.0 : START DEPTH
STOP.M                      3850.0 : STOP DEPTH
STEP.M                    50.00000 : STEP LENGTH
NULL.                      -999.25 : NULL VALUE
COMP.                   SUNCOR INC : COMPANY
WELL. SUNCOR PINE CREEK 10-1-56-19 : WELL
FLD .                              : FIELD
LOC .                              : LOCATION
CTRY.                       CANADA : COUNTRY
SRVC.                 Schlumberger : SERVICE COMPANY
DATE.                  11-Sep-1992 : LOGDATE
PROV.                      Alberta : PROVINCE
UWI .             100100105619W500 : UNIQUE WELL ID
SLAT.WGS84                53.81139 : SURFACE LATITUDE
SLON.WGS84               -116.6829 : SURFACE LONGITUDE
~Curve Information -----------------------------------------
DEPT    .M      : Depth Curve
CAL2DED .MM     : CALIPER FROM DENSITY LOG
CALD1ED .MM     : CALIPER FROM DENSITY LOG
CALD2ED .MM     : CALIPER FROM DENSITY LOG
CALDED  .MM     : CALIPER FROM DENSITY LOG
CALWS   .MM     : CALIPER [CALD1ED SPL. TO CAL2DED @ 3631 M]
CONDWS  .MMHO   : CONDUCTIVITY [1000/DRESWS]
DCORWS  .KG/M3  : DENSITY CORRECTION [DRHOED]
DENWS   .KG/M3  : FORMATION BULK DENSITY [CALC. FROM DPOLSWS, M=2710, F=1000]
DPHILSED.V/V    : DENSITY POROSITY [M=2710, F=1000] FROM DENSITY LOG
DPHISSED.V/V    : DENSITY POROSITY [M=2650, F=1000] FROM DENSITY LOG
DPOLSWS .V/V    : DENSITY POROSITY [DPHISSED CONVERT TO LIMESTONE, M=2710, F=1000 & SPL. TO DPHILSED @ 2614M]
DRESWS  .OHMM   : DEEP RESISTIVITY [IDPHED]
DRHOED  .KG/M3  : DENSITY CORRECTION FROM DENSITY LOG
DTED    .US/M   : DELTA TIME FROM SONIC LOG [ADJ. TO RESISTIVITY LOG]
DTWS    .US/M   : COMPRESSIONAL SONIC [DTED]
ENPHLSED.V/V    : EPITHERMAL NEUTRON POROSITY LIMESTONE FROM DENSITY LOG
ENPHSSED.V/V    : EPITHERMAL NEUTRON POROSITY SANDSTONE FROM DENSITY LOG
GRDED   .GAPI   : GAMMA RAY FROM DENSITY LOG
GRED    .GAPI   : GAMMA RAY FROM CBL LOG [ADJ. TO RESISTIVITY LOG]
GRNED   .GAPI   : GAMMA RAY FROM CNL LOG [ADJ. TO RESISTIVITY LOG]
GRRED   .GAPI   : GAMMA RAY FROM RESISTIVITY LOG
GRSED   .GAPI   : GAMMA RAY FROM SONIC LOG [ADJ. TO RESISTIVITY LOG]
GRWS    .GAPI   : GAMMA RAY [GRED SPL. TO GRSED @ 84 M]
HDED    .MM     : HORIZONTAL HOLE DIAMETER FROM SONIC LOG
IDPHED  .OHMM   : DEEP INDUCTION PHASOR RESISTIVITY FROM RESISTIVITY LOG
IMPHED  .OHMM   : MEDIUM INDUCTION PHASOR RESISTIVITY FROM RESISTIVITY LOG
MRESWS  .OHMM   : MEDIUM RESISTIVITY [IMPHED]
NPHILSED.V/V    : NEUTRON POROSITY  SANDSTONE FROM CNL LOG [ADJ. TO RESISTIVITY LOG]
NPOLSWS .V/V    : NEUTRON POROSITY LIMESTONE [NPORSSED CONVERT TO LIMESTONE & SPL. TO NPORLSED @ 2614 M & NPHILSED BELOOW 3612 M]
NPORLSED.V/V    : NEUTRON POROSITY LIMESTONE FROM DENSITY LOG
NPORSSED.V/V    : NEUTRON POROSITY SANDSTONE FROM DENSITY LOG
PEFED   .B/E    : PHOTOELECTRIC FACTOR FROM DENSITY LOG
PEFWS   .B/E    : PHOTOELECTRIC FACTOR [PEFED]
RHOBED  .KG/M3  : BULK DENSITY FROM DENSITY LOG
SFLUED  .OHMM   : SHALLOW FOCUS RESISTIVITY FROM RESISTIVITY LOG
SPRED   .MV     : SPONTANEOUS POTENTIAL FROM RESISTIVITY LOG
SPWS    .MV     : SPONTANEOUS POTENTIAL [BASELINE TO 0 MV, SPRED]
SRESWS  .OHMM   : SHALLOW RESISTIVITY [SFLUED]
TENDED  .N      : TENSION FROM DENSITY LOG
TENRED  .N      : TENSION FROM RESISTIVITY LOG
TENSED  .N      : TENSION FROM SONIC LOG [ADJ. TO RESISTIVITY LOG]
~Params ----------------------------------------------------
PD  .                         GL : PERMANENT DATUM
EPD .M                    1104.6 : ELEVATION PERMANENT DATUM
LMF .                         KB : LOG MEASURED FROM
DAPD.M                       6.4 : FEET ABOVE PERMANENT DATUM
DMF .                         KB : DRILLING MEASURED FROM
EKB .M                      1111 : KELLY BUSHING
EDF .M                    1110.6 : DRILLING FLOOR
EGL .M                    1104.6 : GROUND LEVEL
DATE.                   09/11/92 : RUN DATE
RUN .                          2 : RUN NUMBER
DD  .M                      3670 : DEPTH DRILLER
DL  .M                      3871 : DEPTH LOGGER
BLI .M                    3868.1 : BOTTOM LOG INTERVAL
TLI .M                    3837.5 : TOP LOG INTERVAL
CS  .MM                    177.8 : CASING SIZE
CBD .M                      3639 : CASING BOTTOM DRILLER
CBL .M                    3637.5 : CASING BOTTOM LOGGER
BS  .MM                      152 : BIT SIZE
BSD .M                      3670 : BIT SIZE AT DEPTH
DFT .                   GEL CHEM : DRILLING FLUID TYPE
DFD .                       1045 : DRILLING FLUID DENSITY
DFV .                         47 : DRILLING FLUID VISCOSITY
DFPH.                         16 : DRILLING FLUID PH
DFL .                       10.5 : DRILLING FLUID LOSS
MSS .                   FLOWLINE : MUD SAMPLE SOURCE
RMS .OHMM                   1.41 : RESISTIVITY MUD SAMPLE
MST .DEGC                     16 : MUD SAMPLE TEMPERATURE
RMF .OHMM                   1.32 : RESISTIVITY MUD FILTRATE SAMPLE
MFST.DEGC                     12 : MUD FILTRATE SAMPLE TEMPERATURE
RMC .OHMM                   1.37 : RESISTIVITY MUD CAKE
MCST.DEGC                     14 : MUD CAKE SAMPLE TEMPERATURE
MFSS.                   MEASURED : MUD FILTRATE SAMPLE SOURCE
MCSS.                   MEASURED : MUD CAKE SAMPLE SOURCE
RMB .OHMM                  0.402 : RESISTIVITY MUD AT BHT
TCS .HRS                     500 : TIME CIRCULATED STOPPED
TLAB.HRS                    1440 : TIME LOGGER AT BOTTOM
LUN .                       2012 : LOGGING UNIT NUMBER
LUL .                   EDMONTON : LOGGING UNIT LOCATION
ENGI.                       HOLT : RECORDING ENGINEER
WITN.                     HESTER : WITNESSED BY
CLNT.                    A2DTECH : CLIENT CODE
ORIG. 6.5"/100M 16.5"/100M PRINT : ORIGIN OF DATA
UWI .           100100105619W500 : UNIQUE WELL ID
DICO.     A2D Technologies, Inc. : DIGITIZING COMPANY
~Other -----------------------------------------------------
~ASCII -----------------------------------------------------
# ...
 1200.00000    -999.25  234.66250  336.74460    -999.25  234.66250  128.43070   13.07130 2475.59500    -999.25    0.10570    0.13710    7.78630   13.07130  262.87820  262.87820    -999.25    0.25860   73.08880   61.31920    -999.25   73.55960   68.02940   68.02940  265.72030    7.78630    7.06450    7.06450    -999.25    0.25630    -999.25    0.30030    3.66120    3.66120 2477.66920    6.21740 -106.34940  -36.16930    6.21740 14383.98050 14576.22170 10910.41020
 1250.00000    -999.25  241.44990  468.15420    -999.25  241.44990  183.23410   18.03690 2392.60000    -999.25    0.15600    0.18560    5.45750   18.03690  305.83770  305.83770    -999.25    0.34670   76.86450   70.82010    -999.25   76.28940   72.23600   72.23600  269.28490    5.45750    4.82870    4.82870    -999.25    0.32700    -999.25    0.37040    4.44890    4.44890 2390.50810    3.95200 -103.09120  -33.93560    3.95200 13979.46970 13823.09280 10985.11620
 1300.00000    -999.25  244.50010  509.61910    -999.25  244.50010  285.78780    4.00060 2386.66000    -999.25    0.15960    0.18910    3.49910    4.00060  296.55650  296.55650    -999.25    0.32340   93.06890   76.67070    -999.25   93.07070   85.68460   85.68460  284.54300    3.49910    3.23320    3.23320    -999.25    0.32970    -999.25    0.37300    3.97230    3.97230 2386.16550    3.07200 -101.18900  -33.05780    3.07200 14551.30960 14460.27930 11187.92290
 1350.00000    -999.25  273.04100  282.31940    -999.25  273.04100   95.85890    7.08750 2476.58500    -999.25    0.10510    0.13650   10.43200    7.08750  256.94750  256.94750    -999.25    0.24890   53.25350   48.20340    -999.25   53.44330   51.35110   51.35110  287.74980   10.43200    9.47830    9.47830    -999.25    0.24890    -999.25    0.29290    3.84210    3.84210 2469.81300    9.24480 -103.02050  -35.91380    9.24480 14487.28420 14623.40330 11263.83200
 1400.00000    -999.25  273.70620  433.52300    -999.25  273.70620  184.54950  -49.64830 1776.16000    -999.25    0.52960    0.54610    5.41860  -49.64830  340.13240  340.13240    -999.25    0.41260   62.62780   58.52090    -999.25   62.56440   60.41690   60.41690  265.04200    5.41860    4.96680    4.96680    -999.25    0.52790    -999.25    0.56420    9.80840    9.80840 1847.43480    4.08800  -95.52530  -29.44310    4.08800 15091.23630 15077.17290 11242.79690
 1450.00000    -999.25  226.76280  289.18290    -999.25  226.76280   26.82040    2.69740 2578.22500    -999.25    0.04350    0.07710   37.28510    2.69740  226.94730  226.94730    -999.25    0.16120   40.26020   30.26210    -999.25   40.25370   37.26410   37.26410  262.61540   37.28510   53.07040   53.07040    -999.25    0.17450    -999.25    0.21810    3.93420    3.93420 2580.81760   48.20570  -93.72580  -28.66800   48.20570 15444.04200 15235.22660 11631.83690
 1500.00000    -999.25  229.69520  359.16090    -999.25  229.69520   73.99300    5.10140 2519.15500    -999.25    0.07930    0.11160   13.51480    5.10140  240.74420  240.74420    -999.25    0.27650   49.43420   32.12790    -999.25   49.24230   47.35050   47.35050  267.43670   13.51480   12.80120   12.80120    -999.25    0.23770    -999.25    0.28170    3.95220    3.95220 2520.96260   11.43290  -90.52070  -26.48740   11.43290 15117.90230 15210.54200 11825.59080
 1550.00000    -999.25  235.05480  418.64360    -999.25  235.05480  101.22480    8.33110 2515.69000    -999.25    0.08140    0.11360    9.87900    8.33110  254.92650  254.92650    -999.25    0.28130   57.11780   46.14870    -999.25   57.34720   53.90190   53.90190  259.32810    9.87900    9.47970    9.47970    -999.25    0.22040    -999.25    0.26440    4.46860    4.46860 2515.63750    8.63380  -85.46600  -22.45720    8.63380 15099.02830 15135.79690 12099.95020
 1600.00000    -999.25  258.48870  237.88960    -999.25  258.48870   18.42620   28.84800 2421.97000    -999.25    0.13820    0.16840   54.27050   28.84800  216.10550  216.10550    -999.25    0.16310   39.22590   29.82610    -999.25   39.10360   37.87120   37.87120  257.58490   54.27050   66.15640   66.15640    -999.25    0.17850    -999.25    0.22220    6.01620    6.01620 2455.68770   70.37830  -88.99720  -27.99280   70.37830 15473.57520 15560.55180 12298.33590
 1650.00000    -999.25  272.43250  269.90160    -999.25  272.43250  103.85730   59.70570 2514.70000    -999.25    0.08200    0.11420    9.62860   59.70570  267.35180  267.35180    -999.25    0.32270   61.16380   36.56230    -999.25   60.77780   61.62050   61.62050  299.33770    9.62860    9.38060    9.38060    -999.25    0.30570    -999.25    0.34930    4.61890    4.61890 2513.70310    8.83830  -79.43290  -20.71260    8.83830 16127.79690 16218.21970 12831.00490
 1700.00000    -999.25  236.54360  389.23540    -999.25  236.54360   73.42360   33.84710 2588.78500    -999.25    0.03710    0.07090   13.61960   33.84710  248.66040  248.66040    -999.25    0.24370   80.91470   61.04170    -999.25   81.10580   79.52590   79.52590  293.03100   13.61960   12.82380   12.82380    -999.25    0.26390    -999.25    0.30790    4.59070    4.59070 2586.10940   12.56490  -78.83910  -22.40290   12.56490 16582.70310 16577.91990 12974.80860
 1750.00000    -999.25  266.36800  313.02710    -999.25  266.36800   70.19270    3.56360 2540.93500    -999.25    0.06610    0.09890   14.24650    3.56360  292.05830  292.05830    -999.25    0.27140  116.81760   74.12520    -999.25  116.61920  114.09780  114.09780  289.16600   14.24650   13.69930   13.69930    -999.25    0.32180    -999.25    0.36530    4.25760    4.25760 2541.51120   16.73030  -76.20850  -22.05640   16.73030 16804.29490 16593.03710 13509.69820
 1800.00000    -999.25  250.10920  480.10380    -999.25  250.10920  122.36610   78.82610 2281.72000    -999.25    0.22320    0.25050    8.17220   78.82610  261.80710  261.80710    -999.25    0.29210   78.82380   62.17110    -999.25   79.14870   82.86630   82.86630  303.22830    8.17220    6.57070    6.57070    -999.25    0.30150    -999.25    0.34520    8.37300    8.37300 2276.10210    6.82650  -72.77350  -20.90550    6.82650 16995.30660 17014.98050 13361.84080
 1850.00000    -999.25  241.51260  471.63950    -999.25  241.51260   98.85430  106.72530 2464.21000    -999.25    0.11260    0.14370   10.11590  106.72530  268.36210  268.36210    -999.25    0.22970   77.85050   59.85550    -999.25   78.15410   79.87340   79.87340  274.72920   10.11590   10.62500   10.62500    -999.25    0.29110    -999.25    0.33490    6.11910    6.11910 2472.39400    8.46660  -72.40250  -22.81860    8.46660 17647.33590 17456.24410 13692.70900
 1900.00000    -999.25  235.73870  412.51840    -999.25  235.73870  109.50740   46.68940 2554.63000    -999.25    0.05780    0.09090    9.13180   46.68940  258.15180  258.15180    -999.25    0.22060   78.64790   62.17810    -999.25   78.44550   83.14040   83.14040  266.11460    9.13180    9.77240    9.77240    -999.25    0.24430    -999.25    0.28830    5.28390    5.28390 2535.02490    9.38160  -72.28050  -24.98070    9.38160 18082.09960 17918.96480 14223.26660
 1950.00000    -999.25  231.31360  328.88660    -999.25  231.31360   56.46850   12.36890 2577.23500    -999.25    0.04410    0.07760   17.70900   12.36890  236.66960  236.66960    -999.25    0.16110   85.00420   41.01070    -999.25   84.57480   81.43070   81.43070  256.49040   17.70900   17.04400   17.04400    -999.25    0.17740    -999.25    0.22110    3.47750    3.47750 2578.26270   17.95970  -72.85330  -27.83760   17.95970 17596.03710 17697.74020 14435.17770
 2000.00000    -999.25  234.70500  363.21800    -999.25  234.70500   95.63700   77.41860 2473.61500    -999.25    0.10690    0.13820   10.45620   77.41860  249.03110  249.03110    -999.25    0.21970   89.63010   62.64900    -999.25   89.58120   79.01810   79.01810  256.11610   10.45620   10.11080   10.11080    -999.25    0.25160    -999.25    0.29560    8.25870    8.25870 2469.65410    9.50950  -63.56460  -20.83300    9.50950 18029.48050 18226.74220 14636.99410
 2050.00000    -999.25  223.53200  372.71940    -999.25  223.53200   98.76540   89.21590 2523.11500    -999.25    0.07690    0.10930   10.12500   89.21590  267.51100  267.51100    -999.25    0.26040   90.75550   57.51340    -999.25   90.38370   92.07560   92.07560  260.55210   10.12500    9.64630    9.64630    -999.25    0.28320    -999.25    0.32700    5.59030    5.59030 2521.19020   10.90760  -58.47280  -18.02530   10.90760 17505.25780 17664.39060 14439.95510
