~Version ---------------------------------------------------
VERS.      2.0 : CWLS log ASCII Standard -VERSION 2.0
WRAP.       NO : One line per depth step
CREA. 07/27/17 : LAS Creation Date
~Well ------------------------------------------------------
STRT.FT                            750.0 : START DEPTH
STOP.FT                           8550.0 : STOP DEPTH
STEP.FT                         50.00000 : STEP LENGTH
NULL.                            -999.25 : NULL VALUE
COMP.                 ENCANA CORPORATION : COMPANY
WELL. CENTRAL-DEL RIO HILDON 16-16-37-25 : WELL
FLD .                                    : FIELD
LOC .                                    : LOCATION
CTRY.                             CANADA : COUNTRY
SRVC.                       Schlumberger : SERVICE COMPANY
DATE.                        07-Feb-1960 : LOGDATE
PROV.                            Alberta : PROVINCE
UWI .                   100161603725W400 : UNIQUE WELL ID
SLAT.WGS84                       52.1845 : SURFACE LATITUDE
SLON.WGS84                     -113.5068 : SURFACE LONGITUDE
~Curve Information -----------------------------------------
DEPT  .FT         : Depth Curve
CALWS .IN         : CALIPER [MCALED]
CILDED.MMHO       : CONDUCTIVITY FROM IEL LOG
CONDWS.MMHO       : CONDUCTIVITY [1000/DRESWS]
DRESWS.OHMM       : DEEP RESISTIVITY [1000/CILDED, IF ILDED<1, ILDED]
DTED  .US/F       : DELTA TIME FROM SL LOG
DTWS  .US/F       : COMPRESSIONAL  SONIC [DTED]
GRSED .UgRa-Eq/T  : GAMMA RAY FROM SL LOG
GRWS  .GAPI       : GAMMA RAY [GRSED*16.50]
ILDED .OHMM       : DEEP INDUCTION FROM IEL LOG
MCALED.IN         : CALIPER FROM ML LOG
SNED  .OHMM       : 16 INCH SHORT NORMAL RESISTIVITY FROM IEL
SPRED .MV         : SPONTANEOUS POTENTIAL FROM IEL LOG
SPWS  .MV         : SPONTANEOUS POTENTIAL [BASELINE 0 MV, SPRED]
SRESWS.OHMM       : SHALLOW RESISTIVITY [SNED]
~Params ----------------------------------------------------
LMF .                     KB : LOG MEASURED FROM
DMF .                     KB : DRILLING MEASURED FROM
EKB .FT                 3118 : KELLY BUSHING
EGL .FT                 3105 : GROUND LEVEL
DATE.               02/07/60 : RUN DATE
RUN .                      2 : RUN NUMBER
DD  .FT                 6874 : DEPTH DRILLER
DL  .FT                 6871 : DEPTH LOGGER
BLI .FT                 6866 : BOTTOM LOG INTERVAL
TLI .FT                 5952 : TOP LOG INTERVAL
CBD .FT                  729 : CASING BOTTOM DRILLER
BS  .IN                6.125 : BIT SIZE
BSD .FT                 6874 : BIT SIZE AT DEPTH
DFT .               GYP BASE : DRILLING FLUID TYPE
DFD .                   10.1 : DRILLING FLUID DENSITY
DFV .                    102 : DRILLING FLUID VISCOSITY
DFL .                    6.6 : DRILLING FLUID LOSS
RMS .OHMM                1.6 : RESISTIVITY MUD SAMPLE
MST .DEGF                 52 : MUD SAMPLE TEMPERATURE
RMF .OHMM                1.2 : RESISTIVITY MUD FILTRATE SAMPLE
MFST.DEGF                 50 : MUD FILTRATE SAMPLE TEMPERATURE
RMC .OHMM                2.0 : RESISTIVITY MUD CAKE
MCST.DEGF                 50 : MUD CAKE SAMPLE TEMPERATURE
TCS .HRS                 2.5 : TIME CIRCULATED STOPPED
LUN .                   1575 : LOGGING UNIT NUMBER
LUL .                     RO : LOGGING UNIT LOCATION
ENGI.                 YUNKER : RECORDING ENGINEER
WITN.                 PAARUP : WITNESSED BY
CLNT.                A2DTECH : CLIENT CODE
ORIG.            2" 5" PRINT : ORIGIN OF DATA
UWI .       100161603725W400 : UNIQUE WELL ID
DICO. A2D Technologies, Inc. : DIGITIZING COMPANY
~Other -----------------------------------------------------
~ASCII -----------------------------------------------------
# ...
 3200.00000   10.15950  213.46500  211.48800    4.72840    -999.25    -999.25    -999.25    -999.25    4.72840   10.15950    5.47370  -64.38700   -5.32150    5.47370
 3250.00000    9.60260  191.71460  210.05760    4.76060    -999.25    -999.25    -999.25    -999.25    4.76060    9.60260    5.90970  -62.18070   -3.04860    5.90970
 3300.00000   10.32820  230.25560  239.72190    4.17150    -999.25    -999.25    -999.25    -999.25    4.17150   10.32820    5.10200  -62.05540   -2.85660    5.10200
 3350.00000   11.44820  126.28420  127.54610    7.84030    -999.25    -999.25    -999.25    -999.25    7.84030   11.44820    8.88180  -66.35990   -7.09400    8.88180
 3400.00000    -999.25  128.52720  129.67140    7.71180    -999.25    -999.25    -999.25    -999.25    7.71180    -999.25    8.76200  -68.23170   -8.89920    8.76200
 3450.00000    -999.25  113.63220  119.63580    8.35870    -999.25    -999.25    -999.25    -999.25    8.35870    -999.25    9.98840  -68.67350   -9.27390    9.98840
 3500.00000    -999.25  113.48980  116.80610    8.56120    -999.25    -999.25    -999.25    -999.25    8.56120    -999.25    9.86610  -68.43960   -8.97340    9.86610
 3550.00000    -999.25  110.37610  114.60270    8.72580    -999.25    -999.25    -999.25    -999.25    8.72580    -999.25   10.14170  -68.76360   -9.23070   10.14170
 3600.00000    -999.25  110.66210  116.40630    8.59060    -999.25    -999.25    -999.25    -999.25    8.59060    -999.25   10.40330  -68.85330   -9.25330   10.40330
 3650.00000    -999.25  109.75920  110.16610    9.07720    -999.25    -999.25    -999.25    -999.25    9.07720    -999.25   12.44190  -67.52990   -7.86330   12.44190
 3700.00000    -999.25   69.86010   76.46370   13.07810    -999.25    -999.25    -999.25    -999.25   13.07810    -999.25   17.40570  -67.03450   -7.30080   17.40570
 3750.00000    -999.25  105.42390  109.35770    9.14430    -999.25    -999.25    -999.25    -999.25    9.14430    -999.25   11.90990  -66.57070   -6.77040   11.90990
 3800.00000    -999.25  125.54620  129.14060    7.74350    -999.25    -999.25    -999.25    -999.25    7.74350    -999.25    9.66510  -70.03050  -10.16350    9.66510
 3850.00000    -999.25   95.95750  104.53030    9.56660    -999.25    -999.25    -999.25    -999.25    9.56660    -999.25   11.00410  -72.21250  -12.27850   11.00410
 3900.00000    -999.25  124.52450  126.17340    7.92560    -999.25    -999.25    -999.25    -999.25    7.92560    -999.25    9.47380  -69.15400   -9.15330    9.47380
 3950.00000    -999.25  117.68560  119.11990    8.39490    -999.25    -999.25    -999.25    -999.25    8.39490    -999.25   10.10400  -66.41900   -6.35120   10.10400
 4000.00000    -999.25   98.42420  103.20880    9.68910    -999.25    -999.25    -999.25    -999.25    9.68910    -999.25   12.51110  -67.33360   -7.19920   12.51110
 4050.00000    -999.25  109.49900  113.97310    8.77400    -999.25    -999.25    -999.25    -999.25    8.77400    -999.25   11.26570  -67.07650   -6.87540   11.26570
 4100.00000    -999.25  142.85000  144.51280    6.91980    -999.25    -999.25    -999.25    -999.25    6.91980    -999.25    8.45530  -71.33170  -11.06360    8.45530
 4150.00000    -999.25  111.61830  114.93990    8.70020    -999.25    -999.25    -999.25    -999.25    8.70020    -999.25    9.88640  -71.12450  -10.78970    9.88640
 4200.00000    -999.25  104.70530  109.90700    9.09860    -999.25    -999.25    -999.25    -999.25    9.09860    -999.25   11.49540  -74.99580  -14.59390   11.49540
 4250.00000    -999.25   98.60890  100.80750    9.91990    -999.25    -999.25    -999.25    -999.25    9.91990    -999.25   11.14350  -75.55370  -15.08520   11.14350
 4300.00000    -999.25  117.22080  116.52970    8.58150    -999.25    -999.25    -999.25    -999.25    8.58150    -999.25   10.15810  -74.00330  -13.46810   10.15810
 4350.00000    -999.25  101.40560  102.60300    9.74630    -999.25    -999.25    -999.25    -999.25    9.74630    -999.25   11.40910  -74.79760  -14.19540   11.40910
 4400.00000    -999.25   99.62080  104.70220    9.55090    -999.25    -999.25    -999.25    -999.25    9.55090    -999.25   11.65980  -71.77620  -11.10730   11.65980
 4450.00000    -999.25  136.92000  139.81130    7.15250    -999.25    -999.25    -999.25    -999.25    7.15250    -999.25    8.95560  -70.91640  -10.18040    8.95560
 4500.00000    -999.25  127.18100  128.61240    7.77530    -999.25    -999.25    -999.25    -999.25    7.77530    -999.25   10.32390  -67.74810   -6.94550   10.32390
 4550.00000    -999.25   88.00570   93.13760   10.73680    -999.25    -999.25    -999.25    -999.25   10.73680    -999.25   14.92780  -65.64150   -4.77220   14.92780
 4600.00000    -999.25   57.54860   53.37230   18.73630    -999.25    -999.25    -999.25    -999.25   18.73630    -999.25   29.04580  -66.79650   -5.86020   29.04580
 4650.00000    -999.25  104.45760  108.34590    9.22970    -999.25    -999.25    -999.25    -999.25    9.22970    -999.25   12.44790  -66.57560   -5.57260   12.44790
 4700.00000    -999.25  120.15270  122.39300    8.17040    -999.25    -999.25    -999.25    -999.25    8.17040    -999.25   11.09480  -67.14700   -6.07690   11.09480
 4750.00000    -999.25   78.95310   85.37600   11.71290    -999.25    -999.25    -999.25    -999.25   11.71290    -999.25   20.43650  -63.61530   -2.47860   20.43650
 4800.00000    -999.25  141.62960  147.05450    6.80020    -999.25    -999.25    -999.25    -999.25    6.80020    -999.25    9.34560  -64.07580   -2.87240    9.34560
 4850.00000    -999.25  167.83740  170.63680    5.86040    -999.25    -999.25    -999.25    -999.25    5.86040    -999.25    7.97720  -64.25970   -2.98930    7.97720
 4900.00000    -999.25  253.49100  267.63010    3.73650    -999.25    -999.25    -999.25    -999.25    3.73650    -999.25    4.62530  -64.69350   -3.35640    4.62530
 4950.00000    9.49860  283.81860  314.76240    3.17700    -999.25    -999.25    -999.25    -999.25    3.17700    9.49860    4.08000  -64.33410   -2.92990    4.08000
 5000.00000    9.88720  221.82910  215.17410    4.64740    -999.25    -999.25    -999.25    -999.25    4.64740    9.88720    6.06510  -63.53230   -2.06150    6.06510
 5050.00000    9.02640   72.02400   75.22300   13.29380    -999.25    -999.25    -999.25    -999.25   13.29380    9.02640   16.72770  -65.87820   -4.34070   16.72770
 5100.00000    9.17910  239.79170  272.71740    3.66680    -999.25    -999.25    -999.25    -999.25    3.66680    9.17910    4.44510  -63.61560   -2.01110    4.44510
 5150.00000    8.86660  492.91310  731.85010    1.36640    -999.25    -999.25    -999.25    -999.25    1.36640    8.86660    2.27880  -63.58800   -1.91680    2.27880
 5200.00000    9.14730   97.83450  101.40550    9.86140    -999.25    -999.25    -999.25    -999.25    9.86140    9.14730   13.39200  -66.14350   -4.40520   13.39200
 5250.00000    8.99590   86.04160   91.63720   10.91260    -999.25    -999.25    -999.25    -999.25   10.91260    8.99590   16.03050  -68.36700   -6.56210   16.03050
 5300.00000    9.19240   83.26890   88.02660   11.36020    -999.25    -999.25    -999.25    -999.25   11.36020    9.19240   18.03080  -66.81970   -4.94820   18.03080
 5350.00000    9.34040   81.29950   84.50090   11.83420    -999.25    -999.25    -999.25    -999.25   11.83420    9.34040   18.54320  -66.62070   -4.68210   18.54320
 5400.00000    9.19480   67.50600   67.04660   14.91500    -999.25    -999.25    -999.25    -999.25   14.91500    9.19480   18.94220  -73.02730  -11.02200   18.94220
 5450.00000    8.97020  100.79620  103.02590    9.70630    -999.25    -999.25    -999.25    -999.25    9.70630    8.97020   19.55700  -64.48010   -2.40770   19.55700
 5500.00000    8.70760  403.04400  412.76260    2.42270    -999.25    -999.25    -999.25    -999.25    2.42270    8.70760    5.68560  -63.62630   -1.48730    5.68560
 5550.00000    8.96820  102.85950  108.03570    9.25620   65.86710   65.86710    5.25070   86.63660    9.25620    8.96820   14.59130  -63.88680   -1.68120   14.59130
 5600.00000    9.07300  108.35350  107.85280    9.27190   65.94120   65.94120    4.26900   70.43850    9.27190    9.07300   10.35430  -67.92890   -8.65050   10.35430
