~Version ---------------------------------------------------
VERS. 2.0 : CWLS log ASCII Standard -VERSION 2.0
WRAP.  NO : ONE LINE PER DEPTH STEP
~Well ------------------------------------------------------
STRT.M                         300.0 : START DEPTH
STOP.M                        1800.0 : STOP DEPTH
STEP.M                      50.00000 : STEP LENGTH
NULL.                        -999.25 : NULL VALUE
COMP. RUPERTSLAND RESOURCES CO. LTD. : COMPANY
WELL.  RUPERTS ET AL NIPISI 6-8-78-8 : WELL
FLD .                                : FIELD
LOC .                                : LOCATION
CTRY.                         CANADA : COUNTRY
SRVC.                   Schlumberger : SERVICE COMPANY
DATE.                    05-Mar-1991 : LOGDATE
PROV.                        Alberta : PROVINCE
UWI .               100060807808W500 : UNIQUE WELL ID
SLAT.WGS84                  55.74224 : SURFACE LATITUDE
SLON.WGS84                 -115.2078 : SURFACE LONGITUDE
~Curve Information -----------------------------------------
DEPT  .M      : DEPTH METERS
DPHILS.V/V    : DENSITY POROSITY LIMESTONE FROM DENSITY LOG
NPHILS.V/V    : NEUTRON POROSITY LIMESTONE FROM DENSITY LOG
NPHISS.V/V    : NEUTRON POROSITY SANDSTONE FROM DENSITY LOG
DPHISS.V/V    : DENSITY POROSITY SANDSTONE FROM DENSITY LOG
DPHIDM.V/V    : DENSITY POROSITY DOLOMITE FROM DENSITY LOG
NPHIDM.V/V    : NEUTRON POROSITY DOLOMITE FROM DENSITY LOG
RHOB  .KG/M3  : BULK DENSITY FROM DENSITY LOG
CALS  .MM     : CALIPER FROM SONIC LOG
GRS   .GAPI   : GAMMA RAY FROM SONIC LOG
DT    .US/M   : DELTA-T FROM SONIC LOG
ILM   .OHMM   : INDUCTION LOG MEDIUM RESISTIVITY
ILD   .OHMM   : INDUCTION LOG DEEP RESISTIVITY
SFL   .OHMM   : SPHERICALLY FOCUSED LOG RESISTIVITY
SPR   .MV     : SPONTANEOUS POTENTIAL FROM RESISTIVITY LOG
GR    .CPS    : GAMMA RAY FROM PLUG LOG
DCOR  .KG/M3  : DENSITY CORRECTION FROM DENSITY LOG
~Params ----------------------------------------------------
DATE.                   03/05/91 : RUN DATE
RUN .                          1 : RUN NUMBER
BLI .M                      1802 : BOTTOM LOG INTERVAL
TLI .M                       204 : TOP LOG INTERVAL
DFT .                       CHEM : DRILLING FLUID TYPE
MSS .                   FLOWLINE : MUD SAMPLE SOURCE
CLNT.                    A2DTECH : CLIENT CODE
ORIG. 6.5"/100M 16.5"/100M PRINT : ORIGIN OF DATA
UWI .           100060807808W500 : UNIQUE WELL ID
DICO.     A2D Technologies, Inc. : DIGITIZING COMPANY
~Other -----------------------------------------------------
1. THE GR FROM PLUG LOG CANNOT BE CONVERTED TO GAPI FOR GRWS; IT HAS BEEN INCLUDED IN THIS FILE FOR CLIENT'S POSSIBLE FURTHER USE.
~ASCII -----------------------------------------------------
  300.00000    -999.25    -999.25    0.59530    0.37450    -999.25    -999.25 2054.44260  244.23480   80.86630  279.23160    4.32970    5.11000    4.38510  -26.54320    -999.25   19.52530
  350.00000    -999.25    -999.25    0.49580    0.17880    -999.25    -999.25 2362.60860  292.68070   96.14230  261.31020    3.37290    3.51820    3.57340  -25.30860    -999.25  142.76260
  400.00000    -999.25    -999.25    0.48760    0.26040    -999.25    -999.25 2198.51050  193.39620   75.51650  240.87380    6.82640    5.33780    6.64040  -35.18520    -999.25   86.55810
  450.00000    -999.25    -999.25    0.45220    0.26020    -999.25    -999.25 2221.10940  194.18240   57.44780  227.03510    6.82640    6.41180    9.70010  -37.03750    -999.25   78.23330
  500.00000    -999.25    -999.25    0.49990    0.30510    -999.25    -999.25 2145.86550  199.29170   57.98120  242.43370    5.51450    4.49760    5.86840  -39.81480    -999.25   91.50200
  550.00000    -999.25    -999.25    0.40960    0.19960    0.23450    0.31260 2449.92290  256.83060   78.16850  239.46890    5.87910    5.64720    8.61360  -31.09660    -999.25  233.15470
  600.00000    -999.25    -999.25    0.26830    0.11900    0.22180    0.14380 2422.18800  204.79560   11.26710  163.22450 1137.96800  485.09700 1353.63260  -55.09250    -999.25   95.07400
  650.00000    -999.25    -999.25    -999.25    -999.25    0.29270    0.11270 2307.89010  237.81450   64.15120  299.06250    9.47240    9.55420   11.85980  -28.08640    -999.25  196.40120
  700.00000    -999.25    -999.25    -999.25    -999.25    0.16160    0.13080 2559.23970  226.80820   50.00000  270.46800    3.72140    3.60630    3.69740  -26.54310    -999.25   79.24960
  750.00000    -999.25    -999.25    -999.25    -999.25    0.10840    0.04630 2676.94360  212.26800   24.76420  212.03130   12.58630   12.31240   12.49150  -21.45060    -999.25   73.12400
  800.00000    -999.25    -999.25    -999.25    -999.25    0.12870    0.02450 2627.60210  205.19030   17.45400  187.50060   21.19270   20.25570   32.76670  -32.09880    -999.25   13.91170
  850.00000    -999.25    -999.25    -999.25    -999.25    0.13380    0.05740 2612.95290  214.62260   60.61300  273.28270   10.64330    9.64980   12.55350  -19.75310    -999.25   61.25410
  900.00000    -999.25    -999.25    -999.25    -999.25    0.11480    0.05000 2656.89890  206.82730   27.12260  179.58840   47.26750   27.44090   81.37550  -52.93210    -999.25  105.28330
  950.00000    -999.25    -999.25    -999.25    -999.25    0.17100    0.06720 2555.89820  200.47170   24.76460  199.21850   30.38380   15.48610   83.12910  -61.30030    -999.25   49.38740
 1000.00000    -999.25    -999.25    -999.25    -999.25    0.13780    0.06160 2613.72390  197.36480   21.69810  200.46880   18.09070    9.82160   61.13860  -60.21670    -999.25  100.69070
 1050.00000    -999.25    -999.25    -999.25    -999.25    0.07890    0.02220 2693.13960  200.48800   13.44340  171.56250   34.56370   33.07170   47.41610  -44.73680    -999.25   55.25780
 1100.00000    -999.25    -999.25    -999.25    -999.25    0.08630    0.02450 2689.53880  199.29240   14.62260  177.96880   28.72700   22.65880   80.79930  -53.07620   16.05770   40.21100
 1150.00000    -999.25    -999.25    -999.25    -999.25    0.10840    0.12450 2689.79810  194.49390   36.08360  192.16300   13.81790    8.75980   19.14010  -55.90660   34.68510  118.59320
 1200.00000    -999.25    -999.25    -999.25    -999.25    0.07740    0.10450 2678.23190  195.58440   25.39310  180.62500   10.94740   10.63590   17.78280  -41.24060    -999.25   64.64440
 1250.00000    -999.25    -999.25    -999.25    -999.25    0.15700    0.17390 2566.02910  206.73650   69.57550  264.86520    5.00850    4.89720    5.74460  -23.16350    -999.25  175.90050
 1300.00000    -999.25    -999.25    -999.25    -999.25    0.32770    0.42090 2288.35770  261.79200   89.62180  329.22810    2.48360    2.37990    2.66640  -24.70700    -999.25  206.35530
 1350.00000    -999.25    -999.25    -999.25    -999.25    0.15760    0.33370 2586.73880  240.77710   95.99070  304.86280    2.99090    2.89740    3.23040  -24.65080    -999.25  141.04100
 1400.00000    -999.25    -999.25    -999.25    -999.25    0.27700    0.40200 2344.12820  242.73940   83.96190  287.39860    2.48280    2.55020    2.85600  -21.70580    -999.25  156.48010
 1450.00000   -0.02130    0.08900    -999.25    -999.25    -999.25    -999.25 2742.53810  208.59500   68.86790  252.96170   30.84510   20.22750   51.63710  -17.51860    -999.25   86.90660
 1500.00000    0.01810    0.16480    -999.25    -999.25    -999.25    -999.25 2682.34380  185.83120   45.51890  212.80380    9.40380    9.20590   11.12490  -13.35970    -999.25   76.18680
 1550.00000    0.01610    0.18560    -999.25    -999.25    -999.25    -999.25 2685.35350  235.21230   95.67450  297.17200    3.24820    3.60990    4.22280  -15.02880    -999.25  161.94840
 1600.00000    0.14080    0.33860    -999.25    -999.25    -999.25    -999.25 2498.69310  217.52560   72.40570  255.31250    5.55390    4.12430    4.93850  -17.51940    -999.25  162.43480
 1650.00000   -0.01660    0.03780    -999.25    -999.25    -999.25    -999.25 2733.79610  192.52700   30.18870  185.78130   57.27770   41.45010   63.45480  -18.92320    -999.25   60.87130
 1700.00000   -0.00950    0.19180    -999.25    -999.25    -999.25    -999.25 2734.74800  197.55030   79.24530  225.93610    8.62480    7.67820    9.92930   -9.69270    -999.25   66.65660
 1750.00000   -0.15000    0.02250    -999.25    -999.25    -999.25    -999.25 2998.07150  189.33170   18.39720  165.25930 1532.41330  114.07310  206.45300  -37.80710    -999.25   34.85690
 1800.00000   -0.06880    -999.25    -999.25    -999.25    -999.25    -999.25 2799.27980  198.62210    -999.25    -999.25    4.74930    -999.25    6.08060  -18.76920    -999.25   80.78100
