~Version ---------------------------------------------------
VERS.      2.0 : CWLS log ASCII Standard -VERSION 2.0
WRAP.       NO : One line per depth step
CREA. 09/04/14 : LAS Creation Date
~Well ------------------------------------------------------
STRT.FT                  300.0 : START DEPTH
STOP.FT                10400.0 : STOP DEPTH
STEP.FT               50.00000 : STEP LENGTH
NULL.                  -999.25 : NULL VALUE
COMP.    J M HUBER CORPORATION : COMPANY
WELL. HUBER ROSEVEAR 6-5-55-14 : WELL
FLD .                       WC : FIELD
LOC .                          : LOCATION
CTRY.                   CANADA : COUNTRY
SRVC.             Schlumberger : SERVICE COMPANY
DATE.              04-Sep-1976 : LOGDATE
PROV.                  Alberta : PROVINCE
UWI .         100060505514W500 : UNIQUE WELL ID
SLAT.WGS84            53.72293 : SURFACE LATITUDE
SLON.WGS84           -116.0453 : SURFACE LONGITUDE
~Curve Information -----------------------------------------
DEPT   .FT    : Depth Curve
CALD   .IN    : CALIPER FROM DENSITY LOG
CALR   .IN    : CALIPER FROM RESISTIVITY
CALS   .IN    : CALIPER FROM SONIC LOG
DCOR   .G/C3  : DENSITY CORRECTION
DPHI_LS.DEC   : DENSITY POROSITY LIMESTONE
DPHI_SS.DEC   : DENSITY POROSITY SANDSTONE
DT     .US/F  : INTERVAL TRANSIT TIME
GRD    .GAPI  : GAMMA RAY FROM DENSITY LOG
GRS    .GAPI  : GAMMA RAY FROM SONIC LOG
LLD    .OHMM  : LATEROLOG DEEP
LLS    .OHMM  : LATEROLOG SHALLOW
NPHI_LS.DEC   : NEUTRON POROSITY LIMESTONE
NPHI_SS.DEC   : NEUTRON POROSITY SANDSTONE
RHOB   .G/C3  : BULK DENSITY
SPR    .MV    : SPONTANEOUS POTENTIAL FROM RES.
~Params ----------------------------------------------------
PD  .                     GL : PERMANENT DATUM
EPD .FT                 2650 : ELEVATION PERMANENT DATUM
LMF .                     KB : LOG MEASURED FROM
DAPD.FT                   16 : FEET ABOVE PERMANENT DATUM
EKB .FT                 2666 : KELLY BUSHING
EGL .FT                 2650 : GROUND LEVEL
DATE.               09/04/76 : RUN DATE
RUN .                      2 : RUN NUMBER
DD  .FT                10450 : DEPTH DRILLER
DL  .FT                10450 : DEPTH LOGGER
BLI .FT                10448 : BOTTOM LOG INTERVAL
TLI .FT                 8400 : TOP LOG INTERVAL
CBD .FT                 1105 : CASING BOTTOM DRILLER
BS  .IN                 8.75 : BIT SIZE
BSD .FT                10450 : BIT SIZE AT DEPTH
DFT .               GEL CHEM : DRILLING FLUID TYPE
DFD .                    9.6 : DRILLING FLUID DENSITY
DFV .                     82 : DRILLING FLUID VISCOSITY
DFPH.                     11 : DRILLING FLUID PH
DFL .                     15 : DRILLING FLUID LOSS
RMS .OHMM               0.28 : RESISTIVITY MUD SAMPLE
MST .DEGF                 62 : MUD SAMPLE TEMPERATURE
RMF .OHMM               0.23 : RESISTIVITY MUD FILTRATE SAMPLE
MFST.DEGF                 62 : MUD FILTRATE SAMPLE TEMPERATURE
RMB .OHMM               0.11 : RESISTIVITY MUD AT BHT
TCS .HRS                   1 : TIME CIRCULATED STOPPED
LUN .                   7730 : LOGGING UNIT NUMBER
LUL .                    EDM : LOGGING UNIT LOCATION
ENGI.         PIMM MACDONALD : RECORDING ENGINEER
WITN.                 TAYLOR : WITNESSED BY
CLNT.                A2DTECH : CLIENT CODE
ORIG.               5" PRINT : ORIGIN OF DATA
UWI .       100060505514W500 : UNIQUE WELL ID
DICO. A2D Technologies, Inc. : DIGITIZING COMPANY
~Other -----------------------------------------------------
~ASCII -----------------------------------------------------
# ...
 7200.00000   12.22010    7.54900   10.57970    0.15040    0.01720    -999.25   49.86130   30.56210   33.24860    -999.25  350.32950    0.00140    -999.25    2.66850  -54.96780
 7250.00000   11.24880    6.45690    9.79790    0.04140    -999.25    -999.25   54.30570   26.83440   31.10710  199.29680  186.26400    0.10080    -999.25    2.08740  -61.58830
 7300.00000    9.70110    6.89130    9.75430    0.04490   -0.02620    -999.25   60.06480  118.75410  131.01950   31.46870   33.87160    0.07970    -999.25    2.70220  -56.21400
 7350.00000    9.45460    6.83140    9.75500    0.04610    0.01030    -999.25   60.88330   78.41220   78.71520   10.25220   11.40800    0.16310    -999.25    2.70800  -53.28710
 7400.00000    9.76680    6.83910    9.94930    0.06000    0.01030    -999.25   58.44180   74.21470   76.22490   19.45930   20.91930    0.11280    -999.25    2.68920  -55.09430
 7450.00000    9.79140    6.51890    9.85820    0.01760    0.00510    -999.25   57.18250   82.88320   80.39570   26.59280   28.66770    0.07150    -999.25    2.71800  -53.49100
 7500.00000   11.89660    6.45190   10.25380    0.12750    0.18380    -999.25   53.80980   27.69370   30.93960   36.02860   45.15510    0.04380    -999.25    2.53640  -54.45770
 7550.00000    9.32850    6.34110    9.56060    0.03840   -0.01110    -999.25   52.86950   47.81000   51.93510  137.63190  151.63280    0.01850    -999.25    2.72120  -55.95020
 7600.00000    9.31970    6.84300    9.66310    0.02680    0.03220    -999.25   55.45620   47.41350   49.84780   76.28370   78.84680    0.04000    -999.25    2.66530  -54.98970
 7650.00000    9.55560    7.18500    9.78420    0.02690    0.00280    -999.25   57.40670   61.54470   66.51380   41.46310   43.11930    0.05280    -999.25    2.68790  -53.31030
 7700.00000    9.57610    8.14010    9.84140    0.06800   -0.02440    -999.25   59.24810   57.45060   59.79370   22.26450   23.47230    0.06210    -999.25    2.73330  -53.11030
 7750.00000    9.21400    7.48770    9.44920    0.04940   -0.01250    -999.25   54.64380   51.08970   55.71130   73.43310   82.69540    0.02880    -999.25    2.73680  -57.11960
 7800.00000   10.79720    7.57020    9.42230    0.24410    0.04730    -999.25   52.32850   25.03690   27.19030  582.40610  306.19640    0.01100    -999.25    2.60600  -56.39910
 7850.00000    9.59480    7.79640    9.54740    0.00890    0.00240    -999.25   52.72950   54.72610   53.40090  360.44060  281.60220    0.00650    -999.25    2.68170  -58.64170
 7900.00000   11.48950    6.75850    9.94480    0.24420    0.09330    -999.25   49.10800   25.82260   25.18480    -999.25  757.67340    0.00020    -999.25    2.56000  -59.78070
 7950.00000   12.13520    7.74840    9.78210    0.19860    0.09780    -999.25   50.10960   24.28880   23.63840  262.49270  174.60110    0.00700    -999.25    2.47330  -60.87080
 8000.00000   10.96080    7.93280    9.85560    0.21380    0.10410    -999.25   48.68410   17.49750   20.98680  328.19200  216.33390    0.00080    -999.25    2.56470  -62.20250
 8050.00000   10.89940    8.76430    9.91410    0.24870    0.07910    -999.25   49.72420   19.50760   21.48790  229.83960  187.45260    0.00050    -999.25    2.56380  -59.94530
 8100.00000   13.82440    7.62230   10.05300    0.13750    0.23470    -999.25   50.66080   26.10570   30.97370    -999.25  304.76440    0.03240    -999.25    2.31000  -65.11970
 8150.00000   12.24650    8.34470    9.85150    0.20480    0.12940    -999.25   50.28140   17.25550   23.34140  181.64580  133.67500    0.00350    -999.25    2.48930  -60.23010
 8200.00000    9.49650    7.97320    9.44170    0.09200    0.02770    -999.25   49.01240   16.45180   19.82370  122.24230  111.09590    0.00140    -999.25    2.73790  -59.93660
 8250.00000   11.20010    8.36900   10.07860    0.19940    0.11300    -999.25   51.25450   19.17280   26.95350  198.14980  159.46520    0.00340    -999.25    2.56920  -60.49130
 8300.00000    8.05060    8.31480    8.79280    0.12790    0.08540    -999.25   52.75740   23.75820   26.54190   63.74910   60.28620    0.03510    -999.25    2.60500  -63.51280
 8350.00000   11.91160    8.56410   10.15930    0.18290    0.17520    -999.25   49.70800   21.57380   32.35620  652.25310  362.10100    0.00590    -999.25    2.39330  -58.87640
 8400.00000   10.20040    9.06940    9.31690    0.24970    0.08810    -999.25   51.89100   23.55610   25.34750  215.45610  185.74800    0.01490    -999.25    2.53170  -61.50290
 8450.00000    8.57890    9.72750    8.80150    0.15330    0.07500    -999.25   47.63340   19.29020   23.18220  178.10070  198.16730    0.06320    -999.25    2.58650  -64.48620
 8500.00000    9.14820   13.01950    9.22370    0.01970   -0.09320    -999.25   49.52380   23.34870   32.37510 1174.89990  869.62500    0.00620    -999.25    2.88240  -60.91980
 8550.00000    9.03180   13.41030    9.19440    0.04640    0.05250    -999.25   63.46110  106.44460  110.68330   21.16990   10.13380    0.06860    -999.25    2.59290  -61.33860
 8600.00000   11.50420   11.83200    9.67920    -999.25    0.13220    -999.25   48.29560   36.86360   44.78220   55.23400   63.00060    0.04690    -999.25    2.50460  -50.00410
 8650.00000    9.95270   10.82220    9.51210    0.25390    0.01740    -999.25   50.62150   44.35440   53.37820  149.34040  120.61260    0.03360    -999.25    2.65700  -53.19220
 8700.00000   10.64020   10.28240    9.64590    0.19400    0.06720    -999.25   49.51080   34.46740   35.88750  164.27840  118.66670    0.04400    -999.25    2.69310  -45.75290
 8750.00000    9.02240    8.73440    9.07790    0.00080    0.00380    -999.25   54.51820   53.37380   55.15380  103.59940  117.67830    0.03130    -999.25    2.70650  -67.10210
 8800.00000    9.04440    8.14300    9.07240    0.01930   -0.02330    -999.25   55.39380   71.25210   67.66970   46.79830   58.32170    0.04700    -999.25    2.69840  -68.33470
 8850.00000    -999.25    -999.25   10.19480    -999.25    -999.25    -999.25   67.81460    -999.25  109.44700   10.02370   11.65820    -999.25    -999.25    -999.25  -14.10980
 8900.00000    -999.25    -999.25   10.10230    -999.25    -999.25    -999.25   71.99900    -999.25  119.18560   10.22890   11.82030    -999.25    -999.25    -999.25  -15.82080
 8950.00000    -999.25    -999.25   13.67420    -999.25    -999.25    -999.25   77.04540    -999.25  108.05780    7.56890    6.39480    -999.25    -999.25    -999.25  -15.55860
 9000.00000    -999.25    -999.25    9.91540    -999.25    -999.25    -999.25   72.33120    -999.25  121.48140    9.15860   11.27790    -999.25    -999.25    -999.25   -4.87280
 9050.00000    -999.25    -999.25    9.06470    -999.25    -999.25    -999.25   64.75150    -999.25  111.37760   28.64380   30.83400    -999.25    -999.25    -999.25  -15.27460
 9100.00000    -999.25    -999.25    9.28810    -999.25    -999.25    -999.25   69.69970    -999.25  101.50550   15.42520   18.20670    -999.25    -999.25    -999.25  -19.05220
 9150.00000    -999.25    -999.25   11.28590    -999.25    -999.25    -999.25   74.86820    -999.25  125.64210    7.63890    7.63890    -999.25    -999.25    -999.25  -10.65230
 9200.00000    -999.25    -999.25    9.18320    -999.25    -999.25    -999.25   62.00670    -999.25   97.13110   20.03690   25.10900    -999.25    -999.25    -999.25  -18.63570
 9250.00000    -999.25    -999.25    9.32810    -999.25    -999.25    -999.25   66.31480    -999.25  111.69390   16.07790   19.17040    -999.25    -999.25    -999.25  -18.21970
 9300.00000    -999.25    -999.25    9.45090    -999.25    -999.25    -999.25   64.97750    -999.25  112.66810   15.22760   17.75950    -999.25    -999.25    -999.25  -19.19820
 9350.00000    -999.25    -999.25    9.13810    -999.25    -999.25    -999.25   66.42680    -999.25  119.95470   14.50210   17.79220    -999.25    -999.25    -999.25  -17.67640
 9400.00000    -999.25    -999.25    9.21880    -999.25    -999.25    -999.25   65.13010    -999.25  120.53490    9.74160   11.57260    -999.25    -999.25    -999.25  -17.60210
 9450.00000    -999.25    -999.25    9.31410    -999.25    -999.25    -999.25   70.00290    -999.25  135.62530   10.45760   13.03260    -999.25    -999.25    -999.25  -14.99390
