~Version ---------------------------------------------------
VERS.      2.0 : CWLS log ASCII Standard -VERSION 2.0
WRAP.       NO : One line per depth step
CREA. 09/08/14 : LAS Creation Date
~Well ------------------------------------------------------
STRT.FT                         1550.0 : START DEPTH
STOP.FT                        12000.0 : STOP DEPTH
STEP.FT                       50.00000 : STEP LENGTH
NULL.                          -999.25 : NULL VALUE
COMP. AMOCO CANADA PETROLEUM CO., LTD. : COMPANY
WELL.  AMOCO C-2 WASKAHIGAN 7-22-63-24 : WELL
FLD .                       WASKAHIGAN : FIELD
LOC .                                  : LOCATION
CTRY.                           CANADA : COUNTRY
SRVC.                          Unknown : SERVICE COMPANY
DATE.                      14-Dec-1976 : LOGDATE
PROV.                          Alberta : PROVINCE
UWI .                 100072206324W500 : UNIQUE WELL ID
SLAT.WGS84                    54.46349 : SURFACE LATITUDE
SLON.WGS84                   -117.5411 : SURFACE LONGITUDE
~Curve Information -----------------------------------------
DEPT   .FT    : DEPTH FEET
CALD   .IN    : CALIPER FROM DENSITY LOG
CALS   .IN    : CALIPER FROM SONIC LOG
DCOR   .G/C3  : DENSITY CORRECTION FROM DENSITY LOG
DPHI_LS.V/V   : DENSITY POROSITY LIMESTONE [M=2.71 F=1.0 ASSUMED] FROM DENSITY LOG
DPHI_SS.V/V   : DENSITY POROSITY SANDSTONE [M=2.65 F=1.0 ASSUMED] FROM DENSITY LOG
DT     .US/F  : DELTA TIME FROM SONIC LOG
GRD    .GAPI  : GAMMA RAY FROM DENSITY LOG
GRS    .GAPI  : GAMMA RAY FROM SONIC LOG
GRS_R  .GAPI  : GAMMA RAY (REPEAT SECTION) FROM SONIC LOG
ILD    .OHMM  : DEEP INDUCTION LOG RESISTIVITY FROM RESISTIVITY LOG
ILM    .OHMM  : MEDIUM INDUCTION LOG RESISTIVITY FROM RESISTIVITY LOG
LL8    .OHMM  : 8 INCH LATEROLOG RESISTIVITY FROM RESISTIVITY LOG
NPHI_LS.V/V   : NEUTRON POROSITY LIMESTONE FROM DENSITY LOG
NPHI_SS.V/V   : NEUTRON POROSITY SANDSTONE FROM DENSITY LOG
RHOB   .G/C3  : BULK DENSITY FROM DENSITY LOG
SPR    .MV    : SPONTANEOUS POTENTIAL FROM RESISTIVITY LOG
~Params ----------------------------------------------------
PD  .                     GL : PERMANENT DATUM
EPD .FT               2789.5 : ELEVATION PERMANENT DATUM
LMF .                     KB : LOG MEASURED FROM
DAPD.FT                 20.5 : FEET ABOVE PERMANENT DATUM
EKB .FT               2810.0 : KELLY BUSHING
EGL .FT               2789.5 : GROUND LEVEL
DATE.               12/14/76 : RUN DATE
RUN .                      1 : RUN NUMBER
DD  .FT                12005 : DEPTH DRILLER
DL  .FT                12008 : DEPTH LOGGER
BLI .FT                12002 : BOTTOM LOG INTERVAL
TLI .FT                 1519 : TOP LOG INTERVAL
CBD .FT                 1519 : CASING BOTTOM DRILLER
CBL .FT                 1519 : CASING BOTTOM LOGGER
BS  .IN                  8.5 : BIT SIZE
BSD .FT                12005 : BIT SIZE AT DEPTH
DFT .                    GEL : DRILLING FLUID TYPE
DFD .                    9.0 : DRILLING FLUID DENSITY
DFV .                     75 : DRILLING FLUID VISCOSITY
DFPH.                    9.5 : DRILLING FLUID PH
DFL .                   12.2 : DRILLING FLUID LOSS
MSS .               FLOWLINE : MUD SAMPLE SOURCE
RMS .OHMM               2.89 : RESISTIVITY MUD SAMPLE
MST .DEGF                 44 : MUD SAMPLE TEMPERATURE
RMF .OHMM               2.32 : RESISTIVITY MUD FILTRATE SAMPLE
MFST.DEGF                 62 : MUD FILTRATE SAMPLE TEMPERATURE
TCS .HRS                   4 : TIME CIRCULATED STOPPED
LUN .                   7635 : LOGGING UNIT NUMBER
LUL .                    EDM : LOGGING UNIT LOCATION
ENGI.                 PAQUIN : RECORDING ENGINEER
WITN.       MACDONALD FARLEY : WITNESSED BY
CLNT.                A2DTECH : CLIENT CODE
ORIG.            2" 5" PRINT : ORIGIN OF DATA
UWI .       100072206324W500 : UNIQUE WELL ID
DICO. A2D Technologies, Inc. : DIGITIZING COMPANY
~Other -----------------------------------------------------
~ASCII -----------------------------------------------------
# ...
 8000.00000    7.89520    7.67580    0.01540    0.16930    -999.25   63.25480   33.68620   36.66800    -999.25    3.72630    6.55090   27.07160    0.21030    -999.25    2.45460 -131.37400
 8050.00000    8.58880    8.73860   -0.01850    0.00680    -999.25   51.55900   87.60830  103.26370    -999.25   17.74580   26.61040   40.14580    0.11320    -999.25    2.72860  -40.72860
 8100.00000    8.73620    8.68200    0.16510    0.06730    -999.25   50.54440   26.98420   28.62340    -999.25   41.82590   58.92710  110.42200    0.14180    -999.25    2.69760  -90.56100
 8150.00000    8.63690    9.03510    0.01040   -0.01880    -999.25   49.83750   37.33750   27.29540    -999.25   55.20970   63.98710   87.12920    0.13060    -999.25    2.77760  -28.76990
 8200.00000    8.84530    9.04600   -0.00010   -0.03540    -999.25   47.68130   29.06550   35.87200    -999.25 1299.42980 1353.66140 1544.54160    0.06610    -999.25    2.80200  -19.61180
 8250.00000   11.37860    9.09210    0.18150    0.16440    -999.25   57.86100   41.40460   41.56720    -999.25   29.39110   34.27240   44.22600    0.10370    -999.25    2.41530  -21.21500
 8300.00000   10.48930    9.28820    0.13930    0.16540    -999.25   51.67610   21.22680   31.34600    -999.25   35.26710   51.25160  380.45140    0.05360    -999.25    2.47710 -130.30580
 8350.00000    9.71890    8.95980    0.14650    0.05880    -999.25   50.21600   24.33890   28.67020    -999.25   70.10530   99.48000  391.02630    0.04350    -999.25    2.60940  -81.47600
 8400.00000    8.99610    9.03870    0.17490    0.02560    -999.25   54.00550   92.86700   93.74800    -999.25   60.89500   71.03100  108.44440    0.07750    -999.25    2.65750  -52.15110
 8450.00000    8.71060    8.86370    0.05540    0.02110    -999.25   59.46400   36.81920   48.26130    -999.25    9.54360   10.68230   20.44090    0.16640    -999.25    2.68120  -76.45950
 8500.00000    8.48960    7.84350    0.19040    0.09800    -999.25   59.32220   38.11020   33.28670    -999.25    9.85380    6.63960   40.28120    0.22930    -999.25    2.57810 -148.33230
 8550.00000   10.86030    9.15830    0.22550    0.05730    -999.25   50.07370   36.87400   31.74500    -999.25   60.58140  100.73920 1508.44260    0.04470    -999.25    2.60220 -105.97590
 8600.00000    9.60250    9.21550    0.20520    0.02630    -999.25   51.55680   48.15460   45.78450    -999.25  116.01200  115.61850  152.05220    0.04870    -999.25    2.65260  -47.17980
 8650.00000   10.50760    9.13040    0.24670    0.05040    -999.25   56.04730   37.27380   38.24040    -999.25   91.96990  102.15160   97.99690    0.07390    -999.25    2.51250  -84.02280
 8700.00000    8.93990    9.14860    0.02610    0.13130    -999.25   49.96600   14.00560   18.08430    -999.25   43.46880   81.08910 1121.03500    0.04910    -999.25    2.57130 -119.65420
 8750.00000    9.46240    8.95920    0.10290    0.03870    -999.25   49.16120   16.23250   17.65680    -999.25  130.13860  151.70080  388.47350    0.05050    -999.25    2.68320 -145.49620
 8800.00000   11.86810    9.51130    0.16810    0.08180    -999.25   49.65310   19.13750   20.14750    -999.25 1319.77200  290.66720 1530.05460    0.03310    -999.25    2.57380 -103.93280
 8850.00000    9.02290    9.04350   -0.00510    0.02460    -999.25   59.98220   77.09250   78.31610    -999.25    8.80930    8.58100   12.57210    0.20010    -999.25    2.68950  -79.79180
 8900.00000    9.11060    9.02650    0.00930    0.00770    -999.25   56.49830   84.89370   90.09950    -999.25   15.27500   16.61700   24.25570    0.17440    -999.25    2.71500  -77.71330
 8950.00000    9.15530    8.97170    0.00920   -0.00850    -999.25   55.41850   82.54960  109.60770    -999.25   22.98050   24.70990   39.46050    0.15360    -999.25    2.72790  -69.97220
 9000.00000   10.77260    9.37420    0.19820    0.10180    -999.25   60.43640   77.06590   88.66710    -999.25   17.38200   18.14450   21.98610    0.20580    -999.25    2.54890  -50.02040
 9050.00000   10.96500    9.44710    0.23720    0.11910    -999.25   59.40750   74.06290   83.23200    -999.25   32.64860   36.19050   65.19850    0.15810    -999.25    2.50700  -57.87180
 9100.00000    9.65930    8.93320    0.05750    0.08480    -999.25   51.72690   20.51810   20.39680    -999.25  532.06980  402.94440  660.37570    0.05660    -999.25    2.60910  -63.22460
 9150.00000    9.71870    9.01620    0.18730   -0.01350    -999.25   52.86200   31.61560   33.73220    -999.25   62.26070   64.90320   99.72490    0.06910    -999.25    2.72520  -50.01390
 9200.00000    8.98310    8.79830    0.00420    0.01120    -999.25   52.76130   43.24460   44.83670    -999.25   55.51310   69.73670  229.86950    0.05320    -999.25    2.68860  -48.69340
 9250.00000    8.87600    8.71970   -0.00290   -0.00370    -999.25   56.79390   63.97500   73.45070    -999.25   94.20440  102.06890  156.90080    0.07420    -999.25    2.70500  -51.15420
 9300.00000    8.70450    8.64570   -0.00800    0.00980    -999.25   55.15000   62.76420   74.83690    -999.25   73.01530   69.23490   96.12400    0.07460    -999.25    2.68170  -29.68830
 9350.00000    8.71900    8.69020   -0.01730    0.03010    -999.25   56.25300   68.42780   74.41480    -999.25  266.81190  463.72060  418.77310    0.07470    -999.25    2.63790  -48.32530
 9400.00000    8.64590    8.47910   -0.01260    0.00450    -999.25   52.21980   42.47830   45.30810    -999.25   81.06010  101.60200  119.05760    0.04650    -999.25    2.68020  -23.97290
 9450.00000   11.95670    9.42970    0.18950    0.09850    -999.25   64.71460   37.42600   33.47260    -999.25   29.11500   48.45080   69.59590    0.21920    -999.25    2.54920  -48.48920
 9500.00000    8.76870    8.64310    0.01760    0.19990    -999.25   82.31540  204.31070  131.86160    -999.25  116.98970  729.85150 1488.68620    0.28270    -999.25    2.39790  -25.97380
 9550.00000    9.41750    8.75650    0.12320    0.00120    -999.25   49.56570   16.89670   19.35140    -999.25 1398.99710 1337.92990 1530.52500    0.00720    -999.25    2.72220  -26.22870
 9600.00000   10.33000    8.93650    0.19980    0.04400    -999.25   48.86890   19.72170   20.19140    -999.25 1226.01490 1364.89330 1523.47250    0.00310    -999.25    2.65540  -18.28120
 9650.00000   10.35860    9.03920    0.21370    0.03090    -999.25   49.55500   15.20060   14.64460    -999.25  768.66720 1368.71480 1248.16980    0.00130    -999.25    2.63110  -22.78380
 9700.00000   10.82000    9.04670    0.25120    0.00970    -999.25   48.90150   15.07400   18.15680    -999.25  550.19200  572.60570  738.12710    0.00110    -999.25    2.65980  -60.37060
 9750.00000   10.87710    9.10250    0.24680    0.06360    -999.25   48.49440   14.50340   14.84140    -999.25 1360.71940 1528.88420 1520.92130    0.00120    -999.25    2.62040   -6.02840
 9800.00000   10.87480    8.98670    0.24990    0.06210    -999.25   49.03170   13.00560   14.41190    -999.25  447.17830 1123.69870  779.92850    0.00040    -999.25    2.61360  -53.27310
 9850.00000   10.46990    9.03140    0.24990    0.08030    -999.25   48.99460   14.45560   14.63550    -999.25 1094.13310 1352.53820 1539.13640    0.00070    -999.25    2.56290  -22.33220
 9900.00000   10.67510    9.05730    0.25340    0.05130    -999.25   49.45010   18.64970   19.72330    -999.25  398.38170  546.60940  571.80620    0.00590    -999.25    2.57840  -15.27550
 9950.00000   10.26550    8.76650    0.25750    0.00310    -999.25   49.00410   15.53830   18.71610    -999.25  227.70500  273.64870  344.04040    0.00750    -999.25    2.67250  -30.33600
 10000.00000   10.74620    8.91090    -999.25    0.10760    -999.25   48.69570   13.33670   15.61670    -999.25  828.05800  547.76140 1247.97240    0.01500    -999.25    2.55870   -9.77410
 10050.00000   10.05130    9.07330    0.24180    0.02740    -999.25   49.00650   20.71080   18.23960    -999.25  698.63900 1128.59070 1527.82690    0.00710    -999.25    2.72390  -55.66400
 10100.00000   10.47660    9.07660    0.24110    0.03700    -999.25   49.23770   12.12640   12.65460    -999.25  718.50310  290.30400  482.86160    0.00300    -999.25    2.64770  -35.59560
