~Version ---------------------------------------------------
VERS.      2.0 : CWLS log ASCII Standard -VERSION 2.0
WRAP.       NO : One line per depth step
CREA. 10/27/17 : LAS Creation Date
~Well ------------------------------------------------------
STRT.FT                           1200.0 : START DEPTH
STOP.FT                          14850.0 : STOP DEPTH
STEP.FT                         50.00000 : STEP LENGTH
NULL.                            -999.25 : NULL VALUE
COMP.   SOCONY MOBIL OIL OF CANADA, LTD. : COMPANY
WELL. MOBIL SCURRY PEM RIVER A6-15-47-16 : WELL
FLD .                                    : FIELD
LOC .                                    : LOCATION
CTRY.                             CANADA : COUNTRY
SRVC.             Schlumberger of Canada : SERVICE COMPANY
DATE.                        26-Jul-1962 : LOGDATE
PROV.                            Alberta : PROVINCE
UWI .                   102061504716W500 : UNIQUE WELL ID
SLAT.WGS84                      53.05247 : SURFACE LATITUDE
SLON.WGS84                     -116.2582 : SURFACE LONGITUDE
~Curve Information -----------------------------------------
DEPT  .FT    : Depth Curve
CALWS .IN    : CALIPER [MCALED]
CILDED.MMHO  : DEEP INDUCTION CONDUCTIVITY FROM RESISTIVITY LOG [ADJ. TO ILDED]
CONDWS.MMHO  : CONDUCTIVITY [1000/DRESWS]
DRESWS.OHMM  : DEEP RESISTIVITY [1000/CILDED,IF ILDED<5,ILDED]
DT1ED .US/F  : DELTA TIME (3' SPACING- 1' PICKUP SPAN) FROM SONIC LOG
DTED  .US/F  : DELTA TIME (3' SPACING- 3' PICKUP SPAN) FROM SONIC LOG
DTWS  .US/F  : COMPRESSIONAL SONIC [DTED]
GRNED .GAPI  : GAMMA RAY GRN LOG
GRSED .GAPI  : GAMMA RAY FROM SONIC LOG
GRWS  .GAPI  : GAMMA RAY [SPLICED GRSED/GRNED FROM 11818' TO 12795']
ILDED .OHMM  : DEEP INDUCTION RESISTIVITY FROM RESISTIVITY LOG
MCALED.IN    : CALIPER FROM MICRO LOG
NEUTED.NAPI  : NEUTRON FROM GRN LOG
NEUTWS.NAPI  : NEUTRON [NEUTED]
SNED  .OHMM  : 16 INCH  SHORT NORMAL FROM RESISTIVITY LOG
SPRED .MV    : SPONTANEOUS POTENTIAL FROM RESISTIVITY LOG
SPWS  .MV    : SPONTANEOUS POTENTIAL [BASELINE 0 MV,SPRED]
SRESWS.OHMM  : SHALLOW RESISTIVITY [SNED]
~Params ----------------------------------------------------
PD  .                     GL : PERMANENT DATUM
LMF .                     KB : LOG MEASURED FROM
EKB .FT                 4176 : KELLY BUSHING
DATE.               07/26/62 : RUN DATE
RUN .                      3 : RUN NUMBER
DD  .FT                14885 : DEPTH DRILLER
DL  .FT                14889 : DEPTH LOGGER
BLI .FT                14888 : BOTTOM LOG INTERVAL
TLI .FT                12790 : TOP LOG INTERVAL
CBD .FT                12971 : CASING BOTTOM DRILLER
CBL .FT                12790 : CASING BOTTOM LOGGER
BS  .IN                    9 : BIT SIZE
BSD .FT                14885 : BIT SIZE AT DEPTH
DFT .              LIME BASE : DRILLING FLUID TYPE
DFD .                   14.7 : DRILLING FLUID DENSITY
DFV .                     50 : DRILLING FLUID VISCOSITY
DFPH.                     14 : DRILLING FLUID PH
DFL .                      4 : DRILLING FLUID LOSS
RMS .OHMM               0.44 : RESISTIVITY MUD SAMPLE
MST .DEGF                 71 : MUD SAMPLE TEMPERATURE
RMF .OHMM               0.24 : RESISTIVITY MUD FILTRATE SAMPLE
MFST.DEGF                 76 : MUD FILTRATE SAMPLE TEMPERATURE
RMC .OHMM                1.1 : RESISTIVITY MUD CAKE
MCST.DEGF                 77 : MUD CAKE SAMPLE TEMPERATURE
RMB .OHMM               0.12 : RESISTIVITY MUD AT BHT
TCS .HRS                   3 : TIME CIRCULATED STOPPED
LUN .                   1576 : LOGGING UNIT NUMBER
LUL .                     DV : LOGGING UNIT LOCATION
ENGI.               HATLELID : RECORDING ENGINEER
WITN.                 CARSON : WITNESSED BY
CLNT.                A2DTECH : CLIENT CODE
ORIG.            2" 5" PRINT : ORIGIN OF DATA
UWI .       102061504716W500 : UNIQUE WELL ID
DICO. A2D Technologies, Inc. : DIGITIZING COMPANY
~Other -----------------------------------------------------
GRN-IEL-ML-SONIC USED
NO SP RECORDED DUE TO EXCESSIVE TELLURIC CURRENTS, SP BELOW 3610M IS NOT LOOK VALID
~ASCII -----------------------------------------------------
# ...
 10950.00000    9.28810   53.95800   52.61570   19.00680    -999.25   83.20420   83.20420    -999.25  106.06740  106.06740   19.00680    9.28810    -999.25    -999.25   18.39860   -9.61270   -6.73370   18.39860
 11000.00000    9.76380   44.39160   42.93300   23.29210    -999.25   71.74470   71.74470    -999.25   88.34250   88.34250   23.29210    9.76380    -999.25    -999.25   15.62880   -6.97930   -5.03880   15.62880
 11050.00000    9.14190   76.33110   75.43180   13.25700    -999.25   79.68650   79.68650    -999.25  102.62420  102.62420   13.25700    9.14190    -999.25    -999.25   11.98050   -5.66220   -4.66490   11.98050
 11100.00000    9.63620   12.68200    9.69630  108.83130    -999.25   63.39300   63.39300    -999.25   26.65090   26.65090  108.83130    9.63620    -999.25    -999.25   35.83820   -4.10190   -4.05250   35.83820
 11150.00000    9.91000   83.79740   84.65820   11.81220    -999.25   62.35260   62.35260    -999.25   75.61000   75.61000   11.81220    9.91000    -999.25    -999.25   10.53940   -5.67180   -6.35100   10.53940
 11200.00000    9.23330    6.04360    5.88350  170.14630   52.51220   53.16110   53.16110    -999.25   74.07780   74.07780  170.14630    9.23330    -999.25    -999.25   64.08370  -29.57880  -30.28020   64.08370
 11250.00000    9.05850    9.94680    8.88560  112.54130   71.55820   66.29100   66.29100    -999.25   25.84480   25.84480  112.54130    9.05850    -999.25    -999.25   69.56100  -29.23570  -28.21720   69.56100
 11300.00000    9.07060    1.88200    1.81730  550.25500   57.81970   56.07310   56.07310    -999.25   33.82300   33.82300  550.25500    9.07060    -999.25    -999.25   76.42210  -37.86460  -35.11770   76.42210
 11350.00000    9.00950    1.04410    2.51600  430.38720   56.70540   53.44340   53.44340    -999.25   51.57920   51.57920  430.38720    9.00950    -999.25    -999.25   55.47470  -34.52290  -30.03880   55.47470
 11400.00000    8.23210   11.26460   10.59180   94.41280   50.73540   49.87660   49.87660    -999.25   19.62380   19.62380   94.41280    8.23210    -999.25    -999.25   45.42290  -53.35890  -47.15500   45.42290
 11450.00000    8.91280    2.33850    2.88470  350.90390   49.57580   49.38140   49.38140    -999.25   41.54450   41.54450  350.90390    8.91280    -999.25    -999.25   55.66940  -32.35920  -24.41810   55.66940
 11500.00000    8.76480    1.62590    1.99330  501.67910   50.09140   47.24410   47.24410    -999.25   30.87950   30.87950  501.67910    8.76480    -999.25    -999.25   46.66770  -31.41890  -21.75800   46.66770
 11550.00000    8.97030   38.67730   36.55710   27.35450   57.96960   55.10840   55.10840    -999.25   46.92260   46.92260   27.35450    8.97030    -999.25    -999.25   26.36020  -29.41300  -18.02360   26.36020
 11600.00000    9.05280    4.31330    3.06810  337.65030   51.29290   51.61460   51.61460    -999.25   10.10230   10.10230  337.65030    9.05280    -999.25    -999.25   38.92370  -19.20210   -6.07560   38.92370
 11650.00000    9.19050   23.33060   21.86510   45.73490   49.48030   52.10990   52.10990    6.86420   15.19580   15.19580   45.73490    9.19050 1050.45910 1050.45910   28.07100  -23.22250   -5.23370   28.07100
 11700.00000    9.55350    1.33110    1.72280  580.45660   51.11030   51.88850   51.88850    3.64370   12.59320   12.59320  580.45660    9.55350 1632.79570 1632.79570   78.29310  -75.48130  -48.88980   78.29310
 11750.00000    8.00300    7.57140    6.40950  156.01820   53.51600   51.91550   51.91550    5.82650   19.52550   19.52550  156.01820    8.00300 1162.46010 1162.46010   43.39950  -89.90650  -54.79790   43.39950
 11800.00000    9.39840    1.34030    2.14930  465.26230   48.99930   52.17930   52.17930    4.13390   29.33560   29.33560  465.26230    9.39840 1841.45920 1841.45920   55.94280  -95.79320  -52.12470   55.94280
 11850.00000    -999.25    -999.25    -999.25    -999.25    -999.25    -999.25    -999.25   25.82770    -999.25   25.82770    -999.25    -999.25  649.09290  649.09290    -999.25    -999.25    -999.25    -999.25
 11900.00000    -999.25    -999.25    -999.25    -999.25    -999.25    -999.25    -999.25   11.21510    -999.25   11.21510    -999.25    -999.25  722.70210  722.70210    -999.25    -999.25    -999.25    -999.25
 11950.00000    -999.25    -999.25    -999.25    -999.25    -999.25    -999.25    -999.25   15.88520    -999.25   15.88520    -999.25    -999.25  952.02300  952.02300    -999.25    -999.25    -999.25    -999.25
 12000.00000    -999.25    -999.25    -999.25    -999.25    -999.25    -999.25    -999.25    9.94480    -999.25    9.94480    -999.25    -999.25 1179.21310 1179.21310    -999.25    -999.25    -999.25    -999.25
 12050.00000    -999.25    -999.25    -999.25    -999.25    -999.25    -999.25    -999.25   12.40950    -999.25   12.40950    -999.25    -999.25 1205.91530 1205.91530    -999.25    -999.25    -999.25    -999.25
 12100.00000    -999.25    -999.25    -999.25    -999.25    -999.25    -999.25    -999.25    9.44120    -999.25    9.44120    -999.25    -999.25 1424.80670 1424.80670    -999.25    -999.25    -999.25    -999.25
 12150.00000    -999.25    -999.25    -999.25    -999.25    -999.25    -999.25    -999.25    8.17630    -999.25    8.17630    -999.25    -999.25 1436.57130 1436.57130    -999.25    -999.25    -999.25    -999.25
 12200.00000    -999.25    -999.25    -999.25    -999.25    -999.25    -999.25    -999.25   14.85660    -999.25   14.85660    -999.25    -999.25 1081.89150 1081.89150    -999.25    -999.25    -999.25    -999.25
 12250.00000    -999.25    -999.25    -999.25    -999.25    -999.25    -999.25    -999.25   11.50100    -999.25   11.50100    -999.25    -999.25 1258.29640 1258.29640    -999.25    -999.25    -999.25    -999.25
 12300.00000    -999.25    -999.25    -999.25    -999.25    -999.25    -999.25    -999.25   15.05800    -999.25   15.05800    -999.25    -999.25 1149.29710 1149.29710    -999.25    -999.25    -999.25    -999.25
 12350.00000    -999.25    -999.25    -999.25    -999.25    -999.25    -999.25    -999.25    5.79820    -999.25    5.79820    -999.25    -999.25 1400.10950 1400.10950    -999.25    -999.25    -999.25    -999.25
 12400.00000    -999.25    -999.25    -999.25    -999.25    -999.25    -999.25    -999.25    6.16950    -999.25    6.16950    -999.25    -999.25 1572.58390 1572.58390    -999.25    -999.25    -999.25    -999.25
 12450.00000    -999.25    -999.25    -999.25    -999.25    -999.25    -999.25    -999.25    6.25210    -999.25    6.25210    -999.25    -999.25 1399.77180 1399.77180    -999.25    -999.25    -999.25    -999.25
 12500.00000    -999.25    -999.25    -999.25    -999.25    -999.25    -999.25    -999.25    4.30580    -999.25    4.30580    -999.25    -999.25 1319.45890 1319.45890    -999.25    -999.25    -999.25    -999.25
 12550.00000    -999.25    -999.25    -999.25    -999.25    -999.25    -999.25    -999.25    3.56940    -999.25    3.56940    -999.25    -999.25 1035.85060 1035.85060    -999.25    -999.25    -999.25    -999.25
 12600.00000    -999.25    -999.25    -999.25    -999.25    -999.25    -999.25    -999.25    5.19980    -999.25    5.19980    -999.25    -999.25 1160.79730 1160.79730    -999.25    -999.25    -999.25    -999.25
 12650.00000    -999.25    -999.25    -999.25    -999.25    -999.25    -999.25    -999.25    5.46660    -999.25    5.46660    -999.25    -999.25 1318.19870 1318.19870    -999.25    -999.25    -999.25    -999.25
 12700.00000    -999.25    -999.25    -999.25    -999.25    -999.25    -999.25    -999.25    3.63920    -999.25    3.63920    -999.25    -999.25 1353.77360 1353.77360    -999.25    -999.25    -999.25    -999.25
 12750.00000    -999.25    -999.25    -999.25    -999.25    -999.25    -999.25    -999.25    3.35060    -999.25    3.35060    -999.25    -999.25 1889.86410 1889.86410    -999.25    -999.25    -999.25    -999.25
 12800.00000    7.21230   25.90050   22.21810   45.00830   48.82730   52.37830   52.37830    5.32230    4.52230    4.52230   45.00830    7.21230 2203.95800 2203.95800   49.48650    -999.25    -999.25   49.48650
