~Version ---------------------------------------------------
VERS.      2.0 : CWLS log ASCII Standard -VERSION 2.0
WRAP.       NO : One line per depth step
CREA. 11/22/17 : LAS Creation Date
~Well ------------------------------------------------------
STRT.FT                       1500.0 : START DEPTH
STOP.FT                      10400.0 : STOP DEPTH
STEP.FT                     50.00000 : STEP LENGTH
NULL.                        -999.25 : NULL VALUE
COMP.   MERLAND EXPLORATIONS LIMITED : COMPANY
WELL. MERLAND ET AL GIROUXLUX 10-11- : WELL
FLD .                                : FIELD
LOC .                                : LOCATION
CTRY.                         CANADA : COUNTRY
SRVC.                        Unknown : SERVICE COMPANY
DATE.                    26-Feb-1978 : LOGDATE
PROV.                        Alberta : PROVINCE
UWI .               100101106622W500 : UNIQUE WELL ID
SLAT.WGS84                  54.70081 : SURFACE LATITUDE
SLON.WGS84                 -117.2093 : SURFACE LONGITUDE
~Curve Information -----------------------------------------
DEPT    .FT    : Depth Curve
CALDED  .IN    : CALIPER FROM DENSITY LOG [ADJ. TO RESISTIVITY LOG]
CALSED  .IN    : CALIPER FROM SONIC LOG [ADJ. TO RESISTIVITY LOG]
CALWS   .IN    : CALIPER [CALDED SPL. TO CALSED @ 8272']
CONDWS  .MMHO  : CONDUCTIVITY [1000/DRESWS]
DCORED  .G/C3  : DENSITY CORRECTION FROM DENSITY LOG [ADJ. TO RESISTIVITY LOG]SMALL SCALE
DCORWS  .G/C3  : DENSITY CORRECTION [DCORED]
DENWS   .G/C3  : FORMATION BULK DENSITY [CALC FROM DPOLSWS, M=2.71, F=1.0]
DPHILSED.V/V   : DENSITY POROSITY LIMESTONE [M=2.71,F=1.0] FROM DENSITY LOG [ADJ. TO RESISTIVITY LOG]
DPHISSED.V/V   : DENSITY POROSITY SANDSTONE [M=2.65,F=1.0] FROM DENSITY LOG [ADJ. TO RESISTIVITY LOG]
DPOLSWS .V/V   : DENSITY POROSITY LIMESTONE [DPHISSED CONVERTED TO LIMESTONE MATRIX, M=2.71, F=1.00 SPL.TO DPHILSED @ 5906']
DRESWS  .OHMM  : DEEP RESISTIVITY [ILDED]
DTED    .US/F  : DELTA-T FROM SONIC LOG [ADJ. TO RESISTIVITY LOG]
DTWS    .US/F  : COMPRESSIONAL SONIC [DTED]
GRDED   .GAPI  : GAMMA RAY FROM DENSITY LOG [ADJ. TO RESISTIVITY LOG]
GRSED   .GAPI  : GAMMA RAY FROM SONIC LOG [ADJ. TO RESISTIVITY LOG]
GRWS    .GAPI  : GAMMA RAY [GRDED SPL. TO GRSED @ 8262.5']
ILDED   .OHMM  : DEEP INDUCTION RESISTIVITY FROM RESISTIVITY LOG
ILMED   .OHMM  : MEDIUM INDUCTION RESISTIVITY FROM RESISTIVITY LOG
LL8ED   .OHMM  : LATEROLOG 8 FROM RESISTIVITY LOG
MRESWS  .OHMM  : MEDIUM RESISTIVITY [ILMED]
NPHILSED.V/V   : NEUTRON POROSITY LIMESTONE FROM DENSITY LOG [ADJ. TO RESISTIVITY LOG]
NPHISSED.V/V   : NEUTRON POROSITY SANDSTONE FROM DENSITY LOG [ADJ. TO RESISTIVITY LOG]
NPOLSWS .V/V   : NEUTRON POROSITY LIMESTONE [NPHISSED MATRIX (SLB) CONVERSION FOR LIMESTONE, SPL.TO NPHILSED @ 5914']
RHOBED  .G/C3  : BULK DENSITY FROM DENSITY LOG [ADJ. TO RESISTIVITY LOG] SMALL SCALE
SPRED   .MV    : SPONTANEOUS POTENTIAL FROM RESISTIVITY LOG
SPWS    .MV    : SPONTANEOUS POTENTIAL [BASELINE 0 MV, SPRED]
SRESWS  .OHMM  : SHALLOW RESISTIVITY [LL8ED]
~Params ----------------------------------------------------
PD  .                     GL : PERMANENT DATUM
EPD .FT                 2391 : ELEVATION PERMANENT DATUM
LMF .                     KB : LOG MEASURED FROM
DAPD.FT                   16 : FEET ABOVE PERMANENT DATUM
DMF .                     KB : DRILLING MEASURED FROM
EKB .FT                 2407 : KELLY BUSHING
EGL .FT                 2391 : GROUND LEVEL
DATE.               02/26/78 : RUN DATE
RUN .                      2 : RUN NUMBER
DD  .FT                10409 : DEPTH DRILLER
DL  .FT                10410 : DEPTH LOGGER
BLI .FT                10404 : BOTTOM LOG INTERVAL
TLI .FT                 8200 : TOP LOG INTERVAL
CBD .FT                 1515 : CASING BOTTOM DRILLER
CBL .FT                 1514 : CASING BOTTOM LOGGER
BS  .IN                 8.75 : BIT SIZE
BSD .FT                10409 : BIT SIZE AT DEPTH
DFT .               GEL CHEM : DRILLING FLUID TYPE
DFD .                    9.3 : DRILLING FLUID DENSITY
DFV .                     75 : DRILLING FLUID VISCOSITY
DFPH.                    9.5 : DRILLING FLUID PH
DFL .                    9.2 : DRILLING FLUID LOSS
MSS .               FLOWLINE : MUD SAMPLE SOURCE
RMS .OHMM               2.47 : RESISTIVITY MUD SAMPLE
MST .DEGF                 51 : MUD SAMPLE TEMPERATURE
RMF .OHMM               3.21 : RESISTIVITY MUD FILTRATE SAMPLE
MFST.DEGF                 60 : MUD FILTRATE SAMPLE TEMPERATURE
RMB .OHMM               1.02 : RESISTIVITY MUD AT BHT
TCS .HRS                 3.5 : TIME CIRCULATED STOPPED
LUN .                   7730 : LOGGING UNIT NUMBER
LUL .                    EDM : LOGGING UNIT LOCATION
ENGI.               ACKERMAN : RECORDING ENGINEER
WITN.                  GAWNE : WITNESSED BY
CLNT.                A2DTECH : CLIENT CODE
ORIG.            2" 5" PRINT : ORIGIN OF DATA
UWI .       100101106622W500 : UNIQUE WELL ID
DICO. A2D Technologies, Inc. : DIGITIZING COMPANY
~Other -----------------------------------------------------
~ASCII -----------------------------------------------------
# ...
 5400.00000   12.84170   12.86190   12.84170  298.85540    0.08680    0.08680    1.90580    -999.25    0.45100    0.47030    3.34610   91.67580   91.67580   86.56710  104.35660   86.56710    3.34610    3.80510    4.21320    3.80510    -999.25    0.52180    0.48310    1.86710   54.10890   -9.28910    4.21320
 5450.00000   10.11120   11.00300   10.11120   83.53360    0.08090    0.08090    2.51300    -999.25    0.08310    0.11520   11.97250   71.50730   71.50730   53.27510   65.91530   53.27510   11.97250   15.68210   22.08400   15.68210    -999.25    0.22380    0.18010    2.51890   34.59710  -29.64720   22.08400
 5500.00000   10.48160   11.20770   10.48160   97.63340    0.01380    0.01380    2.46260    -999.25    0.11360    0.14470   10.24240   71.69320   71.69320   62.56100   65.81490   62.56100   10.24240   11.60240   13.25160   11.60240    -999.25    0.23240    0.18860    2.46990   36.15630  -28.92580   13.25160
 5550.00000   10.32360   11.39080   10.32360   17.75980    0.01320    0.01320    1.53210    -999.25    0.67750    0.68880   56.30690  128.51110  128.51110   43.12090   44.41670   43.12090   56.30690   67.10210  233.04740   67.10210    -999.25    0.62550    0.59320    1.45510   47.90590  -18.01830  233.04740
 5600.00000   14.18460   12.79170   14.18460  141.39600    0.23130    0.23130    2.10690    -999.25    0.32920    0.35270    7.07780   78.36770   78.36770   91.87330  100.58660   91.87330    7.07780    8.45870    7.71870    8.45870    -999.25    0.39810    0.35510    2.03790   59.03650   -7.73400    7.71870
 5650.00000    9.53910   10.61580    9.53910   84.16940    0.06520    0.06520    2.56750    -999.25    0.05000    0.08330   11.88080   67.56000   67.56000  101.43120  110.24740  101.43120   11.88080   12.48940   15.97840   12.48940    -999.25    0.22980    0.18600    2.56240   55.59010  -12.01830   15.97840
 5700.00000    9.61430   10.34790    9.61430   52.92290    0.00010    0.00010    2.59080    -999.25    0.03580    0.06970   18.90090   66.74060   66.74060   83.78720   87.76210   83.78720   18.90090   22.64100   37.80610   22.64100    -999.25    0.18590    0.14270    2.56630   56.34440  -12.11020   37.80610
 5750.00000   15.02060   13.86540   15.02060  216.46430    0.15580    0.15580    1.90800    -999.25    0.44970    0.46900    4.61970   81.18510   81.18510   81.17570  100.53550   81.17570    4.61970    4.83750    5.80030    4.83750    -999.25    0.49720    0.45730    1.93500   62.17640   -7.11610    5.80030
 5800.00000   15.00000   13.94980   15.00000  327.33220    0.15710    0.15710    1.96940    -999.25    0.41250    0.43310    3.05500   90.39830   90.39830   89.57360  106.47050   89.57360    3.05500    3.19840    4.34550    3.19840    -999.25    0.58350    0.54840    2.00230   61.26720   -8.86740    4.34550
 5850.00000   13.80110   12.64270   13.80110  201.04820    0.16590    0.16590    1.96720    -999.25    0.41380    0.43440    4.98020  110.40910  110.40910  102.08760  109.03090  102.08760    4.98020    5.41580    7.37730    5.41580    -999.25    0.57420    0.53850    2.10450   64.52540   -6.45550    7.37730
 5900.00000    9.03870    9.79130    9.03870   14.52970   -0.00070   -0.00070    2.40280    0.16590    0.14980    0.17960   68.82470   90.24980   90.24980  138.86840  138.53530  138.86840   68.82470   78.83530  120.81870   78.83530    0.32570    0.39620    0.35330    2.37260   49.41640  -22.16240  120.81870
 5950.00000    9.40550    9.99920    9.40550   39.27250    0.00290    0.00290    2.55490    0.09070    0.00570    0.09070   25.69550   76.42620   76.42620  150.68750  131.14640  150.68750   25.69550   29.20150   37.53690   29.20150    0.24450    0.23740    0.24450    2.61620   32.53120  -39.56360   37.53690
 6000.00000   15.02850   13.60100   15.02850  199.46940    0.14760    0.14760    1.94800    0.44560    0.45070    0.44560    5.01330   81.68550   81.68550  115.46260  126.77960  115.46260    5.01330    5.35410    6.46160    5.35410    0.36260    0.43170    0.36260    1.83360   58.55940  -14.04620    6.46160
 6050.00000   10.24620   11.33140   10.24620   57.86230    0.01490    0.01490    2.62890    0.04740   -0.00600    0.04740   17.28240   62.96740   62.96740  100.59880  106.55850  100.59880   17.28240   18.74640   21.85690   18.74640    0.10780    0.15030    0.10780    2.65770   64.56030   -8.55870   21.85690
 6100.00000   10.22860   11.24950   10.22860   43.71290    0.00500    0.00500    2.65620    0.03140   -0.01450    0.03140   22.87760   59.33370   59.33370   77.46700   79.94580   77.46700   22.87760   26.92050   33.19250   26.92050    0.07150    0.11170    0.07150    2.66550   59.26810  -14.36690   33.19250
 6150.00000   10.85430   11.36420   10.85430   56.46240    0.00960    0.00960    2.64710    0.03680   -0.00570    0.03680   17.71090   63.29220   63.29220   99.35750  109.42590   99.35750   17.71090   18.53980   21.31660   18.53980    0.11360    0.15140    0.11360    2.65490   59.47940  -14.66630   21.31660
 6200.00000    9.93180   11.07740    9.93180   39.07170   -0.00220   -0.00220    2.67800    0.01870   -0.01430    0.01870   25.59440   59.83890   59.83890   83.88360   91.78800   83.88360   25.59440   30.88890   35.45560   30.88890    0.10380    0.13900    0.10380    2.66790   58.72540  -15.93630   35.45560
 6250.00000   10.98140   11.63450   10.98140   56.05760    0.00600    0.00600    2.63080    0.04630    0.01290    0.04630   17.83880   69.18540   69.18540  126.59500  125.79320  126.59500   17.83880   19.75660   21.91200   19.75660    0.17560    0.21640    0.17560    2.63830   72.50590   -2.66660   21.91200
 6300.00000    9.00120    8.81770    9.00120  255.85920    0.03000    0.03000    2.50070    0.12240    0.06120    0.12240    3.90840   58.69300   58.69300   28.11210   30.35190   28.11210    3.90840    6.62050   41.88490    6.62050    0.10270    0.13090    0.10270    2.54260  -37.94490 -113.63080   41.88490
 6350.00000    9.98950   10.36170    9.98950   50.96760    0.02690    0.02690    2.72910   -0.01110   -0.06090   -0.01110   19.62090   56.88350   56.88350   78.46710   80.36040   78.46710   19.62090   21.26520   25.63060   21.26520    0.10730    0.13470    0.10730    2.72180   45.66440  -30.53750   25.63060
 6400.00000    9.59800    9.34060    9.59800   17.61690    0.06860    0.06860    2.70640    0.00210   -0.07630    0.00210   56.76370   50.40860   50.40860   22.47940   28.76590   22.47940   56.76370   77.04510  180.71680   77.04510    0.08050    0.10550    0.08050    2.77060  -30.25400 -106.96660  180.71680
 6450.00000   10.08870   10.44610   10.08870  295.36240    0.13190    0.13190    2.61920    0.05310    -999.25    0.05310    3.41120   60.05000   60.05000   40.35060   47.82450   40.35060    3.41120    4.22660    9.66400    4.22660    0.14690    -999.25    0.14690    2.61860  -12.92420  -90.15270    9.66400
 6500.00000   10.11360   10.25980   10.11360  121.97500    0.00050    0.00050    2.66300    0.02750    -999.25    0.02750    8.19840   58.70100   58.70100   55.09140   65.67690   55.09140    8.19840    9.26700   13.77890    9.26700    0.16230    -999.25    0.16230    2.64060   -1.31390  -79.05330   13.77890
 6550.00000    8.96140    9.29150    8.96140  372.55050    0.19330    0.19330    2.41330    0.17350    -999.25    0.17350    2.68420   60.29990   60.29990   25.60810   27.23280   25.60810    2.68420    4.74890   23.72150    4.74890    0.22370    -999.25    0.22370    2.41120  -23.74190 -101.99470   23.72150
 6600.00000    9.61730   10.36660    9.61730  795.55740    0.06880    0.06880    2.59840    0.06520    -999.25    0.06520    1.25980   67.90800   67.90800   37.34970   43.45320   37.34970    1.25980    1.46980    5.84060    1.46980    0.23420    -999.25    0.23420    2.59660   -4.08080  -82.84950    5.84060
 6650.00000    9.05020    9.74160    9.05020    7.29740    0.00820    0.00820    2.66300    0.02750    -999.25    0.02750  137.03530   50.51220   50.51220   14.70220   14.47450   14.70220  137.03530  180.61320 1191.39110  180.61320    0.00330    -999.25    0.00330    2.66110   27.74380  -51.53570 1191.39110
