~Version ---------------------------------------------------
VERS.      2.0 : CWLS log ASCII Standard -VERSION 2.0
WRAP.       NO : One line per depth step
CREA. 11/13/17 : LAS Creation Date
~Well ------------------------------------------------------
STRT.FT                                  800.0 : START DEPTH
STOP.FT                                11750.0 : STOP DEPTH
STEP.FT                               50.00000 : STEP LENGTH
NULL.                                  -999.25 : NULL VALUE
COMP.               THE CALIFORNIA STANDARD CO : COMPANY
WELL. CALSTAN PAN AM WASKAHIGAN 12-1-64-24 #12 : WELL
FLD .                                          : FIELD
LOC .                                          : LOCATION
CTRY.                                   CANADA : COUNTRY
SRVC.                             Schlumberger : SERVICE COMPANY
DATE.                              23-Oct-1961 : LOGDATE
PROV.                                  Alberta : PROVINCE
UWI .                         100120106424W500 : UNIQUE WELL ID
SLAT.WGS84                            54.51049 : SURFACE LATITUDE
SLON.WGS84                            -117.501 : SURFACE LONGITUDE
~Curve Information -----------------------------------------
DEPT  .FT         : Depth Curve
CALWS .IN         : CALIPER [MCALED]
CILDED.MMHO       : CONDUCTIVITY FROM RESISTIVITY LOG
CONDWS.MMHO       : CONDUCTIVITY [1000/DRESWS]
DRESWS.OHMM       : DEEP RESISTIVITY [1000/CONDWS, IF ILDED<1, ILDED]
DT1ED .US/F       : DELTA TIME (1' SPACING) FROM SONIC LOG [ADJ. TO GRSED]
DTED  .US/F       : COMPRESSIONAL SONIC (3' SPACING) FROM SONIC LOG
DTWS  .US/F       : COMPRESSIONAL SONIC [DTED]
GRS1ED.UgRa-Eq/T  : GAMMA RAY FROM SONIC LOG [ADJ. TO GRSED]
GRSED .UgRa-Eq/T  : GAMMA RAY FROM SONIC LOG
GRWS  .GAPI       : GAMMA RAY [GRSED] [GRWS*16.50]
ILDED .OHMM       : DEEP INDUCTION RESISTIVITY FROM RESISTIVITY LOG
MCALED.IN         : CALIPER FROM RESISTIVITYLOG
SNED  .OHMM       : SHORT NORMAL RESISTIVITY FROMRESISTIVITY LOG
SPRED .MV         : SPONTANEOUS POTENTIAL FROM RESISTIVITY LOG
SPWS  .MV         : SPONTANEOUS POTENTIAL [BASE LINE 0 MV, SPRED]
SRESWS.OHMM       : SHALLOW RESISTIVITY [SNED]
~Params ----------------------------------------------------
PD  .                     GL : PERMANENT DATUM
EPD .FT                 2810 : ELEVATION PERMANENT DATUM
LMF .                     KB : LOG MEASURED FROM
DAPD.FT                   14 : FEET ABOVE PERMANENT DATUM
EKB .FT                 2824 : KELLY BUSHING
EGL .FT                 2810 : GROUND LEVEL
DATE.               10/23/61 : RUN DATE
RUN .                      2 : RUN NUMBER
DD  .FT                11793 : DEPTH DRILLER
DL  .FT                11795 : DEPTH LOGGER
BLI .FT                11794 : BOTTOM LOG INTERVAL
TLI .FT                 7600 : TOP LOG INTERVAL
BS  .IN                    9 : BIT SIZE
BSD .FT                11793 : BIT SIZE AT DEPTH
DFT .                    GEL : DRILLING FLUID TYPE
DFD .                   10.3 : DRILLING FLUID DENSITY
DFV .                    250 : DRILLING FLUID VISCOSITY
DFPH.                     10 : DRILLING FLUID PH
DFL .                    8.1 : DRILLING FLUID LOSS
RMS .OHMM               2.66 : RESISTIVITY MUD SAMPLE
MST .DEGF                 64 : MUD SAMPLE TEMPERATURE
RMF .OHMM               1.59 : RESISTIVITY MUD FILTRATE SAMPLE
MFST.DEGF                 80 : MUD FILTRATE SAMPLE TEMPERATURE
RMC .OHMM               1.89 : RESISTIVITY MUD CAKE
MCST.DEGF                 78 : MUD CAKE SAMPLE TEMPERATURE
TCS .HRS                   3 : TIME CIRCULATED STOPPED
LUN .                   1534 : LOGGING UNIT NUMBER
LUL .                     WC : LOGGING UNIT LOCATION
ENGI.                   GRAY : RECORDING ENGINEER
WITN.                BORWICK : WITNESSED BY
CLNT.                A2DTECH : CLIENT CODE
ORIG.            2" 5" PRINT : ORIGIN OF DATA
UWI .       100120106424W500 : UNIQUE WELL ID
DICO. A2D Technologies, Inc. : DIGITIZING COMPANY
~Other -----------------------------------------------------
~ASCII -----------------------------------------------------
  800.00000    -999.25    -999.25    -999.25    -999.25    -999.25    -999.25    -999.25    -999.25    2.33260   38.48790    -999.25    -999.25    -999.25    -999.25    -999.25    -999.25
  850.00000    -999.25    -999.25    -999.25    -999.25    -999.25    -999.25    -999.25    -999.25    2.52250   41.62120    -999.25    -999.25    -999.25    -999.25    -999.25    -999.25
  900.00000    -999.25    -999.25    -999.25    -999.25    -999.25    -999.25    -999.25    -999.25    2.31870   38.25860    -999.25    -999.25    -999.25    -999.25    -999.25    -999.25
  950.00000    -999.25    -999.25    -999.25    -999.25    -999.25    -999.25    -999.25    -999.25    2.17680   35.91720    -999.25    -999.25    -999.25    -999.25    -999.25    -999.25
 1000.00000    -999.25    -999.25    -999.25    -999.25    -999.25    -999.25    -999.25    -999.25    1.94080   32.02320    -999.25    -999.25    -999.25    -999.25    -999.25    -999.25
 1050.00000    -999.25    -999.25    -999.25    -999.25    -999.25    -999.25    -999.25    -999.25    2.01840   33.30360    -999.25    -999.25    -999.25    -999.25    -999.25    -999.25
 1100.00000    -999.25    -999.25    -999.25    -999.25    -999.25    -999.25    -999.25    -999.25    1.81130   29.88650    -999.25    -999.25    -999.25    -999.25    -999.25    -999.25
 1150.00000    -999.25    -999.25    -999.25    -999.25    -999.25    -999.25    -999.25    -999.25    1.95410   32.24260    -999.25    -999.25    -999.25    -999.25    -999.25    -999.25
 1200.00000    -999.25    -999.25    -999.25    -999.25    -999.25    -999.25    -999.25    -999.25    2.29910   37.93510    -999.25    -999.25    -999.25    -999.25    -999.25    -999.25
 1250.00000    9.75210   45.22900   47.01280   21.27080    -999.25  103.64150  103.64150    -999.25    2.80080   46.21320   21.27080    9.75210   20.13850 -103.22980  -18.34190   20.13850
 1300.00000   12.65490  212.18320  196.61820    5.08600    -999.25  121.11480  121.11480    -999.25    3.58490   59.15090    5.08600   12.65490    4.56610  -87.61790   -3.44610    4.56610
 1350.00000   12.27440  201.56140  188.20700    5.31330    -999.25  121.97250  121.97250    -999.25    3.36550   55.53070    5.31330   12.27440    5.08470  -87.07910   -3.05030    5.08470
 1400.00000   12.73740  156.24500  141.18310    7.08300    -999.25  136.94230  136.94230    -999.25    3.56790   58.87030    7.08300   12.73740    6.71500  -87.78550   -3.89960    6.71500
 1450.00000   11.65550  186.08220  177.32050    5.63950    -999.25  101.14820  101.14820    -999.25    3.91250   64.55630    5.63950   11.65550    4.77300  -87.73070   -3.98850    4.77300
 1500.00000   15.00080  199.67890  194.19740    5.14940    -999.25  131.58720  131.58720    -999.25    4.20380   69.36270    5.14940   15.00080    4.04880  -85.96370   -2.36380    4.04880
 1550.00000   12.26520  195.90780  197.33990    5.06740    -999.25  119.00520  119.00520    -999.25    3.78840   62.50860    5.06740   12.26520    5.36870  -85.87110   -2.41410    5.36870
 1600.00000   11.04200  190.85470  180.25160    5.54780    -999.25  104.85470  104.85470    -999.25    3.91090   64.52980    5.54780   11.04200    4.52560  -87.64040   -4.32640    4.52560
 1650.00000   11.01870  228.75640  212.16560    4.71330    -999.25  106.40000  106.40000    -999.25    3.39370   55.99600    4.71330   11.01870    5.02910  -87.20160   -4.03050    5.02910
 1700.00000   12.07540  196.96670  189.23960    5.28530    -999.25  115.00820  115.00820    -999.25    3.62460   59.80590    5.28530   12.07540    4.83340  -88.07670   -5.04930    4.83340
 1750.00000   11.28090  205.06720  194.49580    5.14150    -999.25  115.94370  115.94370    -999.25    3.81850   63.00520    5.14150   11.28090    4.27610  -86.05530   -3.17020    4.27610
 1800.00000   10.40460  389.01520  289.94750    3.44890    -999.25  132.62480  132.62480    -999.25    4.30560   71.04240    3.44890   10.40460    3.20710  -86.50300   -3.76080    3.20710
 1850.00000    9.57700  120.12120  114.48980    8.73440    -999.25   88.47750   88.47750    -999.25    4.54000   74.91000    8.73440    9.57700    8.17750  -88.46930   -5.87010    8.17750
 1900.00000    9.60780  127.99670  126.15430    7.92680    -999.25   92.32680   92.32680    -999.25    3.30030   54.45490    7.92680    9.60780    5.83430  -87.33190   -4.87570    5.83430
 1950.00000   10.00510  197.84390  185.68380    5.38790    -999.25  106.65510  106.65510    -999.25    4.08230   67.35790    5.38790   10.00510    4.39390  -85.31760   -3.00500    4.39390
 2000.00000   11.34050  144.42490  135.08950    7.40250    -999.25  124.82070  124.82070    -999.25    4.69620   77.48730    7.40250   11.34050    6.91320  -84.87650   -2.70620    6.91320
 2050.00000    9.49260  173.82650  168.40970    5.93790    -999.25  105.94330  105.94330    -999.25    3.77570   62.29910    5.93790    9.49260    5.62050  -86.80340   -4.77600    5.62050
 2100.00000   11.56790  312.83780  256.58790    3.89730    -999.25  126.00450  126.00450    -999.25    3.92420   64.74930    3.89730   11.56790    3.10540  -85.24730   -3.36290    3.10540
 2150.00000   11.53900  195.99450  180.82200    5.53030    -999.25  125.69730  125.69730    -999.25    4.16100   68.65650    5.53030   11.53900    4.83810  -84.45570   -2.71430    4.83810
 2200.00000   10.60400   63.55070   56.47610   17.78480    -999.25  116.38230  116.38230    -999.25    3.95420   65.24350   17.78480   10.60400   14.66850  -87.85720   -6.25940   14.66850
 2250.00000   11.28190  211.36070  200.45300    4.98870    -999.25  118.14870  118.14870    -999.25    3.64100   60.07650    4.98870   11.28190    4.32450  -84.85100   -3.39550    4.32450
 2300.00000    9.71000  154.00420  146.68350    6.81740    -999.25   98.53720   98.53720    -999.25    3.29160   54.31140    6.81740    9.71000    6.14220  -86.33310   -5.02050    6.14220
 2350.00000   10.16700  207.45690  199.24290    5.01900    -999.25   99.16800   99.16800    -999.25    3.21890   53.11190    5.01900   10.16700    4.51890  -84.30500   -3.13540    4.51890
 2400.00000   10.97150  198.09840  194.78370    5.13390    -999.25  115.47850  115.47850    -999.25    3.24720   53.57880    5.13390   10.97150    4.57570  -85.14800   -4.12140    4.57570
 2450.00000   11.31930  309.48220  255.31390    3.91760    -999.25  130.33160  130.33160    -999.25    4.02850   66.47030    3.91760   11.31930    3.06070  -83.82940   -2.94640    3.06070
 2500.00000    9.95810  196.83070  176.52870    5.66480    -999.25  105.28080  105.28080    -999.25    3.16690   52.25390    5.66480    9.95810    4.56440  -84.64830   -3.90760    4.56440
 2550.00000   10.63190  160.06350  141.42070    7.07110    -999.25  114.13650  114.13650    -999.25    3.03240   50.03460    7.07110   10.63190    5.93790  -85.41920   -4.82150    5.93790
 2600.00000   12.60710  248.37290  218.05490    4.58600    -999.25  138.41880  138.41880    -999.25    3.25310   53.67620    4.58600   12.60710    3.79120  -82.95720   -2.50240    3.79120
 2650.00000   10.28960   81.33320   81.08790   12.33230    -999.25   79.57380   79.57380    -999.25    2.31180   38.14470   12.33230   10.28960   13.79180  -88.53070   -8.21890   13.79180
 2700.00000    9.35180   75.77520   71.20650   14.12360    -999.25   88.11780   88.11780    -999.25    3.10260   51.19290   14.12360    9.35180   11.08760  -89.15520   -8.98710   11.08760
 2750.00000   10.35130  218.33450  199.11200    5.02230    -999.25  120.27250  120.27250    -999.25    2.77230   45.74300    5.02230   10.35130    4.73900  -83.49490   -3.46900    4.73900
 2800.00000    9.12400  140.56070  126.72990    7.89080    -999.25   98.25900   98.25900    -999.25    3.06910   50.64020    7.89080    9.12400    7.84050  -83.77620   -3.89330    7.84050
 2850.00000    9.25250  112.61680  101.22070    9.87940    -999.25   80.05150   80.05150    -999.25    2.98030   49.17500    9.87940    9.25250    7.69700  -84.58320   -4.84320    7.69700
 2900.00000   11.36850  178.38000  168.88470    5.92120    -999.25   81.68980   81.68980    -999.25    3.72440   61.45260    5.92120   11.36850    5.10680  -83.60610   -4.00910    5.10680
