~Version ---------------------------------------------------
VERS.      2.0 : CWLS log ASCII Standard -VERSION 2.0
WRAP.       NO : ONE LINE PER DEPTH STEP
CREA. 08/28/13 : LAS CREATION DATE
~Well ------------------------------------------------------
STRT.M                     450.0 : START DEPTH
STOP.M                    3750.0 : STOP DEPTH
STEP.M                  50.00000 : STEP LENGTH
NULL.                    -999.25 : NULL VALUE
COMP. ALBERTA ENERGY COMPANY LTD : COMPANY
WELL.   AEC NORTH KARR 4-26-66-1 : WELL
FLD .                            : FIELD
LOC .                            : LOCATION
CTRY.                     CANADA : COUNTRY
SRVC.                    Unknown : SERVICE COMPANY
DATE.                18-Oct-1996 : LOGDATE
PROV.                    Alberta : PROVINCE
UWI .           100042606601W600 : UNIQUE WELL ID
SLAT.WGS84              54.73603 : SURFACE LATITUDE
SLON.WGS84             -118.0441 : SURFACE LONGITUDE
~Curve Information -----------------------------------------
DEPT    .M      : DEPTH METERS
AHIBDED .MM     : ARRAY INDUCTION INPUT BOREHOLE DIAMETER TO AIT PROCESSING
AHT10ED .OHMM   : 10 INCH RESISTIVITY TWO FOOT RESOLUTION FROM AIT LOG
AHT20ED .OHMM   : 20 INCH RESISTIVITY TWO FOOT RESOLUTION FROM AIT LOG
AHT30ED .OHMM   : 30 INCH RESISTIVITY TWO FOOT RESOLUTION FROM AIT LOG
AHT60ED .OHMM   : 60 INCH RESISTIVITY TWO FOOT RESOLUTION FROM AIT LOG
AHT90ED .OHMM   : 90 INCH RESISTIVITY TWO FOOT RESOLUTION FROM AIT LOG
AHTRTED .OHMM   : ARRAY INDUCTION TWO FOOT RT
AHTRXED .OHMM   : ARRAY INDUCTION TWO FOOT RT
CALDED  .MM     : CALIPER FROM DENSITY LOG
CALRED  .MM     : CALIPER FROM RESISTIVITY LOG
CALWS   .MM     : CALIPER [HCLARED]<3625>[CALRED]
CGRDED  .GAPI   : GAMMA RAY FROM DENSITY LOG
CONDWS  .MMHO   : CONDUCTIVITY [1000/DRESWS]
DCORWS  .KG/M3  : DENSITY CORRECTION [HDRAED]<3625>[DRHOED]
DENWS   .KG/M3  : BULK DENSITY [RHOZED]<3625>[RHOBED]
DPHILSED.V/V    : DENSITY POROSITY [M=2710 F=1000] FROM DENSITY LOG
DPHZLSED.V/V    : DENSITY POROSITY LIMESTONE FROM DENSITY LOG
DPHZSSED.V/V    : DENSITY POROSITY SANDSTONE FROM DENSITY LOG
DPOLSWS .V/V    : DENSITY POROSITY LIMESTONE [CALCULATED FROM DENWS]
DRESWS  .OHMM   : DEEP RESISTIVITY [AHT90ED], SPLICED WITH [LLDED]AT 3625m
DRHOED  .KG/M3  : DENSITY CORRECTION FROM DENSITY LOG
DT4PED  .US/M   : DELTA TIME COMP - P & S FROM DIPOLE SONIC LOG
DTCOED  .US/M   : DELTA TIME COMPRESSIONAL FROM SONIC LOG
DTED    .US/M   : DELTA TIME FROM SONIC LOG
DTWS    .US/M   : DELTA TIME [DTED]
GRRED   .GAPI   : GAMMA RAY FROM RESISTIVITY LOG
GRSED   .GAPI   : GAMMA RAY FROM SONIC LOG
GRWS    .GAPI   : GAMMA RAY [GRRED]
HCALRED .MM     : HRCC CALIPER CALIBRATED FROM RES. LOG
HDDED   .MM     : HOLE DIAMETER FROM DENSITY LOG
HDRAED  .KG/M3  : DENSITY CORRECTION FROM DENSITY LOG
HDSED   .MM     : HOLE DIAMETER FROM SONIC LOG
LLDED   .OHMM   : LATEROLOG DEEP RESISTIVITY
LLSED   .OHMM   : LATEROLOG SHALLOW RESISTIVITY
MRESWS  .OHMM   : MEDIUM RESISTIVITY [LLSED]
MSFLED  .OHMM   : MICROSPHERICALLY FOCUSED LOG RESISTIVITY
NPOLSWS .V/V    : NUTRON POROSITY LIMESTONE [NPORLSED], MATRIX CONVERTED [NPORSSED] TO LIMESTONE FROM TOP TO 2150m
NPORLSED.V/V    : NUTRON POROSITY LIMESTONE FROM DENSITY LOG
NPORSSED.V/V    : NUTRON POROSITY SANDSTONE FROM DENSITY LOG
PEFED   .B/E    : PHOTOELECTRIC FACTOR FROM DENSITY LOG
PEFWS   .B/E    : PHOTOELECTRIC FACTOR [PEFED]
PEFZED  .B/E    : PHOTOELECTRIC FACTOR STANDARD RESOLUTION FROM DENSITY LOG
RHOBED  .KG/M3  : BULK DENSITY FROM DENSITY LOG
RHOZED  .KG/M3  : BULK DENSITY FROM DENSITY LOG
SGRDED  .GAPI   : GAMMA RAY FROM DENSITY LOG
SPRED   .MV     : SPONTANEOUS POTENTIAL FROM RESISTIVITY LOG
SPWS    .MV     : SPONTANEOUS POTENTIAL [BASELINE 0 MV] [SPRED]
SRESWS  .OHMM   : SHALLOW RESISTIVITY [AHT10ED], SPLICED WITH [LLSED] AT 3625m
TENDED  .N      : TENSION FROM DENSITY LOG
TENRED  .N      : TENSION FROM RESISTIVITY LOG
TENSED  .N      : TENSION FROM SONIC LOG
~Params ----------------------------------------------------
PD  .                        GL : PERMANENT DATUM
EPD .M                    811.6 : ELEVATION PERMANENT DATUM
LMF .                        KB : LOG MEASURED FROM
DAPD.M                      7.4 : FEET ABOVE PERMANENT DATUM
DMF .                        KB : DRILLING MEASURED FROM
EKB .M                      819 : KELLY BUSHING
EDF .M                    818.7 : DRILLING FLOOR
EGL .M                    811.6 : GROUND LEVEL
DATE.                  10/18/96 : RUN DATE
RUN .                         1 : RUN NUMBER
DD  .M                     3755 : DEPTH DRILLER
DL  .M                     3756 : DEPTH LOGGER
BLI .M                   3755.2 : BOTTOM LOG INTERVAL
TLI .M                     3627 : TOP LOG INTERVAL
CS  .MM                   177.8 : CASING SIZE
CBD .M                     3628 : CASING BOTTOM DRILLER
CBL .M                     3627 : CASING BOTTOM LOGGER
BS  .MM                     152 : BIT SIZE
BSD .M                     3755 : BIT SIZE AT DEPTH
DFT .                  GEL CHEM : DRILLING FLUID TYPE
DFD .                      1130 : DRILLING FLUID DENSITY
DFV .                        60 : DRILLING FLUID VISCOSITY
DFPH.                      10.5 : DRILLING FLUID PH
DFL .                         8 : DRILLING FLUID LOSS
MSS .                  FLOWLINE : MUD SAMPLE SOURCE
RMS .OHMM                  3.32 : RESISTIVITY MUD SAMPLE
MST .DEGC                     9 : MUD SAMPLE TEMPERATURE
RMF .OHMM                  2.76 : RESISTIVITY MUD FILTRATE SAMPLE
MFST.DEGC                     9 : MUD FILTRATE SAMPLE TEMPERATURE
RMC .OHMM                  1.85 : RESISTIVITY MUD CAKE
MCST.DEGC                    11 : MUD CAKE SAMPLE TEMPERATURE
MFSS.                  MEASURED : MUD FILTRATE SAMPLE SOURCE
MCSS.                  MEASURED : MUD CAKE SAMPLE SOURCE
RMB .OHMM                 0.824 : RESISTIVITY MUD AT BHT
TCS .HRS                   2230 : TIME CIRCULATED STOPPED
TLAB.HRS                   1545 : TIME LOGGER AT BOTTOM
LUN .                      2028 : LOGGING UNIT NUMBER
LUL .            GRANDE PRAIRIE : LOGGING UNIT LOCATION
ENGI.           GIESSEN CARRCLL : RECORDING ENGINEER
WITN.                    SHIPKA : WITNESSED BY
CLNT.                   A2DTECH : CLIENT CODE
ORIG. 16.5"/100M 33"/100M PRINT : ORIGIN OF DATA
UWI .          100042606601W600 : UNIQUE WELL ID
DICO.    A2D Technologies, Inc. : DIGITIZING COMPANY
~Other -----------------------------------------------------
~ASCII -----------------------------------------------------
  450.00000    -999.25    -999.25    -999.25    -999.25    -999.25    -999.25    -999.25    -999.25    -999.25    -999.25    -999.25    -999.25    -999.25    -999.25    -999.25    -999.25    -999.25    -999.25    -999.25    -999.25    -999.25    -999.25    -999.25    -999.25    -999.25   49.94210    -999.25   99.94210    -999.25    -999.25    -999.25    -999.25    -999.25    -999.25    -999.25    -999.25    0.41770    -999.25    0.45680    -999.25    -999.25    -999.25    -999.25    -999.25    -999.25    -999.25    -999.25    -999.25    -999.25    -999.25    -999.25
  500.00000  222.84090    2.72140    2.82870    2.96070    3.73950    3.92920    3.93560    2.44230    -999.25    -999.25  221.51800    -999.25    -999.25   42.41810 2348.48050    -999.25    -999.25    0.18370    0.21140    3.92920    -999.25  354.39310  362.84850  377.95830  377.95830   98.97020   85.87480   98.97020  221.51800  240.01670   42.41810  246.21160    -999.25    -999.25    2.96070    -999.25    0.36120    -999.25    0.40570    -999.25    2.70530    2.70530    -999.25 2348.48050    -999.25    -999.25    -999.25    2.72140    -999.25 7450.78960    -999.25
  550.00000  214.93630    2.81760    3.02620    3.37170    4.39520    4.58690    4.44660    2.55750    -999.25    -999.25  214.26810    -999.25    -999.25   85.33940 2370.86250    -999.25    -999.25    0.16920    0.19830    4.58690    -999.25  367.20900  368.97450  402.92440  402.92440   76.59640   68.55830   76.59640  214.26810  272.34430   85.33940  269.66590    -999.25    -999.25    3.37170    -999.25    0.30020    -999.25    0.34910    -999.25    3.19570    3.19570    -999.25 2370.86250    -999.25    -999.25    -999.25    2.81760    -999.25 7702.92770    -999.25
  600.00000  213.07220    2.87730    2.97310    3.10200    3.44390    3.47430    3.54150    2.80250    -999.25    -999.25  213.15940    -999.25    -999.25   79.70510 2355.23490    -999.25    -999.25    0.17860    0.20750    3.47430    -999.25  342.72140  337.74810  371.61720  371.61720   77.21560   59.41020   77.21560  213.15940  225.54680   79.70510  246.69160    -999.25    -999.25    3.10200    -999.25    0.31330    -999.25    0.36140    -999.25    2.95790    2.95790    -999.25 2355.23490    -999.25    -999.25    -999.25    2.87730    -999.25 7928.51710    -999.25
  650.00000  217.83360    2.48760    2.63340    2.85970    3.44730    3.53030    3.70810    2.34690    -999.25    -999.25  217.60020    -999.25    -999.25   64.80030 2368.57420    -999.25    -999.25    0.16350    0.19970    3.53030    -999.25  340.49590  352.46550  373.78420  373.78420   83.62730   71.14960   83.62730  217.60020  240.96860   64.80030  253.86880    -999.25    -999.25    2.85970    -999.25    0.28590    -999.25    0.33560    -999.25    2.90320    2.90320    -999.25 2368.57420    -999.25    -999.25    -999.25    2.48760    -999.25 8136.25830    -999.25
  700.00000  216.32790    3.73450    3.99050    4.36170    4.83900    4.99000    5.15730    3.68840    -999.25    -999.25  216.24290    -999.25    -999.25   85.18940 2465.39820    -999.25    -999.25    0.11430    0.14300    4.99000    -999.25  323.42940  323.47400  339.13160  339.13160   76.76280   71.03150   76.76280  216.24290  226.42350   85.18940  244.45530    -999.25    -999.25    4.36170    -999.25    0.32670    -999.25    0.37390    -999.25    3.53700    3.53700    -999.25 2465.39820    -999.25    -999.25    -999.25    3.73450    -999.25 7967.46240    -999.25
  750.00000  215.60760    3.86990    3.94700    4.38380    5.13670    5.26190    5.33000    3.68220    -999.25    -999.25  216.23110    -999.25    -999.25  216.95890 2492.48730    -999.25    -999.25    0.09490    0.12720    5.26190    -999.25  303.21670  304.89830  321.10980  321.10980   71.32650   58.62880   71.32650  216.23110  249.19240  216.95890  256.40120    -999.25    -999.25    4.38380    -999.25    0.28240    -999.25    0.33230    -999.25    2.97240    2.97240    -999.25 2492.48730    -999.25    -999.25    -999.25    3.86990    -999.25 8777.42380    -999.25
  800.00000  215.68090    7.17780    7.25960    7.73680    9.08570    9.32060    9.21950    6.47550    -999.25    -999.25  215.04900    -999.25    -999.25   68.68130 2413.66020    -999.25    -999.25    0.14250    0.17330    9.32060    -999.25  283.36700  280.30290  285.81570  285.81570   54.17460   48.52340   54.17460  215.04900  230.65010   68.68130  238.41980    -999.25    -999.25    7.73680    -999.25    0.24660    -999.25    0.29810    -999.25    3.03360    3.03360    -999.25 2413.66020    -999.25    -999.25    -999.25    7.17780    -999.25 8552.51370    -999.25
  850.00000  215.09400    7.72360    8.04530    9.14360   10.16980   10.87710   10.68080    7.71680    -999.25    -999.25  213.55960    -999.25    -999.25   74.18170 2421.21140    -999.25    -999.25    0.13980    0.16890   10.87710    -999.25  296.17360  303.27010  307.10330  307.10330   53.17490   44.61840   53.17490  213.55960  224.09830   74.18170  234.34260    -999.25    -999.25    9.14360    -999.25    0.26860    -999.25    0.31920    -999.25    2.77200    2.77200    -999.25 2421.21140    -999.25    -999.25    -999.25    7.72360    -999.25 8814.37400    -999.25
  900.00000  218.25370    4.06620    4.07700    4.32840    5.01390    5.14750    5.08590    4.09040    -999.25    -999.25  218.07480    -999.25    -999.25   88.71770 2503.61470    -999.25    -999.25    0.08770    0.12070    5.14750    -999.25  297.32490  302.68540  304.75660  304.75660   71.57360   62.33540   71.57360  218.07480  225.07070   88.71770  237.05120    -999.25    -999.25    4.32840    -999.25    0.29010    -999.25    0.33960    -999.25    3.64620    3.64620    -999.25 2503.61470    -999.25    -999.25    -999.25    4.06620    -999.25 9115.69820    -999.25
  950.00000  215.88220    7.43780    7.29080    7.75440    8.11050    8.18420    8.22390    7.44140    -999.25    -999.25  215.82270    -999.25    -999.25   78.45680 2591.56640    -999.25    -999.25    0.03440    0.06930    8.18420    -999.25  301.05980  301.79220  325.83260  325.83260   99.17740   94.56570   99.17740  215.82270  226.91290   78.45680  235.15240    -999.25    -999.25    7.75440    -999.25    0.25030    -999.25    0.30170    -999.25    3.82210    3.82210    -999.25 2591.56640    -999.25    -999.25    -999.25    7.43780    -999.25 9588.39840    -999.25
 1000.00000  220.45350    8.18890    8.42830    8.70140    9.49230    9.56910    9.58320    8.34470    -999.25    -999.25  219.60480    -999.25    -999.25   54.19220 2539.97680    -999.25    -999.25    0.06540    0.09940    9.56910    -999.25  324.22110  326.24490  348.77440  348.77440  138.36580  123.41030  138.36580  219.60480  222.02820   54.19220  235.12370    -999.25    -999.25    8.70140    -999.25    0.30670    -999.25    0.35520    -999.25    4.09670    4.09670    -999.25 2539.97680    -999.25    -999.25    -999.25    8.18890    -999.25 9375.90820    -999.25
 1050.00000  215.99170    7.96550    7.69840    8.13880    8.62760    8.71860    8.73980    7.72410    -999.25    -999.25  216.18930    -999.25    -999.25   69.82770 2581.52220    -999.25    -999.25    0.04120    0.07510    8.71860    -999.25  296.65550  299.12720  321.30870  321.30870  110.42960   97.66180  110.42960  216.18930  223.59080   69.82770  235.19770    -999.25    -999.25    8.13880    -999.25    0.24000    -999.25    0.29160    -999.25    3.51460    3.51460    -999.25 2581.52220    -999.25    -999.25    -999.25    7.96550    -999.25 9604.78810    -999.25
 1100.00000  218.97540    6.36760    6.48830    6.57870    6.99940    7.13370    6.98560    6.21030    -999.25    -999.25  218.13550    -999.25    -999.25   56.28310 2564.05080    -999.25    -999.25    0.05180    0.08540    7.13370    -999.25  315.75710  318.26160  341.90370  341.90370  128.05370  107.78980  128.05370  218.13550  223.35330   56.28310  234.09870    -999.25    -999.25    6.57870    -999.25    0.30110    -999.25    0.35000    -999.25    3.66250    3.66250    -999.25 2564.05080    -999.25    -999.25    -999.25    6.36760    -999.25 9620.27150    -999.25
