~Version ---------------------------------------------------
VERS.      2.0 : CWLS log ASCII Standard -VERSION 2.0
WRAP.       NO : One line per depth step
CREA. 09/24/13 : LAS Creation Date
~Well ------------------------------------------------------
STRT.M                         300.0 : START DEPTH
STOP.M                        1750.0 : STOP DEPTH
STEP.M                      50.00000 : STEP LENGTH
NULL.                        -999.25 : NULL VALUE
COMP.       ANDERSON EXPLORATION LTD : COMPANY
WELL. ANDERSON ET AL ALEX 14-14-56-2 : WELL
FLD .                                : FIELD
LOC .                                : LOCATION
CTRY.                         CANADA : COUNTRY
SRVC.                        Unknown : SERVICE COMPANY
DATE.                    03-Nov-1981 : LOGDATE
PROV.                        Alberta : PROVINCE
UWI .               100141405626W400 : UNIQUE WELL ID
SLAT.WGS84                  53.84398 : SURFACE LATITUDE
SLON.WGS84                 -113.7572 : SURFACE LONGITUDE
~Curve Information -----------------------------------------
DEPT   .M      : DEPTH METER
CALD   .MM     : CALIPER FROM DENSITY LOG
CALS   .MM     : CALIPER FROM SONIC LOG
DPHI_LS.DEC    : DENSITY POROSITY LIMESTONE [M=2710,F=1000] FROM DENSITY LOG
DPHI_SS.DEC    : DENSITY POROSITY SANDSTONE [M=2650,F=1000] FROM DENSITY LOG
DRHO   .KG/M3  : DENSITY CORRECTION [DRHO SPL. TO DRHO_1@1183M]
DT     .US/M   : DELTA-T FROM SONIC LOG
GRD    .GAPI   : GAMMA RAY FROM DENSITY LOG
GRS    .GAPI   : GAMMA RAY FROM SONIC LOG
ILD    .OHMM   : DEEP INDUCTION RESISTIVITY FROM RESISTIVITY LOG
ILM    .OHMM   : MEDIUM INDUCTION RESISTIVITY FROM RESISTIVITY LOG
NPHI_LS.DEC    : NEUTRON POROSITY LIMESTONE FROM DENSITY LOG
NPHI_SS.DEC    : NEUTRON POROSITY SANDSTONE FROM DENSITY LOG
RHOB   .KG/M3  : BULK DENSITY FROM DENSITY LOG
SFLU   .OHMM   : SHALLOW FOCUSED RESISTIVITY FROM RESISTIVITY LOG
SPHI   .DEC    : SONIC POROSITY [DTM=47.6,DTF=189] FROM DENSITY LOG
SPR    .MV     : SPONTANEOUS POTENTIAL FROM RESISTIVITY LOG
~Params ----------------------------------------------------
PD  .                         GL : PERMANENT DATUM
EPD .M                     711.5 : ELEVATION PERMANENT DATUM
LMF .                         KB : LOG MEASURED FROM
DAPD.M                       4.9 : FEET ABOVE PERMANENT DATUM
DMF .                         KB : DRILLING MEASURED FROM
EKB .M                     716.4 : KELLY BUSHING
EGL .M                     711.5 : GROUND LEVEL
DATE.                   11/03/81 : RUN DATE
RUN .                          1 : RUN NUMBER
DD  .M                      1775 : DEPTH DRILLER
DL  .M                      1777 : DEPTH LOGGER
BLI .M                      1776 : BOTTOM LOG INTERVAL
TLI .M                       311 : TOP LOG INTERVAL
CS  .MM                      219 : CASING SIZE
CBD .M                       311 : CASING BOTTOM DRILLER
CBL .M                       311 : CASING BOTTOM LOGGER
BS  .MM                      200 : BIT SIZE
BSD .M                      1775 : BIT SIZE AT DEPTH
DFT .                   GEL CHEM : DRILLING FLUID TYPE
DFD .                       1150 : DRILLING FLUID DENSITY
DFV .                         70 : DRILLING FLUID VISCOSITY
DFPH.                        9.5 : DRILLING FLUID PH
DFL .                          8 : DRILLING FLUID LOSS
MSS .                   FLOWLINE : MUD SAMPLE SOURCE
RMS .OHMM                    3.6 : RESISTIVITY MUD SAMPLE
MST .DEGC                     10 : MUD SAMPLE TEMPERATURE
RMF .OHMM                    2.9 : RESISTIVITY MUD FILTRATE SAMPLE
MFST.DEGC                   13.3 : MUD FILTRATE SAMPLE TEMPERATURE
MFSS.                       MEAS : MUD FILTRATE SAMPLE SOURCE
RMB .OHMM                  1.615 : RESISTIVITY MUD AT BHT
TCS .HRS                     130 : TIME CIRCULATED STOPPED
TLAB.HRS                     600 : TIME LOGGER AT BOTTOM
LUN .                       8210 : LOGGING UNIT NUMBER
LUL .                        EDM : LOGGING UNIT LOCATION
ENGI.                VALLANCOURT : RECORDING ENGINEER
WITN.                  MCDOUGALL : WITNESSED BY
CLNT.                    A2DTECH : CLIENT CODE
ORIG. 6.5"/100M 16.5"/100M PRINT : ORIGIN OF DATA
UWI .           100141405626W400 : UNIQUE WELL ID
DICO.     A2D Technologies, Inc. : DIGITIZING COMPANY
~Other -----------------------------------------------------
~ASCII -----------------------------------------------------
  300.00000    -999.25    -999.25    -999.25    -999.25    -999.25    -999.25    -999.25   37.21990    -999.25    -999.25    -999.25    -999.25    -999.25    -999.25    0.84210    -999.25
  350.00000  237.62220  220.04560    -999.25    0.31110  148.50000  335.00510   58.75920   58.17430    6.74410    6.53880    -999.25    0.42600 2132.42480    6.50670    0.33850  -62.79740
  400.00000  238.34910  218.57720    -999.25    0.10450  125.00000  357.03560   61.22620   67.94480    5.60260    5.03080    -999.25    0.37340 2496.28760    6.89510    0.39160  -54.38780
  450.00000  226.17260  215.75940    -999.25    0.07970   90.10000  227.77650   57.14090   56.06610    5.74540    5.72100    -999.25    0.21610 2522.42970    3.92260    0.10520  -57.84990
  500.00000  317.56000  246.38290    -999.25    0.17920  143.60000  358.13230   78.52480   86.02600    5.96030    5.19260    -999.25    0.48520 2352.39940    5.50910    0.40100  -55.74270
  550.00000  255.10710  242.00130    -999.25    0.36100  158.60000  388.61960   96.16840  108.94420    7.04150    6.26980    -999.25    0.46970 2053.07500    6.62540    0.46580  -65.07020
  600.00000  244.77140  221.33730    -999.25    0.13810   60.10000  352.72700  151.21180  184.61630    6.96120    6.54400    -999.25    0.47460 2423.20430    8.60560    0.38630  -49.90810
  650.00000  276.55290  227.29040    -999.25    0.18420  134.00000  353.20080  112.84230  145.83630    6.78360    6.26510    -999.25    0.45580 2337.55250    7.06540    0.38910  -59.04700
  700.00000  261.51840  231.19530    -999.25    0.13940  146.90000  296.88610  100.01800  115.62020    6.88150    6.30740    -999.25    0.34490 2446.28150    6.60930    0.25970  -64.42170
  750.00000  252.09600  230.36510    -999.25    0.14440  135.60000  332.37620  118.05570  125.17030    6.36110    6.05470    -999.25    0.37090 2413.61080    6.54830    0.34060  -58.06260
  800.00000  213.21270  205.78340    -999.25    0.13950    9.50000  329.40510  137.53790  147.56930    8.70110    8.42670    -999.25    0.38570 2414.77150   13.87600    0.33940  -44.25760
  850.00000  228.62670  219.92070    -999.25    0.12850   16.10000  341.67570  171.33770  195.74200    5.63140    5.38080    -999.25    0.45800 2435.00660    6.82670    0.35930  -38.27550
  900.00000  346.65690  246.00070    -999.25    0.14290   82.10000  328.00420  101.84580  119.65860    3.45270    3.22270    -999.25    0.47680 2411.85620    3.48170    0.35030  -44.55530
  950.00000  268.84150  237.64490    -999.25    0.27700   74.30000  366.59190  108.06120  117.11770    1.68320    1.60160    -999.25    0.48220 2188.27590    1.77960    0.41950  -35.83220
 1000.00000  242.50770  223.47530    -999.25    0.16630    8.90000  286.79900   78.43010   87.62180    3.64480    3.77050    -999.25    0.28940 2370.49580    4.55350    0.23300  -47.00830
 1050.00000  230.29460  233.58500    -999.25    0.09710    3.50000  281.80350   94.80430  113.56220    5.45610    5.61720    -999.25    0.30900 2494.01390    6.08310    0.22510  -35.90740
 1100.00000  253.53500  248.92730    -999.25    0.15360  144.40000  302.06340   84.66100   99.64580    4.05170    4.30200    -999.25    0.33040 2434.28050    4.84940    0.27180  -42.64350
 1150.00000  193.73720  199.37890    -999.25    0.14050   18.30000  259.02980   69.22250   53.88040    3.31630    4.08390    -999.25    0.23210 2404.17920   13.67330    0.17330  -66.21330
 1200.00000  247.07610  247.65500    0.02900   -0.02550   12.30000  189.93830   58.09640   54.82560   22.06170   28.56820    0.05110    0.08090 2666.34350  110.85420    0.00310  -38.99110
 1250.00000  199.20680  202.97650    0.05480    -999.25   55.10000  176.79160   11.14290   15.98520   11.77300   14.83940    0.17500    -999.25 2603.38750   62.08300    0.04230 -132.85350
 1300.00000  202.04930  204.95670    0.02810    -999.25   47.60000  175.34980   23.26400   25.52170    6.87010    9.35050    0.12850    -999.25 2659.11620   69.77260    0.04330 -103.68430
 1350.00000  191.37240  192.11580    0.06370    -999.25   66.00000  198.41300   14.12430   13.92900    3.06980    3.80020    0.23200    -999.25 2607.98120   25.46310    0.09080 -146.81290
 1400.00000  186.83370  193.11070    0.04380    -999.25   84.10000  177.87490   20.13460   22.91190    4.61630    6.11540    0.17140    -999.25 2622.06520   36.65930    0.04800 -147.70900
 1450.00000  207.18150  206.55080    0.02640    -999.25   17.30000  215.51140   71.10520   71.19400   13.02820   13.45390    0.14060    -999.25 2667.08890   14.89070    0.12680  -22.65090
 1500.00000  341.60980  290.59120    0.07200    -999.25  172.80000  295.07650   99.91360  112.40680    3.70150    3.80910    0.35500    -999.25 2586.36130    4.45850    0.29830  -58.53860
 1550.00000  303.18990  258.95610    0.06110    -999.25  156.60000  300.68050   99.24980  100.24580    3.51360    3.61960    0.28390    -999.25 2602.08670    4.46390    0.31230  -46.52190
 1600.00000  217.93750  212.48820    0.04320    -999.25    3.70000  245.33680   80.13080   85.60420    6.83110    7.06820    0.17940    -999.25 2642.12770    8.38310    0.19170   -7.64980
 1650.00000  205.84510  208.40060    0.05960    -999.25    6.60000  210.81460   89.05860   79.54240   18.85660   16.78920    0.15970    -999.25 2615.92330   19.35230    0.11730  -32.64080
 1700.00000  234.82620  229.67010    0.04200    -999.25   89.10000  272.37740  122.59240  123.36240    4.41980    4.54840    0.23790    -999.25 2633.45950    6.12100    0.25010  -18.36850
 1750.00000  199.43610  203.12330    0.00670    -999.25   15.20000  191.19730   51.23670   48.14060   25.53480   26.32730    0.09390    -999.25 2701.60350   29.46460    0.07530   -6.27620
