~Version ---------------------------------------------------
VERS.      2.0 : CWLS log ASCII Standard -VERSION 2.0
WRAP.       NO : One line per depth step
CREA. 11/17/17 : LAS Creation Date
~Well ------------------------------------------------------
STRT.FT                             900.0 : START DEPTH
STOP.FT                            9050.0 : STOP DEPTH
STEP.FT                          50.00000 : STEP LENGTH
NULL.                             -999.25 : NULL VALUE
COMP. EDWIN L. COX SOUTHERN DRILLING INC. : COMPANY
WELL.               COX AZTEC 11-30-69-19 : WELL
FLD .                                     : FIELD
LOC .                                     : LOCATION
CTRY.                              CANADA : COUNTRY
SRVC.                       Dresser Atlas : SERVICE COMPANY
DATE.                         18-Dec-1971 : LOGDATE
PROV.                             Alberta : PROVINCE
UWI .                    100113006919W500 : UNIQUE WELL ID
SLAT.WGS84                       55.00587 : SURFACE LATITUDE
SLON.WGS84                      -116.8901 : SURFACE LONGITUDE
~Curve Information -----------------------------------------
DEPT  .FT    : Depth Curve
CALSED.IN    : CALIPER FROM SONIC LOG [ADJ TO RESISTIVITY LOG]
CALWS .IN    : CALIPER [CASED]
CILDED.MMHO  : DEEP INDUCTION CONDUCTIVITY FROM RESSITIVITY LOG
CONDWS.MMHO  : CONDUCTIVITY [1000/DRESWS]
DRESWS.OHMM  : DEEP RESISTIVITY [1000/CILDED IF ILDED <1, ILDED & SPL. TO ILDED @ 3160']
DTED  .US/F  : DELTA-TIME FROM SONIC LOG [ADJ TO RESISTIVITY LOG]
DTWS  .US/F  : COMPRESSIONAL SONIC [DTED]
GRSED .GAPI  : GAMMA RAY FROM SONIC LOG [ADJ TO RESISTIVITY LOG]
GRWS  .GAPI  : GAMMA RAY [GRSED]
ILDED .OHMM  : DEEP INDUCTION RESISTIVITY FROM RESISTIVITY LOG
ILMED .OHMM  : MEDIUM INDUCTION  RESISTIVITY FROM RESISTIVITY LOG
MRESWS.OHMM  : MEDIUM RESISTIVITY [ILMED]
SFLED .OHMM  : SPHERICALLY FOCUSED LOG FROM RESISTIVITY LOG
SPRED .MV    : SPONTANEOUS POTENTIAL FROM RESISTIVITY LOG
SPWS  .MV    : SPONTANEOUS POTENTIAL [BASELINE 0 MV, SPRED]
SRESWS.OHMM  : SHALLOW RESISTIVITY [SFLED]
~Params ----------------------------------------------------
PD  .                     GL : PERMANENT DATUM
EPD .FT               2315.7 : ELEVATION PERMANENT DATUM
LMF .                     KB : LOG MEASURED FROM
DAPD.FT                 15.4 : FEET ABOVE PERMANENT DATUM
DMF .                     KB : DRILLING MEASURED FROM
EKB .FT               2331.1 : KELLY BUSHING
EGL .FT               2315.7 : GROUND LEVEL
DATE.               12/18/71 : RUN DATE
RUN .                      1 : RUN NUMBER
DD  .FT                 9106 : DEPTH DRILLER
DL  .FT                 9087 : DEPTH LOGGER
BLI .FT                 9085 : BOTTOM LOG INTERVAL
TLI .FT                  935 : TOP LOG INTERVAL
CS  .IN                8.625 : CASING SIZE
CBD .FT                  930 : CASING BOTTOM DRILLER
CBL .FT                  935 : CASING BOTTOM LOGGER
BS  .IN                7.875 : BIT SIZE
BSD .FT                 9106 : BIT SIZE AT DEPTH
DFT .                MUD GEL : DRILLING FLUID TYPE
DFD .                    9.2 : DRILLING FLUID DENSITY
DFV .                    135 : DRILLING FLUID VISCOSITY
DFPH.                    9.5 : DRILLING FLUID PH
DFL .                    7.6 : DRILLING FLUID LOSS
MSS .                   CIRC : MUD SAMPLE SOURCE
RMS .OHMM                  2 : RESISTIVITY MUD SAMPLE
MST .DEGF                 60 : MUD SAMPLE TEMPERATURE
RMF .OHMM                1.9 : RESISTIVITY MUD FILTRATE SAMPLE
MFST.DEGF                 61 : MUD FILTRATE SAMPLE TEMPERATURE
RMC .OHMM                2.7 : RESISTIVITY MUD CAKE
MCST.DEGF                 61 : MUD CAKE SAMPLE TEMPERATURE
MFSS.                   MEAS : MUD FILTRATE SAMPLE SOURCE
MCSS.                   MEAS : MUD CAKE SAMPLE SOURCE
RMB .OHMM               0.63 : RESISTIVITY MUD AT BHT
TCS .HRS                 3.5 : TIME CIRCULATED STOPPED
LUN .                   6091 : LOGGING UNIT NUMBER
LUL .                     VV : LOGGING UNIT LOCATION
ENGI.          CLARK GISTERN : RECORDING ENGINEER
WITN.                 MACKEY : WITNESSED BY
CLNT.                A2DTECH : CLIENT CODE
ORIG.            2" 5" PRINT : ORIGIN OF DATA
UWI .       100113006919W500 : UNIQUE WELL ID
DICO. A2D Technologies, Inc. : DIGITIZING COMPANY
~Other -----------------------------------------------------
DIFL-SONIC LOG RUN
ALL DATA UP TO THE TOP TO 3160' VARIFIED FROM 2 INCH SCALE SECTION
~ASCII -----------------------------------------------------
# ...
 3050.00000    9.47270    9.47270  252.88090  234.06610    4.27230  105.24230  105.24230  100.68680  100.68680    4.27230    -999.25    -999.25    4.68430  -73.40980   -2.11670    4.68430
 3100.00000    9.32630    9.32630  433.74310  404.15470    2.47430  121.27030  121.27030  114.61070  114.61070    2.47430    -999.25    -999.25    3.17870  -73.30710   -2.15360    3.17870
 3150.00000   10.47600   10.47600  506.00300  421.88750    2.37030  113.45590  113.45590   98.17280   98.17280    2.37030    -999.25    -999.25    2.73230  -73.51810   -1.82540    2.73230
 3200.00000   11.31860   11.31860    -999.25  479.75440    2.08440  115.33080  115.33080   91.98110   91.98110    2.08440    2.32770    2.32770    2.89770  -76.81540   -4.58350    2.89770
 3250.00000   12.03470   12.03470    -999.25  383.43560    2.60800  101.32790  101.32790   99.84650   99.84650    2.60800    3.00650    3.00650    3.47330  -78.28880   -5.51770    3.47330
 3300.00000   11.15900   11.15900    -999.25  342.63420    2.91860  104.63530  104.63530   97.55280   97.55280    2.91860    3.32950    3.32950    3.80000  -80.62880   -7.32120    3.80000
 3350.00000    9.32290    9.32290    -999.25  179.01260    5.58620   86.90010   86.90010   60.72760   60.72760    5.58620    7.05160    7.05160    8.50110  -94.99580  -21.14630    8.50110
 3400.00000    9.85540    9.85540    -999.25  251.54070    3.97550   92.65510   92.65510   81.43430   81.43430    3.97550    5.75770    5.75770    9.43650 -103.87710  -29.48830    9.43650
 3450.00000    9.80250    9.80250    -999.25  434.65030    2.30070  133.21870  133.21870  103.94420  103.94420    2.30070    2.57100    2.57100    4.51810  -81.36610   -6.35850    4.51810
 3500.00000    9.82890    9.82890    -999.25  412.81370    2.42240   95.16230   95.16230   71.59930   71.59930    2.42240    2.51890    2.51890    3.34070  -86.93840  -10.82280    3.34070
 3550.00000   10.11270   10.11270    -999.25  317.24860    3.15300   95.62400   95.62400   84.11400   84.11400    3.15300    3.72100    3.72100    4.72930  -82.32550   -5.10740    4.72930
 3600.00000    8.80750    8.80750    -999.25  150.25620    6.65530  123.64180  123.64180   54.87100   54.87100    6.65530   11.20920   11.20920   15.70420 -116.95430  -38.62280   15.70420
 3650.00000    8.65230    8.65230    -999.25  209.07380    4.78300   93.20990   93.20990   61.24510   61.24510    4.78300    7.24770    7.24770   11.29230 -116.54410  -37.10460   11.29230
 3700.00000    9.50290    9.50290    -999.25  177.70830    5.62720  117.72440  117.72440   56.13920   56.13920    5.62720    7.85890    7.85890   12.71470  -88.21060   -7.66310   12.71470
 3750.00000    8.99720    8.99720    -999.25  200.27240    4.99320   96.85360   96.85360   75.29260   75.29260    4.99320    5.55980    5.55980    6.39690  -96.36350  -15.06470    6.39690
 3800.00000    8.03280    8.03280    -999.25  244.68170    4.08860   68.03370   68.03370   62.15930   62.15930    4.08860    4.89760    4.89760    5.75040  -85.93990   -4.27800    5.75040
 3850.00000    9.29320    9.29320    -999.25  262.91570    3.80350   87.49210   87.49210   79.54020   79.54020    3.80350    4.43570    4.43570    4.94870  -86.57970   -4.55120    4.94870
 3900.00000    7.21390    7.21390    -999.25  113.40050    8.81830   86.54530   86.54530   48.00850   48.00850    8.81830   14.52430   14.52430   26.97970 -112.32280  -29.92940   26.97970
 3950.00000    8.62940    8.62940    -999.25  210.57950    4.74880   89.44730   89.44730   77.60270   77.60270    4.74880    5.73120    5.73120    6.67070  -90.43190   -7.67370    6.67070
 4000.00000    8.65850    8.65850    -999.25  169.70730    5.89250   90.03410   90.03410   64.76590   64.76590    5.89250   10.26130   10.26130   13.81110 -128.11490  -44.99180   13.81110
 4050.00000    8.76100    8.76100    -999.25  131.47700    7.60590   91.44100   91.44100   65.78070   65.78070    7.60590   13.44530   13.44530   18.19280 -130.40450  -46.91840   18.19280
 4100.00000    7.95800    7.95800    -999.25  216.75990    4.61340   89.27740   89.27740   82.06840   82.06840    4.61340    5.21760    5.21760    5.80150  -84.65480   -2.12810    5.80150
 4150.00000    7.58310    7.58310    -999.25  107.73080    9.28240   66.90910   66.90910   47.78650   47.78650    9.28240   14.97100   14.97100   23.70540 -102.45060  -24.47040   23.70540
 4200.00000    8.21200    8.21200    -999.25  209.17440    4.78070   93.65900   93.65900   75.62310   75.62310    4.78070    5.45180    5.45180    5.94590  -86.03020  -12.59650    5.94590
 4250.00000    7.66090    7.66090    -999.25  116.79510    8.56200   82.00300   82.00300   75.72780   75.72780    8.56200   11.69340   11.69340   15.82270  -90.36460  -21.47740   15.82270
 4300.00000    9.28430    9.28430    -999.25  332.93660    3.00430   84.54350   84.54350   73.96900   73.96900    3.00430    3.39710    3.39710    4.70720  -85.08850  -20.72500    4.70720
 4350.00000    7.72640    7.72640    -999.25  134.24080    7.44930   84.18930   84.18930   68.63250   68.63250    7.44930    9.46440    9.46440    9.09870  -87.47060  -27.67640    9.09870
 4400.00000    8.26330    8.26330    -999.25  220.56550    4.53380   82.89370   82.89370   90.88510   90.88510    4.53380    5.29420    5.29420    7.86290  -82.06680  -26.81910    7.86290
 4450.00000    7.63710    7.63710    -999.25   98.92270   10.10890   87.62950   87.62950   92.16200   92.16200   10.10890   11.29120   11.29120   14.55940  -86.72350  -36.02240   14.55940
 4500.00000    9.41640    9.41640    -999.25  452.69350    2.20900   84.64080   84.64080   85.26170   85.26170    2.20900    3.21330    3.21330    9.64300  -89.10460  -42.95000    9.64300
 4550.00000    9.97340    9.97340    -999.25  542.04960    1.84480  142.81670  142.81670   97.03850   97.03850    1.84480    2.19740    2.19740    3.08480  -84.29960  -42.66880    3.08480
 4600.00000    8.59190    8.59190    -999.25   75.94400   13.16760  113.29170  113.29170  132.20740  132.20740   13.16760   15.43330   15.43330   21.08430  -80.89060  -43.82900   21.08430
 4650.00000    8.51670    8.51670    -999.25   15.63390   63.96340  112.39620  112.39620  190.60700  190.60700   63.96340   83.09160   83.09160  109.32270  -70.83480  -38.31970  109.32270
 4700.00000    8.37160    8.37160    -999.25    6.66670  149.99960   78.51740   78.51740  142.28220  142.28220  149.99960  187.86450  187.86450  342.00320  -57.70170  -29.73310  342.00320
 4750.00000    9.87970    9.87970    -999.25  173.69250    5.75730   75.04820   75.04820   84.08330   84.08330    5.75730   11.11480   11.11480   19.63140  -71.92960  -48.50750   19.63140
 4800.00000   10.63220   10.63220    -999.25  353.13440    2.83200   76.53970   76.53970  108.88160  108.88160    2.83200    3.71870    3.71870    5.30930  -28.48530   -8.74830    5.30930
 4850.00000   10.14780   10.14780    -999.25  221.61160    4.51240   77.26140   77.26140  116.02470  116.02470    4.51240    5.42690    5.42690    7.52070  -46.65740  -28.81380    7.52070
 4900.00000    9.91260    9.91260    -999.25  363.12140    2.75390   75.59790   75.59790  107.83600  107.83600    2.75390    3.48170    3.48170    6.34430  -27.50530  -11.54570    6.34430
 4950.00000    8.22250    8.22250    -999.25   76.42810   13.08420   91.72340   91.72340   21.17100   21.17100   13.08420   19.16560   19.16560   20.44720 -110.08370  -92.24560   20.44720
 5000.00000    8.34710    8.34710    -999.25  236.41220    4.22990   54.00080   54.00080   32.88350   32.88350    4.22990    7.34600    7.34600   25.50980  -66.61350  -45.64280   25.50980
 5050.00000    8.38450    8.38450    -999.25  128.07430    7.81470   74.69970   74.69970   41.17570   41.17570    7.81470   14.11530   14.11530   45.61160 -117.57070  -93.48300   45.61160
 5100.00000    8.13190    8.13190    -999.25   41.43360   24.13500   46.54240   46.54240   29.52560   29.52560   24.13500   41.69260   41.69260   84.31250 -115.68890  -88.45290   84.31250
 5150.00000    8.35270    8.35270    -999.25  143.78150    6.95500   60.20860   60.20860   32.32230   32.32230    6.95500   14.01610   14.01610   62.82310 -145.88910 -115.52040   62.82310
