~Version ---------------------------------------------------
VERS.      2.0 : CWLS log ASCII Standard -VERSION 2.0
WRAP.       NO : One line per depth step
CREA. 11/15/17 : LAS Creation Date
~Well ------------------------------------------------------
STRT.FT                      1300.0 : START DEPTH
STOP.FT                     10750.0 : STOP DEPTH
STEP.FT                    50.00000 : STEP LENGTH
NULL.                       -999.25 : NULL VALUE
COMP.        PHILLIPS PETROLEUM CO. : COMPANY
WELL. PHILLIPS ATIKAMEG 10-17-65-19 : WELL
FLD .                            WC : FIELD
LOC .                               : LOCATION
CTRY.                        CANADA : COUNTRY
SRVC.                         Welex : SERVICE COMPANY
DATE.                   13-Apr-1959 : LOGDATE
PROV.                       Alberta : PROVINCE
UWI .              100101706519W500 : UNIQUE WELL ID
SLAT.WGS84                 54.62711 : SURFACE LATITUDE
SLON.WGS84                -116.8324 : SURFACE LONGITUDE
~Curve Information -----------------------------------------
DEPT  .FT    : Depth Curve
CALWS .IN    : CALIPER [MCALED]
CONDWS.MMHO  : CONDUCTIVITY [1000/DRESWS]
DRESWS.OHMM  : DEEP RESISTIVITY [LAT9ED]
GRNED .CPS   : GAMMA RAY FROM NEUTRON LOG
GRWS  .CPS   : GAMMA RAY [GRNED*15]
LAT9ED.OHMM  : LATERAL 9" FROM RESISTIVITY LOG
LT16ED.OHMM  : LATERAL 16"FROM RESISTIVITY LOG
MCALED.IN    : MICROLOG CALIPER FROM ML LOG [ADJ. TO RESISTIVITY LOG]
NEUTED.CPS   : NEUTRON FROM NEUTRON LOG
NEUTWS.CPS   : NEUTRON [NEUTED]
SNED  .OHMM  : SHORT NORMAL 18" FROM RESISTIVITY LOG
SPRED .MV    : SPONTANEOUS POTENTIAL FROM RESISTIVITY LOG
SPWS  .MV    : SPONTANEOUS POTENTIAL [BASELINE 0 MV,SPRED]
SRESWS.OHMM  : SHALLOW RESISTIVITY [SNED]
~Params ----------------------------------------------------
PD  .                                      CSF : PERMANENT DATUM
LMF .                                       KB : LOG MEASURED FROM
DAPD.FT                                     14 : FEET ABOVE PERMANENT DATUM
DMF .                                       KB : DRILLING MEASURED FROM
EKB .FT                                   2439 : KELLY BUSHING
EDF .FT                                 2436.5 : DRILLING FLOOR
EGL .FT                                   2426 : GROUND LEVEL
DATE.                                        1 : RUN DATE
RUN .                                 04/13/59 : RUN NUMBER
DD  .FT                                  10752 : DEPTH DRILLER
DL  .FT                                  10755 : DEPTH LOGGER
BLI .FT                                  10754 : BOTTOM LOG INTERVAL
TLI .FT                                   1303 : TOP LOG INTERVAL
CS  .IN                                 13.375 : CASING SIZE
CBD .FT                                   1304 : CASING BOTTOM DRILLER
CBL .FT                                   1303 : CASING BOTTOM LOGGER
BS  .IN                                      9 : BIT SIZE
BSD .FT                                  10752 : BIT SIZE AT DEPTH
DFT . OIL EMULSION GEL CAUSTIC RAYFLO DRISCOSE : DRILLING FLUID TYPE
DFD .                                     10.3 : DRILLING FLUID DENSITY
DFV .                                      144 : DRILLING FLUID VISCOSITY
DFPH.                                      9.5 : DRILLING FLUID PH
DFL .                                      4.8 : DRILLING FLUID LOSS
MSS .                               CIRCULATED : MUD SAMPLE SOURCE
RMS .OHMM                                  2.8 : RESISTIVITY MUD SAMPLE
MST .DEGF                                   60 : MUD SAMPLE TEMPERATURE
RMF .OHMM                                 1.46 : RESISTIVITY MUD FILTRATE SAMPLE
MFST.DEGF                                   70 : MUD FILTRATE SAMPLE TEMPERATURE
RMC .OHMM                                  2.6 : RESISTIVITY MUD CAKE
MCST.DEGF                                   68 : MUD CAKE SAMPLE TEMPERATURE
RMB .OHMM                                  2.8 : RESISTIVITY MUD AT BHT
ENGI.                                   FOWLER : RECORDING ENGINEER
WITN.                           HUNTER HANKINS : WITNESSED BY
CLNT.                                  A2DTECH : CLIENT CODE
ORIG.                              2" 5" PRINT : ORIGIN OF DATA
UWI .                         100101706519W500 : UNIQUE WELL ID
DICO.                   A2D Technologies, Inc. : DIGITIZING COMPANY
~Other -----------------------------------------------------
~ASCII -----------------------------------------------------
# ...
 6200.00000   10.50490    9.03750  110.64960   35.97630   35.97630  110.64960  146.27930   10.50490  615.87270  615.87270   72.41650  -77.61300  -45.73110   72.41650
 6250.00000   10.75690   36.28710   27.55800   58.09090   58.09090   27.55800   15.72280   10.75690  462.68300  462.68300   18.82600 -147.62930 -119.25220   18.82600
 6300.00000   11.26330   13.27110   75.63920   67.52380   67.52380   75.63920   52.19090   11.26330  447.37020  447.37020   17.16700 -103.80840  -78.91860   17.16700
 6350.00000   11.16040   52.46560   19.06010   58.29400   58.29400   19.06010   23.44200   11.16040  523.08510  523.08510   27.12990  -91.10880  -69.74130   27.12990
 6400.00000   10.40080    2.04230  489.71340   32.12990   32.12990  489.71340  804.91340   10.40080  662.66200  662.66200  149.93770 -133.03300 -115.15280  149.93770
 6450.00000   10.30060    4.21440  237.28150   36.72850   36.72850  237.28150  276.50230   10.30060  574.79700  574.79700   68.95610 -152.54930 -138.19150   68.95610
 6500.00000   11.06310    3.93110  254.38320   30.15220   30.15220  254.38320  370.19930   11.06310  673.04530  673.04530  102.61370 -132.45270 -121.59970  102.61370
 6550.00000   10.35320   61.33010   16.30540  108.71280  108.71280   16.30540   26.12800   10.35320  398.87030  398.87030   10.22530  -10.47640   -3.00550   10.22530
 6600.00000    9.90810  190.36020    5.25320   79.96240   79.96240    5.25320    5.52020    9.90810  428.10130  428.10130    7.75380  -58.30480  -52.43650    7.75380
 6650.00000   11.88950  136.40780    7.38700   84.31700   84.31700    7.38700    7.61970   11.88950  360.97780  360.97780    5.64620  -44.49420  -40.21250    5.64620
 6700.00000   10.48550   25.86070   38.66870   71.01440   71.01440   38.66870   22.02250   10.48550  538.74430  538.74430   43.62460  -13.50750  -10.82820   43.62460
 6750.00000   11.92940   26.69840   37.45540   65.50980   65.50980   37.45540   60.86450   11.92940  451.40910  451.40910   15.26150  -12.16530  -11.08050   15.26150
 6800.00000    9.80170    2.67140  374.63050   48.63050   48.63050  374.63050  512.11460    9.80170  613.70290  613.70290  113.50050   -6.27760   -6.77940  113.50050
 6850.00000    9.75070    2.40130  416.44010   53.25140   53.25140  416.44010  751.47010    9.75070  625.97340  625.97340  118.28080   -5.77410   -7.87830  118.28080
 6900.00000   10.02930    4.54230  220.15480   55.34580   55.34580  220.15480  247.22690   10.02930  568.28290  568.28290   92.71570   -6.48170   -8.91380   92.71570
 6950.00000    9.54940    3.30780  302.31240   41.16190   41.16190  302.31240  443.49680    9.54940  598.14240  598.14240  231.38950  -39.71690  -40.46570  231.38950
 7000.00000    9.74990    2.49280  401.15020   75.44930   75.44930  401.15020  849.95700    9.74990  510.04820  510.04820   82.13490  -25.58940  -24.66340   82.13490
 7050.00000    9.79300    6.46070  154.78330   65.23950   65.23950  154.78330  141.72020    9.79300  526.37750  526.37750   65.62950  -29.44710  -26.85460   65.62950
 7100.00000    9.80960    6.59770  151.56810   74.31670   74.31670  151.56810  130.25680    9.80960  503.48260  503.48260   60.83590  -31.14750  -26.87170   60.83590
 7150.00000   10.65830    7.41960  134.79480   49.77540   49.77540  134.79480  127.71050   10.65830  462.68270  462.68270   80.36870  -33.89290  -27.95060   80.36870
 7200.00000    9.68270   22.77410   43.90950  199.88310  199.88310   43.90950   73.06870    9.68270  382.91570  382.91570   34.75720  -11.84040   -4.21950   34.75720
 7250.00000    9.68510    1.89570  527.50240   30.43950   30.43950  527.50240  797.05240    9.68510  684.26570  684.26570  228.25250  -61.52300  -52.34250  228.25250
 7300.00000    9.62250    2.95080  338.91080   35.43250   35.43250  338.91080  674.87110    9.62250  667.79900  667.79900  213.61180  -61.77960  -51.04730  213.61180
 7350.00000   10.00130    2.39140  418.16370   36.47270   36.47270  418.16370  976.35250   10.00130  691.00680  691.00680  177.05240  -57.71460  -45.41480  177.05240
 7400.00000   10.92200    2.72390  367.13910   31.87720   31.87720  367.13910  842.06470   10.92200  563.62160  563.62160  189.42230  -74.70300  -60.85130  189.42230
 7450.00000    9.87230    2.22300  449.84690   31.31430   31.31430  449.84690  820.03630    9.87230  669.51340  669.51340  196.19780  -71.50930  -56.09030  196.19780
 7500.00000   10.28710    2.44220  409.47100   19.94740   19.94740  409.47100  861.70580   10.28710  704.43120  704.43120  139.16320 -100.29110  -83.31240  139.16320
 7550.00000   10.20100    3.11430  321.12850   21.50180   21.50180  321.12850  471.52710   10.20100  663.08530  663.08530  168.27260  -99.95110  -81.42070  168.27260
 7600.00000   10.46800    3.48090  287.28080   21.67210   21.67210  287.28080  562.24800   10.46800  636.95230  636.95230  153.36760 -113.80200  -93.70410  153.36760
 7650.00000   10.71440    1.69220  590.96890   25.54890   25.54890  590.96890 1471.51280   10.71440  654.20860  654.20860  200.27050 -131.59770 -109.94790  200.27050
 7700.00000   10.69100    3.34750  298.72600   21.24360   21.24360  298.72600  552.14500   10.69100  631.48550  631.48550  204.96730 -141.70190 -118.48470  204.96730
 7750.00000   10.58590    2.97980  335.59800   27.30340   27.30340  335.59800  787.50600   10.58590  615.91860  615.91860  200.31980 -148.10430 -123.32750  200.31980
 7800.00000   10.42700    2.46990  404.88530   22.74760   22.74760  404.88530  793.35330   10.42700  633.11610  633.11610  141.57690 -159.20180 -132.87320  141.57690
 7850.00000    9.76880    3.52380  283.78780   22.94680   22.94680  283.78780  345.81880    9.76880  633.76370  633.76370   92.01160 -130.86840 -102.97230   92.01160
 7900.00000    9.22160    4.23300  236.24960   20.43300   20.43300  236.24960  299.29830    9.22160  681.92700  681.92700   78.11700 -205.99600 -176.54810   78.11700
 7950.00000    9.94220    3.26780  306.01310   29.70860   29.70860  306.01310  371.79340    9.94220  653.45540  653.45540  144.97800 -138.53730 -107.52200  144.97800
 8000.00000    9.72640    3.79780  263.31340   39.27220   39.27220  263.31340  143.29340    9.72640  558.44930  558.44930   66.90760 -112.97720  -80.40220   66.90760
 8050.00000    9.61850    3.51850  284.21750   25.72180   25.72180  284.21750  438.60130    9.61850  438.18120  438.18120  138.49570 -143.74180 -109.61500  138.49570
 8100.00000    9.75070   45.54310   21.95720   37.73140   37.73140   21.95720   48.88000    9.75070  554.07290  554.07290   28.74410 -109.17210  -73.47790   28.74410
 8150.00000    9.79080    3.16420  316.03650   41.19220   41.19220  316.03650  435.88020    9.79080  641.03630  641.03630  131.31950  -52.65520  -15.40910  131.31950
 8200.00000    9.76220    5.21940  191.59190   55.44460   55.44460  191.59190  241.99360    9.76220  565.61310  565.61310   60.98750  -44.04270   -6.38590   60.98750
 8250.00000    9.80100   14.78280   67.64600   52.60520   52.60520   67.64600   61.04870    9.80100  498.11940  498.11940   39.68440  -55.45890  -19.64440   39.68440
 8300.00000    9.79320    2.66570  375.17930   30.10340   30.10340  375.17930  510.55480    9.79320  691.62850  691.62850  204.53160  -99.26950  -65.28810  204.53160
 8350.00000    9.69720    3.23840  308.78970   30.94660   30.94660  308.78970  405.11070    9.69720  543.53190  543.53190   75.07740 -117.72400  -85.59420   75.07740
 8400.00000    9.73170    3.44450  290.32590   27.65370   27.65370  290.32590  195.78700    9.73170  553.69380  553.69380   91.28530 -132.45390 -102.15720   91.28530
 8450.00000   11.54720   71.43520   13.99870   63.64870   63.64870   13.99870   10.59860   11.54720  349.74460  349.74460    9.86520 -144.56900 -116.12380    9.86520
 8500.00000   12.82600  152.03340    6.57750   89.27280   89.27280    6.57750    7.88120   12.82600  296.45970  296.45970    3.84210 -176.84490 -150.24200    3.84210
 8550.00000   13.21140  235.22230    4.25140  104.59150  104.59150    4.25140    5.24040   13.21140  289.41350  289.41350    3.29290 -193.78460 -169.01480    3.29290
 8600.00000   13.74460  201.02520    4.97450   92.78400   92.78400    4.97450    6.54780   13.74460  288.33470  288.33470    3.38180 -183.90510 -160.98690    3.38180
