~Version ---------------------------------------------------
VERS.      2.0 : CWLS log ASCII Standard -VERSION 2.0
WRAP.       NO : One line per depth step
CREA. 10/24/17 : LAS Creation Date
~Well ------------------------------------------------------
STRT.FT                         1250.0 : START DEPTH
STOP.FT                        11000.0 : STOP DEPTH
STEP.FT                       50.00000 : STEP LENGTH
NULL.                          -999.25 : NULL VALUE
COMP.             MOBIL OIL CANADA LTD : COMPANY
WELL. MOBIL ET AL ROSEVEAR 10-19-53-14 : WELL
FLD .                                  : FIELD
LOC .                                  : LOCATION
CTRY.                           CANADA : COUNTRY
SRVC.                     Schlumberger : SERVICE COMPANY
DATE.                      04-Mar-1978 : LOGDATE
PROV.                          Alberta : PROVINCE
UWI .                 100101905314W500 : UNIQUE WELL ID
SLAT.WGS84                    53.59265 : SURFACE LATITUDE
SLON.WGS84                   -116.0472 : SURFACE LONGITUDE
~Curve Information -----------------------------------------
DEPT    .FT    : Depth Curve
CALDED  .IN    : CALIPER FROM DENSITY LOG
CALWS   .IN    : CALIPER [CALDED]
CONDWS  .MMHO  : CONDUCTIVITY [1000/DRESWS]
DCORWS  .G/C3  : DENSITY CORRECTION [DRHOED]
DENWS   .G/C3  : BULK DENSITY [M=2.71, F=1.00] [RHOBED]
DPHILSED.V/V   : DENSITY POROSITY [M=2.71, F=1.00] FROM DENSITY LOG
DPHISSED.V/V   : DENSITY POROSITY [M=2650 F=1000] FROM DENSITY LOG
DPOLSWS .V/V   : DENSITY POROSITY [M=2.71, F=1.00] [CAL. FROM DENWS]
DRESWS  .OHMM  : DEEP RESISTIVITY [ILDED]
DRHOED  .G/C3  : DENSITY CORRECTION FROM DENSITY LOG
DTED    .US/F  : DELTA TIME FROM SONIC LOG
DTWS    .US/F  : DELTA TIME [DTED]
GRDED   .GAPI  : GAMMA RAY FROM DENSITY LOG
GRWS    .GAPI  : GAMMA RAY [GRDED]
ILDED   .OHMM  : INDUCTION LOG DEEP RESISTIVITY
ILMED   .OHMM  : INDUCTION LOG MEDIUM RESISTIVITY
LL8ED   .OHMM  : 8 INCH LATEROLOG RESISTIVITY
MRESWS  .OHMM  : MEDIUM RESISTIVITY [ILMED]
NPHILSED.V/V   : NEUTRON POROSITY LIMESTONE FROM DENSITY LOG
NPHISSED.V/V   : NEUTRON POROSITY SANDSTONE FROM DENSITY LOG
NPOLSWS .V/V   : NEUTRON POROSITY LIMESTONE [366 NPOLSCAL [COMP. FROM NPHISSED] 7500'2286 NPHILSED]
RHOBED  .G/C3  : BULK DENSITY FROM DENSITY LOG
SPRED   .MV    : SPONTANEOUS POTENTIAL FROM RESISTIVITY LOG [SHIFT IS REMOVED]
SPWS    .MV    : SPONTANEOUS POTENTIAL [BASELINE 0 MV] [SPRED]
SRESWS  .OHMM  : SHALLOW RESISTIVITY [LL8ED]
~Params ----------------------------------------------------
PD  .                     GL : PERMANENT DATUM
EPD .FT               2885.2 : ELEVATION PERMANENT DATUM
LMF .                     KB : LOG MEASURED FROM
DAPD.FT                 13.8 : FEET ABOVE PERMANENT DATUM
EKB .FT                 2899 : KELLY BUSHING
EGL .FT               2885.2 : GROUND LEVEL
DATE.               03/04/78 : RUN DATE
RUN .                      1 : RUN NUMBER
DD  .FT                11010 : DEPTH DRILLER
DL  .FT                11002 : DEPTH LOGGER
BLI .FT                10999 : BOTTOM LOG INTERVAL
TLI .FT                 1207 : TOP LOG INTERVAL
CBD .FT                 1205 : CASING BOTTOM DRILLER
CBL .FT                 1207 : CASING BOTTOM LOGGER
BS  .IN                 8.75 : BIT SIZE
BSD .FT                11010 : BIT SIZE AT DEPTH
DFT .               GEL CHEM : DRILLING FLUID TYPE
DFD .                    9.2 : DRILLING FLUID DENSITY
DFV .                    132 : DRILLING FLUID VISCOSITY
DFPH.                     10 : DRILLING FLUID PH
DFL .                    9.4 : DRILLING FLUID LOSS
MSS .               FLOWLINE : MUD SAMPLE SOURCE
RMS .OHMM               1.94 : RESISTIVITY MUD SAMPLE
MST .DEGF                 64 : MUD SAMPLE TEMPERATURE
RMF .OHMM               2.12 : RESISTIVITY MUD FILTRATE SAMPLE
MFST.DEGF                 59 : MUD FILTRATE SAMPLE TEMPERATURE
RMB .OHMM               0.65 : RESISTIVITY MUD AT BHT
TCS .HRS                   3 : TIME CIRCULATED STOPPED
LUN .                   7730 : LOGGING UNIT NUMBER
LUL .                    EDM : LOGGING UNIT LOCATION
ENGI.               CAMPBELL : RECORDING ENGINEER
WITN.              MATHEWSON : WITNESSED BY
CLNT.                A2DTECH : CLIENT CODE
ORIG.            2" 5" PRINT : ORIGIN OF DATA
UWI .       100101905314W500 : UNIQUE WELL ID
DICO. A2D Technologies, Inc. : DIGITIZING COMPANY
~Other -----------------------------------------------------
~ASCII -----------------------------------------------------
# ...
 8250.00000    9.14480    9.14480   25.16040   -0.00310    2.68100    0.01540    -999.25    0.01700   39.74500   -0.00310   55.82070   55.82070   42.03690   42.03690   39.74500   41.72500   50.95620   41.72500    0.09390    -999.25    0.09390    2.68100  -16.33680   -5.97250   50.95620
 8300.00000    9.13020    9.13020   57.59840   -0.00960    2.67390    0.01970    -999.25    0.02110   17.36250   -0.00960   58.97750   58.97750   59.55140   59.55140   17.36250   18.46160   24.38480   18.46160    0.12540    -999.25    0.12540    2.67390  -14.31940   -4.17820   24.38480
 8350.00000    8.99000    8.99000    0.65440   -0.00470    2.67640    0.02340    -999.25    0.01960 1528.12480   -0.00470   54.73520   54.73520   51.51320   51.51320 1528.12480  898.54900  643.44190  898.54900    0.08310    -999.25    0.08310    2.67640  -36.21530  -25.84210  643.44190
 8400.00000    9.09940    9.09940    2.13350    0.01300    2.70260    0.00850    -999.25    0.00440  474.43350    0.01300   51.43020   51.43020   36.51650   36.51650  474.43350  379.99040  365.95110  379.99040    0.06880    -999.25    0.06880    2.70260  -53.02260  -42.41980  365.95110
 8450.00000    9.44720    9.44720    0.78200    0.22260    2.67540    0.01890    -999.25    0.02020 1278.74190    0.22260   48.67260   48.67260   29.22640   29.22640 1278.74190  196.07590  440.61880  196.07590    0.03290    -999.25    0.03290    2.67540  -82.98250  -72.14760  440.61880
 8500.00000    9.36720    9.36720    0.61810    0.17780    2.67640   -0.00470    -999.25    0.01960 1617.93480    0.17780   48.42890   48.42890   16.89080   16.89080 1617.93480 1291.95690  772.16110 1291.95690    0.02150    -999.25    0.02150    2.67640 -125.86230 -114.79660  772.16110
 8550.00000    9.65090    9.65090    0.65430    0.19830    2.56510    0.08050    -999.25    0.08470 1528.36170    0.19830   47.92020   47.92020   15.68770   15.68770 1528.36170  682.42370  679.94350  682.42370    0.06310    -999.25    0.06310    2.56510 -121.94820 -110.65290  679.94350
 8600.00000    9.78120    9.78120    0.63300    0.26490    2.47340    0.14550    -999.25    0.13840 1579.78040    0.26490   48.28540   48.28540   11.82690   11.82690 1579.78040  980.50070  505.03690  980.50070    0.05230    -999.25    0.05230    2.47340 -126.14430 -114.61700  505.03690
 8650.00000    9.69370    9.69370    0.69280    0.21650    2.54860    0.08410    -999.25    0.09440 1446.43430    0.21650   46.56090   46.56090   11.68460   11.68460 1446.43430 1085.83060  473.67050 1085.83060    0.06610    -999.25    0.06610    2.54860 -120.15950 -108.40260  473.67050
 8700.00000    9.78860    9.78860    1.83330    0.24700    2.44490    0.15690    -999.25    0.15500  545.45440    0.24700   48.10370   48.10370   17.91380   17.91380  545.45440  259.88420  807.66870  259.88420    0.06660    -999.25    0.06660    2.44490 -113.79370 -101.80480  807.66870
 8750.00000    9.36810    9.36810    2.71610    0.21750    2.57940    0.08600    -999.25    0.07640  368.18090    0.21750   47.92110   47.92110    9.02250    9.02250  368.18090  222.23560  277.91260  222.23560    0.04220    -999.25    0.04220    2.57940 -118.78280 -106.56310  277.91260
 8800.00000    8.69040    8.69040    9.72970   -0.00300    2.70130    0.00140    -999.25    0.00510  102.95450   -0.00300   48.23120   48.23120   11.43120   11.43120  102.95450   92.10770  159.10200   92.10770    0.05470    -999.25    0.05470    2.70130 -110.10710  -97.65770  159.10200
 8850.00000    9.15570    9.15570    5.93220   -0.00620    2.65990    0.02510    -999.25    0.02930  168.57040   -0.00620   49.15940   49.15940   12.22730   12.22730  168.57040  134.58250  156.25580  134.58250    0.04200    -999.25    0.04200    2.65990 -100.57310  -87.89180  156.25580
 8900.00000    9.67310    9.67310    0.63000    0.24280    2.54150    0.10160    -999.25    0.09850 1587.25090    0.24280   50.30310   50.30310   18.10750   18.10750 1587.25090  253.85780  971.77840  253.85780    0.06370    -999.25    0.06370    2.54150 -106.01520  -93.10420  971.77840
 8950.00000    9.93950    9.93950    0.59100    0.20020    2.40490    0.16740    -999.25    0.17840 1692.16390    0.20020   47.66240   47.66240   10.85070   10.85070 1692.16390 1456.59770  652.22630 1456.59770    0.02650    -999.25    0.02650    2.40490 -106.79680  -93.65390  652.22630
 9000.00000    9.16430    9.16430   34.32550   -0.00470    2.73270   -0.01980    -999.25   -0.01330   29.13290   -0.00470   51.87400   51.87400   16.34520   16.34520   29.13290   25.67100   85.35670   25.67100    0.08970    -999.25    0.08970    2.73270  -92.95530  -79.58160   85.35670
 9050.00000    8.15250    8.15250  113.82490    0.08380    2.63750    0.03710    -999.25    0.04240    8.79690    0.08380   53.33910   53.33910   19.62510   19.62510    8.79690   14.90350   72.34300   14.90350    0.16020    -999.25    0.16020    2.63750 -141.77380 -128.17050   72.34300
 9100.00000    9.19490    9.19490    0.71350    0.10310    2.77780   -0.03420    -999.25   -0.03960 1401.56230    0.10310   48.21820   48.21820   18.53260   18.53260 1401.56230  546.58300  206.53400  546.58300    0.07890    -999.25    0.07890    2.77780  -94.44950  -80.61410  206.53400
 9150.00000    9.13670    9.13670   20.07760    0.11710    2.67230    0.01590    -999.25    0.02210   50.01300    0.11710   53.68630   53.68630   39.55860   39.55860   50.01300   39.64500   71.21850   39.64500    0.10040    -999.25    0.10040    2.67230  -97.23330  -84.78330   71.21850
 9200.00000    9.69400    9.69400    3.02830    0.21690    2.10010    0.38150    -999.25    0.35670  330.21330    0.21690   50.72760   50.72760   33.40660   33.40660  330.21330  130.91340   73.08120  130.91340    0.14490    -999.25    0.14490    2.10010  -93.51430  -84.48000   73.08120
 9250.00000    9.80400    9.80400    1.48680    0.18910    2.21840    0.28530    -999.25    0.28750  672.59010    0.18910   52.27540   52.27540   25.62710   25.62710  672.59010   97.81390  140.03430   97.81390    0.15580    -999.25    0.15580    2.21840 -103.13790  -97.50230  140.03430
 9300.00000    9.26670    9.26670    2.93880    0.19710    2.73330   -0.00600    -999.25   -0.01360  340.50050    0.19710   50.50270   50.50270   38.27200   38.27200  340.50050  173.63590  262.44590  173.63590    0.07010    -999.25    0.07010    2.73330  -27.66000  -25.40600  262.44590
 9350.00000    9.18830    9.18830   14.69330   -0.01090    2.65030    0.03210    -999.25    0.03490   68.05830   -0.01090   54.46970   54.46970   47.58010   47.58010   68.05830   64.37200   88.15040   64.37200    0.08680    -999.25    0.08680    2.65030   -9.49680  -10.65840   88.15040
 9400.00000    9.17660    9.17660   33.04700    0.05850    2.68540    0.01500    -999.25    0.01440   30.33160    0.05850   56.36420   56.36420   59.68990   59.68990   30.33160   27.63600   47.70620   27.63600    0.09390    -999.25    0.09390    2.68540    3.17180   -1.37150   47.70620
 9450.00000    9.34700    9.34700   44.28500   -0.02170    2.66850    0.02180    -999.25    0.02430   22.58100   -0.02170   58.61480   58.61480   63.64290   63.64290   22.58100   20.79480   29.69880   20.79480    0.11840    -999.25    0.11840    2.66850    6.21120   -1.74770   29.69880
 9500.00000   12.43900   12.43900  145.00740    0.22930    2.32480    0.25200    -999.25    0.22530    6.89620    0.22930   74.36790   74.36790   97.15790   97.15790    6.89620    6.06160    8.16300    6.06160    0.35060    -999.25    0.35060    2.32480   -4.39760  -14.53490    8.16300
 9550.00000   12.08510   12.08510  145.48300    0.11130    2.62480    0.04900    -999.25    0.04980    6.87370    0.11130   72.69140   72.69140  100.83900  100.83900    6.87370    6.60120    9.74000    6.60120    0.31330    -999.25    0.31330    2.62480    2.37760   -9.40690    9.74000
 9600.00000    8.97870    8.97870   21.63480   -0.00370    2.60190    0.05410    -999.25    0.06320   46.22180   -0.00370   68.52790   68.52790  101.60930  101.60930   46.22180   54.40320   76.64860   54.40320    0.22860    -999.25    0.22860    2.60190   -4.33350  -17.78160   76.64860
