~Version ---------------------------------------------------
VERS.      2.0 : CWLS log ASCII Standard -VERSION 2.0
WRAP.       NO : One line per depth step
CREA. 11/20/17 : LAS Creation Date
~Well ------------------------------------------------------
STRT.FT                          1000.0 : START DEPTH
STOP.FT                          9600.0 : STOP DEPTH
STEP.FT                        50.00000 : STEP LENGTH
NULL.                           -999.25 : NULL VALUE
COMP.  MIAMI OIL PRODUCERS INCORPORATED : COMPANY
WELL. MIAMI HB STURGEN LAKE 12-33-68-20 : WELL
FLD .                                   : FIELD
LOC .                                   : LOCATION
CTRY.                            CANADA : COUNTRY
SRVC.            Schlumberger of Canada : SERVICE COMPANY
DATE.                       06-Mar-1967 : LOGDATE
PROV.                           Alberta : PROVINCE
UWI .                  100123306820W500 : UNIQUE WELL ID
SLAT.WGS84                     54.93222 : SURFACE LATITUDE
SLON.WGS84                    -116.9965 : SURFACE LONGITUDE
~Curve Information -----------------------------------------
DEPT  .FT    : Depth Curve
CALSED.IN    : CALIPER FROM SONIC LOG
CALWS .IN    : CALIPER [CALSED]
CILDED.MMHO  : DEEP INDUCTION CONDUCTIVITY FROM RESISTIVITY LOG
CONDWS.MMHO  : CONDUCTIVITY [1000/DRESWS]
DRESWS.OHMM  : DEEP RESISTIVITY [1000/CILDED IF ILDED<1,ILDED]
DTED  .US/F  : DELTA-T FROM SONIC LOG
DTWS  .US/F  : DELTA-T [DTED]
GRSED .GAPI  : GAMMA RAY FROM SONIC LOG
GRWS  .GAPI  : GAMMA RAY [GRSED]
ILDED .OHMM  : DEEP INDUCTION RESISTIVITY FROM RESISTIVITY LOG
SNED  .OHMM  : SHORT NORMAL RESISTIVITY FROM RESISTIVITY LOG
SPRED .MV    : SPONTANEOUS POTENTIAL FROM RESISTIVITY LOG
SPWS  .MV    : SPONTANEOUS POTENTIAL [BASELINE 0 MV,SPRED]
SRESWS.OHMM  : SHALLOW RESISTIVITY [SNED]
~Params ----------------------------------------------------
PD  .                     GL : PERMANENT DATUM
EPD .FT                 2429 : ELEVATION PERMANENT DATUM
LMF .                     KB : LOG MEASURED FROM
DAPD.FT                   13 : FEET ABOVE PERMANENT DATUM
EKB .FT                 2442 : KELLY BUSHING
EGL .FT                 2429 : GROUND LEVEL
DATE.               03/06/67 : RUN DATE
RUN .                      1 : RUN NUMBER
DD  .FT                 9641 : DEPTH DRILLER
DL  .FT                 9641 : DEPTH LOGGER
BLI .FT                 9640 : BOTTOM LOG INTERVAL
TLI .FT                 1006 : TOP LOG INTERVAL
CBD .FT                 1003 : CASING BOTTOM DRILLER
CBL .FT                 1006 : CASING BOTTOM LOGGER
BS  .IN                7.875 : BIT SIZE
BSD .FT                 9641 : BIT SIZE AT DEPTH
DFT .                    GEL : DRILLING FLUID TYPE
DFD .                    9.7 : DRILLING FLUID DENSITY
DFV .                    160 : DRILLING FLUID VISCOSITY
DFPH.                     10 : DRILLING FLUID PH
DFL .                      8 : DRILLING FLUID LOSS
RMS .OHMM               2.56 : RESISTIVITY MUD SAMPLE
MST .DEGF                 56 : MUD SAMPLE TEMPERATURE
RMF .OHMM               0.82 : RESISTIVITY MUD FILTRATE SAMPLE
MFST.DEGF                170 : MUD FILTRATE SAMPLE TEMPERATURE
RMC .OHMM               0.78 : RESISTIVITY MUD CAKE
MCST.DEGF                170 : MUD CAKE SAMPLE TEMPERATURE
RMB .OHMM               0.84 : RESISTIVITY MUD AT BHT
TCS .HRS                   3 : TIME CIRCULATED STOPPED
LUN .                   3705 : LOGGING UNIT NUMBER
LUL .                     RL : LOGGING UNIT LOCATION
ENGI.              DEMETRICK : RECORDING ENGINEER
WITN.                  SLOAN : WITNESSED BY
CLNT.                A2DTECH : CLIENT CODE
ORIG.            2" 5" PRINT : ORIGIN OF DATA
UWI .       100123306820W500 : UNIQUE WELL ID
DICO. A2D Technologies, Inc. : DIGITIZING COMPANY
~Other -----------------------------------------------------
IEL-SON LOG RUN
ALL DATA FROM TOP TO 3570' FROM 2" SCALE
~ASCII -----------------------------------------------------
# ...
 8350.00000   14.97730   14.97730  225.84250  225.88660    4.42700   79.54790   79.54790   64.13350   64.13350    4.42700    4.80950 -101.25940  -19.19900    4.80950
 8400.00000   15.04580   15.04580  210.95160  211.38070    4.73080   81.24700   81.24700   65.61060   65.61060    4.73080    4.96020  -79.88380   -1.19060    4.96020
 8450.00000   15.03370   15.03370  186.47570  182.03000    5.49360   76.72500   76.72500   62.73070   62.73070    5.49360    5.32810 -101.01130  -25.62210    5.32810
 8500.00000   14.57400   14.57400  273.92080  251.99070    3.96840   83.73080   83.73080   67.91250   67.91250    3.96840    4.23720  -80.95890   -8.85210    4.23720
 8550.00000    9.38930    9.38930  120.36280  117.16600    8.53490   74.07960   74.07960   88.21110   88.21110    8.53490   13.48600  -79.34060  -10.51630   13.48600
 8600.00000    9.78920    9.78920  106.86750  105.57660    9.47180   65.72990   65.72990   53.94270   53.94270    9.47180   13.74310  -73.66760   -5.23010   13.74310
 8650.00000   10.01710   10.01710   92.08200   88.19740   11.33820   67.50000   67.50000   67.82230   67.82230   11.33820   16.14840  -75.27310   -4.12590   16.14840
 8700.00000    9.38350    9.38350  107.61140  104.33950    9.58410   69.64980   69.64980   83.88720   83.88720    9.58410   14.75720  -78.51270   -4.63790   14.75720
 8750.00000    9.31020    9.31020  132.84060  132.39250    7.55330   73.02690   73.02690   70.28020   70.28020    7.55330   11.51540  -92.24260  -15.65810   11.51540
 8800.00000    9.19960    9.19960  131.83750  127.76450    7.82690   70.80260   70.80260   78.30540   78.30540    7.82690   12.40150  -93.44480  -14.15060   12.40150
 8850.00000    9.29490    9.29490  131.40900  126.65440    7.89550   68.10670   68.10670   77.64620   77.64620    7.89550   12.97170  -89.06770   -7.04600   12.97170
 8900.00000    9.74210    9.74210  153.66570  149.83290    6.67410   76.10600   76.10600   86.16970   86.16970    6.67410   10.33560  -92.56900  -13.90870   10.33560
 8950.00000   10.09790   10.09790  184.04530  177.94540    5.61970   77.46050   77.46050   85.69340   85.69340    5.61970    9.42740  -92.50890  -19.15450    9.42740
 9000.00000    8.71960    8.71960  150.58580  142.00710    7.04190   72.57330   72.57330   78.76030   78.76030    7.04190   12.07800  -80.75930  -11.88210   12.07800
 9050.00000    8.15290    8.15290   26.41790   22.20410   45.03680   58.80220   58.80220   49.23020   49.23020   45.03680   67.51450  -70.08470   -5.68470   67.51450
 9100.00000   11.58600   11.58600  142.29010  132.99290    7.51920   82.68320   82.68320  100.27730  100.27730    7.51920   15.27530  -87.57400  -25.28320   15.27530
 9150.00000    8.63770    8.63770    7.68410    2.00200  499.50670   49.30460   49.30460   12.87920   12.87920  499.50670  244.55620 -142.53480  -82.27560  244.55620
 9200.00000    8.58920    8.58920    9.09420    3.73290  267.88690   49.99900   49.99900   19.32620   19.32620  267.88690  170.10540 -111.83490  -53.62060  170.10540
 9250.00000    8.31760    8.31760   36.19610   31.61350   31.63210   60.46410   60.46410   64.04580   64.04580   31.63210   77.83600  -74.67960  -18.49680   77.83600
 9300.00000    8.12650    8.12650   27.36660   23.08500   43.31810   55.39410   55.39410   51.01040   51.01040   43.31810   64.89920  -71.53010  -17.37880   64.89920
 9350.00000    8.09700    8.09700   45.40960   41.55070   24.06700   59.33310   59.33310   63.77730   63.77730   24.06700   36.20010  -64.64590  -12.53950   36.20010
 9400.00000    8.13350    8.13350   47.00240   43.46450   23.00730   63.19190   63.19190   70.75770   70.75770   23.00730   36.06970  -56.02950   -5.77340   36.06970
 9450.00000    8.14580    8.14580   14.30140    8.78350  113.84940   50.37240   50.37240   26.94920   26.94920  113.84940  147.87370 -142.76740  -80.68960  147.87370
 9500.00000    8.19310    8.19310   56.32210   54.57470   18.32350   58.01450   58.01450   66.48880   66.48880   18.32350   57.81950  -80.93470   -7.11240   57.81950
 9550.00000    7.40250    7.40250  957.82380  605.62020    1.65120   73.07190   73.07190  105.07590  105.07590    1.65120    5.65230 -196.13620 -121.92760    5.65230
 9600.00000    7.55050    7.55050  481.38860  416.51050    2.40090   64.70290   64.70290   73.10470   73.10470    2.40090   10.81370 -181.83410 -107.62550   10.81370
