~Version ---------------------------------------------------
VERS. 2.0 : CWLS log ASCII Standard -VERSION 2.0
WRAP.  NO : ONE LINE PER DEPTH STEP
~Well ------------------------------------------------------
STRT.F                          1050.0 : START DEPTH
STOP.F                         10100.0 : STOP DEPTH
STEP.F                        50.00000 : STEP LENGTH
NULL.                          -999.25 : NULL VALUE
COMP.             PETROFINA CANADA LTD : COMPANY
WELL.        FINA ET AL WIND 7-7-61-16 : WELL
FLD .                                  : FIELD
LOC .                                  : LOCATION
CTRY.                           CANADA : COUNTRY
SRVC. Schlumberger Well Surveying Corp : SERVICE COMPANY
DATE.                      23-Jan-1978 : LOGDATE
PROV.                          Alberta : PROVINCE
UWI .                 100070706116W500 : UNIQUE WELL ID
SLAT.WGS84                    54.25864 : SURFACE LATITUDE
SLON.WGS84                    -116.383 : SURFACE LONGITUDE
~Curve Information -----------------------------------------
DEPT   .F                 : 
CALD   .IN   45 280 60 00 : CALIPER FROM DENSITY LOG
DRHO   .G/C3 45 356 01 00 : BULK DENSITY CORRECTION
GRD    .GAPI 45 310 01 00 : GAMMA RAY FROM DENSITY LOG
RHOB   .G/C3 45 350 01 00 : BULK DENSITY
NPHI_SS.DEC  42 890 03 00 : NEUTRON POROSITY SANDSTONE
DPHI_SS.DEC  45 890 12 00 : DENSITY POROSITY SANDSTONE
NPHI_LS.DEC  42 890 01 00 : NEUTRON POROSITY LIMESTONE
DPHI_LS.DEC  45 890 10 00 : DENSITY POROSITY LIMESTONE
LL8    .OHMM 07 220 08 00 : LATEROLOG 8
SPR    .MV   07 010 01 00 : SPONTANEOUS POTENTIAL FROM RESISTIVITY LOG
ILD    .OHMM 07 120 46 00 : INDUCTION DEEP RESISTIVITY
ILM    .OHMM 07 120 44 00 : INDUCTION MEDIUM RESISTIVITY
DT     .US/F 60 500 00 00 : DELTA-T (INTERVAL TRANSIT TIME)
CALS   .IN   60 280 50 00 : CALIPER FROM SONIC LOG
GRS    .GAPI 60 310 01 00 : GAMMA RAY FROM SONIC LOG
GRD_R  .GAPI 45 310 01 00 : GAMMA RAY FROM DENSITY LOG FROM REPEAT
GRS_R  .GAPI 60 310 01 00 : GAMMA RAY FROM SONIC LOG FROM REPEAT
~Params ----------------------------------------------------
PD  .                     GL : PERMANENT DATUM
EPD .FT               2840.2 : ELEVATION PERMANENT DATUM
LMF .                     KB : LOG MEASURED FROM
DAPD.FT                 13.8 : FEET ABOVE PERMANENT DATUM
EKB .FT                 2854 : KELLY BUSHING
EGL .FT               2840.2 : GROUND LEVEL
DATE.               01/23/78 : RUN DATE
RUN .                      1 : RUN NUMBER
DD  .FT                10130 : DEPTH DRILLER
DL  .FT                10136 : DEPTH LOGGER
BLI .FT                10130 : BOTTOM LOG INTERVAL
TLI .FT                 1041 : TOP LOG INTERVAL
CBD .FT                 1041 : CASING BOTTOM DRILLER
CBL .FT                 1041 : CASING BOTTOM LOGGER
BS  .IN                7.875 : BIT SIZE
BSD .FT                10130 : BIT SIZE AT DEPTH
DFT .               GEL CHEM : DRILLING FLUID TYPE
DFD .                    9.1 : DRILLING FLUID DENSITY
DFV .                     88 : DRILLING FLUID VISCOSITY
DFPH.                    9.6 : DRILLING FLUID PH
DFL .                      6 : DRILLING FLUID LOSS
MSS .               FLOWLINE : MUD SAMPLE SOURCE
RMF .OHMM                2.1 : RESISTIVITY MUD FILTRATE SAMPLE
MFST.DEGF                 61 : MUD FILTRATE SAMPLE TEMPERATURE
RMB .OHMM               0.67 : RESISTIVITY MUD AT BHT
TCS .HRS                 2.5 : TIME CIRCULATED STOPPED
LUN .                   7730 : LOGGING UNIT NUMBER
LUL .                    EDM : LOGGING UNIT LOCATION
ENGI.               CAMPBELL : RECORDING ENGINEER
WITN.                  SMITH : WITNESSED BY
CLNT.                A2DTECH : CLIENT CODE
ORIG.            2" 5" PRINT : ORIGIN OF DATA
UWI .       100070706116W500 : UNIQUE WELL ID
DICO. A2D Technologies, Inc. : DIGITIZING COMPANY
~Other -----------------------------------------------------
~ASCII -----------------------------------------------------
 1050.00000    -999.25    -999.25    -999.25    -999.25    -999.25    -999.25    -999.25    -999.25    4.40610  -91.29210    4.74710    3.78270  109.56500    9.66040  107.98930    -999.25    -999.25
 1100.00000    -999.25    -999.25    -999.25    -999.25    -999.25    -999.25    -999.25    -999.25    4.91280  -89.91360    5.53300    4.71100  104.97020    9.73930   87.30420    -999.25    -999.25
 1150.00000    -999.25    -999.25    -999.25    -999.25    -999.25    -999.25    -999.25    -999.25    4.96040  -86.02830    5.16120    4.42730  107.27720    9.91050   99.80970    -999.25    -999.25
 1200.00000    -999.25    -999.25    -999.25    -999.25    -999.25    -999.25    -999.25    -999.25    3.69100  -84.22130    4.23940    3.56770  106.08180   10.08820   98.33350    -999.25    -999.25
 1250.00000    -999.25    -999.25    -999.25    -999.25    -999.25    -999.25    -999.25    -999.25    3.24050  -84.24730    2.83290    2.51810  108.05680    9.58750  118.80790    -999.25    -999.25
 1300.00000    -999.25    -999.25    -999.25    -999.25    -999.25    -999.25    -999.25    -999.25    4.42690  -83.29260    4.85820    4.08710  107.65030    9.91220   99.56550    -999.25    -999.25
 1350.00000    -999.25    -999.25    -999.25    -999.25    -999.25    -999.25    -999.25    -999.25    6.05690  -88.05370    5.72720    4.91470  107.69040    9.81620  108.66100    -999.25    -999.25
 1400.00000    -999.25    -999.25    -999.25    -999.25    -999.25    -999.25    -999.25    -999.25   10.54140  -94.66630   13.91930   11.65020  105.97480   10.15910   68.18590    -999.25    -999.25
 1450.00000    -999.25    -999.25    -999.25    -999.25    -999.25    -999.25    -999.25    -999.25    7.52940  -89.43480    7.85850    7.00070  104.55440   10.05410   93.58850    -999.25    -999.25
 1500.00000    -999.25    -999.25    -999.25    -999.25    -999.25    -999.25    -999.25    -999.25   10.37980  -87.94550   10.68360    9.74780   93.90230    9.80630   58.15490    -999.25    -999.25
 1550.00000    -999.25    -999.25    -999.25    -999.25    -999.25    -999.25    -999.25    -999.25    6.15550  -88.21980    6.28670    5.58000   99.84460    9.91390   88.70400    -999.25    -999.25
 1600.00000    -999.25    -999.25    -999.25    -999.25    -999.25    -999.25    -999.25    -999.25   12.05830  -94.40370   13.25380   12.05970  118.45960    9.26370   66.65440    -999.25    -999.25
 1650.00000    -999.25    -999.25    -999.25    -999.25    -999.25    -999.25    -999.25    -999.25    5.07990  -88.48400    5.35930    4.54190   92.92180    9.13830   84.77630    -999.25    -999.25
 1700.00000    -999.25    -999.25    -999.25    -999.25    -999.25    -999.25    -999.25    -999.25    4.11970  -87.20010    4.12870    3.86090  101.96010   10.08900   90.71060    -999.25    -999.25
 1750.00000    -999.25    -999.25    -999.25    -999.25    -999.25    -999.25    -999.25    -999.25    4.50680  -87.68420    4.27360    3.93850  102.85620   10.34680   91.69520    -999.25    -999.25
 1800.00000    -999.25    -999.25    -999.25    -999.25    -999.25    -999.25    -999.25    -999.25    3.74030  -89.00230    3.64250    3.25780  115.76980    9.51780  102.59300    -999.25    -999.25
 1850.00000    -999.25    -999.25    -999.25    -999.25    -999.25    -999.25    -999.25    -999.25    4.99190  -87.80080    5.19650    4.48540   96.90640   10.43560   94.89690    -999.25    -999.25
 1900.00000    -999.25    -999.25    -999.25    -999.25    -999.25    -999.25    -999.25    -999.25    6.56290  -89.13620    6.82760    5.77960   94.32620   10.20170   82.06500    -999.25    -999.25
 1950.00000    -999.25    -999.25    -999.25    -999.25    -999.25    -999.25    -999.25    -999.25    6.25150  -91.31510    7.35190    6.62100   95.35000    9.99180   86.28620    -999.25    -999.25
 2000.00000    -999.25    -999.25    -999.25    -999.25    -999.25    -999.25    -999.25    -999.25    3.75430  -87.51240    3.93960    3.31400   99.46670    9.68050  107.36250    -999.25    -999.25
 2050.00000    -999.25    -999.25    -999.25    -999.25    -999.25    -999.25    -999.25    -999.25    5.04250  -86.70090    4.66060    4.53570   93.26940    9.49960   93.54740    -999.25    -999.25
 2100.00000    -999.25    -999.25    -999.25    -999.25    -999.25    -999.25    -999.25    -999.25    5.53740  -88.41930    5.25410    4.96590   93.31470    9.27900   97.25750    -999.25    -999.25
 2150.00000    -999.25    -999.25    -999.25    -999.25    -999.25    -999.25    -999.25    -999.25    8.47640  -88.05710    7.62630    7.10860   90.64150    9.75870   93.81310    -999.25    -999.25
 2200.00000    -999.25    -999.25    -999.25    -999.25    -999.25    -999.25    -999.25    -999.25    3.66000  -88.03230    3.43320    3.17370  107.92290   10.12280  107.86970    -999.25    -999.25
 2250.00000    -999.25    -999.25    -999.25    -999.25    -999.25    -999.25    -999.25    -999.25    3.19700  -87.14260    2.35830    2.14090  106.73830   10.04030  102.79090    -999.25    -999.25
 2300.00000    -999.25    -999.25    -999.25    -999.25    -999.25    -999.25    -999.25    -999.25    3.06060  -87.51340    3.40510    2.92090  110.74880   10.39590  117.12810    -999.25    -999.25
 2350.00000    -999.25    -999.25    -999.25    -999.25    -999.25    -999.25    -999.25    -999.25    4.30990  -87.01640    3.76090    3.43790  105.19550    9.80370  100.87060    -999.25    -999.25
 2400.00000    -999.25    -999.25    -999.25    -999.25    -999.25    -999.25    -999.25    -999.25    4.18900  -86.70150    5.07660    4.56230  104.74330    9.73320   88.55970    -999.25    -999.25
 2450.00000    7.99500    -999.25    -999.25    -999.25    -999.25    -999.25    -999.25    -999.25    3.86990  -86.96230    3.75040    3.40010   97.04940    9.39590   93.86010    -999.25    -999.25
 2500.00000    9.98180    0.04290   72.72640    2.37530    0.34960    0.18360    -999.25    -999.25    8.65840  -88.32670    8.10580    7.89140   90.90950    9.82530   70.19080    -999.25    -999.25
 2550.00000   11.25810    0.03230   77.92150    2.38150    0.51770    0.21590    -999.25    -999.25    5.38660  -87.77000    4.51100    4.23860  103.41040   10.25530   77.92000    -999.25    -999.25
 2600.00000   12.05220    0.10410   89.14490    2.24290    0.38410    0.18170    -999.25    -999.25    4.61060  -85.95340    4.96160    4.31470  100.12290   10.18650   87.64260    -999.25    -999.25
 2650.00000   11.65910    0.19450   74.65430    2.15790    0.47030    0.22610    -999.25    -999.25    4.55990  -86.43670    4.43050    4.02250  108.97320    9.72700   77.71290    -999.25    -999.25
 2700.00000    9.87210    0.03860   67.30170    2.44590    0.35170    0.13260    -999.25    -999.25    8.55780  -85.41540    7.45700    6.61920   93.41220   10.06760   72.19430    -999.25    -999.25
 2750.00000    9.92760    0.07440   47.71910    2.31030    0.35430    0.20680    -999.25    -999.25   12.64880  -95.10510   14.18650   12.90630   89.89110    9.54020   55.23120    -999.25    -999.25
 2800.00000    9.44460    0.01670   46.46140    2.57990    0.17420    0.04490    -999.25    -999.25   40.70330  -87.96810   19.56470   26.46050   65.23130    9.15400   46.18430    -999.25    -999.25
 2850.00000   10.57190    0.03850   63.64370    2.39560    0.34500    0.12500    -999.25    -999.25    7.31460  -84.43700    6.60170    6.14420   90.12440   10.25960   63.85940    -999.25    -999.25
 2900.00000   11.17120    0.21720   80.30760    2.22310    0.42790    0.18140    -999.25    -999.25    4.10890  -85.72120    4.71590    4.44930  101.96750   10.34720   83.77660    -999.25    -999.25
 2950.00000    9.26350    0.02380   42.40210    2.48350    0.28580    0.13020    -999.25    -999.25   17.88700  -88.86090   15.14960   14.05370   74.79590    9.07680   50.11580    -999.25    -999.25
 3000.00000    9.68490    0.06000   65.16610    2.47930    0.35380    0.09900    -999.25    -999.25   11.11430  -88.53340   11.74990   11.22740   87.23440    9.65750   71.55990    -999.25    -999.25
 3050.00000    9.59240    0.10270   45.46640    2.42860    0.28100    0.14320    -999.25    -999.25   26.88220 -102.44200   27.55540   25.47190   81.13690    9.00120   52.10950    -999.25    -999.25
