~Version ---------------------------------------------------
VERS.      2.0 : CWLS log ASCII Standard -VERSION 2.0
WRAP.       NO : One line per depth step
CREA. 08/24/13 : LAS Creation Date
~Well ------------------------------------------------------
STRT.M                           300.0 : START DEPTH
STOP.M                          3950.0 : STOP DEPTH
STEP.M                        50.00000 : STEP LENGTH
NULL.                          -999.25 : NULL VALUE
COMP. CHEVRON CANADA RESOURCES LIMITED : COMPANY
WELL.   CHEVRON SHELL SIMONETTE 1-23-6 : WELL
FLD .                                  : FIELD
LOC .                                  : LOCATION
CTRY.                           CANADA : COUNTRY
SRVC.                          Unknown : SERVICE COMPANY
DATE.                      19-Apr-1995 : LOGDATE
PROV.                          Alberta : PROVINCE
UWI .                 100012306427W500 : UNIQUE WELL ID
SLAT.WGS84                     54.5475 : SURFACE LATITUDE
SLON.WGS84                   -117.9618 : SURFACE LONGITUDE
~Curve Information -----------------------------------------
DEPT    .M      : DEPTH METER
AT10ED  .OHMM   : 10 INCH RESISTIVITY TWO FOOT RESOLUTION FROM AIT LOG
AT20ED  .OHMM   : 20 INCH RESISTIVITY TWO FOOT RESOLUTION FROM AIT LOG
AT30ED  .OHMM   : 30 INCH RESISTIVITY TWO FOOT RESOLUTION FROM AIT LOG
AT60ED  .OHMM   : 60 INCH RESISTIVITY TWO FOOT RESOLUTION FROM AIT LOG
AT90ED  .OHMM   : 90 INCH RESISTIVITY TWO FOOT RESOLUTION FROM AIT LOG
CALDED  .MM     : CALIPER FROM DENSITY LOG [ADJ. TO RESISTIVITY LOG]
CALSRED .MM     : CALIPER FROM RESISTIVITY LOG
CALWS   .MM     : CALIPER [CALDED]
CONDWS  .MMHO   : CONDUCTIVITY [1000/DRESWS]
DCORWS  .KG/M3  : DENSITY CORRECTION [DRHOED]
DENWS   .KG/M3  : FORMATION BULK DENSITY [CALC FROM,DPOLSWS,M=2710,F=1000]
DPHILSED.V/V    : DENSITY POROSITY LIMESTONE [M=2710,F=1000] FROM DENSITY LOG  [ADJ. TO RESISTIVITY LOG]
DPHISSED.V/V    : DENSITY POROSITY SANDSTONE [DPHISSED SPL. TO DPHISS1ED @ 2443M] [M=2650,F=1000] FROM DENSITY LOG  [ADJ. TO RESISTIVITY LOG]
DPOLSWS .V/V    : DENSITY POROSITY LIMESTONE [DPHISSED CONVERTED TO LIMESTONE MATRIX,M=2710,F=1000,SPL. TO DPHILSED @2501M]
DRESWS  .OHMM   : DEEP RESISTIVITY [AT90ED SPL. TO IDPHED @2499M]
DRHOED  .KG/M3  : BULK DENSITY CORRECTION FROM DENSITY LOG [ADJ. TO RESISTIVITY LOG]
DTED    .US/M   : DELTA-T FROM SONIC LOG  [ADJ. TO RESISTIVITY LOG]
DTWS    .US/M   : COMPRESSIONAL SONIC [DTED]
GRDED   .GAPI   : GAMMA RAY FROM DENSITY LOG  [ADJ. TO RESISTIVITY LOG]
GRRED   .GAPI   : GAMMA RAY FROM RESISTIVITY LOG
GRSED   .GAPI   : GAMM RAY FROM SONIC LOG [ADJ. TO RESISTIVITY LOG]
GRWS    .GAPI   : GAMMA RAY [GRSED SPL. TO GRDED @428M-476M & SPL. TO GRR1ED @1681M-TD]
HDSED   .MM     : HOLE DIAMETER FROM SONIC LOG [ADJ. TO RESISTIVITY LOG]
IDPHED  .OHMM   : DEEP INDUCTION PHASOR RESISTIVITY FROM PI-SFL LOG
IMPHED  .OHMM   : MEDIUM INDUCTION PHASOR RESISTIVITY FROM PI-SFL LOG
LAED    .MM     : CALIPER FROM SONIC LOG [ADJ. TO RESISTIVITY LOG]
LLDED   .OHMM   : DEEP RESISTIVITY FROM LATEROLOG
LLSED   .OHMM   : SHALLOW RESISTIVITY FROM LATEROLOG
MRESWS  .OHMM   : MEDIUM RESISTIVITY [AT30ED SPL. TO IMPHED @ 2496M]
MSFLED  .OHMM   : MICRO SPHERICALLY FOCUSED RESISTIVITY FROM LATEROLOG
NPOLSWS .V/V    : NEUTRON POROSITY LIMESTONE [NPORSSED CONVERTED TO LIMESTONE MATRIX,SPL. TO NPORLSED @2500M]
NPORLSED.V/V    : NEUTRON POROSITY LIMESTONE FROM DENSITY LOG  [ADJ. TO RESISTIVITY LOG]
NPORSSED.V/V    : NEUTRON POROSITY SANDSTONE [NPORSSED SPL. TO NPORSS1ED @2450M] FROM DENSITY LOG [ADJ. TO RESISTIVITY LOG]
PEFED   .B/E    : PHOTOELECTRIC FACTOR FROM DENSITY LOG  [ADJ. TO RESISTIVITY LOG]
PEFWS   .B/E    : PHOTOELECTRIC FACTOR [PEFED]
RHOBED  .KG/M3  : BULK DENSITY FROM DENSITY LOG  [ADJ. TO RESISTIVITY LOG]
SFLUED  .OHMM   : SHALLOW FOCUSED RESISTIVITY FROM PI-SFL LOG
SPRED   .MV     : SPONTANEOUS POTENTIAL [SPRED SPL. TO SPR1ED @ 2491M] FROM RESISTIVITY LOG
SPWS    .MV     : SPONTANEOUS POTENTIAL [BASELINE 0 MV,SPRED]
SRESWS  .OHMM   : SHALLOW RESISTIVITY [AT10ED SPL. TO SFLUED @2497M]
TENDED  .N      : TENSION FROM DENSITY LOG  [ADJ. TO RESISTIVITY LOG]
TENRED  .N      : TENSION FROM RESISTIVITY LOG
TENSED  .N      : TENSION FROM SONIC LOG [ADJ. TO RESISTIVITY LOG]
~Params ----------------------------------------------------
PD  .                         GL : PERMANENT DATUM
EPD .M                     952.4 : ELEVATION PERMANENT DATUM
LMF .                         KB : LOG MEASURED FROM
DAPD.M                       7.8 : FEET ABOVE PERMANENT DATUM
DMF .                         KB : DRILLING MEASURED FROM
EKB .M                     960.2 : KELLY BUSHING
EGL .M                     952.4 : GROUND LEVEL
DATE.                   04/19/95 : RUN DATE
RUN .                          2 : RUN NUMBER
DD  .M                      4000 : DEPTH DRILLER
DL  .M                      3994 : DEPTH LOGGER
BLI .M                    3992.2 : BOTTOM LOG INTERVAL
TLI .M                      1700 : TOP LOG INTERVAL
CS  .MM                    244.5 : CASING SIZE
CBD .M                    448.42 : CASING BOTTOM DRILLER
CBL .M                     448.5 : CASING BOTTOM LOGGER
BS  .MM                      222 : BIT SIZE
BSD .M                      4000 : BIT SIZE AT DEPTH
DFT .                   GEL CHEM : DRILLING FLUID TYPE
DFD .                       1105 : DRILLING FLUID DENSITY
DFV .                         58 : DRILLING FLUID VISCOSITY
DFPH.                       10.5 : DRILLING FLUID PH
DFL .                        7.4 : DRILLING FLUID LOSS
MSS .                   FLOWLINE : MUD SAMPLE SOURCE
RMS .OHMM                   1.32 : RESISTIVITY MUD SAMPLE
MST .DEGC                     21 : MUD SAMPLE TEMPERATURE
RMF .OHMM                   1.08 : RESISTIVITY MUD FILTRATE SAMPLE
MFST.DEGC                     22 : MUD FILTRATE SAMPLE TEMPERATURE
RMC .OHMM                   0.86 : RESISTIVITY MUD CAKE
MCST.DEGC                     18 : MUD CAKE SAMPLE TEMPERATURE
MFSS.                   MEASURED : MUD FILTRATE SAMPLE SOURCE
MCSS.                   MEASURED : MUD CAKE SAMPLE SOURCE
RMB .OHMM                  0.503 : RESISTIVITY MUD AT BHT
TCS .HRS                     800 : TIME CIRCULATED STOPPED
TLAB.HRS                    1620 : TIME LOGGER AT BOTTOM
LUN .                       2025 : LOGGING UNIT NUMBER
LUL .             GRANDE PRAIRIE : LOGGING UNIT LOCATION
ENGI.                      CORTI : RECORDING ENGINEER
WITN.                    TIMMINS : WITNESSED BY
CLNT.                    A2DTECH : CLIENT CODE
ORIG. 6.5"/100M 16.5"/100M PRINT : ORIGIN OF DATA
UWI .           100012306427W500 : UNIQUE WELL ID
DICO.     A2D Technologies, Inc. : DIGITIZING COMPANY
~Other -----------------------------------------------------
DLL-MSFL/AIT/PI-SFL/ML/CNL-LDT/BCS LOG RAN
RHOBED FROM SMALL SECTION
~ASCII -----------------------------------------------------
# ...
 1150.00000    3.67070    4.39530    4.64960    4.88690    5.00830    -999.25    -999.25    -999.25  199.66860    -999.25    -999.25    -999.25    -999.25    -999.25    5.00830    -999.25  330.89010  330.89010    -999.25    -999.25   63.46580   63.46580  249.42390    -999.25    -999.25    -999.25    -999.25    -999.25    4.64960    -999.25    -999.25    -999.25    -999.25    -999.25    -999.25    -999.25    -999.25    8.13980   -3.13470    3.67070    -999.25    -999.25 11099.82810
 1200.00000   20.25910   24.14520   24.64150   25.20540   25.88320    -999.25    -999.25    -999.25   38.63510    -999.25    -999.25    -999.25    -999.25    -999.25   25.88320    -999.25  240.59930  240.59930    -999.25    -999.25   54.08450   54.08450  235.86100    -999.25    -999.25    -999.25    -999.25    -999.25   24.64150    -999.25    -999.25    -999.25    -999.25    -999.25    -999.25    -999.25    -999.25    5.89730   -5.42330   20.25910    -999.25    -999.25 11671.07520
 1250.00000    7.22900    9.12990    9.58220    9.85570   10.08820    -999.25    -999.25    -999.25   99.12570    -999.25    -999.25    -999.25    -999.25    -999.25   10.08820    -999.25  287.10860  287.10860    -999.25    -999.25   98.06820   98.06820  254.91430    -999.25    -999.25    -999.25    -999.25    -999.25    9.58220    -999.25    -999.25    -999.25    -999.25    -999.25    -999.25    -999.25    -999.25    3.74660   -3.13530    7.22900    -999.25    -999.25 11198.30370
 1300.00000    9.76680   12.92050   13.37970   13.47620   13.74670    -999.25    -999.25    -999.25   72.74470    -999.25    -999.25    -999.25    -999.25    -999.25   13.74670    -999.25  281.94690  281.94690    -999.25    -999.25  104.53590  104.53590  252.52110    -999.25    -999.25    -999.25    -999.25    -999.25   13.37970    -999.25    -999.25    -999.25    -999.25    -999.25    -999.25    -999.25    -999.25   -0.09510   -2.53830    9.76680    -999.25    -999.25 11789.10550
 1350.00000    7.02800    9.27130    9.45630    9.73720    9.89550    -999.25    -999.25    -999.25  101.05600    -999.25    -999.25    -999.25    -999.25    -999.25    9.89550    -999.25  280.99920  280.99920    -999.25    -999.25  107.02030  107.02030  264.95310    -999.25    -999.25    -999.25    -999.25    -999.25    9.45630    -999.25    -999.25    -999.25    -999.25    -999.25    -999.25    -999.25    -999.25   -5.35410   -3.35860    7.02800    -999.25    -999.25 11803.15140
 1400.00000    8.83820   11.50380   11.62820   11.80420   11.90510    -999.25    -999.25    -999.25   83.99760    -999.25    -999.25    -999.25    -999.25    -999.25   11.90510    -999.25  287.91990  287.91990    -999.25    -999.25  111.94660  111.94660  251.63870    -999.25    -999.25    -999.25    -999.25    -999.25   11.62820    -999.25    -999.25    -999.25    -999.25    -999.25    -999.25    -999.25    -999.25  -10.25220   -3.81800    8.83820    -999.25    -999.25 11925.97170
 1450.00000   24.47030   25.98790   21.58200   17.65460   16.25200    -999.25    -999.25    -999.25   61.53090    -999.25    -999.25    -999.25    -999.25    -999.25   16.25200    -999.25  257.32140  257.32140    -999.25    -999.25   31.06630   31.06630  221.45800    -999.25    -999.25    -999.25    -999.25    -999.25   21.58200    -999.25    -999.25    -999.25    -999.25    -999.25    -999.25    -999.25    -999.25  -52.22260  -43.99520   24.47030    -999.25    -999.25 12401.80470
 1500.00000    9.53880   12.85030   12.97130   13.05480   13.24790    -999.25    -999.25    -999.25   75.48370    -999.25    -999.25    -999.25    -999.25    -999.25   13.24790    -999.25  263.27360  263.27360    -999.25    -999.25  104.77530  104.77530  246.28340    -999.25    -999.25    -999.25    -999.25    -999.25   12.97130    -999.25    -999.25    -999.25    -999.25    -999.25    -999.25    -999.25    -999.25  -10.97290   -5.12100    9.53880    -999.25    -999.25 12689.23440
 1550.00000    7.81320    9.92900   10.02940   10.14770   10.29530    -999.25    -999.25    -999.25   97.13170    -999.25    -999.25    -999.25    -999.25    -999.25   10.29530    -999.25  290.68370  290.68370    -999.25    -999.25  109.29850  109.29850  247.15570    -999.25    -999.25    -999.25    -999.25    -999.25   10.02940    -999.25    -999.25    -999.25    -999.25    -999.25    -999.25    -999.25    -999.25   -4.90510   -3.76650    7.81320    -999.25    -999.25 12521.01370
 1600.00000    9.99000   12.32440   12.51870   12.79440   12.99440    -999.25    -999.25    -999.25   76.95620    -999.25    -999.25    -999.25    -999.25    -999.25   12.99440    -999.25  276.85310  276.85310    -999.25    -999.25  112.84540  112.84540  240.22480    -999.25    -999.25    -999.25    -999.25    -999.25   12.51870    -999.25    -999.25    -999.25    -999.25    -999.25    -999.25    -999.25    -999.25   -2.11100   -5.68570    9.99000    -999.25    -999.25 12810.40430
 1650.00000   13.71140   19.05340   19.42190   19.89760   20.30920    -999.25    -999.25    -999.25   49.23880    -999.25    -999.25    -999.25    -999.25    -999.25   20.30920    -999.25  276.49420  276.49420    -999.25    -999.25  102.35900  102.35900  231.10570    -999.25    -999.25    -999.25    -999.25    -999.25   19.42190    -999.25    -999.25    -999.25    -999.25    -999.25    -999.25    -999.25    -999.25    3.02700   -5.26100   13.71140    -999.25    -999.25 13315.17480
 1700.00000    8.64590   10.34820   10.04630    9.88330    9.66020  267.68700    -999.25  267.68700  103.51750  125.45620 2334.52000    -999.25    0.19120    0.21960    9.66020  125.45620  306.21240  306.21240  120.55790  110.54380  120.47430  110.54380  235.14970    9.38510    8.53470  275.56440    -999.25    -999.25   10.04630    -999.25    0.31560    -999.25    0.35910    2.94090    2.94090 2336.22120   10.31300    3.64410   -6.11900    8.64590 14960.07130 12869.37500 13438.93550
 1750.00000    6.75160    8.35120    8.13520    7.93860    7.68810  274.01070    -999.25  274.01070  130.07110   90.14330 2449.69000    -999.25    0.12140    0.15220    7.68810   90.14330  268.66040  268.66040  103.64790   91.08400  105.70680   91.08400  250.46160    7.33200    7.01420  238.25220    -999.25    -999.25    8.13520    -999.25    0.26310    -999.25    0.30710    2.86200    2.86200 2450.62890    6.88930   -0.16790   -9.06110    6.75160 15160.90140 13209.63090 13682.72460
 1800.00000    6.08770    7.26450    7.37740    7.46680    7.59120  243.50990    -999.25  243.50990  131.73150  163.09350 2379.40000    -999.25    0.16400    0.19330    7.59120  163.09350  281.96420  281.96420  112.68600   95.08830  101.41180   95.08830  263.21730    7.11150    5.48960  283.30830    -999.25    -999.25    7.37740    -999.25    0.32410    -999.25    0.36750    3.01750    3.01750 2385.60990    4.94260   -0.31760   -8.34090    6.08770 15733.07420 13041.38380 13803.90530
 1850.00000    9.86620   11.33240   10.79050   10.43980   10.15260  228.52540    -999.25  228.52540   98.49690  145.83500 2206.15000    -999.25    0.26900    0.29460   10.15260  145.83500  250.32030  250.32030   96.56300   84.05960  106.40530   84.05960  246.38890   11.83080   11.96110  310.80580    -999.25    -999.25   10.79050    -999.25    0.29700    -999.25    0.34070    2.37340    2.37340 2200.33450   12.07290   -1.39610   -8.54950    9.86620 15831.54200 13582.55370 14205.75000
 1900.00000    4.29720    4.84830    4.55320    4.50210    4.36970  262.65990    -999.25  262.65990  228.84870   90.86860 1989.50500    -999.25    0.40030    0.42130    4.36970   90.86860  304.54770  304.54770  116.51970   95.86310  116.83920   95.86310  247.88420    4.41850    4.29240  334.28140    -999.25    -999.25    4.55320    -999.25    0.37650    -999.25    0.41900    2.59580    2.59580 1992.07980    4.65640    1.53160   -4.86230    4.29720 15742.37210 13489.95510 14316.77830
 1950.00000   12.13600   11.86740   11.36650   10.92720   10.34050  242.46690    -999.25  242.46690   96.70710   24.88090 2557.27000    -999.25    0.05620    0.08930   10.34050   24.88090  246.91610  246.91610   91.84670   72.73960   80.09390   72.73960  240.78940   13.94900   13.20720  352.00660    -999.25    -999.25   11.36650    -999.25    0.22120    -999.25    0.26520    2.57180    2.57180 2556.60400   15.23300  -10.58620  -20.71060   12.13600 16359.15230 13893.03520 14948.06840
