~Version ---------------------------------------------------
VERS. 2.0 : CWLS log ASCII Standard -VERSION 2.0
WRAP.  NO : ONE LINE PER DEPTH STEP
~Well ------------------------------------------------------
STRT.M                               380.5 : START DEPTH
STOP.M                              2549.3 : STOP DEPTH
STEP.M                             0.20000 : STEP LENGTH
NULL.                              -999.25 : NULL VALUE
COMP.                DEVON ARL CORPORATION : COMPANY
WELL. DEVON ARL ETAL 7D GVILLEE 7-25-76-23 : WELL
FLD .                                      : FIELD
LOC .                                      : LOCATION
CTRY.                               CANADA : COUNTRY
SRVC.                         Schlumberger : SERVICE COMPANY
DATE.                          06-Mar-2003 : LOGDATE
PROV.                              Alberta : PROVINCE
UWI .                     100072507623W500 : UNIQUE WELL ID
SLAT.WGS84                        55.61368 : SURFACE LATITUDE
SLON.WGS84                       -117.4224 : SURFACE LONGITUDE
~Curve Information -----------------------------------------
DEPT    .M    0   1   0  0 : 1 MEASURED DEPTH
GRS     .GAPI 60 310 01 00 : GAMMA RAY FROM SONIC LOG
HDS     .MM   60 280 00 00 : HOLE DIAMETER FROM SONIC
DT      .US/M 60 500 00 00 : DELTA-T (INTERVAL TRANSIT TIME)
HCALS   .MM   60 280 50 00 : HRCC CALIPER CALIBRATED FROM SONIC LOG
TENS    .N    60 635 00 00 : TENSION FROM SONIC LOG
GRR     .GAPI 06 310 01 00 : GAMMA RAY FROM RESISTIVITY LOG
RXOZ    .OHMM 06 270 04 00 : INVADED FORMATION RESISTIVITY FILTERED AT 18 INCHES
TENR    .N    06 635 00 00 : TENSION FROM RESISTIVITY LOG
SPR     .MV   06 010 01 00 : SPONTANEOUS POTENTIAL FROM RESISTIVITY LOG
AHF30   .OHMM 06 120 30 00 : ARRAY INDUCTION FOUR FOOT RESISTIVITY A30
AHF20   .OHMM 06 120 20 00 : ARRAY INDUCTION FOUR FOOT RESISTIVITY A20
AHF60   .OHMM 06 120 60 00 : ARRAY INDUCTION FOUR FOOT RESISTIVITY A60
GRD     .GAPI 45 310 01 00 : GAMMA RAY FROM DENSITY LOG
NPOR_SAN.DEC  42 890 03 00 : ENHANCED THERMAL NEUTRON POROSITY (SANDSTONE)
HDD     .MM   45 280 60 00 : HOLE DIAMETER
HCALD   .MM   45 280 60 00 : HRCC CALIPER CALIBRATED FROM DENSITY LOG
DPHI_SAN.DEC  45 890 12 00 : DENSITY POROSITY (MATRIX SANDSTONE)
HDRA    .K/M3 45 356 01 00 : HRDD SPINE AND RIBS DENSITY CORRECTION
PEFZ    .B/E  45 358 01 00 : HRDD STANDARD RESOLUTION FORMATION PHOTOELECTRIC FACTOR
TEND    .N    45 635 00 00 : TENSION FROM DENSITY LOG
NPOR_LS .DEC  42 890 01 00 : NEUTRON POROSITY LIMESTONE
DPHI_LS .DEC  45 890 10 00 : DENSITY POROSITY LIMESTONE
RHOZ    .K/M3 45 350 01 00 : HRDD STANDARD RESOLUTION FORMATION DENSITY
~Params ----------------------------------------------------
PD  .                                  GL : PERMANENT DATUM
EPD .M                              551.9 : ELEVATION PERMANENT DATUM
LMF .                                  KB : LOG MEASURED FROM
DAPD.M                                4.7 : FEET ABOVE PERMANENT DATUM
DMF .                                  KB : DRILLING MEASURED FROM
EKB .M                              556.6 : KELLY BUSHING
EDF .M                              556.3 : DRILLING FLOOR
EGL .M                              551.9 : GROUND LEVEL
DATE.                            03/06/03 : RUN DATE
RUN .                                   1 : RUN NUMBER
DD  .M                               2545 : DEPTH DRILLER
DL  .M                               2544 : DEPTH LOGGER
BLI .M                             2538.3 : BOTTOM LOG INTERVAL
TLI .M                                421 : TOP LOG INTERVAL
CS  .MM                             219.1 : CASING SIZE
CBD .M                                421 : CASING BOTTOM DRILLER
CBL .M                              420.5 : CASING BOTTOM LOGGER
BS  .MM                               200 : BIT SIZE
BSD .M                               2545 : BIT SIZE AT DEPTH
DFT .                            GEL CHEM : DRILLING FLUID TYPE
DFD .                                1050 : DRILLING FLUID DENSITY
DFV .                                  83 : DRILLING FLUID VISCOSITY
DFPH.                                10.5 : DRILLING FLUID PH
DFL .                                   7 : DRILLING FLUID LOSS
MSS .                            FLOWLINE : MUD SAMPLE SOURCE
RMS .OHMM                            1.27 : RESISTIVITY MUD SAMPLE
MST .DEGC                              17 : MUD SAMPLE TEMPERATURE
RMF .OHMM                            0.98 : RESISTIVITY MUD FILTRATE SAMPLE
MFST.DEGC                              18 : MUD FILTRATE SAMPLE TEMPERATURE
RMC .OHMM                            1.55 : RESISTIVITY MUD CAKE
MCST.DEGC                              18 : MUD CAKE SAMPLE TEMPERATURE
MFSS.                            MEASURED : MUD FILTRATE SAMPLE SOURCE
MCSS.                             MEAURED : MUD CAKE SAMPLE SOURCE
RMB .OHMM                           0.566 : RESISTIVITY MUD AT BHT
TCS .HRS                              640 : TIME CIRCULATED STOPPED
TLAB.HRS                             1645 : TIME LOGGER AT BOTTOM
LUN .                                2133 : LOGGING UNIT NUMBER
LUL .                      GRANDE PRAIRIE : LOGGING UNIT LOCATION
ENGI.                            STIRLING : RECORDING ENGINEER
WITN.                              MCLEAY : WITNESSED BY
CLNT.                             A2DTECH : CLIENT CODE
ORIG. 6.5"/100M 16.5"/100M 33"/100M PRINT : ORIGIN OF DATA
UWI .                    100072507623W500 : UNIQUE WELL ID
DICO.              A2D Technologies, Inc. : DIGITIZING COMPANY
~Other -----------------------------------------------------
~ASCII -----------------------------------------------------
# ...
 1124.50000   55.92090  401.12090  481.92370  340.67830 12818.80180   56.43880    0.98200 12947.10350  -51.02220    1.24500    1.15400    1.51740   55.98130    1.04800  400.88600  341.05590    0.90950    5.00070    1.71130 12731.61720    -999.25    -999.25 1148.19380
 1124.70000   57.42810  401.09080  471.06120  341.13290 12863.48240   57.66380    0.98690 12859.99900  -51.42170    1.30430    1.18680    1.61770   57.27580    1.04890  400.95140  340.98160    0.90210   12.43310    1.75760 12850.75100    -999.25    -999.25 1167.04440
 1124.90000   59.69100  401.39180  454.70120  341.14640 12974.38180   60.37150    0.98450 12872.48340  -51.76560    1.34500    1.22700    1.68170   59.45560    0.86870  401.34430  340.88220    0.90320   13.10020    1.82120 12897.49220    -999.25    -999.25 1157.38890
 1125.10000   63.96270  401.50350  423.37810  341.10450 13085.42770   64.33570    0.98210 12894.56450  -51.88730    1.34910    1.21440    1.67650   63.66230    0.63730  401.05100  340.74990    0.90930    5.40900    1.84060 12963.92770    -999.25    -999.25 1144.35230
 1125.30000   65.39800  401.00770  398.61040  341.19150 13196.47460   65.13180    0.97990 12973.53030  -53.07210    1.30450    1.18620    1.62460   65.37130    0.70490  400.92250  341.05150    0.91480    3.91360    1.81220 13155.69340    -999.25    -999.25 1137.75540
 1125.50000   62.16810  400.97130  430.45920  341.31820 13333.24510   61.26610    0.97090 13190.33980  -54.66890    1.25370    1.14560    1.56110   62.06920    0.87350  401.04080  341.09150    0.91440    5.19140    1.87500 13317.19430    -999.25    -999.25 1139.19560
 1125.70000   61.43020  400.94650  486.33010  341.02170 13473.00000   62.22350    0.96430 13466.97360  -57.35100    1.20990    1.12830    1.47700   61.62180    1.03710  401.15600  341.18670    0.88570    9.18740    2.00320 13435.50290    -999.25    -999.25 1205.72090
 1125.90000   67.63140  400.94650  486.42440  341.00010 13474.40330   70.30350    0.98330 13497.57320  -58.17570    1.18810    1.11680    1.40400   69.59690    0.99920  399.55330  341.28190    0.73050   55.81530    2.36070 13496.27150    -999.25    -999.25 1508.87920
 1126.10000   78.53590  384.74870  457.94750  340.97760 13491.59470   82.41370    1.22150 13477.57520  -57.17610    1.25860    1.16310    1.48320   82.08600    0.82520  352.75890  341.35890    0.37290  163.44240    2.75840 13492.28710    -999.25    -999.25 2156.59570
 1126.30000   94.25930  313.65210  436.63830  327.71480 13606.29000   98.33370    1.93820 13512.23340  -55.64720    1.41990    1.31600    1.66970   97.93900    0.58840  305.96430  306.24480    0.20260  170.18710    2.97820 13653.04200    -999.25    -999.25 2449.86550
 1126.50000  111.72090  292.70610  387.28270  270.12150 13738.63090  114.67270    2.64950 13720.56740  -53.44450    1.63950    1.50430    1.99030  114.72970    0.34510  295.43940  276.81690    0.16190  144.64420    2.80580 13646.88770    -999.25    -999.25 2366.78220
 1126.70000  127.70890  318.01660  327.48250  287.70060 13668.94040  127.53180    2.47960 13788.62700  -51.26170    1.90120    1.68830    2.39200  126.72110    0.28200  315.47700  286.22930    0.23840  243.09240    2.22340 13255.93850    -999.25    -999.25 2204.67040
 1126.90000  124.94120  351.10700  346.62610  305.04440 13231.49020  124.59360    1.92760 13511.45310  -49.14100    2.17950    1.89480    2.77230  126.44260    0.29300  344.12440  321.53120    0.35420  284.11330    1.75580 12864.98930    -999.25    -999.25 2042.55860
 1127.10000  110.52650  381.82710  406.68990  322.80780 12870.93160  111.24360    1.48580 13218.19240  -48.29520    2.20490    1.85170    2.81620  112.55650    0.54410  373.56400  317.39970    0.43950  238.48800    1.69580 12734.70900    -999.25    -999.25 1862.29660
 1127.30000   92.82430  398.35770  460.12020  334.92080 12751.32030   94.43300    1.43970 12924.93070  -47.10880    2.06980    1.74140    2.63950   95.48000    0.97340  397.52880  338.76010    0.52480  166.35260    1.78130 12676.04490    -999.25    -999.25 1801.43210
 1127.50000   82.23260  401.82680  482.40950  335.80780 12743.32320   81.65340    1.42490 12704.72360  -46.86440    1.88990    1.61040    2.38850   83.33200    0.92290  402.33960  332.79710    0.60790  145.28670    1.85340 12652.53810    -999.25    -999.25 1678.00290
 1127.70000   76.18850  401.99750  487.66360  340.15180 12772.27150   75.52350    1.18050 12665.46480  -47.33430    1.68190    1.43590    2.08910   76.77180    0.85040  402.21060  339.88860    0.74340   92.18380    1.81820 12661.76370    -999.25    -999.25 1438.82690
 1127.90000   72.03360  402.01120  486.88650  340.75700 12792.34770   71.81140    1.03440 12776.35160  -48.00100    1.52900    1.31890    1.85890   72.37920    0.95160  402.16960  340.54860    0.79340   74.97800    1.76020 12804.08110    -999.25    -999.25 1298.58980
 1128.10000   69.55000  401.94450  490.28760  341.08160 12850.61430   69.32770    1.00900 12861.25000  -49.59970    1.41310    1.23840    1.74500   69.31670    0.95540  402.20620  341.20860    0.70210  106.63560    1.74580 12787.88480    -999.25    -999.25 1380.50100
 1128.30000   71.19630  401.94450  487.67340  341.04510 12781.07030   71.77280    1.00460 12854.48730  -51.34940    1.36240    1.18400    1.70640   70.57930    0.94170  402.14430  341.19910    0.55800  171.22510    1.79500 12732.86040    -999.25    -999.25 1614.12890
 1128.50000   78.55350  401.94450  470.45280  340.48840 12841.22270   78.68960    1.02150 12735.34570  -53.31930    1.37080    1.17820    1.73230   77.52750    0.82940  401.99110  340.50670    0.48080  173.72840    1.98900 12723.28520    -999.25    -999.25 1888.54710
 1128.70000   82.59530  401.94450  451.50100  336.99710 12827.83010   82.56360    1.11570 12797.40820  -54.41830    1.42360    1.21590    1.83180   82.84240    0.83180  401.95720  332.22650    0.52520  156.45030    2.07570 12712.35840    -999.25    -999.25 1836.69530
 1128.90000   80.49550  401.94450  435.22210  334.72760 12890.53810   79.62920    1.11490 12743.04200  -55.13460    1.47840    1.25560    1.90790   80.20590    0.89620  401.94700  338.35300    0.58250  167.55130    1.96950 12782.78520    -999.25    -999.25 1680.63570
 1129.10000   74.64540  401.97480  423.11960  340.63630 12966.06150   73.80750    1.01820 12854.70210  -55.77820    1.54850    1.30130    1.99480   74.43150    0.84880  401.92170  341.07370    0.60470  182.66480    1.85550 12852.66310    -999.25    -999.25 1656.80640
 1129.30000   72.50960  401.96730  395.76390  341.03200 12795.06930   72.78780    1.01170 12911.56840  -56.15000    1.60390    1.35190    2.12230   72.40810    0.72280  401.95740  340.80400    0.61070  179.99370    1.91670 12781.18260    -999.25    -999.25 1641.49120
 1129.50000   74.99400  401.95980  337.11960  341.05860 12877.26460   76.14480    1.01170 12816.72750  -56.74820    1.68590    1.42510    2.25750   75.10450    0.63490  401.94850  341.09160    0.57340  171.91940    1.98840 12765.20610    -999.25    -999.25 1609.25270
 1129.70000   78.32360  401.95240  285.64950  341.06790 12991.17970   79.03930    1.01170 12851.89450  -55.65000    1.76540    1.49510    2.40130   78.32220    0.64100  401.93790  341.32600    0.50000  171.91540    2.07480 12873.33890    -999.25    -999.25 1875.43480
 1129.90000   80.53550  401.94490  298.53310  341.15170 13054.07710   80.92430    1.05910 13007.76760  -54.51390    1.83650    1.53980    2.52840   80.77870    0.71850  401.77480  340.59790    0.55560  150.68030    2.21960 13002.54390    -999.25    -999.25 1673.94290
 1130.10000   79.04000  401.92730  362.62000  341.00640 13069.99320   78.10810    1.05230 13080.13870  -52.32740    1.84390    1.56900    2.44500   79.14510    0.78610  402.25460  341.00020    0.68160  102.27620    2.11520 13102.39650    -999.25    -999.25 1408.13110
 1130.30000   74.08840  402.18820  418.15310  341.03870 13217.02150   74.00570    1.00730 13087.49410  -50.96100    1.82620    1.58000    2.33640   74.18060    0.75360  402.24970  341.11500    0.73230   91.97250    1.82400 13186.41890    -999.25    -999.25 1355.09500
