~Version ---------------------------------------------------
VERS.      2.0 : CWLS log ASCII Standard -VERSION 2.0
WRAP.       NO : One line per depth step
CREA. 12/11/17 : LAS Creation Date
~Well ------------------------------------------------------
STRT.FT                         700.0 : START DEPTH
STOP.FT                        9950.0 : STOP DEPTH
STEP.FT                      50.00000 : STEP LENGTH
NULL.                         -999.25 : NULL VALUE
COMP.      CANADIAN SUPERIOR OIL LTD. : COMPANY
WELL. CDN. SUP. SAKWATAMAU 10-4-63-15 : WELL
FLD .                  SAKWATAMAU  WC : FIELD
LOC .                                 : LOCATION
CTRY.                          CANADA : COUNTRY
SRVC.                      Lane Wells : SERVICE COMPANY
DATE.                     12-Feb-1963 : LOGDATE
PROV.                         Alberta : PROVINCE
UWI .                100100406315W500 : UNIQUE WELL ID
SLAT.WGS84                   54.42373 : SURFACE LATITUDE
SLON.WGS84                  -116.2015 : SURFACE LONGITUDE
~Curve Information -----------------------------------------
DEPT  .FT    : Depth Curve
CALWS .IN    : CALIPER [MCALED]
CILED .MMHO  : CONDUCTIVITY FROM RESISTIVITY LOG
CONDWS.MMHO  : CONDUCTIVITY [1000/DRESWS]
DRESWS.OHMM  : DEEP RESISTIVITY [1000/CILED IF ILED<=5, ILED]
DTED  .US/F  : DELTA-T FROM SONIC LOG [ADJ. TO RESISTIVITY LOG]
DTWS  .US/F  : COMPRESSIONAL SONIC [DTED]
GRSED .GAPI  : GAMMA RAY FROM SONIC LOG
GRWS  .GAPI  : GAMMA RAY [GRSED]
ILED  .OHMM  : INDUCTION RESISTIVITY FROM RESISTIVITY LOG
MCALED.IN    : MICRO CALIPER FROM ML LOG
MINVED.OHMM  : MICRO INVERSE FROM ML LOG
MNORED.OHMM  : MICRO NORMAL FROM ML LOG
SNED  .OHMM  : SHORT NORMAL RESISTIVITY FROM RESISTIVITY LOG
SPRED .MV    : SPONTANEOUS POTENTIAL FROM RESISTIVITY LOG
SPWS  .MV    : SPONTANEOUS POTENTIAL [BASELINE 0 MV, SPRED]
SRESWS.OHMM  : SHALLOW RESISTIVITY [SNED]
~Params ----------------------------------------------------
PD  .                     GL : PERMANENT DATUM
EPD .FT                 3236 : ELEVATION PERMANENT DATUM
LMF .                     KB : LOG MEASURED FROM
DAPD.FT                   13 : FEET ABOVE PERMANENT DATUM
DMF .                     KB : DRILLING MEASURED FROM
EKB .FT                 3249 : KELLY BUSHING
EGL .FT                 3236 : GROUND LEVEL
DATE.               02/12/63 : RUN DATE
RUN .                      2 : RUN NUMBER
DD  .FT                 9959 : DEPTH DRILLER
DL  .FT                 9954 : DEPTH LOGGER
BLI .FT                 9953 : BOTTOM LOG INTERVAL
TLI .FT                 6500 : TOP LOG INTERVAL
CS  .IN                10.75 : CASING SIZE
CBD .FT                  679 : CASING BOTTOM DRILLER
CBL .FT                  678 : CASING BOTTOM LOGGER
BS  .IN                    9 : BIT SIZE
BSD .FT                 9959 : BIT SIZE AT DEPTH
DFT .                MUD GEL : DRILLING FLUID TYPE
DFD .                   10.2 : DRILLING FLUID DENSITY
DFV .                     98 : DRILLING FLUID VISCOSITY
DFPH.                     10 : DRILLING FLUID PH
DFL .                    6.8 : DRILLING FLUID LOSS
MSS .                   CIRC : MUD SAMPLE SOURCE
RMS .OHMM                2.2 : RESISTIVITY MUD SAMPLE
MST .DEGF                 70 : MUD SAMPLE TEMPERATURE
RMF .OHMM                2.5 : RESISTIVITY MUD FILTRATE SAMPLE
MFST.DEGF                 52 : MUD FILTRATE SAMPLE TEMPERATURE
RMC .OHMM                2.8 : RESISTIVITY MUD CAKE
MCST.DEGF                 61 : MUD CAKE SAMPLE TEMPERATURE
MFSS.                   MEAS : MUD FILTRATE SAMPLE SOURCE
MCSS.                   MEAS : MUD CAKE SAMPLE SOURCE
RMB .OHMM               0.83 : RESISTIVITY MUD AT BHT
TCS .HRS                   7 : TIME CIRCULATED STOPPED
LUN .                   8035 : LOGGING UNIT NUMBER
LUL .                    EDM : LOGGING UNIT LOCATION
ENGI.                  BLAND : RECORDING ENGINEER
WITN.                SIEMENS : WITNESSED BY
CLNT.                A2DTECH : CLIENT CODE
ORIG.            2" 5" PRINT : ORIGIN OF DATA
UWI .       100100406315W500 : UNIQUE WELL ID
DICO. A2D Technologies, Inc. : DIGITIZING COMPANY
~Other -----------------------------------------------------
IEL-ML-ADSL LOG RUN
RESISTIVITY DATA FROM LINEAR SCALE OF 5" and 2" SECTION LOG
~ASCII -----------------------------------------------------
# ...
 5000.00000    -999.25  377.65280  377.65280    2.64790    -999.25    -999.25    -999.25    -999.25    3.94470    -999.25    -999.25    -999.25    3.40510  -48.91420   -1.97150    3.40510
 5050.00000    -999.25  228.30820  178.81050    5.59350    -999.25    -999.25    -999.25    -999.25    5.59350    -999.25    -999.25    -999.25    5.03240  -50.81580   -3.98020    5.03240
 5100.00000    -999.25  237.81140  189.45490    5.27830   70.16320   70.16320    -999.25    -999.25    5.27830    -999.25    -999.25    -999.25    5.87000  -50.24030   -3.51270    5.87000
 5150.00000    -999.25  114.67930  101.77080    9.82600   73.38320   73.38320  121.90100  121.90100    9.82600    -999.25    -999.25    -999.25   10.96740  -51.52190   -4.90190   10.96740
 5200.00000    -999.25  474.79490  474.79490    2.10620   68.87680   68.87680  118.44950  118.44950    3.50480    -999.25    -999.25    -999.25    2.95180  -49.46210   -2.94970    2.95180
 5250.00000    -999.25   86.89590   81.04840   12.33830   69.97630   69.97630  110.73680  110.73680   12.33830    -999.25    -999.25    -999.25   14.62200  -56.85140  -10.44660   14.62200
 5300.00000    -999.25   72.95560   67.50150   14.81550   67.74300   67.74300   91.64520   91.64520   14.81550    -999.25    -999.25    -999.25   16.56520  -59.74670  -13.44900   16.56520
 5350.00000    -999.25  103.22140   93.63820   10.67940   82.46670   82.46670  100.32100  100.32100   10.67940    -999.25    -999.25    -999.25   12.99410  -54.88390   -8.69430   12.99410
 5400.00000    -999.25   93.77450   83.70370   11.94690   67.42880   67.42880   89.81470   89.81470   11.94690    -999.25    -999.25    -999.25   21.96770  -92.24960  -46.16760   21.96770
 5450.00000    -999.25   70.01840   64.89500   15.40950   71.49970   71.49970   98.58940   98.58940   15.40950    -999.25    -999.25    -999.25   17.52670  -53.73520   -7.76070   17.52670
 5500.00000    -999.25   70.10750   63.45220   15.75990   72.99970   72.99970  109.89280  109.89280   15.75990    -999.25    -999.25    -999.25   17.12430  -47.42690   -1.56000   17.12430
 5550.00000    -999.25   89.50490   82.08710   12.18220   69.64250   69.64250   92.54730   92.54730   12.18220    -999.25    -999.25    -999.25   20.07200  -88.67480  -42.93040   20.07200
 5600.00000    -999.25   42.74850   38.30870   26.10370   58.06390   58.06390   76.73720   76.73720   26.10370    -999.25    -999.25    -999.25   28.03820  -66.61110  -20.99380   28.03820
 5650.00000    -999.25  105.93970   96.93770   10.31590   86.80190   86.80190   73.51230   73.51230   10.31590    -999.25    -999.25    -999.25   16.31960  -60.51120  -15.02040   16.31960
 5700.00000    -999.25  145.40680  123.16790    8.11900   72.38590   72.38590   90.22470   90.22470    8.11900    -999.25    -999.25    -999.25   10.31930  -74.25650  -28.89220   10.31930
 5750.00000    -999.25   98.01960   90.72270   11.02260   69.08750   69.08750  104.20020  104.20020   11.02260    -999.25    -999.25    -999.25   11.78980  -52.68930   -7.45150   11.78980
 5800.00000    -999.25  135.45160  124.33660    8.04270   74.38880   74.38880  105.11670  105.11670    8.04270    -999.25    -999.25    -999.25    8.84250  -48.86500   -3.75300    8.84250
 5850.00000    -999.25  106.86630   98.74010   10.12760   71.51410   71.51410  104.35540  104.35540   10.12760    -999.25    -999.25    -999.25   11.57450  -49.71660   -4.73170   11.57450
 5900.00000    -999.25  101.67060   93.16100   10.73410   78.60370   78.60370  114.46430  114.46430   10.73410    -999.25    -999.25    -999.25   13.47660  -48.94820   -4.08980   13.47660
 5950.00000    -999.25   62.61680   59.36440   16.84510   63.68890   63.68890  115.22140  115.22140   16.84510    -999.25    -999.25    -999.25   21.78050  -52.73050   -8.24530   21.78050
 6000.00000    -999.25  190.38090  173.30420    5.77020   78.83970   78.83970  133.00670  133.00670    5.77020    -999.25    -999.25    -999.25    6.67770  -53.27930  -11.16340    6.67770
 6050.00000    -999.25  107.86890  101.34850    9.86780   69.88490   69.88490  121.11790  121.11790    9.86780    -999.25    -999.25    -999.25   13.02870  -43.84000   -4.08150   13.02870
 6100.00000    -999.25  110.73940  104.77900    9.54390   73.03470   73.03470  120.92990  120.92990    9.54390    -999.25    -999.25    -999.25   12.46370  -38.90570   -1.52830   12.46370
 6150.00000    -999.25  143.78140  125.97000    7.93840   77.43360   77.43360  122.30260  122.30260    7.93840    -999.25    -999.25    -999.25   10.88180  -40.59960   -5.59140   10.88180
 6200.00000    -999.25   10.18590    6.93050  144.28870   58.00620   58.00620   60.69290   60.69290  144.28870    -999.25    -999.25    -999.25  116.54000  -57.27160  -23.95310  116.54000
 6250.00000    -999.25  616.09720  616.09720    1.62310   68.29060   68.29060   70.45320   70.45320    2.80760    -999.25    -999.25    -999.25   10.50790 -151.82040 -119.39400   10.50790
 6300.00000    -999.25   91.94870   84.45470   11.84810   55.02750   55.02750   54.96130   54.96130   11.84810    -999.25    -999.25    -999.25   23.91100  -85.05300  -53.51410   23.91100
 6350.00000    -999.25   66.08620   62.38460   16.02960   53.46270   53.46270   70.31800   70.31800   16.02960    -999.25    -999.25    -999.25   43.39570  -79.09060  -48.44830   43.39570
 6400.00000    -999.25  173.96930  134.71280    7.42320   58.78550   58.78550  104.28830  104.28830    7.42320    -999.25    -999.25    -999.25   25.04220  -84.71150  -54.96130   25.04220
 6450.00000    -999.25   20.51590   15.23420   65.64180   51.94710   51.94710   44.16380   44.16380   65.64180    -999.25    -999.25    -999.25  131.06070 -113.97540  -85.11720  131.06070
 6500.00000    -999.25  106.99310   99.87720   10.01230   53.88510   53.88510   44.84250   44.84250   10.01230    -999.25    -999.25    -999.25   49.07010 -157.89710 -129.93100   49.07010
 6550.00000   10.17270   61.00370   57.89680   17.27340   53.94300   53.94300   46.06110   46.06110   17.27340   10.17270    1.71050    2.38870   65.97390 -147.84710 -120.76860   65.97390
 6600.00000   11.88070  466.47990  466.47990    2.14370   67.07950   67.07950   78.49270   78.49270    3.50020   11.88070    4.05580    4.58160    4.28910  -88.46060  -62.27860    4.28910
 6650.00000   10.43720  188.19610  161.71290    6.18380   60.86260   60.86260  104.02930  104.02930    6.18380   10.43720   17.79970   12.68650    9.59710  -78.94870  -53.65870    9.59710
 6700.00000   12.30760  266.41420  266.41420    3.75360   62.37060   62.37060   80.83050   80.83050    4.72760   12.30760    8.82540   11.48200    6.55820  -72.85650  -44.63610    6.55820
 6750.00000   11.45410    -999.25    -999.25    -999.25    -999.25    -999.25    -999.25    -999.25    -999.25   11.45410    7.29060    7.84300    -999.25    -999.25    -999.25    -999.25
 6800.00000    9.88820    -999.25    -999.25    -999.25    -999.25    -999.25    -999.25    -999.25    -999.25    9.88820   39.95810   40.00000    -999.25    -999.25    -999.25    -999.25
 6850.00000    9.97480    -999.25    -999.25    -999.25    -999.25    -999.25    -999.25    -999.25    -999.25    9.97480   22.33590   21.84260    -999.25    -999.25    -999.25    -999.25
 6900.00000    9.47510    -999.25    -999.25    -999.25    -999.25    -999.25    -999.25    -999.25    -999.25    9.47510   39.94830   40.03320    -999.25    -999.25    -999.25    -999.25
 6950.00000    9.59830    -999.25    -999.25    -999.25    -999.25    -999.25    -999.25    -999.25    -999.25    9.59830   40.00000   40.00000    -999.25    -999.25    -999.25    -999.25
 7000.00000    9.46840    -999.25    -999.25    -999.25    -999.25    -999.25    -999.25    -999.25    -999.25    9.46840   40.00000   40.00000    -999.25    -999.25    -999.25    -999.25
 7050.00000    9.27410    -999.25    -999.25    -999.25    -999.25    -999.25    -999.25    -999.25    -999.25    9.27410   40.00000   40.00000    -999.25    -999.25    -999.25    -999.25
 7100.00000    9.26140    -999.25    -999.25    -999.25    -999.25    -999.25    -999.25    -999.25    -999.25    9.26140   40.00000   40.00000    -999.25    -999.25    -999.25    -999.25
