~Version ---------------------------------------------------
VERS. 2.0 : CWLS log ASCII Standard -VERSION 2.0
WRAP.  NO : ONE LINE PER DEPTH STEP
~Well ------------------------------------------------------
STRT.F                     300.0 : START DEPTH
STOP.F                    9850.0 : STOP DEPTH
STEP.F                  50.00000 : STEP LENGTH
NULL.                    -999.25 : NULL VALUE
COMP. PHILLIPS PETROLEUM COMPANY : COMPANY
WELL.    PHILLIPS A KAYBOB 10-16 : WELL
FLD .                     kaybob : FIELD
LOC .                            : LOCATION
CTRY.                     CANADA : COUNTRY
SRVC.                      Welex : SERVICE COMPANY
DATE.                21-Apr-1958 : LOGDATE
PROV.                    Alberta : PROVINCE
UWI .           100101606419W500 : UNIQUE WELL ID
SLAT.WGS84              54.53981 : SURFACE LATITUDE
SLON.WGS84             -116.8075 : SURFACE LONGITUDE
~Curve Information -----------------------------------------
DEPT .F                 : 
CALM .IN   15 280 01 00 : CALIPER FROM MICROLATEROLOG
SPR  .MV   07 010 01 00 : SPONTANEOUS POTENTIAL FROM RESISTIVITY LOG
GRN  .CPS  35 310 30 00 : GAMMA RAY FROM GRN LOG
NEUT .CPS  35 330 30 00 : NEUTRON
CILD .MMHO 07 110 46 00 : INDUCTION DEEP CONDUCTIVITY
GUARD.OHMM 07 120 05 00 : GUARD LOG RESISITIVITY
GR   .GAPI 81 310 01 00 : GAMMA RAY
SPM  .MV   15 010 01 00 : SPONTANEOUS POTENTIAL FROM MICROLOG
~Params ----------------------------------------------------
PD  .                     CF : PERMANENT DATUM
LMF .                     KB : LOG MEASURED FROM
DAPD.FT                   13 : FEET ABOVE PERMANENT DATUM
DMF .                     KB : DRILLING MEASURED FROM
EKB .FT                 2512 : KELLY BUSHING
EDF .FT                 2510 : DRILLING FLOOR
EGL .FT                 2499 : GROUND LEVEL
DATE.               04/21/58 : RUN DATE
RUN .                      1 : RUN NUMBER
DD  .FT                 9900 : DEPTH DRILLER
DL  .FT                 9896 : DEPTH LOGGER
BLI .FT                 9891 : BOTTOM LOG INTERVAL
TLI .FT                 1510 : TOP LOG INTERVAL
CS  .IN                10.75 : CASING SIZE
CBD .FT                 1510 : CASING BOTTOM DRILLER
CBL .FT                 1510 : CASING BOTTOM LOGGER
BS  .IN                7.875 : BIT SIZE
BSD .FT                 9900 : BIT SIZE AT DEPTH
DFT .            OIL MULSION : DRILLING FLUID TYPE
DFD .                   10.6 : DRILLING FLUID DENSITY
DFV .                    112 : DRILLING FLUID VISCOSITY
DFPH.                   10.0 : DRILLING FLUID PH
DFL .                    4.8 : DRILLING FLUID LOSS
MSS .             CIRCULATED : MUD SAMPLE SOURCE
RMS .OHMM               2.75 : RESISTIVITY MUD SAMPLE
MST .DEGF                 58 : MUD SAMPLE TEMPERATURE
RMF .OHMM               0.65 : RESISTIVITY MUD FILTRATE SAMPLE
MFST.DEGF                180 : MUD FILTRATE SAMPLE TEMPERATURE
RMC .OHMM               1.15 : RESISTIVITY MUD CAKE
MCST.DEGF                180 : MUD CAKE SAMPLE TEMPERATURE
RMB .OHMM               0.94 : RESISTIVITY MUD AT BHT
ENGI.         FOWLER CARBERT : RECORDING ENGINEER
WITN.         HANKINS FOSTER : WITNESSED BY
CLNT.                A2DTECH : CLIENT CODE
ORIG.            2" 5" PRINT : ORIGIN OF DATA
UWI .       100101606419W500 : UNIQUE WELL ID
DICO. A2D Technologies, Inc. : DIGITIZING COMPANY
~Other -----------------------------------------------------
~ASCII -----------------------------------------------------
  300.00000    -999.25    -999.25    -999.25    -999.25    -999.25    -999.25   27.14550    -999.25
  350.00000    -999.25    -999.25    -999.25    -999.25    -999.25    -999.25   39.79510    -999.25
  400.00000    -999.25    -999.25    -999.25    -999.25    -999.25    -999.25   27.01690    -999.25
  450.00000    -999.25    -999.25    -999.25    -999.25    -999.25    -999.25   23.68830    -999.25
  500.00000    -999.25    -999.25    -999.25    -999.25    -999.25    -999.25   23.25130    -999.25
  550.00000    -999.25    -999.25    -999.25    -999.25    -999.25    -999.25   23.37200    -999.25
  600.00000    -999.25    -999.25    -999.25    -999.25    -999.25    -999.25   32.55100    -999.25
  650.00000    -999.25    -999.25    -999.25    -999.25    -999.25    -999.25   15.89880    -999.25
  700.00000    -999.25    -999.25    -999.25    -999.25    -999.25    -999.25   26.26990    -999.25
  750.00000    -999.25    -999.25    -999.25    -999.25    -999.25    -999.25   30.59730    -999.25
  800.00000    -999.25    -999.25    -999.25    -999.25    -999.25    -999.25   27.75860    -999.25
  850.00000    -999.25    -999.25    -999.25    -999.25    -999.25    -999.25   35.01370    -999.25
  900.00000    -999.25    -999.25    -999.25    -999.25    -999.25    -999.25   21.75090    -999.25
  950.00000    -999.25    -999.25    -999.25    -999.25    -999.25    -999.25   16.40810    -999.25
 1000.00000    -999.25    -999.25    -999.25    -999.25    -999.25    -999.25   29.79970    -999.25
 1050.00000    -999.25    -999.25    -999.25    -999.25    -999.25    -999.25   32.30260    -999.25
 1100.00000    -999.25    -999.25    -999.25    -999.25    -999.25    -999.25   25.13560    -999.25
 1150.00000    -999.25    -999.25    -999.25    -999.25    -999.25    -999.25   30.23590    -999.25
 1200.00000    -999.25    -999.25    -999.25    -999.25    -999.25    -999.25   31.56540    -999.25
 1250.00000    -999.25    -999.25    -999.25    -999.25    -999.25    -999.25   23.23850    -999.25
 1300.00000    -999.25    -999.25    -999.25    -999.25    -999.25    -999.25   34.31420    -999.25
 1350.00000    -999.25    -999.25    -999.25    -999.25    -999.25    -999.25   30.22490    -999.25
 1400.00000    -999.25    -999.25    -999.25    -999.25    -999.25    -999.25   25.91720    -999.25
 1450.00000    -999.25    -999.25    -999.25    -999.25    -999.25    -999.25   34.49580    -999.25
 1500.00000    -999.25    -999.25   66.69520  272.90790    -999.25    -999.25   31.25760    -999.25
 1550.00000    -999.25  -50.80910   92.04310  282.02750   73.69800    2.66790   47.31770    -999.25
 1600.00000    -999.25  -54.02570   76.32080  316.56450   75.89010    1.74530   39.14490    -999.25
 1650.00000    -999.25  -52.54940  106.67250  303.43480    -999.25    1.10000   68.98470    -999.25
 1700.00000    -999.25  -52.75800   94.85640  290.11300   92.79880    1.27940   35.02260    -999.25
 1750.00000    -999.25  -52.61780   81.95710  285.15490   71.98620    1.74050   43.42580    -999.25
 1800.00000    -999.25  -52.30390   98.11350  339.90850   91.76590    1.24480   45.38550    -999.25
 1850.00000    -999.25  -52.60570   99.86700  283.93580   78.28000    1.61810   47.52600    -999.25
 1900.00000    -999.25  -57.15710   87.15130  332.27640   37.74970    5.55440   39.58310    -999.25
 1950.00000    -999.25  -53.25910   80.51500  321.16710   74.64310    1.74990   43.72920    -999.25
 2000.00000    -999.25  -53.98690   84.19940  331.95780   77.99710    1.29550   40.72080    -999.25
 2050.00000    -999.25  -53.19100   76.73940  282.35050   84.22600    1.91300   37.97430    -999.25
 2100.00000    -999.25  -53.41860   67.56150  336.25920   56.02020    2.18280   36.61660    -999.25
 2150.00000    -999.25  -55.70930   65.57060  326.68270   44.24840    3.53610   39.97050    -999.25
 2200.00000    -999.25  -63.47520   65.80860  336.20980   24.86550    8.44860   26.63270    -999.25
 2250.00000    -999.25  -58.43710   74.13610  346.05950   35.93730    4.36080   41.22040    -999.25
 2300.00000    -999.25  -54.72500   81.87070  359.39360   81.93080    2.65680   43.90660    -999.25
 2350.00000    -999.25  -53.02530   75.31930  301.67870   78.10160    1.45350   47.98940    -999.25
 2400.00000    -999.25  -53.59620   73.30010  333.15920   72.25980    1.57620   45.78800    -999.25
 2450.00000    -999.25  -53.97190   82.42620  360.32900   86.80050    1.67240   44.96430    -999.25
 2500.00000    -999.25  -58.95750   76.79300  395.14290   28.05620    8.42160   36.51290    -999.25
 2550.00000    -999.25  -56.02810   60.78290  350.58340   89.75590    1.57480   34.12280    -999.25
 2600.00000    -999.25  -56.26300   72.78370  353.32600   47.82320    4.66440   36.71470    -999.25
 2650.00000    -999.25  -55.35120   80.36380  326.90190   49.10600    2.97180   41.05710    -999.25
 2700.00000    -999.25  -55.12020   84.58490  404.88840   72.10240    1.58490   33.69370    -999.25
 2750.00000    -999.25  -54.37940   86.60890  313.84210   70.07430    2.12570   45.60510    -999.25
 2800.00000    -999.25  -58.81150  105.21970  284.11300   53.81510    3.05210   60.70410    -999.25
 2850.00000    -999.25  -59.46320  115.55810  281.35630   56.75490    3.16520   65.99070    -999.25
 2900.00000    -999.25  -59.50630  117.37160  282.36170   54.19390    3.07620   81.85430    -999.25
 2950.00000    -999.25  -57.74250  129.88900  311.25190   39.90950    4.93370   86.65490    -999.25
 3000.00000    -999.25  -59.16560  110.22550  307.67890   37.52020    5.54570   74.64060    -999.25
 3050.00000    -999.25  -59.90380  121.74790  298.54990   42.19310    3.92590   81.46480    -999.25
 3100.00000    -999.25  -61.25190  115.70550  285.52040   53.95520    2.84120   53.90110    -999.25
 3150.00000    -999.25  -60.12590  111.68390  292.35300   53.62000    3.20090   73.40650    -999.25
 3200.00000    -999.25  -63.43170  110.33310  314.82700   48.74800    3.63070   66.81570    -999.25
 3250.00000    -999.25  -61.83540  119.52060  308.26450   50.53590    3.56480   64.56120    -999.25
 3300.00000    -999.25  -61.10820  124.25100  309.43370   54.10180    3.63180   58.62410    -999.25
 3350.00000    -999.25  -62.47270  110.74030  285.34660   58.39660    3.26590   74.53020    -999.25
 3400.00000    -999.25  -61.93010  119.18430  286.76790   46.84920    4.09870   60.77210    -999.25
 3450.00000    -999.25  -16.37720  124.71150  289.99040   53.23070    3.61820   75.37370    -999.25
 3500.00000    -999.25  -16.47630  115.65630  296.76200   41.85270    4.89170   59.48610    -999.25
 3550.00000    -999.25  -80.84270  112.43840  298.82700   43.54000    4.65030   56.89410    -999.25
 3600.00000    -999.25  -79.99470   96.56750  271.58550   49.25610    3.87630   44.06060    -999.25
 3650.00000    -999.25  -77.86410  121.52390  317.48720   37.04480    5.09910   74.54710    -999.25
 3700.00000    -999.25  -79.50890  126.10760  306.91450   56.66020    3.41810   62.18740    -999.25
 3750.00000    -999.25  -78.80900  130.11560  297.72000   51.52570    4.01880   73.35540    -999.25
 3800.00000    -999.25  -77.45930  128.94460  300.15280   40.89370    4.38200   73.19290    -999.25
 3850.00000    -999.25  -77.60500  121.66720  280.70370   43.42630    4.69560   80.11120    -999.25
 3900.00000    -999.25  -77.38180  126.51330  299.05830   35.60980    4.85790   77.63860    -999.25
 3950.00000    -999.25  -77.51810  121.29490  277.44060   40.21630    5.11270   73.57450    -999.25
 4000.00000    -999.25  -77.06180  129.03040  296.85310   15.10890   12.49100   83.66850    -999.25
 4050.00000    -999.25  -76.76790  122.32310  334.95960   18.56900    8.37760  119.65840    -999.25
 4100.00000    -999.25  -80.59170  118.10040  303.90710   52.85320    3.59990   69.09850    -999.25
 4150.00000    -999.25  -78.94350  118.27330  305.86740   55.52320    3.04110   66.62860    -999.25
 4200.00000   10.34110  -79.47400  121.71120  369.64960   45.64260    4.53970   66.09780    -999.25
 4250.00000    9.66650  -77.78110  123.95850  310.67950   53.90700    3.22660   73.11730    -999.25
