~Version ---------------------------------------------------
VERS. 2.0 : CWLS log ASCII Standard -VERSION 2.0
WRAP.  NO : ONE LINE PER DEPTH STEP
~Well ------------------------------------------------------
STRT.F                             1150.0 : START DEPTH
STOP.F                            11550.0 : STOP DEPTH
STEP.F                           50.00000 : STEP LENGTH
NULL.                             -999.25 : NULL VALUE
COMP.    AMOCO CANADA PETROLEUM CO., LTD. : COMPANY
WELL. AMOCO HB FINA SOUTH FORK 10-8-59-19 : WELL
FLD .                                     : FIELD
LOC .                                     : LOCATION
CTRY.                              CANADA : COUNTRY
SRVC.                        Schlumberger : SERVICE COMPANY
DATE.                         10-Oct-1977 : LOGDATE
PROV.                             Alberta : PROVINCE
UWI .                    100100805919W500 : UNIQUE WELL ID
SLAT.WGS84                       54.08913 : SURFACE LATITUDE
SLON.WGS84                      -116.8085 : SURFACE LONGITUDE
~Curve Information -----------------------------------------
DEPT   .F                 : 
GRD    .GAPI 45 310 01 00 : GAMMA RAY FROM DENSITY LOG
CALD   .IN   45 280 60 00 : CALIPER FROM DENSITY LOG
DCOR   .G/C3 45 356 01 00 : DENSITY CORRECTION
NPHI_SS.DEC  42 890 03 00 : NEUTRON POROSITY SANDSTONE
DPHI_SS.DEC  45 890 12 00 : DENSITY POROSITY SANDSTONE
ILD    .OHMM 07 120 46 00 : INDUCTION DEEP RESISTIVITY
ILM    .OHMM 07 120 44 00 : INDUCTION MEDIUM RESISTIVITY
LL8    .OHMM 07 220 08 00 : LATEROLOG 8
SPR    .MV   07 010 01 00 : SPONTANEOUS POTENTIAL FROM RESISTIVITY LOG
GRS    .GAPI 60 310 01 00 : GAMMA RAY FROM SONIC LOG
DT     .US/F 60 500 00 00 : DELTA-T (INTERVAL TRANSIT TIME)
CALS   .IN   60 280 50 00 : CALIPER FROM SONIC LOG
RHOB   .G/C3 45 350 01 00 : BULK DENSITY
NPHI_LS.DEC  42 890 01 00 : NEUTRON POROSITY LIMESTONE
DPHI_LS.DEC  45 890 10 00 : DENSITY POROSITY LIMESTONE
~Params ----------------------------------------------------
PD  .                     GL : PERMANENT DATUM
EPD .FT                 2976 : ELEVATION PERMANENT DATUM
LMF .                     KB : LOG MEASURED FROM
DAPD.FT                 20.7 : FEET ABOVE PERMANENT DATUM
EKB .FT               2996.7 : KELLY BUSHING
EGL .FT                 2976 : GROUND LEVEL
DATE.               10/10/77 : RUN DATE
RUN .                      1 : RUN NUMBER
DD  .FT                11577 : DEPTH DRILLER
DL  .FT                11569 : DEPTH LOGGER
BLI .FT                11563 : BOTTOM LOG INTERVAL
TLI .FT                 1534 : TOP LOG INTERVAL
CBD .FT                 1535 : CASING BOTTOM DRILLER
CBL .FT                 1534 : CASING BOTTOM LOGGER
BS  .IN                 8.75 : BIT SIZE
BSD .FT                11577 : BIT SIZE AT DEPTH
DFT .                    GEL : DRILLING FLUID TYPE
DFD .                      9 : DRILLING FLUID DENSITY
DFV .                     80 : DRILLING FLUID VISCOSITY
DFPH.                    8.5 : DRILLING FLUID PH
DFL .                    8.8 : DRILLING FLUID LOSS
MSS .               FLOWLINE : MUD SAMPLE SOURCE
RMS .OHMM               2.24 : RESISTIVITY MUD SAMPLE
MST .DEGF                 54 : MUD SAMPLE TEMPERATURE
RMF .OHMM               1.98 : RESISTIVITY MUD FILTRATE SAMPLE
MFST.DEGF                 64 : MUD FILTRATE SAMPLE TEMPERATURE
TCS .HRS                   3 : TIME CIRCULATED STOPPED
LUN .                   7772 : LOGGING UNIT NUMBER
LUL .                    EDM : LOGGING UNIT LOCATION
ENGI.         BERNISKY TRACY : RECORDING ENGINEER
WITN.                 NEWELL : WITNESSED BY
CLNT.                A2DTECH : CLIENT CODE
ORIG.            2" 5" PRINT : ORIGIN OF DATA
UWI .       100100805919W500 : UNIQUE WELL ID
DICO. A2D Technologies, Inc. : DIGITIZING COMPANY
~Other -----------------------------------------------------
~ASCII -----------------------------------------------------
# ...
 8050.00000   47.77710   13.07160   -0.24950    -999.25    -999.25  220.06970  275.34430 1207.23580  -92.40260   37.55380   51.23920    9.06990    2.35550    0.02450    0.13670
 8100.00000   46.46830   10.31650   -0.24970    -999.25    -999.25    9.75130    8.76500   10.85760 -114.63060   44.75340   59.67920    9.10970    2.50350    0.11470    0.13500
 8150.00000   22.92900   10.40210   -0.21610    -999.25    -999.25  103.36310   37.11850  277.15550 -144.38510   26.93330   51.88420    9.16570    2.68280    0.02860    0.10030
 8200.00000   78.57620    8.99850   -0.02800    -999.25    -999.25   17.02010   15.81330   78.78010  -79.12870   57.51520   57.51900    8.73030    2.77700    0.06820   -0.06630
 8250.00000    8.55770    9.51600   -0.03100    -999.25    -999.25  636.14720  684.16480 1395.17750 -122.35560    7.41300   51.28580    9.23070    2.95040    0.00030   -0.15880
 8300.00000   12.55770    8.61440   -0.14760    -999.25    -999.25   19.23480   11.98690  127.09800 -159.56160   14.23400   54.21250    8.36520    2.70640    0.06880    0.00520
 8350.00000    9.43220    9.27690   -0.02050    -999.25    -999.25   89.45860   54.24920  140.22780 -141.38750    7.62200   49.15890    8.86400    2.70890    0.01220    0.00940
 8400.00000   88.46570    8.96390   -0.01540    -999.25    -999.25   12.18380   11.43260   15.54680  -18.54870   94.49040   59.28040    8.73120    2.74190    0.13720   -0.03790
 8450.00000   71.64170    8.86880   -0.03220    -999.25    -999.25   23.90110   19.98590   36.03560  -69.64460   62.97470   56.96550    8.75970    2.72510    0.10130   -0.00390
 8500.00000   80.64900    9.14900   -0.02370    -999.25    -999.25   18.77890   17.04150   25.11540  -24.25240   65.97020   59.88260    8.83700    2.68300    0.13960   -0.02160
 8550.00000   54.33540    9.58080   -0.01550    -999.25    -999.25   72.51830   55.55280   97.21660  -30.04220   48.84960   55.60600    9.09050    2.68220    0.06630    0.01260
 8600.00000   38.95700    9.91380   -0.15080    -999.25    -999.25   94.88350   73.16320  145.76940  -13.82180   42.47150   55.16330    9.17550    2.74360    0.03620   -0.02170
 8650.00000   36.93930    8.91400   -0.00790    -999.25    -999.25  100.16240   84.68170  138.42300   11.41650   39.82200   53.62390    8.52270    2.69520    0.03030    0.00080
 8700.00000   37.03620    8.83320   -0.01750    -999.25    -999.25  141.46140  107.86380  156.84420   26.23100   35.69250   53.82290    8.57270    2.71900    0.03450    0.00180
 8750.00000   42.24040    8.89680   -0.02220    -999.25    -999.25   95.59870   76.66510  106.47040  -16.57790   39.21590   53.73330    8.65270    2.71110    0.03800   -0.01960
 8800.00000   34.38870    8.87230   -0.00940    -999.25    -999.25  120.86540   95.07830  131.32510  -13.94310   29.78000   54.68400    8.51650    2.71400    0.03680   -0.01800
 8850.00000   51.70620    8.84550   -0.01200    -999.25    -999.25   49.74430   44.01440   64.12040  -32.52490   49.68310   55.42630    8.67940    2.72290    0.05250   -0.01440
 8900.00000   53.04920    8.88240   -0.01570    -999.25    -999.25   97.06980   80.16480  181.88620  -19.43950   45.80760   53.92210    8.65450    2.73180    0.03220   -0.00430
 8950.00000   98.91500    8.85800   -0.01710    -999.25    -999.25   45.11520   39.74070   51.75170  -38.31380   98.60870   60.43460    8.72200    2.66380    0.08540    0.02070
 9000.00000   29.16250    9.80010   -0.24540    -999.25    -999.25 1445.57420  344.51670  970.65380  -63.78100   29.81530   50.39380    9.00270    2.72500    0.01150   -0.00500
 9050.00000   15.37810   10.32660   -0.24780    -999.25    -999.25 1473.53830  721.95200 1369.58900 -133.38200   13.50870   49.71880    9.10470    2.65050    0.00650    0.01460
 9100.00000   12.48240   10.40970   -0.25010    -999.25    -999.25 1031.62170  537.08750  769.18230 -160.49850   10.79920   48.61080    9.21930    2.69890    0.00600    0.02480
 9150.00000   11.28910   10.69100   -0.19490    -999.25    -999.25 1486.99550  927.32200  719.78850 -183.40870    8.28990   48.88060    9.07960    2.61910    0.01320    0.08300
 9200.00000   12.17980   12.09180   -0.19910    -999.25    -999.25  172.03990  387.69820  281.04480 -115.81790   10.30920   48.65890    9.15750    2.49030    0.06710    0.10870
 9250.00000   11.65220   11.27700   -0.16920    -999.25    -999.25 1527.44200  884.85330 1410.90330 -127.78560   12.79310   49.12490    9.04960    2.48840    0.02250    0.10540
 9300.00000   15.31780   11.46530   -0.20680    -999.25    -999.25  198.26700  548.38000  709.98860  -97.11330   16.94540   50.11890    8.98600    2.52890    0.02790    0.09000
 9350.00000   10.05850   12.10770   -0.20510    -999.25    -999.25  223.31000  354.93670  228.33560  -30.41780    9.01830   49.41040    9.23880    2.42510    0.04700    0.22650
 9400.00000    9.30730   11.83810   -0.23880    -999.25    -999.25  174.23210  253.39920  269.96510   39.43940    9.20460   49.18340    9.28080    2.42790    0.03150    0.15690
 9450.00000   13.43970   12.51010   -0.15800    -999.25    -999.25  512.29530  314.03430  442.69300    6.07150   12.99320   49.71540    9.78640    2.44340    0.04790    0.14800
 9500.00000   16.54350   12.29150   -0.20290    -999.25    -999.25 1410.01830  942.56560  476.71090   23.75530   11.99900   53.21290    9.24090    2.48160    0.03960    0.16180
 9550.00000   11.64850   11.68370   -0.17650    -999.25    -999.25  170.71500  252.68480  318.52070  -16.23290   11.76310   51.64250    9.45320    2.44720    0.03090    0.16810
 9600.00000    6.16100    9.08410   -0.01370    -999.25    -999.25  329.86960  561.33460  336.69230  -34.54220    7.18570   48.69160    9.00640    2.70090    0.02370    0.05080
 9650.00000   16.39560   10.69370   -0.01330    -999.25    -999.25  792.69960 1475.80100  422.67670  -59.76970   13.46760   49.00590    9.18480    2.59870    0.01070    0.11290
 9700.00000   20.26420   10.50130   -0.23960    -999.25    -999.25   43.05540   60.35450   98.37980  -29.75020   19.37170   50.84290    9.66910    2.63740    0.03360    0.04370
 9750.00000   15.14500   11.01550   -0.24900    -999.25    -999.25   44.02390   52.36310  154.70310  -51.18820   17.50890   49.27690    9.17840    2.55680    0.06640    0.08940
 9800.00000   23.53680   10.52560   -0.22740    -999.25    -999.25  179.46400  354.20400  213.60380 -113.57600   15.16610   50.40780    9.25790    2.67250    0.02490   -0.02100
 9850.00000   22.28010   11.07050   -0.24770    -999.25    -999.25  140.63730  567.07150  279.46720   12.48200   18.27990   48.67660    9.35120    2.63270    0.02720    0.05020
 9900.00000   25.65380   11.26370   -0.25020    -999.25    -999.25  599.41630  301.72740  318.97190   89.59090   22.30000   49.23740    9.39230    2.56000    0.01310    0.07240
 9950.00000   29.09720   10.14620   -0.25100    -999.25    -999.25  245.27890  191.97590  271.47930   53.58380   28.72720   50.57320    9.28540    2.74240    0.01670   -0.00260
 10000.00000   29.31650    9.96200   -0.24910    -999.25    -999.25  194.08810  165.31590  250.55200  -45.54280   32.81450   51.22150    9.20700    2.70130    0.01710    0.01070
 10050.00000   34.92320    9.10630   -0.01230    -999.25    -999.25  130.53900  106.84740  160.41930  -92.08600   30.60180   51.66860    8.96950    2.74770    0.02430   -0.02290
 10100.00000   33.22570    9.04450   -0.00760    -999.25    -999.25  120.56920  106.23430  137.00430   35.47580   35.96610   52.48450    8.90130    2.72530    0.02470    0.00420
 10150.00000   32.31560    9.18910   -0.05180    -999.25    -999.25  111.77760   97.22640  147.37620   41.57700   25.81170   52.78530    9.06410    2.77720    0.02340   -0.01830
 10200.00000   34.46250    9.06480   -0.01290    -999.25    -999.25   70.17380   62.89420  105.59010  -47.13490   29.05410   53.34900    8.92680    2.71490    0.04110   -0.00850
 10250.00000   47.18270    9.03380   -0.00590    -999.25    -999.25   25.00080   23.13370   35.13150  -15.14590   44.61360   58.33770    8.90270    2.73660    0.09060    0.00440
 10300.00000   69.03300    9.66760    0.00350    -999.25    -999.25   13.69840   12.72690   18.18120   -2.18190   59.41670   62.14330    9.27050    2.65320    0.12890    0.03200
