~Version ---------------------------------------------------
VERS. 2.0 : CWLS log ASCII Standard -VERSION 2.0
WRAP.  NO : ONE LINE PER DEPTH STEP
~Well ------------------------------------------------------
STRT.M                               380.5 : START DEPTH
STOP.M                              2549.3 : STOP DEPTH
STEP.M                             0.20000 : STEP LENGTH
NULL.                              -999.25 : NULL VALUE
COMP.                DEVON ARL CORPORATION : COMPANY
WELL. DEVON ARL ETAL 7D GVILLEE 7-25-76-23 : WELL
FLD .                                      : FIELD
LOC .                                      : LOCATION
CTRY.                               CANADA : COUNTRY
SRVC.                         Schlumberger : SERVICE COMPANY
DATE.                          06-Mar-2003 : LOGDATE
PROV.                              Alberta : PROVINCE
UWI .                     100072507623W500 : UNIQUE WELL ID
SLAT.WGS84                        55.61368 : SURFACE LATITUDE
SLON.WGS84                       -117.4224 : SURFACE LONGITUDE
~Curve Information -----------------------------------------
DEPT    .M    0   1   0  0 : 1 MEASURED DEPTH
GRS     .GAPI 60 310 01 00 : GAMMA RAY FROM SONIC LOG
HDS     .MM   60 280 00 00 : HOLE DIAMETER FROM SONIC
DT      .US/M 60 500 00 00 : DELTA-T (INTERVAL TRANSIT TIME)
HCALS   .MM   60 280 50 00 : HRCC CALIPER CALIBRATED FROM SONIC LOG
TENS    .N    60 635 00 00 : TENSION FROM SONIC LOG
GRR     .GAPI 06 310 01 00 : GAMMA RAY FROM RESISTIVITY LOG
RXOZ    .OHMM 06 270 04 00 : INVADED FORMATION RESISTIVITY FILTERED AT 18 INCHES
TENR    .N    06 635 00 00 : TENSION FROM RESISTIVITY LOG
SPR     .MV   06 010 01 00 : SPONTANEOUS POTENTIAL FROM RESISTIVITY LOG
AHF30   .OHMM 06 120 30 00 : ARRAY INDUCTION FOUR FOOT RESISTIVITY A30
AHF20   .OHMM 06 120 20 00 : ARRAY INDUCTION FOUR FOOT RESISTIVITY A20
AHF60   .OHMM 06 120 60 00 : ARRAY INDUCTION FOUR FOOT RESISTIVITY A60
GRD     .GAPI 45 310 01 00 : GAMMA RAY FROM DENSITY LOG
NPOR_SAN.DEC  42 890 03 00 : ENHANCED THERMAL NEUTRON POROSITY (SANDSTONE)
HDD     .MM   45 280 60 00 : HOLE DIAMETER
HCALD   .MM   45 280 60 00 : HRCC CALIPER CALIBRATED FROM DENSITY LOG
DPHI_SAN.DEC  45 890 12 00 : DENSITY POROSITY (MATRIX SANDSTONE)
HDRA    .K/M3 45 356 01 00 : HRDD SPINE AND RIBS DENSITY CORRECTION
PEFZ    .B/E  45 358 01 00 : HRDD STANDARD RESOLUTION FORMATION PHOTOELECTRIC FACTOR
TEND    .N    45 635 00 00 : TENSION FROM DENSITY LOG
NPOR_LS .DEC  42 890 01 00 : NEUTRON POROSITY LIMESTONE
DPHI_LS .DEC  45 890 10 00 : DENSITY POROSITY LIMESTONE
RHOZ    .K/M3 45 350 01 00 : HRDD STANDARD RESOLUTION FORMATION DENSITY
~Params ----------------------------------------------------
PD  .                                  GL : PERMANENT DATUM
EPD .M                              551.9 : ELEVATION PERMANENT DATUM
LMF .                                  KB : LOG MEASURED FROM
DAPD.M                                4.7 : FEET ABOVE PERMANENT DATUM
DMF .                                  KB : DRILLING MEASURED FROM
EKB .M                              556.6 : KELLY BUSHING
EDF .M                              556.3 : DRILLING FLOOR
EGL .M                              551.9 : GROUND LEVEL
DATE.                            03/06/03 : RUN DATE
RUN .                                   1 : RUN NUMBER
DD  .M                               2545 : DEPTH DRILLER
DL  .M                               2544 : DEPTH LOGGER
BLI .M                             2538.3 : BOTTOM LOG INTERVAL
TLI .M                                421 : TOP LOG INTERVAL
CS  .MM                             219.1 : CASING SIZE
CBD .M                                421 : CASING BOTTOM DRILLER
CBL .M                              420.5 : CASING BOTTOM LOGGER
BS  .MM                               200 : BIT SIZE
BSD .M                               2545 : BIT SIZE AT DEPTH
DFT .                            GEL CHEM : DRILLING FLUID TYPE
DFD .                                1050 : DRILLING FLUID DENSITY
DFV .                                  83 : DRILLING FLUID VISCOSITY
DFPH.                                10.5 : DRILLING FLUID PH
DFL .                                   7 : DRILLING FLUID LOSS
MSS .                            FLOWLINE : MUD SAMPLE SOURCE
RMS .OHMM                            1.27 : RESISTIVITY MUD SAMPLE
MST .DEGC                              17 : MUD SAMPLE TEMPERATURE
RMF .OHMM                            0.98 : RESISTIVITY MUD FILTRATE SAMPLE
MFST.DEGC                              18 : MUD FILTRATE SAMPLE TEMPERATURE
RMC .OHMM                            1.55 : RESISTIVITY MUD CAKE
MCST.DEGC                              18 : MUD CAKE SAMPLE TEMPERATURE
MFSS.                            MEASURED : MUD FILTRATE SAMPLE SOURCE
MCSS.                             MEAURED : MUD CAKE SAMPLE SOURCE
RMB .OHMM                           0.566 : RESISTIVITY MUD AT BHT
TCS .HRS                              640 : TIME CIRCULATED STOPPED
TLAB.HRS                             1645 : TIME LOGGER AT BOTTOM
LUN .                                2133 : LOGGING UNIT NUMBER
LUL .                      GRANDE PRAIRIE : LOGGING UNIT LOCATION
ENGI.                            STIRLING : RECORDING ENGINEER
WITN.                              MCLEAY : WITNESSED BY
CLNT.                             A2DTECH : CLIENT CODE
ORIG. 6.5"/100M 16.5"/100M 33"/100M PRINT : ORIGIN OF DATA
UWI .                    100072507623W500 : UNIQUE WELL ID
DICO.              A2D Technologies, Inc. : DIGITIZING COMPANY
~Other -----------------------------------------------------
~ASCII -----------------------------------------------------
# ...
 1688.50000   42.93830  204.42470  199.84700  200.47070 17010.38870   43.07920   23.72330 16766.64450  -16.24370   13.34480   13.13530   13.47770   43.83680    -999.25  204.08340  199.55600    -999.25   -2.51080    4.42340 16868.77540    0.05930    0.00280 2698.41330
 1688.70000   42.09540  204.25440  202.87150  200.48060 17039.87700   42.05370   20.96270 16889.01370  -16.55960   12.58160   12.33920   12.79990   41.74270    -999.25  204.00830  199.63590    -999.25   -2.31860    4.40020 16993.39060    0.07840    0.00130 2712.18380
 1688.90000   45.46900  204.69960  209.20220  200.49060 17051.58980   46.47550   13.99920 17006.11520  -16.81100   11.73680   11.55140   11.88950   45.36360    -999.25  203.76850  199.71580    -999.25   -0.93470    4.21010 17028.27340    0.10670    0.00760 2702.80250
 1689.10000   48.16310  202.52520  213.50610  200.50060 17018.41800   48.27820   14.36460 17026.98630  -16.95930   11.29100   11.09600   11.52360   47.93250    -999.25  203.00450  199.76500    -999.25   -0.34860    4.13440 17055.20120    0.10840    0.01840 2683.72920
 1689.30000   47.78480  201.08470  211.02630  200.25960 16970.20120   47.65800   14.33210 17030.72070  -17.51660   12.30820   11.80730   12.84040   47.65950    -999.25  202.00010  199.60610    -999.25   -0.31570    4.05460 16995.58200    0.10440    0.02540 2669.35030
 1689.50000   42.68660  199.86740  198.76300  200.01640 16925.48630   40.02270   17.69670 16912.32810  -18.96330   15.62270   14.41600   16.69280   41.87350    -999.25  200.98620  199.44710    -999.25    1.61550    3.97150 16944.61910    0.08020    0.02560 2661.56710
 1689.70000   29.73980  198.77640  185.93710  199.77310 16923.49220   26.54600   42.41820 16907.50980  -21.33280   22.32380   19.94460   25.02130   29.49930    -999.25  200.06990  199.28820    -999.25    0.91930    4.00250 16909.65230    0.03870    0.01530 2675.59910
 1689.90000   20.20610  198.78630  176.75790  199.52990 17142.28910   19.80670  120.01280 16924.14260  -22.93210   32.16840   28.24420   34.30400   20.67010    -999.25  200.15590  199.12920    -999.25   -2.22060    4.23310 17063.25390    0.02470    0.00040 2701.27170
 1690.10000   18.60040  198.74780  176.20090  199.47000 17245.21880   19.33490   64.78180 17271.82620  -24.85220   36.12810   34.93340   36.61420   18.59780    -999.25  200.24190  198.97030    -999.25   -0.77830    4.39270 17152.77930    0.03270   -0.00880 2722.15700
 1690.30000   19.52990  198.66720  179.15120  199.55990 17280.71090   20.43430   55.57060 17146.99220  -26.63590   34.58180   34.05210   35.30120   19.48170    -999.25  200.32790  198.81140    -999.25    1.22770    4.39100 17191.31250    0.04020   -0.00960 2727.54520
 1690.50000   21.95960  198.58660  180.54460  199.64980 17316.20310   22.29110   43.39550 17170.79880  -28.04100   32.39230   31.55880   33.07710   21.92570    -999.25  200.41390  198.65240    -999.25    0.45270    4.25980 17254.10160    0.04390   -0.00550 2722.49100
 1690.70000   24.53690  198.50600  181.55270  199.73980 17351.69340   24.86370   35.02530 17287.47270  -29.64330   30.34150   29.57660   30.99320   24.86220    -999.25  200.49990  198.49350    -999.25   -3.67640    4.13600 17332.79880    0.04510    0.00090 2711.76510
 1690.90000   27.07840  198.42540  181.78450  199.82970 17397.93160   27.23410   32.38310 17275.55270  -31.43080   28.90290   28.34690   29.57270   26.91230    -999.25  200.58590  198.33450    -999.25   -6.07300    4.19470 17304.12300    0.04550    0.00520 2700.64790
 1691.10000   28.77580  198.34490  182.08330  199.77400 17366.45700   28.69290   32.90970 17282.57810  -33.08840   27.69000   27.16820   28.53000   28.81820    -999.25  200.67190  198.17560    -999.25   -6.04360    4.23090 17301.12110    0.04510    0.00700 2692.99000
 1691.30000   29.14180  198.26430  182.79460  199.39080 17279.52540   28.96740   33.47640 17279.90040  -34.70130   26.69770   26.03860   27.52410   29.45980    -999.25  200.75790  198.12240    -999.25   -5.47740    4.22030 17296.67380    0.04620    0.00530 2697.61600
 1691.50000   27.57240  198.19830  182.99260  199.00770 17233.01950   27.30120   32.12230 17292.39060  -36.15490   26.09790   24.95590   26.73210   27.82220    -999.25  200.84380  198.11650    -999.25   -4.89010    4.16440 17285.23830    0.04880    0.00280 2705.34910
 1691.70000   25.92980  198.49830  183.46230  198.62450 17165.93360   25.79060   31.27110 17205.52930  -37.07330   25.51160   24.39070   26.31410   26.10840    -999.25  200.92980  198.11060    -999.25   -3.32730    4.04320 17206.08980    0.04690    0.00340 2704.37700
 1691.90000   25.42210  198.79820  183.77350  198.24130 17216.36910   25.37280   30.42440 17179.87500  -38.16020   24.93860   23.90410   25.90270   25.62190    -999.25  200.98040  198.10470    -999.25   -3.03090    4.02920 17239.06050    0.04670    0.00620 2696.55130
 1692.10000   25.21080  199.09820  183.80730  197.85820 17329.34570   25.31280   27.83220 17289.45510  -39.22630   24.44220   23.58940   25.03410   25.31570    -999.25  200.97590  198.09880    -999.25   -2.29160    4.03670 17319.63090    0.04800    0.00540 2694.43770
 1692.30000   25.28690  199.39820  183.50200  197.75220 17290.11330   25.43660   27.60260 17378.20510  -40.23340   23.95880   23.17810   24.53000   25.37630    -999.25  200.97130  198.09290    -999.25   -0.66000    4.03990 17401.42970    0.04700    0.00280 2707.20580
 1692.50000   25.96750  199.69810  183.47310  197.76720 17249.21680   26.13320   32.32940 17276.81250  -40.68430   23.44700   22.68920   24.21800   26.16640    -999.25  200.96680  198.08700    -999.25   -0.17330    4.05120 17305.59380    0.04770    0.00420 2702.30640
 1692.70000   27.20440  199.99810  183.51900  197.78220 17340.58010   27.13260   28.05150 17306.37500  -40.68740   22.91180   22.13820   23.82100   27.22150    -999.25  200.96220  198.13510    -999.25   -1.61350    4.10580 17286.00390    0.04940    0.00740 2692.37330
 1692.90000   28.26630  199.89880  184.05670  197.79710 17460.17580   28.28210   25.26040 17397.14450  -40.07950   22.38890   21.61390   23.07050   28.37530    -999.25  200.95760  198.23230    -999.25   -5.74780    4.23850 17399.46480    0.05080    0.00230 2687.47490
 1693.10000   28.84480  199.59380  184.44110  197.81210 17390.66990   28.68020   30.31750 17486.96090  -39.37220   21.87780   21.10900   22.40050   28.82170    -999.25  200.95310  198.32950    -999.25   -3.11920    4.32220 17520.03710    0.05180   -0.01030 2709.30980
 1693.30000   28.47750  199.61330  184.64180  197.82700 17333.21880   28.21810   29.89230 17429.87700  -38.66490   21.84670   20.95370   22.27420   28.41740    -999.25  200.94850  198.42670    -999.25    1.31520    4.30890 17415.32810    0.05220   -0.01600 2735.09890
 1693.50000   27.74070  199.63280  184.16460  197.71490 17330.24410   27.50040   26.77220 17375.35740  -37.96400   22.65560   21.67350   23.14080   27.61110    -999.25  200.94400  198.52390    -999.25    3.75930    4.28820 17404.61910    0.05050   -0.00980 2740.53490
 1693.70000   26.42950  199.65230  182.42870  197.60220 17329.50200   26.12980   27.40920 17305.37300  -37.19680   24.42790   23.04000   25.14220   26.35340    -999.25  200.93940  198.62110    -999.25    1.55710    4.26040 17311.16210    0.04610   -0.00300 2723.80270
 1693.90000   23.77180  199.67180  179.82220  197.51710 17329.42190   23.67180   32.47790 17336.17770  -34.80560   26.62890   25.47000   27.54460   23.53790    -999.25  200.93480  198.72720    -999.25    0.44800    4.26720 17261.43750    0.03370   -0.00090 2707.07060
 1694.10000   21.09550  199.69130  180.88090  197.87930 17277.23050   21.80940   64.59190 17304.52930  -31.72460   28.68610   27.53120   30.13490   21.25870    -999.25  200.93030  198.85130    -999.25    1.05000    4.28120 17227.56250    0.03230   -0.00610 2714.75070
 1694.30000   23.86930  199.71080  185.63430  198.24160 17221.43160   24.56790   71.83160 17208.07810  -27.97290   27.19220   26.01470   29.22680   23.82850    -999.25  200.92570  198.97530    -999.25    4.27900    4.33250 17194.24800    0.04770   -0.00500 2727.27760
