~Version ---------------------------------------------------
VERS.      2.0 : CWLS log ASCII Standard -VERSION 2.0
WRAP.       NO : One line per depth step
CREA. 08/22/14 : LAS Creation Date
~Well ------------------------------------------------------
STRT.FT                 1143.82546 : START DEPTH
STOP.FT                11159.82546 : STOP DEPTH
STEP.FT                    0.50000 : STEP LENGTH
NULL.                      -999.25 : NULL VALUE
COMP.            TRIAD OIL CO. LTD : COMPANY
WELL. TRIAD PAN AM ANTE 2-27-66-25 : WELL
FLD .                              : FIELD
LOC .                              : LOCATION
CTRY.                       CANADA : COUNTRY
SRVC.                   Lane Wells : SERVICE COMPANY
DATE.                  15-Aug-1967 : LOGDATE
PROV.                      Alberta : PROVINCE
UWI .             100022706625W500 : UNIQUE WELL ID
SLAT.WGS84                54.73614 : SURFACE LATITUDE
SLON.WGS84                 -117.69 : SURFACE LONGITUDE
~Curve Information -----------------------------------------
DEPT.FT    : DEPTH FEET
CALS.IN    : CALIPER FROM SONIC LOG
DT  .US/F  : DELTA TIME FROM SONIC LOG
GRS .GAPI  : GAMMA RAY FROM SONIC LOG
ILD .OHMM  : INDUCTION LOG DEEP RESISTIVITY
SN  .OHMM  : 16 INCH SHORT NORMAL RESISTIVITY FROM IEL
SPR .MV    : SPONTANEOUS POTENTIAL FROM RESISTIVITY LOG
~Params ----------------------------------------------------
PD  .                     GL : PERMANENT DATUM
EPD .FT               2399.7 : ELEVATION PERMANENT DATUM
LMF .                     KB : LOG MEASURED FROM
DAPD.FT                   15 : FEET ABOVE PERMANENT DATUM
DMF .                     KB : DRILLING MEASURED FROM
EKB .FT               2414.7 : KELLY BUSHING
EGL .FT               2399.7 : GROUND LEVEL
DATE.               08/15/67 : RUN DATE
RUN .                      1 : RUN NUMBER
DD  .FT                11172 : DEPTH DRILLER
DL  .FT                11160 : DEPTH LOGGER
BLI .FT                11156 : BOTTOM LOG INTERVAL
TLI .FT                 1144 : TOP LOG INTERVAL
CS  .IN                9.625 : CASING SIZE
CBD .FT                 1145 : CASING BOTTOM DRILLER
CBL .FT                 1144 : CASING BOTTOM LOGGER
BS  .IN                7.625 : BIT SIZE
BSD .FT                11172 : BIT SIZE AT DEPTH
DFT .                MUD GEL : DRILLING FLUID TYPE
DFD .                    9.9 : DRILLING FLUID DENSITY
DFV .                     89 : DRILLING FLUID VISCOSITY
DFPH.                      9 : DRILLING FLUID PH
DFL .                    7.2 : DRILLING FLUID LOSS
MSS .                   CIRC : MUD SAMPLE SOURCE
RMS .OHMM                3.0 : RESISTIVITY MUD SAMPLE
MST .DEGF                 86 : MUD SAMPLE TEMPERATURE
RMF .OHMM                2.4 : RESISTIVITY MUD FILTRATE SAMPLE
MFST.DEGF                 86 : MUD FILTRATE SAMPLE TEMPERATURE
RMC .OHMM                3.2 : RESISTIVITY MUD CAKE
MCST.DEGF                 86 : MUD CAKE SAMPLE TEMPERATURE
MFSS.                   MEAS : MUD FILTRATE SAMPLE SOURCE
MCSS.                   MEAS : MUD CAKE SAMPLE SOURCE
RMB .OHMM                1.2 : RESISTIVITY MUD AT BHT
TCS .HRS                   6 : TIME CIRCULATED STOPPED
LUN .                   1256 : LOGGING UNIT NUMBER
LUL .                    EDM : LOGGING UNIT LOCATION
ENGI.      KOWALCHUK DOMSTAD : RECORDING ENGINEER
WITN.            DANIELEWICZ : WITNESSED BY
CLNT.                A2DTECH : CLIENT CODE
ORIG.            2" 5" PRINT : ORIGIN OF DATA
UWI .       100022706625W500 : UNIQUE WELL ID
DICO. A2D Technologies, Inc. : DIGITIZING COMPANY
~Other -----------------------------------------------------
~ASCII -----------------------------------------------------
# ...
 1813.32546    -999.25  106.41350   62.98110    4.90330    5.70930  -80.75980
 1813.82546    -999.25  109.02700   61.36300    4.95600    5.76100  -80.23700
 1814.32546    -999.25  110.42580   60.46720    4.97790    5.78410  -80.00380
 1814.82546    -999.25  113.85000   58.46000    5.03500    5.87100  -79.46400
 1815.32546    -999.25  113.85000   57.62940    5.03670    5.83400  -79.47730
 1815.82546    -999.25  112.35100   55.56000    4.84700    5.61800  -79.73800
 1816.32546    -999.25  110.21060   55.43550    4.76400    5.53280  -79.87780
 1816.82546    -999.25  105.06730   56.54220    4.56280    5.33150  -80.21460
 1817.32546    -999.25  102.49530   57.50650    4.46330    5.23180  -80.38270
 1817.82546    -999.25   98.65570   58.13460    4.26350    5.03150  -80.71870
 1818.32546    -999.25  100.29170   57.06950    4.16360    4.93260  -80.88710
 1818.82546    -999.25  110.42990   56.82310    3.97690    4.77870  -81.22670
 1819.32546    -999.25  116.99140   57.62210    3.99190    4.80640  -81.23260
 1819.82546    -999.25  130.11440   59.21650    4.12040    4.93960  -81.05130
 1820.32546    -999.25  134.77510   60.02670    4.18560    5.00410  -80.94500
 1820.82546    -999.25  136.96640   61.62790    4.31550    5.13350  -80.73240
 1821.32546    -999.25  135.46640   61.64160    4.38050    5.19850  -80.62600
 1821.82546    -999.25  131.55380   58.90200    4.50970    5.32770  -80.41350
 1822.32546    -999.25  132.97090   56.81090    4.57430    5.39230  -80.30720
 1822.82546    -999.25  134.67340   52.62300    4.70430    5.52230  -80.09460
 1823.32546    -999.25  132.21530   50.53000    4.76890    5.58690  -79.98830
 1823.82546    -999.25  127.23720   46.32100    4.89810    5.71610  -79.77630
 1824.32546    -999.25  122.05000   46.38500    5.03300    5.85100  -79.55600
 1824.82546    -999.25  124.57870   47.07730    5.09300    5.91100  -79.45780
 1825.32546    -999.25  130.41400   44.96300    5.23400    6.04100  -79.23100
 1825.82546    -999.25  132.82310   45.47560    5.23000    6.04960  -79.13790
 1826.32546    -999.25  134.38400   46.88800    5.20800    6.07500  -78.94600
 1826.82546    -999.25  131.98230   46.69460    5.19770    6.08530  -79.06930
 1827.32546    -999.25  126.17780   45.39380    5.17360    6.10940  -79.56750
 1827.82546    -999.25  123.27600   45.32230    5.16180    6.11920  -80.14240
 1828.32546    -999.25  117.47310   45.96450    5.18510    6.38320  -81.13060
 1828.82546    -999.25  114.65620   46.31580    5.27320    6.62490  -81.09920
 1829.32546    -999.25  110.62680   47.31520    5.59800    7.13460  -80.73500
 1829.82546    -999.25  114.51960   48.03010    5.84630    7.38870  -80.55690
 1830.32546    -999.25  126.90510   49.60700    6.39010    7.92470  -80.19920
 1830.82546    -999.25  130.00190   50.39470    6.66180    8.27300  -80.02050
 1831.32546    -999.25  128.73360   51.96100    7.20510    9.05500  -79.66350
 1831.82546    -999.25  125.57180   52.74970    7.47710    9.44770  -79.48550
 1832.32546    -999.25  117.98870   54.32010    8.02100   10.23310  -79.12490
 1832.82546    -999.25  114.19720   54.52170    8.29260   10.62620  -79.16040
 1833.32546    -999.25  106.61340   53.09600    8.83730   11.41420  -79.91120
 1833.82546    -999.25  102.82080   51.99350    9.10900   11.80480  -80.23250
 1834.32546    -999.25   96.84220   49.78510    9.61350   12.19730  -80.17040
 1834.82546    -999.25   94.15000   49.66000    9.82300   12.15600  -79.77400
 1835.32546    -999.25   93.78770   50.68160    9.64190   12.16200  -79.83680
 1835.82546    -999.25   90.86600   49.56300    9.22900   12.42500  -80.07600
 1836.32546    -999.25   89.47550   48.60570    9.06020   12.35460  -80.19100
 1836.82546    -999.25   86.00500   46.26600    8.63900   11.93500  -80.47600
 1837.32546    -999.25   84.69120   45.92110    8.48000   11.73440  -80.58410
 1837.82546    -999.25   81.50230   48.29000    8.09420   11.24670  -80.84660
 1838.32546    -999.25   80.63850   49.96570    8.03110   11.00360  -80.97780
 1838.82546    -999.25   80.89910   50.13030    8.05880   10.57390  -81.24110
 1839.32546    -999.25   81.39050   48.99800    8.08430   10.49470  -81.32240
 1839.82546    -999.25   84.62140   46.47090    8.12710   10.41880  -81.43050
 1840.32546    -999.25   86.80170   45.34720    8.14920   10.37880  -81.47950
 1840.82546    -999.25   89.14340   44.85830    8.19380   10.29870  -81.57640
 1841.32546    -999.25   89.12660   45.19590    8.21320   10.25870  -81.62300
 1841.82546    -999.25   88.48620   44.89000    8.14760   10.17860  -81.53090
 1842.32546    -999.25   88.19850   44.21750    8.07330   10.13860  -81.27560
 1842.82546    -999.25   88.60520   44.04500    7.92440   10.05790  -80.57700
 1843.32546    -999.25   89.38190   44.83830    7.84990   10.01750  -80.31080
 1843.82546    -999.25   91.21000   46.87330    7.70100    9.93750  -80.11830
 1844.32546    -999.25   93.07000   48.95700    7.54900    9.85600  -80.11700
 1844.82546    -999.25   93.95100   49.92460    7.47750    9.81740  -80.11950
 1845.32546    -999.25   95.85600   52.06000    7.32200    9.73400  -80.27100
 1845.82546    -999.25   96.69240   52.78890    7.25410    9.69730  -80.68560
 1846.32546    -999.25   97.13200   52.36600    7.09700    9.61200  -81.62800
 1846.82546    -999.25   96.71670   51.91420    7.11120    9.57780  -81.64970
 1847.32546    -999.25   95.67400   53.64000    7.30700    9.67400  -81.61300
 1847.82546    -999.25   95.28220   53.37580    7.40550    9.83650  -81.58390
 1848.32546    -999.25   94.77930   51.64710    7.64560   10.23030  -81.51390
 1848.82546    -999.25   95.09910   51.50760    7.76620   10.42800  -81.47970
 1849.32546    -999.25   95.89600   52.52240    8.00690   10.82840  -81.40730
 1849.82546    -999.25   96.26260   53.30950    8.12690   11.13010  -81.36800
 1850.32546    -999.25   97.10240   52.68630    8.36870   11.99880  -81.00140
 1850.82546    -999.25   97.20570   51.31660    8.57520   12.56000  -81.01260
 1851.32546    -999.25   96.66860   48.39070    9.41000   13.86690  -81.30630
 1851.82546    -999.25   96.16780   46.90700    9.94770   14.64110  -81.44570
 1852.32546    -999.25   95.06810   44.18420   10.95860   16.40920  -81.67520
 1852.82546    -999.25   94.51850   43.18160   11.44560   17.34410  -81.64670
 1853.32546    -999.25   93.41920   42.19690   12.48010   19.21190  -81.37040
 1853.82546    -999.25   92.80860   42.71170   13.02010   20.14910  -81.21660
 1854.32546    -999.25   91.65980   45.04620   14.00680   21.92580  -81.00880
 1854.82546    -999.25   88.54500   47.76800   14.01500   21.82000  -81.41600
 1855.32546    -999.25   86.35150   47.37050   13.43290   20.62690  -81.68500
 1855.82546    -999.25   80.16400   44.96200   12.15600   17.82600  -82.11300
 1856.32546    -999.25   77.23180   43.66770   11.59710   16.77160  -82.18780
 1856.82546    -999.25   70.36500   40.65700   10.28900   14.77300  -82.57600
 1857.32546    -999.25   68.48590   40.07200    9.75390   14.32010  -82.76990
 1857.82546    -999.25   67.80200   41.11500    9.01100   13.43200  -83.27300
 1858.32546    -999.25   69.02890   41.59620    8.97780   13.14560  -83.04500
 1858.82546    -999.25   72.34520   40.47650    8.90240   12.68930  -82.54870
 1859.32546    -999.25   74.08440   40.90850    8.86580   12.55270  -82.32420
 1859.82546    -999.25   77.96890   42.89430    8.79230   12.29420  -81.88330
 1860.32546    -999.25   80.03510   43.84040    8.75550   12.16490  -81.66370
 1860.82546    -999.25   84.16750   45.82490    8.68360   11.90640  -81.35670
 1861.32546    -999.25   85.98020   46.28970    8.65390   11.77670  -81.41140
 1861.82546    -999.25   88.60020   45.35170    8.55110   11.51760  -81.67820
 1862.32546    -999.25   89.62900   44.30740    8.47710   11.38790  -81.80990
 1862.82546    -999.25   91.68670   42.27410    8.32430   11.12740  -82.07310
 1863.32546    -999.25   92.71550   41.90750    8.24630   11.02400  -82.20460
 1863.82546    -999.25   94.35290   44.17600    8.08270   11.03890  -82.46770
 1864.32546    -999.25   94.68460   46.29810    8.11950   11.12710  -82.59860
