~Version ---------------------------------------------------
VERS.      2.0 : CWLS log ASCII Standard -VERSION 2.0
WRAP.       NO : One line per depth step
CREA. 10/25/17 : LAS Creation Date
~Well ------------------------------------------------------
STRT.FT                         1100.0 : START DEPTH
STOP.FT                        10800.0 : STOP DEPTH
STEP.FT                       50.00000 : STEP LENGTH
NULL.                          -999.25 : NULL VALUE
COMP. AMOCO CANADA PETROLEUM CO., LTD. : COMPANY
WELL.       AMOCO N-2 ANTE 11-25-65-23 : WELL
FLD .                                  : FIELD
LOC .                                  : LOCATION
CTRY.                           CANADA : COUNTRY
SRVC.           Schlumberger of Canada : SERVICE COMPANY
DATE.                      30-Oct-1976 : LOGDATE
PROV.                          Alberta : PROVINCE
UWI .                 100112506523W500 : UNIQUE WELL ID
SLAT.WGS84                    54.65705 : SURFACE LATITUDE
SLON.WGS84                   -117.3447 : SURFACE LONGITUDE
~Curve Information -----------------------------------------
DEPT    .FT    : Depth Curve
CALDED  .IN    : CALIPER FROM DENSITY LOG [DEP. ADJ. TO RESIST. LOG]
CALSED  .IN    : CALIPER FROM SONIC LOG [DEP. ADJ. TO RESIST. LOG]
CALWS   .IN    : CALIPER [1152' CALDED 10764' CALSED]
CONDWS  .MMHO  : CONDUCTIVITY [1000/DRESWS]
DCORWS  .G/C3  : DENSITY CORRECTION [DRHOED]
DENWS   .G/C3  : BULK DENSITY [M=2.71, F=1.00] [RHOBED]
DPHILSED.V/V   : DENSITY POROSITY [M=2.71, F=1.00] FROM DENSITY LOG [DEP. ADJ. TO RESIST. LOG]
DPHISSED.V/V   : DENSITY POROSITY [M=2.65, F=1.00] FROM DENSITY LOG [DEP. ADJ. TO RESIST. LOG]
DPOLSWS .V/V   : DENSITY POROSITY [M=2.71, F=1.00] [CAL. FROM DENWS]
DRESWS  .OHMM  : DEEP RESISTIVITY [ILDED]
DRHOED  .G/C3  : DENSITY CORRECTION FROM DENSITY LOG [DEP. ADJ. TO RESIST. LOG]
DTED    .US/F  : DELTA TIME FROM SONIC LOG [DEP. ADJ. TO RESIST. LOG]
DTWS    .US/F  : DELTA TIME [DTED]
GRDED   .GAPI  : GAMMA RAY FROM DENSITY LOG [DEP. ADJ. TO RESIST. LOG]
GRSED   .GAPI  : GAMMA RAY FROM SONIC LOG [DEP. ADJ. TO RESIST. LOG]
GRWS    .GAPI  : GAMMA RAY [1096' GRSED 1142' GRDED]
ILDED   .OHMM  : INDUCTION LOG DEEP RESISTIVITY
ILMED   .OHMM  : INDUCTION LOG MEDIUM RESISTIVITY
LL8ED   .OHMM  : 8 INCH LATEROLOG RESISTIVITY
MRESWS  .OHMM  : MEDIUM RESISTIVITY [ILMED]
NPHILSED.V/V   : NEUTRON POROSITY LIMESTONE FROM DENSITY LOG [DEP. ADJ. TO RESIST. LOG]
NPHISSED.V/V   : NEUTRON POROSITY SANDSTONE FROM DENSITY LOG [DEP. ADJ. TO RESIST. LOG]
NPOLSWS .V/V   : NEUTRON POROSITY LIMESTONE [NPHISSED CONVERTED FOR LIMESTONE, SPL. TO NPHILSED @ 6253']
RHOBED  .G/C3  : BULK DENSITY FROM DENSITY LOG [DEP. ADJ. TO RESIST. LOG]
SPRED   .MV    : SPONTANEOUS POTENTIAL FROM RESISTIVITY LOG
SPWS    .MV    : SPONTANEOUS POTENTIAL [BASELINE 0 MV] [SPRED]
SRESWS  .OHMM  : SHALLOW RESISTIVITY [LL8ED]
~Params ----------------------------------------------------
PD  .                     GL : PERMANENT DATUM
EPD .FT                 2441 : ELEVATION PERMANENT DATUM
LMF .                     KB : LOG MEASURED FROM
DAPD.FT                 13.6 : FEET ABOVE PERMANENT DATUM
EKB .FT               2454.6 : KELLY BUSHING
EGL .FT                 2441 : GROUND LEVEL
DATE.               10/30/76 : RUN DATE
RUN .                      1 : RUN NUMBER
DD  .FT                10805 : DEPTH DRILLER
DL  .FT                10818 : DEPTH LOGGER
BLI .FT                10812 : BOTTOM LOG INTERVAL
TLI .FT                 1155 : TOP LOG INTERVAL
CBD .FT                 1153 : CASING BOTTOM DRILLER
CBL .FT                 1155 : CASING BOTTOM LOGGER
BS  .IN                 8.75 : BIT SIZE
BSD .FT                10805 : BIT SIZE AT DEPTH
DFT .                    GEL : DRILLING FLUID TYPE
DFD .                      9 : DRILLING FLUID DENSITY
DFV .                    115 : DRILLING FLUID VISCOSITY
DFPH.                    9.5 : DRILLING FLUID PH
DFL .                    8.6 : DRILLING FLUID LOSS
MSS .             CIRCULATED : MUD SAMPLE SOURCE
RMS .OHMM               3.02 : RESISTIVITY MUD SAMPLE
MST .DEGF                 62 : MUD SAMPLE TEMPERATURE
RMF .OHMM               2.62 : RESISTIVITY MUD FILTRATE SAMPLE
MFST.DEGF                 52 : MUD FILTRATE SAMPLE TEMPERATURE
MFSS.             CALCULATED : MUD FILTRATE SAMPLE SOURCE
MCSS.             CALCULATED : MUD CAKE SAMPLE SOURCE
TCS .HRS                   3 : TIME CIRCULATED STOPPED
LUN .                   7809 : LOGGING UNIT NUMBER
LUL .                    EDM : LOGGING UNIT LOCATION
ENGI.               SEDGWICK : RECORDING ENGINEER
WITN.              SCHWIEDER : WITNESSED BY
CLNT.                A2DTECH : CLIENT CODE
ORIG.            2" 5" PRINT : ORIGIN OF DATA
UWI .       100112506523W500 : UNIQUE WELL ID
DICO. A2D Technologies, Inc. : DIGITIZING COMPANY
~Other -----------------------------------------------------
~ASCII -----------------------------------------------------
# ...
 3700.00000   10.61000   10.79900   10.61000  148.23660    0.05430    2.54390    -999.25    0.06820    0.09710    6.74600    0.05430   94.73080   94.73080  116.13750  120.77110  116.13750    6.74600    7.29470    8.20590    7.29470    -999.25    0.42290    0.38050    2.54390  -87.29770   -2.49560    8.20590
 3750.00000   10.62860   10.34900   10.62860  137.24390    0.04090    2.50880    -999.25    0.09220    0.11770    7.28630    0.04090   96.40130   96.40130  119.79000  126.30490  119.79000    7.28630    7.94810    8.60060    7.94810    -999.25    0.44130    0.39940    2.50880  -88.04330   -3.76470    8.60060
 3800.00000   11.00180   10.04900   11.00180  129.68150    0.20310    2.26320    -999.25    0.24800    0.26130    7.71120    0.20310   98.29300   98.29300  124.39500  134.36800  124.39500    7.71120    8.18240    8.84720    8.18240    -999.25    0.44460    0.40280    2.26320  -87.23830   -3.48310    8.84720
 3850.00000    9.78420    9.19900    9.78420  118.86830    0.24450    2.42170    -999.25    0.14440    0.16860    8.41270    0.24450   95.99660   95.99660  128.23500  134.96870  128.23500    8.41270    9.09670    9.89340    9.09670    -999.25    0.38470    0.34160    2.42170  -86.38190   -3.15360    9.89340
 3900.00000    9.95000    9.75000    9.95000  134.82900    0.23120    2.34070    -999.25    0.19520    0.21600    7.41680    0.23120   96.00860   96.00860  114.00000  117.96140  114.00000    7.41680    8.01810    8.53860    8.01810    -999.25    0.40660    0.36390    2.34070  -86.46390   -3.75910    8.53860
 3950.00000    9.17360    9.16150    9.17360  105.65570    0.10860    2.53790    -999.25    0.08530    0.10060    9.46480    0.10860   90.94800   90.94800  132.09000  135.82820  132.09000    9.46480   10.17350   11.12020   10.17350    -999.25    0.41540    0.37290    2.53790  -85.88930   -3.71140   11.12020
 4000.00000    9.16830    9.19900    9.16830   86.49320    0.04870    2.57600    -999.25    0.06130    0.07840   11.56160    0.04870   82.98720   82.98720  133.29000  137.73300  133.29000   11.56160   13.06700   19.38260   13.06700    -999.25    0.37790    0.33460    2.57600  -84.76100   -3.10660   19.38260
 4050.00000    9.33810    9.29900    9.33810   88.70200    0.00970    2.49690    -999.25    0.10980    0.12460   11.27370    0.00970   91.77020   91.77020  123.44250  134.35870  123.44250   11.27370   13.58790   19.39190   13.58790    -999.25    0.43020    0.38800    2.49690  -84.09010   -2.95910   19.39190
 4100.00000   10.51490   10.04900   10.51490  118.36270    0.24230    2.35120    -999.25    0.19560    0.20980    8.44960    0.24230   86.23360   86.23360  104.23500  105.31940  104.23500    8.44960    9.08670    9.46010    9.08670    -999.25    0.35350    0.30990    2.35120  -86.00600   -5.40190    9.46010
 4150.00000    9.02020    9.64900    9.02020  150.27200    0.14370    2.47400    -999.25    0.10600    0.13800    6.65460    0.14370   87.38560   87.38560  104.68500  107.23940  104.68500    6.65460    7.02250    7.35820    7.02250    -999.25    0.38470    0.34150    2.47400  -85.11900   -5.03840    7.35820
 4200.00000    9.24550    9.19950    9.24550  140.88520    0.22380    2.53310    -999.25    0.08380    0.10350    7.10620    0.22380   84.85280   84.85280  101.04750   95.21200  101.04750    7.10620    7.55710    7.89230    7.55710    -999.25    0.34270    0.29900    2.53310  -85.27260   -5.66230    7.89230
 4250.00000    9.16310    9.19900    9.16310  120.48770    0.14210    2.45960    -999.25    0.11510    0.14640    8.29960    0.14210   82.15840   82.15840  108.58500  111.05200  108.58500    8.29960    8.71770    9.12080    8.71770    -999.25    0.32550    0.28160    2.45960  -84.24740   -4.82930    9.12080
 4300.00000    9.43740    9.50000    9.43740  123.52080    0.14330    2.50250    -999.25    0.09930    0.12130    8.09580    0.14330   80.96470   80.96470  102.09000  109.90800  102.09000    8.09580    8.78540    9.46850    8.78540    -999.25    0.37210    0.32870    2.50250  -84.28130   -5.05540    9.46850
 4350.00000   10.42150   10.09900   10.42150  189.95940    0.22890    2.39970    -999.25    0.17050    0.18150    5.26430    0.22890   90.25180   90.25180  106.24500  115.88130  106.24500    5.26430    5.41220    5.75600    5.41220    -999.25    0.42430    0.38200    2.39970  -82.77610   -3.74370    5.75600
 4400.00000   10.42430    9.94900   10.42430  122.71290    0.15090    2.51460    -999.25    0.08430    0.11430    8.14910    0.15090   77.63940   77.63940   97.29000   97.06330   97.29000    8.14910    8.66080    9.38570    8.66080    -999.25    0.29130    0.24730    2.51460  -83.15270   -4.31250    9.38570
 4450.00000   10.23930    9.82400   10.23930  195.62770    0.23870    2.36370    -999.25    0.18060    0.20250    5.11180    0.23870   89.66120   89.66120  109.74000  116.66560  109.74000    5.11180    5.53360    6.04300    5.53360    -999.25    0.41730    0.37470    2.36370  -82.41510   -3.76830    6.04300
 4500.00000   10.23660    9.79900   10.23660  196.01690    0.21530    2.29160    -999.25    0.22360    0.24470    5.10160    0.21530   91.95840   91.95840  112.78500  121.58180  112.78500    5.10160    5.52950    6.01640    5.52950    -999.25    0.42540    0.38310    2.29160  -81.58750   -3.13290    6.01640
 4550.00000   10.48930   10.00000   10.48930  331.96120    0.12830    2.30770    -999.25    0.21550    0.23530    3.01240    0.12830  103.89070  103.89070  128.19000  132.99340  128.19000    3.01240    3.26120    3.80940    3.26120    -999.25    0.50250    0.46280    2.30770  -80.89390   -2.63160    3.80940
 4600.00000   11.69920   10.64900   11.69920  402.35030    0.14920    2.22730    -999.25    0.25970    0.28230    2.48540    0.14920  101.58500  101.58500   96.14250  103.69990   96.14250    2.48540    2.69800    3.49100    2.69800    -999.25    0.50870    0.46930    2.22730  -81.60220   -3.53330    3.49100
 4650.00000   11.72040   10.34900   11.72040  327.00040    0.15930    2.26340    -999.25    0.23740    0.26120    3.05810    0.15930  103.83880  103.83880   97.64250  115.27030   97.64250    3.05810    3.22120    3.74140    3.22120    -999.25    0.48590    0.44550    2.26340  -80.99100   -3.11430    3.74140
 4700.00000   11.52310   10.64900   11.52310  224.05980    0.12600    2.34050    -999.25    0.18640    0.21610    4.46320    0.12600   89.46720   89.46720  102.74250  108.34270  102.74250    4.46320    4.84780    5.15850    4.84780    -999.25    0.43340    0.39130    2.34050  -80.10860   -2.42540    5.15850
 4750.00000   11.04900   10.84900   11.04900  262.54990    0.18300    2.29610    -999.25    0.22080    0.24200    3.80880    0.18300   95.92110   95.92110  105.49500  116.08840  105.49500    3.80880    4.12870    4.48910    4.12870    -999.25    0.45460    0.41300    2.29610  -80.50030   -3.00930    4.48910
 4800.00000    9.70230    9.59900    9.70230   81.92420    0.09500    2.53220    -999.25    0.08030    0.10400   12.20640    0.09500   73.48060   73.48060   92.59500  100.34760   92.59500   12.20640   13.76910   15.50990   13.76910    -999.25    0.22260    0.17890    2.53220  -80.55730   -3.25850   15.50990
 4850.00000    9.02280    8.82400    9.02280   81.83850    0.03980    2.53210    -999.25    0.06820    0.10400   12.22030    0.03980   75.03190   75.03190   82.94250   76.70450   82.94250   12.22030   13.59550   13.90620   13.59550    -999.25    0.24100    0.19710    2.53210  -94.84960  -17.81800   13.90620
 4900.00000   11.12280   10.25000   11.12280  291.68980    0.18870    2.30710    -999.25    0.21820    0.23560    3.42830    0.18870   94.43780   94.43780   87.39000   90.17060   87.39000    3.42830    3.68480    4.12490    3.68480    -999.25    0.49700    0.45710    2.30710  -79.07710   -2.31890    4.12490
 4950.00000    9.49930    9.54950    9.49930   99.02800    0.04170    2.51640    -999.25    0.07840    0.11320   10.09900    0.04170   78.45970   78.45970   78.09000   79.61990   78.09000   10.09900   11.09930   14.50880   11.09930    -999.25    0.31020    0.26630    2.51640  -80.49190   -4.00890   14.50880
