~Version ---------------------------------------------------
VERS.      2.0 : CWLS log ASCII Standard -VERSION 2.0
WRAP.       NO : One line per depth step
CREA. 11/21/17 : LAS Creation Date
~Well ------------------------------------------------------
STRT.FT                             1050.0 : START DEPTH
STOP.FT                            10400.0 : STOP DEPTH
STEP.FT                           50.00000 : STEP LENGTH
NULL.                              -999.25 : NULL VALUE
COMP.               CHEVRON CANADA LIMITED : COMPANY
WELL. CHEVRON GULF ET AL FOXCK 10-21-62-18 : WELL
FLD .                                      : FIELD
LOC .                                      : LOCATION
CTRY.                               CANADA : COUNTRY
SRVC.                         Schlumberger : SERVICE COMPANY
DATE.                          28-Apr-1976 : LOGDATE
PROV.                              Alberta : PROVINCE
UWI .                     102102106218W500 : UNIQUE WELL ID
SLAT.WGS84                        54.37974 : SURFACE LATITUDE
SLON.WGS84                       -116.6321 : SURFACE LONGITUDE
~Curve Information -----------------------------------------
DEPT    .FT    : Depth Curve
CALDED  .IN    : CALIPER FROM DENSITY LOG
CALSED  .IN    : CALIPER FROM SONIC LOG
CALWS   .IN    : CALIPER [CALSED SPL. TO CALDED @ 10384']
CONDWS  .MMHO  : CONDUCTIVITY [1000/DRESWS]
DCORED  .G/C3  : DENSITY CORRECTION FROM DENSITY LOG
DCORWS  .G/C3  : DENSITY CORRECTION [DCORED]
DENWS   .G/C3  : FORMATION BULK DENSITY [RHOBED]
DPHILSED.V/V   : DENSITY POROSITY LIMESTONE [M=2.71, F=1.00] FROM DENSITY LOG
DPHISSED.V/V   : DENSITY POROSITY SANDSTONE [M=2.65, F=1.00] FROM DENSITY LOG
DPOLSWS .V/V   : DENSITY POROSITY LIMESTONE [CALC. FROM DENWS M=2.71, F=1.00]
DRESWS  .OHMM  : DEEP RESISTIVITY [ILDED]
DTED    .US/F  : DELTA-T FROM SONIC LOG
DTWS    .US/F  : COMPRESSIONAL SONIC [DTED]
GRDED   .GAPI  : GAMMA RAY FROM DENSITY LOG
GRSED   .GAPI  : GAMMA RAY FROM SONIC LOG
GRWS    .GAPI  : GAMMA RAY [GRSED SPL. TO GRDED@3031M]
ILDED   .OHMM  : DEEP INDUCTION FROM RESISTIVITY LOG
ILMED   .OHMM  : MEDIUM INDUCTION FROM RESISTIVITY LOG
LL8ED   .OHMM  : LATEROLOG-8 FROM RESISTIVITY LOG
MRESWS  .OHMM  : MEDIUM RESISTIVITY [ILMED]
NPHILSED.V/V   : NEUTRON POROSITY  SANDSTONE FROM DENSITY LOG
NPHISSED.V/V   : NEUTRON POROSITY SANDSTONE FROM DENSITY LOG
NPOLSWS .V/V   : NEUTRON POROSITY LIMESTONE [NPHISSED MATRIX CONVERSION FOR LIMESTONE, SPL. TO NPHILSED @ 6545']
RHOBED  .G/C3  : BULK DENSITY FROM DENSITY LOG
SPRED   .MV    : SPONTANEOUS POTENTIAL FROM RESISTIVITY LOG
SPWS    .MV    : SPONTANEOUS POTENTIAL [BASELINE 0 MV,SPRED]
SRESWS  .OHMM  : SHALLOW EWSISTIVITY [LL8ED]
TENDED  .LBF   : TENSION FROM DENSITY LOG
TENSED  .LBF   : TENSION FROM SONIC LOG
~Params ----------------------------------------------------
PD  .                     GL : PERMANENT DATUM
EPD .FT               2869.5 : ELEVATION PERMANENT DATUM
LMF .                     KB : LOG MEASURED FROM
DAPD.FT                 14.5 : FEET ABOVE PERMANENT DATUM
EKB .FT                 2884 : KELLY BUSHING
EGL .FT               2869.5 : GROUND LEVEL
DATE.               04/28/76 : RUN DATE
RUN .                      1 : RUN NUMBER
DD  .FT                10415 : DEPTH DRILLER
DL  .FT                10422 : DEPTH LOGGER
BLI .FT                10416 : BOTTOM LOG INTERVAL
TLI .FT                 1107 : TOP LOG INTERVAL
CBD .FT                 1108 : CASING BOTTOM DRILLER
CBL .FT                 1107 : CASING BOTTOM LOGGER
BS  .IN                 8.75 : BIT SIZE
BSD .FT                10415 : BIT SIZE AT DEPTH
DFT .               GEL CHEM : DRILLING FLUID TYPE
DFD .                    9.4 : DRILLING FLUID DENSITY
DFV .                     72 : DRILLING FLUID VISCOSITY
DFPH.                   10.5 : DRILLING FLUID PH
DFL .                   10.8 : DRILLING FLUID LOSS
MSS .             CIRCULATED : MUD SAMPLE SOURCE
RMS .OHMM               1.66 : RESISTIVITY MUD SAMPLE
MST .DEGF                 60 : MUD SAMPLE TEMPERATURE
RMF .OHMM                1.2 : RESISTIVITY MUD FILTRATE SAMPLE
MFST.DEGF                 60 : MUD FILTRATE SAMPLE TEMPERATURE
RMB .OHMM               0.52 : RESISTIVITY MUD AT BHT
TCS .HRS                 3.5 : TIME CIRCULATED STOPPED
LUN .                   7691 : LOGGING UNIT NUMBER
LUL .                    EDM : LOGGING UNIT LOCATION
ENGI.   CROCKFORD KREZANOSKI : RECORDING ENGINEER
WITN.                   WONG : WITNESSED BY
CLNT.                A2DTECH : CLIENT CODE
ORIG.            2" 5" PRINT : ORIGIN OF DATA
UWI .       102102106218W500 : UNIQUE WELL ID
DICO. A2D Technologies, Inc. : DIGITIZING COMPANY
~Other -----------------------------------------------------
DIL-LL-BHC-CNL-FDC LOG RUN
SCH.- CNL(NPHI) USED FOR NEUTRON MATRIX CONVERSION
~ASCII -----------------------------------------------------
# ...
 6050.00000   13.83900   10.95720   10.95720  203.25200    0.16440    0.16440    2.38270    -999.25    0.16490    0.19140    4.92000   86.31920   86.31920   81.15060   85.44080   85.44080    4.92000    5.65960    5.89920    5.65960    -999.25    0.32380    0.27990    2.38270  -23.57920   -5.63980    5.89920 1015.61440 2782.09810
 6100.00000   12.27810   10.66940   10.66940  115.69250    0.12640    0.12640    2.53280    -999.25    0.07570    0.10360    8.64360   80.58440   80.58440   80.75960   81.19490   81.19490    8.64360    9.09220   10.32690    9.09220    -999.25    0.27190    0.22790    2.53280  -19.36750   -1.82470   10.32690 1477.13880 2900.36690
 6150.00000   11.36030   10.52250   10.52250   60.18440    0.15270    0.15270    2.62520    -999.25    0.01520    0.04960   16.61560   74.29230   74.29230   75.77440   77.72650   77.72650   16.61560   17.18380   23.29750   17.18380    -999.25    0.21300    0.16940    2.62520  -23.35710   -5.39380   23.29750 1874.34360 1271.12980
 6200.00000   10.58870    9.64040    9.64040  127.75310    0.14380    0.14380    2.48080    -999.25    0.10340    0.13400    7.83170   77.25340   77.25340   32.19120   34.96470   34.96470    7.83170    9.10250   15.50820    9.10250    -999.25    0.12930    0.08690    2.48080  -81.88710  -63.50060   15.50820  807.77400 1295.47070
 6250.00000   11.79430   10.74240   10.74240  157.92550    0.19780    0.19780    2.24590    -999.25    0.27550    0.27140    6.33210   81.97710   81.97710   77.03880   79.01250   79.01250    6.33210    6.71870    7.50090    6.71870    -999.25    0.32550    0.28160    2.24590  -24.06490   -5.25780    7.50090 1186.96250  940.32940
 6300.00000   11.93260   11.40360   11.40360  276.66340    0.15750    0.15750    2.05310    -999.25    0.36350    0.38420    3.61450   94.13150   94.13150   91.38920   90.31230   90.31230    3.61450    3.83260    4.56140    3.83260    -999.25    0.40600    0.36320    2.05310  -31.73820  -12.51060    4.56140 1478.50890  872.68510
 6350.00000   11.78750   11.25820   11.25820  295.70050    0.18960    0.18960    2.03980    -999.25    0.36810    0.39190    3.38180   89.06230   89.06230   74.26740   81.72750   81.72750    3.38180    3.55620    4.46810    3.55620    -999.25    0.39790    0.35500    2.03980  -39.41950  -19.76870    4.46810 1611.11880  978.76210
 6400.00000   10.13280   10.11360   10.11360   31.01340    0.01410    0.01410    2.50600    -999.25    0.08720    0.11930   32.24410   86.25180   86.25180  175.56500  184.40200  184.40200   32.24410   35.90390   68.41250   35.90390    -999.25    0.31240    0.26850    2.50600  -45.63720  -25.56580   68.41250 1787.66410 1004.20700
 6450.00000   10.38400   10.46060   10.46060   81.09410    0.07080    0.07080    2.47670    -999.25    0.10680    0.13640   12.34230  116.30040  116.30040   91.34280   89.76220   89.76220   12.34230   10.35980   14.56350   10.35980    -999.25    0.37540    0.33210    2.47670  -40.69130  -20.19670   14.56350 2116.28840 1245.47740
 6500.00000    9.53900    9.42020    9.42020    3.35870    0.02160    0.02160    2.59680    -999.25    0.03140    0.06620  297.73200   65.24370   65.24370  245.63240  243.97840  243.97840  297.73200  530.34480 1079.90780  530.34480    -999.25    0.16060    0.11780    2.59680  -41.82150  -20.90640 1079.90780 2613.14500  727.17630
 6550.00000   10.09240    9.82140    9.82140   68.94320    0.01380    0.01380    2.61570    0.05220    0.02740    0.05510   14.50470   64.78440   64.78440   84.32810   73.46070   73.46070   14.50470   15.73630   18.16540   15.73630    0.09300    0.13020    0.09300    2.61570  -55.47110  -34.13540   18.16540 2798.05170  864.16160
 6600.00000   10.27450    9.91780    9.91780   71.70150    0.04900    0.04900    2.66410    0.04290   -0.00390    0.02680   13.94670   63.51010   63.51010   76.96440   70.46950   70.46950   13.94670   14.30440   16.14290   14.30440    0.08850    0.12640    0.08850    2.66410  -65.08710  -43.32820   16.14290 2714.31930 1041.53770
 6650.00000    9.33800    9.03660    9.03660  219.29820    0.09920    0.09920    2.66970    0.03590    0.00320    0.02360    4.56000   54.95070   54.95070   23.66500   19.53190   19.53190    4.56000    6.09850   20.52970    6.09850    0.12260    0.15670    0.12260    2.66970 -172.12850 -149.94910   20.52970  932.23600  980.87200
 6700.00000    9.36010    9.28900    9.28900   38.18250    0.14480    0.14480    2.65380    0.03560    -999.25    0.03290   26.22360   52.29510   52.29510   17.21540   19.20190   19.20190   26.22360   33.36900  106.96460   33.36900    0.07860    -999.25    0.07860    2.65380 -107.65790  -85.05520  106.96460  613.29830 1264.32170
 6750.00000   10.07890    9.84320    9.84320  143.84970    0.04900    0.04900    2.71990    0.00690    -999.25   -0.00580    6.95170   58.50400   58.50400   34.53910   36.57170   36.57170    6.95170    7.77900   15.27660    7.77900    0.08350    -999.25    0.08350    2.71990 -113.94750  -90.92430   15.27660  997.12600 1330.28080
 6800.00000   10.76510   10.02390   10.02390   28.67750    0.08120    0.08120    2.65650    0.03330    -999.25    0.03130   34.87050   54.52010   54.52010   38.19030   29.33580   29.33580   34.87050   40.95770   66.73040   40.95770    0.04370    -999.25    0.04370    2.65650  -79.20150  -55.75780   66.73040 1684.43120 1402.24830
 6850.00000   10.06520    9.80850    9.80850  168.66540    0.10960    0.10960    2.59260    0.06360    -999.25    0.06870    5.92890   61.44340   61.44340   44.86860   40.45990   40.45990    5.92890    6.56780   11.05540    6.56780    0.09630    -999.25    0.09630    2.59260 -106.31670  -82.44970   11.05540 1281.39240 1425.22480
 6900.00000    9.98930    9.64520    9.64520   71.51290    0.03330    0.03330    2.59260    0.07280    -999.25    0.06870   13.98350   56.17470   56.17470   33.47750   31.49140   31.49140   13.98350   14.83050   21.75490   14.83050    0.08540    -999.25    0.08540    2.59260  -95.40090  -71.11340   21.75490 2117.64410 1623.68770
 6950.00000   10.86250   10.42380   10.42380   17.04790    0.06160    0.06160    2.65580    0.04360    -999.25    0.03170   58.67250   51.98740   51.98740   20.65340   21.77170   21.77170   58.67250   74.59920  119.89280   74.59920    0.01370    -999.25    0.01370    2.65580  -94.04450  -69.33370  119.89280 1777.16380 1466.90670
 7000.00000    9.87940    9.49590    9.49590   29.52840    0.01900    0.01900    2.85510   -0.08590    -999.25   -0.08490   33.86570   50.84190   50.84190   11.82060   14.47500   14.47500   33.86570   45.13820  507.83990   45.13820    0.01190    -999.25    0.01190    2.85510 -103.44110  -78.30980  507.83990 2344.62320 1432.11050
 7050.00000   10.71160   10.21490   10.21490   19.45060    0.08770    0.08770    2.69290    0.02590    -999.25    0.01000   51.41230   49.82160   49.82160   11.64050   12.74790   12.74790   51.41230   62.74780  199.47780   62.74780    0.01650    -999.25    0.01650    2.69290 -136.04740 -110.49560  199.47780  797.59180 1725.40730
 7100.00000   10.13480    9.75770    9.75770   14.80740    0.03600    0.03600    2.73720    0.00350    -999.25   -0.01590   67.53390   50.54030   50.54030   21.02540   20.96300   20.96300   67.53390   70.93060  158.32230   70.93060    0.00840    -999.25    0.00840    2.73720 -109.72290  -83.74780  158.32230  991.74290 1070.07050
 7150.00000   10.16950   10.23090   10.23090  260.24720    0.00630    0.00630    2.66820    0.02520    -999.25    0.02440    3.84250   65.79930   65.79930   67.64140   64.49260   64.49260    3.84250    3.93970    4.51630    3.93970    0.15230    -999.25    0.15230    2.66820  -98.07800  -71.68240    4.51630 1609.50600  924.53340
 7200.00000   10.12400    9.84820    9.84820  291.37160    0.01100    0.01100    2.61240    0.05810    -999.25    0.05700    3.45940   62.20320   62.20320   51.76850   53.60650   53.60650    3.45940    4.17010   11.37260    4.17010    0.11730    -999.25    0.11730    2.61240 -123.33280  -96.51390   11.37260 1299.70140  387.06420
 7250.00000   11.97260   10.66100   10.66100   29.98070    0.09420    0.09420    2.58800    0.06530    -999.25    0.07130   33.35480   52.85500   52.85500   23.80520   25.23910   25.23910   33.35480   36.72130  396.04670   36.72130    0.01010    -999.25    0.01010    2.58800  -66.48420  -39.24480  396.04670 2523.90250  757.07910
