~Version ---------------------------------------------------
VERS.      2.0 : CWLS log ASCII Standard -VERSION 2.0
WRAP.       NO : One line per depth step
CREA. 09/13/14 : LAS Creation Date
~Well ------------------------------------------------------
STRT.FT                       1500.0 : START DEPTH
STOP.FT                      10400.0 : STOP DEPTH
STEP.FT                     50.00000 : STEP LENGTH
NULL.                        -999.25 : NULL VALUE
COMP.   MERLAND EXPLORATIONS LIMITED : COMPANY
WELL. MERLAND ET AL GIROUXLUX 10-11- : WELL
FLD .                                : FIELD
LOC .                                : LOCATION
CTRY.                         CANADA : COUNTRY
SRVC.                        Unknown : SERVICE COMPANY
DATE.                    26-Feb-1978 : LOGDATE
PROV.                        Alberta : PROVINCE
UWI .               100101106622W500 : UNIQUE WELL ID
SLAT.WGS84                  54.70081 : SURFACE LATITUDE
SLON.WGS84                 -117.2093 : SURFACE LONGITUDE
~Curve Information -----------------------------------------
DEPT   .FT    : DEPTH FEET
CALD   .IN    : CALIPER FROM DENSITY LOG
CALS   .IN    : CALIPER FROM SONIC LOG
DCOR   .G/C3  : DENSITY CORRECTION FROM DENSITY LOG
DPHI_LS.DEC   : DENSITY POROSITY LIMESTONE [M=2.71, F=1.0] FROM DENSITY LOG
DPHI_SS.DEC   : DENSITY POROSITY SANDSTONE [M=2.65, F=1.0] FROM DENSITY LOG
DT     .US/F  : DELTA-T FROM SONIC LOG
GRD    .GAPI  : GAMMA RAY FROM DENSITY LOG
GRS    .GAPI  : GAMMA RAY FROM SONIC LOG
ILD    .OHMM  : DEEP INDUCTION  RESISTIVITY FROM RESISTIVITY LOG
ILM    .OHMM  : MEDIUM INDUCTION RESISTIVITY FROM RESISTIVITY LOG
LL8    .OHMM  : LATEROLOG 8 FROM RESISTIVITY LOG
NPHI_LS.DEC   : NEUTRON POROSITY LIMESTONE FROM DENSITY LOG
NPHI_SS.DEC   : NEUTRON POROSITY SANDSTONE FROM DENSITY LOG
RHOB   .G/C3  : BULK DENSITY FROM DENSITY LOG
SPR    .MV    : SPONTANEOUS POTENTIAL FROM RESISTIVITY LOG
~Params ----------------------------------------------------
PD  .                     GL : PERMANENT DATUM
EPD .FT                 2391 : ELEVATION PERMANENT DATUM
LMF .                     KB : LOG MEASURED FROM
DAPD.FT                   16 : FEET ABOVE PERMANENT DATUM
DMF .                     KB : DRILLING MEASURED FROM
EKB .FT                 2407 : KELLY BUSHING
EGL .FT                 2391 : GROUND LEVEL
DATE.               02/26/78 : RUN DATE
RUN .                      2 : RUN NUMBER
DD  .FT                10409 : DEPTH DRILLER
DL  .FT                10410 : DEPTH LOGGER
BLI .FT                10404 : BOTTOM LOG INTERVAL
TLI .FT                 8200 : TOP LOG INTERVAL
CBD .FT                 1515 : CASING BOTTOM DRILLER
CBL .FT                 1514 : CASING BOTTOM LOGGER
BS  .IN                 8.75 : BIT SIZE
BSD .FT                10409 : BIT SIZE AT DEPTH
DFT .               GEL CHEM : DRILLING FLUID TYPE
DFD .                    9.3 : DRILLING FLUID DENSITY
DFV .                     75 : DRILLING FLUID VISCOSITY
DFPH.                    9.5 : DRILLING FLUID PH
DFL .                    9.2 : DRILLING FLUID LOSS
MSS .               FLOWLINE : MUD SAMPLE SOURCE
RMS .OHMM               2.47 : RESISTIVITY MUD SAMPLE
MST .DEGF                 51 : MUD SAMPLE TEMPERATURE
RMF .OHMM               3.21 : RESISTIVITY MUD FILTRATE SAMPLE
MFST.DEGF                 60 : MUD FILTRATE SAMPLE TEMPERATURE
RMB .OHMM               1.02 : RESISTIVITY MUD AT BHT
TCS .HRS                 3.5 : TIME CIRCULATED STOPPED
LUN .                   7730 : LOGGING UNIT NUMBER
LUL .                    EDM : LOGGING UNIT LOCATION
ENGI.               ACKERMAN : RECORDING ENGINEER
WITN.                  GAWNE : WITNESSED BY
CLNT.                A2DTECH : CLIENT CODE
ORIG.            2" 5" PRINT : ORIGIN OF DATA
UWI .       100101106622W500 : UNIQUE WELL ID
DICO. A2D Technologies, Inc. : DIGITIZING COMPANY
~Other -----------------------------------------------------
~ASCII -----------------------------------------------------
 1500.00000    -999.25    -999.25    -999.25    -999.25    -999.25    -999.25   44.42600    -999.25    -999.25    -999.25    -999.25    -999.25    0.59880    -999.25    -999.25
 1550.00000   10.92240    -999.25    0.15560    -999.25    0.28430    -999.25   86.04590    -999.25    3.77000    3.45530    3.99460    -999.25    0.44550    2.22950  -58.19320
 1600.00000    9.83500    -999.25    0.12360    -999.25    0.18720    -999.25   84.01740    -999.25    5.26270    5.02840    5.64200    -999.25    0.43330    2.34770  -59.12670
 1650.00000   11.62960    -999.25    0.07520    -999.25    0.20260    -999.25   75.02910    -999.25    4.85370    4.54630    5.46360    -999.25    0.38700    2.27540  -59.56630
 1700.00000   11.18000    -999.25    0.10880    -999.25    0.20270    -999.25   81.48450    -999.25    3.80870    3.59530    4.05570    -999.25    0.46860    2.32040  -58.59970
 1750.00000   10.41670    -999.25    0.05330    -999.25    0.28400    -999.25   38.71070    -999.25   20.09090   16.23980   14.50230    -999.25    0.33400    2.16890  -61.78110
 1800.00000   10.56770    -999.25    0.03360    -999.25    0.20890    -999.25   54.33690    -999.25   13.88300   12.05960   13.07520    -999.25    0.33580    2.29870  -59.81700
 1850.00000   10.28500    -999.25    0.05840    -999.25    0.19630    -999.25   74.63150    -999.25    4.94220    4.24640    4.76940    -999.25    0.43590    2.34170  -58.33390
 1900.00000    9.82910    -999.25    0.00010    -999.25    0.15000    -999.25   80.96120    -999.25    4.49510    4.12390    5.16230    -999.25    0.43820    2.40110  -57.12110
 1950.00000    8.98830    -999.25    0.05840    -999.25    0.24190    -999.25   69.94860    -999.25    4.66880    4.14770    4.39420    -999.25    0.48320    2.24960  -56.82910
 2000.00000    9.08330    -999.25    0.18770    -999.25    0.16030    -999.25   75.07750    -999.25    7.28450    6.86280    7.62080    -999.25    0.41840    2.35940  -53.83250
 2050.00000    9.04040    -999.25    0.20860    -999.25    0.36240    -999.25   75.99930    -999.25    4.12070    3.80420    4.00830    -999.25    0.48380    2.04300  -54.24350
 2100.00000    9.52190    -999.25    0.00820    -999.25    0.09680    -999.25   41.77980    -999.25   17.99130   20.04820   24.67360    -999.25    0.23210    2.50010  -56.23960
 2150.00000   10.02370    -999.25    0.15120    -999.25    0.19160    -999.25   55.48530    -999.25   15.22690   14.48310   13.90090    -999.25    0.37510    2.32110  -64.13810
 2200.00000   10.27870    -999.25    0.02170    -999.25    0.16860    -999.25   53.65270    -999.25   10.46460    9.75420   11.26360    -999.25    0.31220    2.35390  -58.71950
 2250.00000   11.25680    -999.25    0.13600    -999.25    0.35290    -999.25   75.18850    -999.25    4.82050    4.46100    5.36980    -999.25    0.46230    2.09000  -54.73490
 2300.00000   12.33870    -999.25    0.11800    -999.25    0.25270    -999.25   68.40660    -999.25    5.49840    4.92660    5.05190    -999.25    0.37020    2.26540  -56.03790
 2350.00000   14.37470    -999.25    0.12350    -999.25    0.21850    -999.25   56.85940    -999.25    6.90210    6.32990    8.28000    -999.25    0.37420    2.30410  -55.75650
 2400.00000    -999.25    -999.25    0.11470    -999.25    0.31380    -999.25   65.36630    -999.25    5.15010    4.42190    4.90400    -999.25    0.50570    2.09380  -54.95260
 2450.00000    -999.25    -999.25    0.18570    -999.25    0.27880    -999.25   68.38770    -999.25    5.10980    4.87400    5.47450    -999.25    0.39750    2.23830  -54.61660
 2500.00000    -999.25    -999.25    0.13410    -999.25    0.32680    -999.25   71.28690    -999.25    5.15660    5.39660    4.79240    -999.25    0.49070    2.10770  -54.88220
 2550.00000   10.19370    -999.25   -0.00510    -999.25    0.37340    -999.25   88.43290    -999.25    7.22520    6.60040    7.68800    -999.25    0.50130    2.01590  -61.03210
 2600.00000   10.25360    -999.25    0.01790    -999.25    0.35240    -999.25  113.07890    -999.25    7.06770    6.67350    7.90450    -999.25    0.48900    2.09790  -60.59590
 2650.00000   11.68650    -999.25    0.03410    -999.25    0.19450    -999.25  143.34200    -999.25    7.32960    7.00590    9.27730    -999.25    0.43980    2.34870  -55.75240
 2700.00000   13.20730    -999.25    0.05230    -999.25    0.16450    -999.25  133.42590    -999.25    8.20680    7.85130    9.07330    -999.25    0.40350    2.37410  -56.27140
 2750.00000   13.07650   11.53530    0.06100    -999.25    0.17700   98.21640  112.89080  114.11770    7.60720    7.27260    8.91490    -999.25    0.42290    2.35790  -57.06530
 2800.00000   15.47120    8.86780    0.07450    -999.25    0.17190   93.29480  120.20790  108.25690    6.51200    5.88880    6.95120    -999.25    0.39890    2.36310  -59.45090
 2850.00000   14.94210    9.34590    0.07270    -999.25    0.11870   99.29820  114.93370  123.11030    8.08470    7.56300    8.68470    -999.25    0.36380    2.46470  -59.60650
 2900.00000   14.27170    9.16960    0.09490    -999.25    0.14630   80.81950   66.27020   82.61110   12.72550   11.71470   13.45180    -999.25    0.26510    2.40820  -73.48080
 2950.00000   14.62100   13.32550    0.08040    -999.25    0.11110   92.61690  117.12650  103.77970   10.18340    9.65720   11.09960    -999.25    0.32890    2.46120  -58.60470
 3000.00000   15.01150   13.33990    0.07860    -999.25    0.12180   91.18310  118.05540  124.94820    7.55230    7.22200    8.12450    -999.25    0.33960    2.45820  -58.01690
 3050.00000    8.12420    7.40950    0.05410    -999.25    0.15460   96.79730  128.25050  128.42330    6.84020    6.18540    7.26060    -999.25    0.42210    2.39120  -58.97210
 3100.00000    -999.25   10.27140    0.05930    -999.25    0.17200   93.67100  113.74780  121.40300    8.18590    7.83090    8.80390    -999.25    0.36760    2.37660  -59.48230
 3150.00000   12.42030   10.39330    0.05470    -999.25    0.10730   95.92270  104.67220  126.91960   12.50390   11.96010   12.83390    -999.25    0.27680    2.47780  -58.13070
 3200.00000   12.40450   10.90030    0.08370    -999.25    0.13090   85.74330  112.62900  116.31890   10.12510    9.66910   10.72430    -999.25    0.33000    2.46720  -57.12500
 3250.00000   11.56520   10.47290    0.07520    -999.25    0.15580   91.70830  121.16740  104.13340    9.25240    8.62330   10.33500    -999.25    0.35070    2.43200  -55.78630
 3300.00000   11.09880   10.39980    0.09420    -999.25    0.14560   91.23070  120.48170  118.94900    9.69880    8.91840   10.20120    -999.25    0.35740    2.42020  -56.47110
 3350.00000   11.29640   10.05380    0.07140    -999.25    0.16080   90.73610  127.89930  117.17270    8.28240    7.82000    9.10600    -999.25    0.38540    2.40730  -55.57500
 3400.00000   11.97540   10.44860    0.09090    -999.25    0.11400   92.09030  126.59340  136.79590    7.42210    6.71840    8.01580    -999.25    0.39320    2.44790  -54.84910
 3450.00000   11.95790   10.74300    0.09830    -999.25    0.09710   97.19690  128.67040  137.71710    7.38010    7.07310    9.02970    -999.25    0.40910    2.48540  -53.18940
 3500.00000   12.62990   10.35100    0.13170    -999.25    0.17460   96.63420  128.05330  129.45330    8.23750    7.89510    9.58050    -999.25    0.40300    2.36670  -52.75640
 3550.00000   12.29740   11.96400    0.18780    -999.25    0.24670  100.30580  130.98980  134.79750    8.20400    7.86330    9.51330    -999.25    0.42980    2.24910  -51.63020
 3600.00000   11.14480   10.97760    0.17810    -999.25    0.15500   97.43610  131.91290  133.41560    9.54780    9.12790   11.72670    -999.25    0.40740    2.43150  -51.75810
 3650.00000   10.16130   10.38350    0.24080    -999.25    0.18090   94.49240  122.97980  129.58100    8.41860    7.92880   10.00460    -999.25    0.38260    2.35040  -52.18550
 3700.00000    9.36670    9.81590    0.13040    -999.25    0.10870   99.93270  157.59440  155.60390   10.39520    9.92000   14.11210    -999.25    0.40830    2.49820  -50.44330
 3750.00000    9.46860    9.72040    0.23720    -999.25    0.18560   97.71270  176.05430  148.73760    9.63210    9.21220   13.41910    -999.25    0.43420    2.34920  -50.04040
