~Version ---------------------------------------------------
VERS.      2.0 : CWLS log ASCII Standard -VERSION 2.0
WRAP.       NO : One line per depth step
CREA. 12/22/12 : LAS Creation Date
~Well ------------------------------------------------------
STRT.M                             500.0 : START DEPTH
STOP.M                            3500.0 : STOP DEPTH
STEP.M                          50.00000 : STEP LENGTH
NULL.                            -999.25 : NULL VALUE
COMP.               CHEVRON STANDARD LTD : COMPANY
WELL. CHEVRON ET AL ROSEVEAR 14-20-53-15 : WELL
FLD .                                    : FIELD
LOC .                                    : LOCATION
CTRY.                             CANADA : COUNTRY
SRVC.             Schlumberger of Canada : SERVICE COMPANY
DATE.                        28-Jul-1979 : LOGDATE
PROV.                            Alberta : PROVINCE
UWI .                   100142005315W500 : UNIQUE WELL ID
SLAT.WGS84                      53.59838 : SURFACE LATITUDE
SLON.WGS84                     -116.1761 : SURFACE LONGITUDE
~Curve Information -----------------------------------------
DEPT    .M      : DEPTH METER
CALDED  .MM     : CALIPER FROM FDC-CNL-GR LOG [ADJ. TO GRSED]
CALSED  .MM     : CALIPER FROM SL-GR-CAL LOG
CALWS   .MM     : CALIPER [CALSED]
CONDWS  .MMHO   : CONDUCTIVITY [1000/DRESWS]
DCORWS  .KG/M3  : DENSITY CORRECTION [DRHOED]
DENWS   .KG/M3  : FORMATION BULK DENSITY [RHOBED]
DPHILSED.V/V    : DENSITY POROSITY LIMESTONE [M=2.71,F=1.0] FROM FDC-CNL-GR LOG [ADJ. TO GRSED]
DPHISSED.V/V    : DENSITY POROSITY SANDSTONE [M=2.65,F=1.0] FROM FDC-CNL-GR LOG [ADJ. TO GRSED]
DPOWS   .V/V    : DENSITY POROSITY LIMESTONE [CALCULATED FRON DENWS, M=2.71, F=1.0]
DRESWS  .OHMM   : DEEP RESISTIVITY [ILDED]
DRHOED  .KG/M3  : DENSITY CORRECTION FROM FDC-CNL-GR LOG [ADJ. TO GRSED]
DTED    .US/M   : DELTA-T (INTERVAL TRANSIT TIME) FROM SL-GR-CAL LOG
DTWS    .US/M   : COMPRESSIONAL  SONIC [DTED]
GRDED   .GAPI   : GAMMA RAY FROM FDC-CNL-GR LOG [ADJ. TO GRSED]
GRSED   .GAPI   : GAMMA RAY FROM SL-GR-CAL LOG
GRWS    .GAPI   : GAMMA RAY [GRSED]
ILDED   .OHMM   : DEEP INDUCTION FROM DIL-SFL LOG
ILMED   .OHMM   : MEDIUM INDUCTION FROM DIL-SFL LOG
MRESWS  .OHMM   : MEDIUM RESISTIVITY [ILMED]
NPHILSED.V/V    : NEUTRON POROSITY LIMESTONE FROM FDC-CNL-GR LOG [ADJ. TO GRSED]
NPHISSED.V/V    : NEUTRON POROSITY SANDSTONE FROM FDC-CNL-GR LOG [ADJ. TO GRSED]
NPOWS   .V/V    : NEUTRON POROSITY LIMESTONE [NPHISSED MATRIX CONVERSION FOR LIMESTONE, SPL. TO NPHILSED @2389.8']
RHOBED  .KG/M3  : BULK DENSITY FROM FDC-CNL-GR LOG [ADJ. TO GRSED]
SFLED   .OHMM   : SPHERICALLY FOCUSED INDUCTION FROM DIL-SFL LOG
SPRED   .MV     : SPONTANEOUS POTENTIAL FROM DIL-SFL LOG
SPWS    .MV     : SPONTANEOUS POTENTIAL [BASELINE 0 MV, SPRED]
SRESWS  .OHMM   : SHALLOW RESISTIVITY [SFLED]
TENDED  .N      : TENSION FROM FDC-CNL-GR LOG [ADJ. TO GRSED]
TENSED  .N      : TENSION FROM SL-GR-CAL LOG
~Params ----------------------------------------------------
PD  .                         GL : PERMANENT DATUM
EPD .M                     935.6 : ELEVATION PERMANENT DATUM
LMF .                         KB : LOG MEASURED FROM
DAPD.M                       4.4 : FEET ABOVE PERMANENT DATUM
DMF .                         KB : DRILLING MEASURED FROM
EKB .M                       940 : KELLY BUSHING
EGL .M                     935.6 : GROUND LEVEL
DATE.                   07/28/79 : RUN DATE
RUN .                          1 : RUN NUMBER
DD  .M                      3520 : DEPTH DRILLER
DL  .M                      3522 : DEPTH LOGGER
BLI .M                      3521 : BOTTOM LOG INTERVAL
TLI .M                       474 : TOP LOG INTERVAL
CS  .MM                    244.5 : CASING SIZE
CBD .M                     473.7 : CASING BOTTOM DRILLER
CBL .M                       474 : CASING BOTTOM LOGGER
BS  .MM                    222.3 : BIT SIZE
BSD .M                      3520 : BIT SIZE AT DEPTH
DFT .                   GEL CHEM : DRILLING FLUID TYPE
DFD .                       1120 : DRILLING FLUID DENSITY
DFV .                        160 : DRILLING FLUID VISCOSITY
DFPH.                       10.5 : DRILLING FLUID PH
DFL .                          8 : DRILLING FLUID LOSS
MSS .                CIRCULATION : MUD SAMPLE SOURCE
RMS .OHMM                   1.28 : RESISTIVITY MUD SAMPLE
MST .DEGC                  15.55 : MUD SAMPLE TEMPERATURE
RMF .OHMM                   1.11 : RESISTIVITY MUD FILTRATE SAMPLE
MFST.DEGC                  18.88 : MUD FILTRATE SAMPLE TEMPERATURE
MFSS.                      PRESS : MUD FILTRATE SAMPLE SOURCE
RMB .OHMM                   0.45 : RESISTIVITY MUD AT BHT
TCS .HRS                    1200 : TIME CIRCULATED STOPPED
TLAB.HRS                    1830 : TIME LOGGER AT BOTTOM
LUN .                       8112 : LOGGING UNIT NUMBER
LUL .                     EDSOLL : LOGGING UNIT LOCATION
ENGI.                   ALVARADO : RECORDING ENGINEER
WITN.                    BARROWS : WITNESSED BY
CLNT.                    A2DTECH : CLIENT CODE
ORIG. 6.5"/100M 16.5"/100M PRINT : ORIGIN OF DATA
UWI .           100142005315W500 : UNIQUE WELL ID
DICO.     A2D Technologies, Inc. : DIGITIZING COMPANY
~Other -----------------------------------------------------
~ASCII -----------------------------------------------------
# ...
 1750.00000  253.73950  248.32650  248.32650   60.01100  222.55580 2295.18770    -999.25    0.23100    0.24260   16.66360  222.55580  238.98770  238.98770  102.39590  103.44700  103.44700   16.66360   17.35700   17.35700    -999.25    0.22930    0.18550 2274.37400   15.24950  -78.69470   -5.60270   15.24950 2670.82200 2768.30660
 1800.00000  297.13720  271.02450  271.02450   84.50590  190.27870 2205.65360    -999.25    0.27570    0.29490   11.83350  190.27870  255.20330  255.20330  110.07170  112.51890  112.51890   11.83350   11.00600   11.00600    -999.25    0.27800    0.23400 2196.94260   10.63250  -78.82320   -6.25940   10.63250 2728.08400 2849.80740
 1850.00000  250.16220  241.73370  241.73370   58.82280  183.16880 2394.55130    -999.25    0.12160    0.18450   17.00020  183.16880  277.00960  277.00960  115.53750  119.58410  119.58410   17.00020   19.93620   19.93620    -999.25    0.29710    0.25310 2453.48100   18.54680  -75.94680   -3.91120   18.54680 2748.63480 2895.13040
 1900.00000  304.88190  249.84590  249.84590   51.66250  152.29690 2298.18510    -999.25    0.19050    0.24080   19.35640  152.29690  286.61370  286.61370  127.89390  124.97250  124.97250   19.35640   21.08760   21.08760    -999.25    0.29360    0.24960 2328.48390   22.24460  -72.55440   -1.04700   22.24460 2797.58420 2946.12280
 1950.00000  405.09620  279.77320  279.77320   36.21310  152.78080 2397.39920    -999.25    0.19740    0.18280   27.61430  152.78080  245.91900  245.91900  129.68570  109.70730  109.70730   27.61430   36.07420   36.07420    -999.25    0.31550    0.27160 2397.39920   71.49850  -75.54790   -4.56870   71.49850 2830.49930 3019.10330
 2000.00000  491.58290  361.31880  361.31880  120.08120  126.17150 2128.48540    -999.25    0.29230    0.34010    8.32770  126.17150  285.16850  285.16850  101.63870   94.46650   94.46650    8.32770    5.59420    5.59420    -999.25    0.35880    0.31530 2174.89580    7.52340  -74.87260   -4.42160    7.52340 3209.43920 3049.61040
 2050.00000  490.82920  366.25400  366.25400  235.05630    7.34680 1511.52890    -999.25    0.66390    0.70090    4.25430    7.34680  292.92020  292.92020   79.03200   77.61550   77.61550    4.25430    3.63240    3.63240    -999.25    0.42310    0.38070 1530.49490    5.07680  -69.76350    0.15930    5.07680 2967.03980 3097.36820
 2100.00000  285.92650  250.80350  250.80350   45.00860  116.65260 2555.42160    -999.25    0.06730    0.09040   22.21800  116.65260  226.64280  226.64280   82.42770   82.71660   82.71660   22.21800   22.62340   22.62340    -999.25    0.14540    0.10290 2537.34280   22.65480  -75.00610   -7.42870   22.65480 3112.37890 3192.24950
 2150.00000  232.27430  242.18890  242.18890   55.21660    1.25870 2601.86010    -999.25    0.02680    0.06320   18.11050    1.25870  228.15840  228.15840   74.14070   71.99090   71.99090   18.11050   18.46020   18.46020    -999.25    0.21690    0.17330 2602.68510   17.38610  -87.40760  -22.34660   17.38610 3080.08300 3256.51170
 2200.00000  244.16560  245.30600  245.30600   61.76500   -2.48490 2595.60670    -999.25    0.03230    0.06690   16.19040   -2.48490  252.65750  252.65750   63.67900   60.91120   60.91120   16.19040   16.68990   16.68990    -999.25    0.16370    0.12090 2595.60670   15.28320 -101.87020  -41.50840   15.28320 3135.14720 3417.35570
 2250.00000  290.56080  255.54680  255.54680   61.86170  209.39030 2584.57320    -999.25    0.05950    0.07330   16.16510  209.39030  234.09240  234.09240   89.48920   86.76020   86.76020   16.16510   16.84020   16.84020    -999.25    0.23270    0.18890 2552.45970   16.44430  -66.38270  -10.55760   16.44430 3209.52420 3493.99830
 2300.00000  298.14290  261.57900  261.57900   59.65520  201.50180 2196.41530    -999.25    0.47210    0.30030   16.76300  201.50180  242.74820  242.74820   85.01760   86.67130   86.67130   16.76300   14.63910   14.63910    -999.25    0.34690    0.30320 1837.67500   23.98780  -73.07720  -15.50210   23.98780 3287.34670 3557.68410
 2350.00000  319.14290  248.14050  248.14050   28.21910  191.94510 2170.30200    -999.25    0.26680    0.31560   35.43700  191.94510  241.70180  241.70180   79.96590   79.41560   79.41560   35.43700   35.11560   35.11560    -999.25    0.18690    0.14370 2212.85570   76.77210  -89.43710  -30.11210   76.77210 3333.08640 3628.83300
 2400.00000  223.65550  226.21140  226.21140    0.52670   13.81590 2603.66190    0.05900    -999.25    0.06220 1898.76500   13.81590  183.74950  183.74950   18.76840   16.32370   16.32370 1898.76500 2003.42600 2003.42600    0.01280    -999.25    0.01280 2603.66190  587.42720 -114.52550  -53.45050  587.42720 3349.66430 3767.50290
 2450.00000  238.86980  231.70890  231.70890   31.37940  113.20860 2761.85600   -0.00110    -999.25   -0.03030   31.86800  113.20860  159.52610  159.52610   34.77040   33.06770   33.06770   31.86800   32.68550   32.68550    0.04960    -999.25    0.04960 2730.86130   27.64530  -99.99260  -37.16760   27.64530 3415.01980 3773.59280
 2500.00000  230.45140  242.98640  242.98640    2.25520   -3.03320 2680.29760   -0.06770    -999.25    0.01740  443.42420   -3.03320  167.75610  167.75610   15.45630   16.31790   16.31790  443.42420 1172.42070 1172.42070    0.02000    -999.25    0.02000 2822.28810  180.00150 -158.58010  -94.00510  180.00150 3459.08960 3870.29610
 2550.00000  217.18550  228.87470  228.87470   13.31210    6.00600 2774.23830   -0.02370    -999.25   -0.03760   75.11980    6.00600  173.40540  173.40540   74.38570   73.35660   73.35660   75.11980  109.77420  109.77420    0.05500    -999.25    0.05500 2750.54660   86.60890  -92.07130  -25.74640   86.60890 3551.47410 3944.89990
 2600.00000  219.16170  233.35400  233.35400   40.39150    8.96010 2685.37040    0.00050    -999.25    0.01440   24.75770    8.96010  189.20680  189.20680   38.01110   38.31920   38.31920   24.75770   28.06290   28.06290    0.06570    -999.25    0.06570 2710.97830   32.33770  -73.06990   -4.99500   32.33770 3558.89890 3997.00440
 2650.00000  222.97690  226.36100  226.36100   14.04170   -3.13120 2715.06740   -0.01080    -999.25   -0.00300   71.21640   -3.13120  179.40200  179.40200   40.22650    9.94890    9.94890   71.21640   94.79810   94.79810    0.02380    -999.25    0.02380 2732.32590   89.55000  -82.87030  -13.04540   89.55000 3642.71580 4068.59250
 2700.00000  220.51280  228.73570  228.73570    0.49240   -5.81060 2704.04200    0.00400    -999.25    0.00350 2030.69010   -5.81060  160.35950  160.35950   21.85000   22.48450   22.48450 2030.69010 2005.07530 2005.07530    0.02320    -999.25    0.02320 2703.40890 1528.54760 -109.05160  -40.96000 1528.54760 3693.34500 4184.90380
 2750.00000  257.60930  239.56140  239.56140    0.49720  184.05040 2571.75170    0.06520    -999.25    0.08080 2011.38260  184.05040  158.39010  158.39010   11.22170   12.63370   12.63370 2011.38260 2028.02420 2028.02420    0.01150    -999.25    0.01150 2595.23410  761.00450 -160.09310  -93.84240  761.00450 3763.67140 4165.10300
 2800.00000  219.65870  234.01820  234.01820    7.26320    5.62600 2713.85330   -0.01070    -999.25   -0.00230  137.68090    5.62600  159.78000  159.78000    8.86010    8.55080    8.55080  137.68090  141.85420  141.85420    0.02280    -999.25    0.02280 2731.68290  171.51860 -140.68570  -76.27600  171.51860 3773.86840 4252.86770
 2850.00000  260.71020  234.66500  234.66500    0.50060  162.04910 2424.83420    0.16680    -999.25    0.16680 1997.52310  162.04910  162.13630  162.13630   14.51060   18.13560   18.13560 1997.52310 2053.22170 2053.22170    0.00300    -999.25    0.00300 2408.07280 1003.42990 -158.25800  -95.68930 1003.42990 3820.18550 4316.12210
 2900.00000  218.32600  227.98840  227.98840   28.83760  101.91260 2755.86910    0.00040    -999.25   -0.02680   34.67700  101.91260  165.98680  165.98680   15.81930   16.63540   16.63540   34.67700   51.88860   51.88860    0.07240    -999.25    0.07240 2686.31670   66.57550 -137.52510  -76.79740   66.57550 3835.79520 4350.62550
 2950.00000  261.11520  241.49050  241.49050    0.50220  197.94650 2567.08110    0.04500    -999.25    0.08360 1991.36540  197.94650  160.18180  160.18180   26.13780   23.70840   23.70840 1991.36540 1952.04970 1952.04970    0.08470    -999.25    0.08470 2626.98100  332.79420 -128.87590  -69.98920  332.79420 3982.15800 4440.55810
