~Version ---------------------------------------------------
VERS.      2.0 : CWLS log ASCII Standard -VERSION 2.0
WRAP.       NO : One line per depth step
CREA. 12/21/17 : LAS Creation Date
~Well ------------------------------------------------------
STRT.FT                    1250.0 : START DEPTH
STOP.FT                    9750.0 : STOP DEPTH
STEP.FT                  50.00000 : STEP LENGTH
NULL.                     -999.25 : NULL VALUE
COMP.  PHILLIPS PETROLEUM COMPANY : COMPANY
WELL. PHILLIPS KAYBOB 10-34-64-19 : WELL
FLD .                             : FIELD
LOC .                             : LOCATION
CTRY.                      CANADA : COUNTRY
SRVC.                       Welex : SERVICE COMPANY
DATE.                 14-Dec-1960 : LOGDATE
PROV.                     Alberta : PROVINCE
UWI .            100103406419W500 : UNIQUE WELL ID
SLAT.WGS84               54.58335 : SURFACE LATITUDE
SLON.WGS84               -116.782 : SURFACE LONGITUDE
~Curve Information -----------------------------------------
DEPT  .FT    : Depth Curve
CALWS .IN    : CALIPER [MCALED]
CONDWS.MMHO  : CONDUCTIVITY [1000/DRESWS]
DRESWS.OHMM  : DEEP RESISTIVITY [LT16ED]
GRNED .CPS   : GAMMA RAY FROM GRN LOG [ADJ. TO RESISTIVITY LOG]
GRWS  .CPS   : GAMMA RAY [GRNED]
LAT9ED.OHMM  : LATERAL 9' (3IZ)  FROM RESISTIVITY LOG
LT16ED.OHMM  : LATERAL 16' (3IZ)  FROM RESISTIVITY LOG
MCALED.IN    : CALIPER FROM CONTACT CALIPER LOG
MRESWS.OHMM  : MEDIUM RESISTIVITY [LT9ED]
NEUTED.CPS   : NEUTRON FROM GRN LOG [ADJ. TO RESISTIVITY LOG]
NEUTWS.CPS   : NEUTRON [NEUTED]
SNED  .OHMM  : SHORT NORMAL 18" (2Z) FROM RESISTIVITY LOG
SPRED .MV    : SPONTANEOUS POTENTIAL FROM RESISTIVITY LOG
SPWS  .MV    : SPONTANEOUS POTENTIAL [BASELINE 0 MV, SPRED]
SRESWS.OHMM  : SHALLOW RESISTIVITY [SNED]
~Params ----------------------------------------------------
PD  .                             SCF : PERMANENT DATUM
LMF .                              KB : LOG MEASURED FROM
DAPD.FT                         14.41 : FEET ABOVE PERMANENT DATUM
DMF .                              KB : DRILLING MEASURED FROM
EKB .FT                          2452 : KELLY BUSHING
EGL .FT                          2437 : GROUND LEVEL
DATE.                        12/14/60 : RUN DATE
RUN .                               1 : RUN NUMBER
DD  .FT                          9756 : DEPTH DRILLER
DL  .FT                          9757 : DEPTH LOGGER
BLI .FT                          9756 : BOTTOM LOG INTERVAL
TLI .FT                          1245 : TOP LOG INTERVAL
CS  .IN                         9.625 : CASING SIZE
CBD .FT                          1253 : CASING BOTTOM DRILLER
CBL .FT                          1245 : CASING BOTTOM LOGGER
BS  .IN                         7.875 : BIT SIZE
BSD .FT                          9756 : BIT SIZE AT DEPTH
DFT . OIL EMULSION GEL CAUSTIC TANNEX : DRILLING FLUID TYPE
DFD .                            10.5 : DRILLING FLUID DENSITY
DFV .                             115 : DRILLING FLUID VISCOSITY
DFPH.                             9.5 : DRILLING FLUID PH
DFL .                             5.3 : DRILLING FLUID LOSS
MSS .                      CIRCULATED : MUD SAMPLE SOURCE
RMS .OHMM                        2.73 : RESISTIVITY MUD SAMPLE
MST .DEGF                          72 : MUD SAMPLE TEMPERATURE
RMF .OHMM                        1.07 : RESISTIVITY MUD FILTRATE SAMPLE
MFST.DEGF                         195 : MUD FILTRATE SAMPLE TEMPERATURE
RMC .OHMM                        1.14 : RESISTIVITY MUD CAKE
MCST.DEGF                         195 : MUD CAKE SAMPLE TEMPERATURE
RMB .OHMM                        1.09 : RESISTIVITY MUD AT BHT
ENGI.                          DOWHAN : RECORDING ENGINEER
WITN.                        WILLIAMS : WITNESSED BY
CLNT.                         A2DTECH : CLIENT CODE
ORIG.                     2" 5" PRINT : ORIGIN OF DATA
UWI .                100103406419W500 : UNIQUE WELL ID
DICO.          A2D Technologies, Inc. : DIGITIZING COMPANY
~Other -----------------------------------------------------
~ASCII -----------------------------------------------------
# ...
 5850.00000   10.01100  140.29380    7.12790   80.45470   80.45470    7.01210    7.12790   10.01100    7.01210  435.70310  435.70310   27.92760  -84.70540  -42.99560   27.92760
 5900.00000   10.59870   46.02340   21.72810   89.44720   89.44720   22.77970   21.72810   10.59870   22.77970  427.39540  427.39540   33.92390  -55.28070  -14.14710   33.92390
 5950.00000    9.32840   30.59640   32.68360   46.75440   46.75440   17.92390   32.68360    9.32840   17.92390  494.36710  494.36710   34.72560  -76.13040  -35.57680   34.72560
 6000.00000    8.78960   11.30140   88.48440   30.33670   30.33670  158.24190   88.48440    8.78960  158.24190  541.80710  541.80710  115.64290 -146.03720 -106.05990  115.64290
 6050.00000    9.55630    9.89450  101.26360   43.60910   43.60910  193.92380  101.26360    9.55630  193.92380  561.92670  561.92670  106.50350 -114.90790  -75.50680  106.50350
 6100.00000   10.54910   24.47940   40.85070   37.48040   37.48040  119.62840   40.85070   10.54910  119.62840  478.22970  478.22970   57.43940 -104.52290  -65.70180   57.43940
 6150.00000    9.09300    6.24160  160.21510   57.54500   57.54500   85.50500  160.21510    9.09300   85.50500  565.00330  565.00330  121.26380  -54.06090  -15.81610  121.26380
 6200.00000    8.84420    6.35900  157.25740   54.46630   54.46630  134.66080  157.25740    8.84420  134.66080  592.04320  592.04320  125.08850  -49.31950  -11.12130  125.08850
 6250.00000    9.12600   40.53440   24.67040   43.04280   43.04280   76.62260   24.67040    9.12600   76.62260  543.80650  543.80650   51.16010 -121.81600  -83.01900   51.16010
 6300.00000    9.47300   64.79720   15.43450   53.95430   53.95430   80.82590   15.43450    9.47300   80.82590  502.16610  502.16610   45.66690  -91.49320  -52.09740   45.66690
 6350.00000    9.72190  139.72920    7.15670   56.13810   56.13810   19.49400    7.15670    9.72190   19.49400  434.65580  434.65580   21.02180  -82.97840  -42.97990   21.02180
 6400.00000    9.18650    3.75600  266.23940   28.62560   28.62560  242.89960  266.23940    9.18650  242.89960  706.80460  706.80460  258.58520 -144.33570 -103.73840  258.58520
 6450.00000    9.50780    5.00000  200.00140   29.24110   29.24110  192.64460  200.00140    9.50780  192.64460  671.87080  671.87080  143.67050 -160.99210 -119.79210  143.67050
 6500.00000    9.01090    3.49570  286.06300   27.11440   27.11440  233.28890  286.06300    9.01090  233.28890  669.80190  669.80190  146.74310 -146.47330 -104.67450  146.74310
 6550.00000    8.95830   70.50470   14.25820   72.00460   72.00460    9.42280   14.25820    8.95830    9.42280  399.77060  399.77060   12.30470  -75.61060  -33.21300   12.30470
 6600.00000    9.64550  223.88900    4.46650   63.68800   63.68800    2.90960    4.46650    9.64550    2.90960  392.08830  392.08830    8.46590  -88.50960  -45.50930    8.46590
 6650.00000    9.23800   82.34650   12.14380   65.35680   65.35680   16.37680   12.14380    9.23800   16.37680  461.06120  461.06120   29.16890  -73.80970  -30.21060   29.16890
 6700.00000    9.76890   30.88360   32.37960   66.16850   66.16850   48.57640   32.37960    9.76890   48.57640  472.86830  472.86830   50.29390  -49.55560   -5.35380   50.29390
 6750.00000   10.00380    2.89620  345.28540   29.72230   29.72230  414.04330  345.28540   10.00380  414.04330  690.42130  690.42130  165.43000  -69.02860  -24.22810  165.43000
 6800.00000    8.53200    4.65710  214.78290   27.63670   27.63670  215.85190  214.78290    8.53200  215.85190  584.65870  584.65870  140.09540 -137.61800  -92.21870  140.09540
 6850.00000   10.56880    4.00490  249.69250   28.32860   28.32860  206.64320  249.69250   10.56880  206.64320  605.49190  605.49190  155.98680 -142.61430  -96.61230  155.98680
 6900.00000    8.87110   62.26530   16.06030   32.62060   32.62060   21.16080   16.06030    8.87110   21.16080  585.66000  585.66000   69.20840 -108.22280  -61.62200   69.20840
 6950.00000    8.67710   13.07570   76.47750   47.77920   47.77920  145.36700   76.47750    8.67710  145.36700  658.93520  658.93520  139.82360  -53.11160   -5.90810  139.82360
 7000.00000    8.60370    5.34460  187.10490   47.01730   47.01730  182.26030  187.10490    8.60370  182.26030  673.77210  673.77210  156.74180  -57.04050   -9.23820  156.74180
 7050.00000    8.67940    7.33530  136.33060   56.44230   56.44230   84.63640  136.33060    8.67940   84.63640  597.24310  597.24310  103.59560  -55.65030   -7.42960  103.59560
 7100.00000    8.41520   11.22980   89.04850   56.62960   56.62960   91.61370   89.04850    8.41520   91.61370  580.32440  580.32440   81.50550  -61.98730  -13.41030   81.50550
 7150.00000   11.16270    7.42410  134.69610   34.55980   34.55980  141.26300  134.69610   11.16270  141.26300  501.51790  501.51790  203.97130  -87.82750  -38.89660  203.97130
 7200.00000    8.62870   26.71970   37.42550   28.49430   28.49430  170.54630   37.42550    8.62870  170.54630  729.15880  729.15880  408.07890  -82.17060  -32.88340  408.07890
 7250.00000    9.27240    1.00600  993.99710   28.59440   28.59440  477.28270  993.99710    9.27240  477.28270  750.40230  750.40230  260.07890 -131.66240  -82.02120  260.07890
 7300.00000    9.67270    1.21140  825.54130   30.47080   30.47080  450.88810  825.54130    9.67270  450.88810  774.36670  774.36670  340.86300 -109.74540  -59.75030  340.86300
 7350.00000    9.21620    1.56090  640.64250   27.24810   27.24810  376.27640  640.64250    9.21620  376.27640  795.66040  795.66040  321.92460 -125.09290  -74.74150  321.92460
 7400.00000    9.89720    1.14780  871.22740   26.14660   26.14660  462.07520  871.22740    9.89720  462.07520  746.36460  746.36460  270.28080 -130.76010  -80.05480  270.28080
 7450.00000    9.25020    1.23670  808.60470   28.13990   28.13990  456.32840  808.60470    9.25020  456.32840  804.89180  804.89180  337.35870 -140.29400  -89.23240  337.35870
 7500.00000    9.87700    3.20340  312.17220   25.06640   25.06640  223.54170  312.17220    9.87700  223.54170  758.92630  758.92630  344.31200 -155.57170 -104.15610  344.31200
 7550.00000    8.59570    2.15460  464.16280   26.49760   26.49760  227.97220  464.16280    8.59570  227.97220  750.60400  750.60400  187.58960 -170.51060 -118.74110  187.58960
 7600.00000    9.75070    3.66730  272.67890   25.64030   25.64030  199.05060  272.67890    9.75070  199.05060  790.69940  790.69940  282.46590 -167.97320 -115.84740  282.46590
 7650.00000    9.43820    1.52380  656.26680   28.54440   28.54440  311.38480  656.26680    9.43820  311.38480  751.97740  751.97740  234.04680 -160.30210 -107.82240  234.04680
 7700.00000   10.19120    0.81340 1229.37550   28.94580   28.94580  494.04460 1229.37550   10.19120  494.04460  721.30200  721.30200  494.92100 -144.36120  -91.52520  494.92100
 7750.00000    9.47910    0.43710 2287.90280   24.31110   24.31110  895.89610 2287.90280    9.47910  895.89610  748.92460  748.92460  316.07660 -155.99860 -102.80860  316.07660
 7800.00000    9.20040    2.05930  485.72240   25.64890   25.64890  290.70170  485.72240    9.20040  290.70170  764.27600  764.27600  152.79740 -205.62770 -152.08380  152.79740
 7850.00000    9.24770    2.44520  408.96620   28.12590   28.12590  366.36570  408.96620    9.24770  366.36570  767.63460  767.63460  298.69820 -181.28290 -127.38270  298.69820
 7900.00000    7.79860    1.47750  676.80330   26.00170   26.00170  548.91940  676.80330    7.79860  548.91940  656.13550  656.13550  155.09660 -214.86070 -160.60660  155.09660
 7950.00000    8.20500    2.63830  379.02830   36.97650   36.97650  245.58320  379.02830    8.20500  245.58320  611.36670  611.36670  153.68090 -175.41250 -120.80210  153.68090
 8000.00000    8.87760    6.15520  162.46310   30.01620   30.01620  272.33210  162.46310    8.87760  272.33210  531.87990  531.87990  152.15520 -161.88660 -106.92220  152.15520
 8050.00000    9.68890    6.31680  158.31640   42.93120   42.93120  151.19490  158.31640    9.68890  151.19490  396.41210  396.41210   38.30490 -135.41700  -80.09870   38.30490
 8100.00000    8.68750    1.31240  761.97480   38.67560   38.67560  486.98280  761.97480    8.68750  486.98280  555.70860  555.70860  364.23630  -67.64670  -11.97210  364.23630
