~Version ---------------------------------------------------
VERS.      2.0 : CWLS log ASCII Standard -VERSION 2.0
WRAP.       NO : One line per depth step
CREA. 11/16/17 : LAS Creation Date
~Well ------------------------------------------------------
STRT.FT                          800.0 : START DEPTH
STOP.FT                        13150.0 : STOP DEPTH
STEP.FT                       50.00000 : STEP LENGTH
NULL.                          -999.25 : NULL VALUE
COMP. SOCONY MOBIL OIL OF CANADA, LTD. : COMPANY
WELL.     MOBIL CHEDDERVILLE 4-22-37-7 : WELL
FLD .                                  : FIELD
LOC .                                  : LOCATION
CTRY.                           CANADA : COUNTRY
SRVC.                     Schlumberger : SERVICE COMPANY
DATE.                      02-Jun-1964 : LOGDATE
PROV.                          Alberta : PROVINCE
UWI .                 100042203707W500 : UNIQUE WELL ID
SLAT.WGS84                    52.18951 : SURFACE LATITUDE
SLON.WGS84                   -114.9248 : SURFACE LONGITUDE
~Curve Information -----------------------------------------
DEPT  .FT    : Depth Curve
CALDED.IN    : CALIPER FROM FDL LOG [ADJ. TO RESISTIVITY LOG]
CALSED.IN    : CALIPER FROM SONIC LOG [ADJ. TO RESISTIVITY LOG]
CALWS .IN    : CALIPER [CALDED]
CILDED.MMHO  : CONDUCTIVITY FROM IEL LOG
CONDWS.MMHO  : CONDUCTIVITY [1000/DRESWS]
DRESWS.OHMM  : DEEP RESISTIVITY [1000/CILDED IF ILDED < 1, ILDED]
DT1ED .US/F  : DELTA TIME (1' SPACING) FROM SONIC LOG [ADJ. TO RESISTIVITY]
DTED  .US/F  : DELTA TIME (3' SPACING) FROM SONIC LOG [ADJ. TO RESISTIVITY]
DTWS  .US/F  : COMPRESSIONAL SONIC [DTED]
FDENED.CPS   : FORMATION DENSITY FROM FDL LOG [ADJ. TO RESISTIVITY]
GRDED .GAPI  : GAMMA RAY  FROM FDL LOG [ADJ. TO RESISTIVITY]
GRSED .GAPI  : GAMMA RAY FROM SONIC LOG [ADJ. TO RESISTIVITY]
GRWS  .GAPI  : GAMMA RAY [GRSED]
ILDED .OHMM  : INDUCTION DEEP RESISTIVITY FROM IEL LOG
SNED  .OHMM  : SHORT NORMAL RESISTIVITY FROM IEL LOG
SPRED .MV    : SPONTANEOUS POTENTIAL FROM IEL LOG
SPWS  .MV    : SPONTANEOUS POTENTIAL [BASELINE 0 MV, SPRED]
SRESWS.OHMM  : SHALLOW RESISTIVITY [SNED]
~Params ----------------------------------------------------
PD  .                     GL : PERMANENT DATUM
EPD .FT                 3420 : ELEVATION PERMANENT DATUM
LMF .                     KB : LOG MEASURED FROM
DAPD.FT                   15 : FEET ABOVE PERMANENT DATUM
EKB .FT                 3435 : KELLY BUSHING
EGL .FT                 3420 : GROUND LEVEL
DATE.               06/02/64 : RUN DATE
RUN .                      2 : RUN NUMBER
DD  .FT                13163 : DEPTH DRILLER
DL  .FT                13169 : DEPTH LOGGER
BLI .FT                13168 : BOTTOM LOG INTERVAL
TLI .FT                 9963 : TOP LOG INTERVAL
CBD .FT                 1290 : CASING BOTTOM DRILLER
CBL .FT                 1290 : CASING BOTTOM LOGGER
BS  .IN                    9 : BIT SIZE
BSD .FT                13163 : BIT SIZE AT DEPTH
DFT .              LIME BASE : DRILLING FLUID TYPE
DFD .                    9.2 : DRILLING FLUID DENSITY
DFV .                    165 : DRILLING FLUID VISCOSITY
DFPH.                     13 : DRILLING FLUID PH
DFL .                      5 : DRILLING FLUID LOSS
RMF .OHMM               0.44 : RESISTIVITY MUD FILTRATE SAMPLE
MFST.DEGF                 82 : MUD FILTRATE SAMPLE TEMPERATURE
RMC .OHMM               0.97 : RESISTIVITY MUD CAKE
MCST.DEGF                 80 : MUD CAKE SAMPLE TEMPERATURE
RMB .OHMM               0.29 : RESISTIVITY MUD AT BHT
TCS .HRS                   2 : TIME CIRCULATED STOPPED
LUN .                   1576 : LOGGING UNIT NUMBER
LUL .                     DV : LOGGING UNIT LOCATION
ENGI.               WILLIAMS : RECORDING ENGINEER
WITN.               LONGMORE : WITNESSED BY
CLNT.                A2DTECH : CLIENT CODE
ORIG.            2" 5" PRINT : ORIGIN OF DATA
UWI .       100042203707W500 : UNIQUE WELL ID
DICO. A2D Technologies, Inc. : DIGITIZING COMPANY
~Other -----------------------------------------------------
~ASCII -----------------------------------------------------
# ...
 4700.00000    9.96460   12.65020   12.65020  142.27120  142.22530    7.03110    -999.25   93.75460   93.75460  911.30440    -999.25   81.76520   81.76520    7.03110    8.09480  -60.70850   -1.30680    8.09480
 4750.00000    9.96920   12.08490   12.08490   63.58540   62.50700   15.99820    -999.25   70.64540   70.64540  479.76710    -999.25   65.50700   65.50700   15.99820   16.60750  -62.61040   -2.86240   16.60750
 4800.00000    9.95790   11.76870   11.76870   35.56570   33.42510   29.91760    -999.25   68.32590   68.32590  442.64180    -999.25   50.88980   50.88980   29.91760   29.68640  -73.46230  -13.82290   29.68640
 4850.00000    9.97000   11.90060   11.90060  113.18460  106.60750    9.38020    -999.25   96.13140   96.13140 1500.46470    -999.25   90.06260   90.06260    9.38020   11.03990  -60.60470   -1.40200   11.03990
 4900.00000    9.96880   12.12670   12.12670  110.25450   99.36310   10.06410    -999.25   81.30860   81.30860  903.08410    -999.25   71.66980   71.66980   10.06410   11.23970  -60.76840   -1.72270   11.23970
 4950.00000    9.94630   11.49790   11.49790   82.17930   81.93300   12.20510    -999.25   77.57640   77.57640  732.66290   66.57380   67.36660   67.36660   12.20510   12.88730  -60.15930   -1.27290   12.88730
 5000.00000   10.00930   12.45430   12.45430   61.21170   59.47710   16.81320    -999.25   74.69670   74.69670  494.44140   62.46740   67.97410   67.97410   16.81320   16.66850  -62.63890   -3.91180   16.66850
 5050.00000   10.03110   12.71000   12.71000  118.57760  123.88040    8.07230    -999.25   79.07790   79.07790 1270.33220   84.79740   83.04720   83.04720    8.07230    9.88310  -60.00050   -1.59780    9.88310
 5100.00000    9.97960   11.75370   11.75370  125.25640  128.61240    7.77530    -999.25   77.63670   77.63670  757.38240   75.42370   77.47610   77.47610    7.77530    9.23050  -59.27490   -1.58190    9.23050
 5150.00000    9.96350   12.75320   12.75320  110.40610  107.33530    9.31660    -999.25   73.63440   73.63440  572.00610   79.31410   79.33780   78.76990    9.31660    9.63720  -59.46290   -1.74980    9.63720
 5200.00000    9.97830   11.49640   11.49640   33.78930   33.61470   29.74890    -999.25   65.96410   65.96410  487.26810   53.20530   56.05140   56.05140   29.74890   25.63000  -67.89660  -10.05440   25.63000
 5250.00000    9.97760   11.45850   11.45850   24.42530   24.02470   41.62390    -999.25   72.56570   72.56570  441.85060   41.40670   38.77460   38.77460   41.62390   35.31220  -80.71310  -22.74180   35.31220
 5300.00000    9.95620   11.32220   11.32220   88.87720   85.69930   11.66870    -999.25   80.84070   80.84070 1191.56570   75.86350   73.09520   75.99390   11.66870   13.12720  -59.06370   -0.96330   13.12720
 5350.00000   10.09070   11.57370   11.57370  121.93450  121.98540    8.19770    -999.25   90.77600   90.77600 1176.82920   88.00130   76.00750   76.00750    8.19770   10.25220  -62.16290   -3.45040   10.25220
 5400.00000   10.12560   10.46010   10.46010  108.73850  111.76060    8.94770    -999.25   86.61040   86.61040  965.67150   82.35700   82.18060   81.61020    8.94770   11.02370  -61.02200   -1.20190   11.02370
 5450.00000   10.16170   10.75400   10.75400   88.07670   85.84500   11.64890    -999.25   72.78420   72.78420  391.54410   72.65100   71.25320   71.90090   11.64890   12.49290  -61.74990   -1.71530   12.49290
 5500.00000   10.14000    9.45610    9.45610   26.82420   30.58440   32.69640    -999.25   74.31950   74.31950  569.97270   39.72300   38.13930   38.13930   32.69640   46.23540  -86.13180  -26.78850   46.23540
 5550.00000   10.21710   10.73110   10.73110  110.67620  110.55470    9.04530    -999.25   80.12960   80.12960 1884.14400   67.71230   66.67830   66.67830    9.04530   11.72730  -58.68090   -1.42220   11.72730
 5600.00000   10.28780   10.92020   10.92020   91.34740   79.76770   12.53640    -999.25   67.69160   67.69160 1722.99730   70.47020   71.55530   71.55530   12.53640   13.80460  -60.34550   -2.33530   13.80460
 5650.00000   10.18630   10.19770   10.19770   58.24480   62.69670   15.94980    -999.25   76.71370   76.71370  534.98550   71.66030   73.16450   73.16450   15.94980   20.21530  -60.38840   -2.36400   20.21530
 5700.00000   10.21480   10.40010   10.40010   99.96440  102.76330    9.73110    -999.25   88.97190   88.97190  606.57740   66.96360   67.04540   67.04540    9.73110   13.69820  -57.91930   -0.89890   13.69820
 5750.00000    9.79550   10.21480   10.21480   86.84260   88.79020   11.26250    -999.25   79.70380   79.70380  479.69170   67.47010   69.95770   69.95770   11.26250   15.27740  -57.24530   -1.22900   15.27740
 5800.00000   10.34880   10.17570   10.17570   91.06470   95.66080   10.45360    -999.25   79.03430   79.03430  614.68770   65.03590   66.10220   66.10220   10.45360   15.91540  -58.78450   -3.03120   15.91540
 5850.00000   10.39960    9.99370    9.99370   76.30880   75.65380   13.21810    -999.25   74.24050   74.24050  755.41660   60.06830   64.61310   64.61310   13.21810   13.64930  -57.59080   -1.38160   13.64930
 5900.00000   10.36980   10.03940   10.03940   69.37710   71.64400   13.95790    -999.25   64.98380   64.98380  637.38110   63.93010   60.74350   65.19510   13.95790   15.49190  -57.60560   -1.10920   15.49190
 5950.00000   10.44900   11.23050   11.23050   92.81450   93.07260   10.74430    -999.25   76.72420   76.72420 1024.37100   57.93180   57.72360   57.72360   10.74430   14.24170  -61.67710   -5.15720   14.24170
 6000.00000   10.44090   10.68800   10.68800  135.05880  136.49080    7.32650    -999.25  103.09690  103.09690  523.04890   68.81950   68.09670   67.81750    7.32650   12.10250  -59.57960   -3.00210   12.10250
 6050.00000   10.38670    9.63840    9.63840   56.76700   61.27980   16.31860    -999.25   75.05450   75.05450  538.80310   42.07980   43.38160   43.38160   16.31860   27.74770 -102.47480  -45.02170   27.74770
 6100.00000   10.44800   10.76970   10.76970   87.44300   85.72580   11.66510    -999.25   75.97870   75.97870  370.96810   72.32980   73.75170   73.75170   11.66510   13.50740  -58.27140   -1.82990   13.50740
 6150.00000    9.97870   10.60730   10.60730   68.55090   67.24770   14.87040    -999.25   70.73490   70.73490  411.16740    -999.25   78.37020   78.37020   14.87040   16.98620  -57.04040   -1.11430   16.98620
 6200.00000   10.48970   10.24460   10.24460   96.36090   94.83980   10.54410    -999.25   76.80880   76.80880 1725.84840    -999.25   97.78960   97.78960   10.54410   13.78190  -58.09510   -1.60390   13.78190
 6250.00000   10.48020   10.46590   10.46590   83.86590   82.90640   12.06180    -999.25   77.79070   77.79070  491.39940    -999.25   93.14760   93.14760   12.06180   14.86000  -58.68900   -1.63270   14.86000
 6300.00000   10.49270   10.72300   10.72300   85.64610   84.00400   11.90420    -999.25   76.40350   76.40350  642.54000    -999.25   93.51510   93.51510   11.90420   13.82940  -59.41810   -1.79220   13.82940
 6350.00000   10.23710   10.55460   10.55460   80.31080   79.31160   12.60850    -999.25   78.93090   78.93090 2000.00000    -999.25   93.25070   93.25070   12.60850   15.17110  -60.30860   -1.89010   15.17110
 6400.00000   10.40280   10.38290   10.38290   86.68450   85.69350   11.66950    -999.25   78.41850   78.41850 2000.00000    -999.25  100.94160  100.94160   11.66950   14.11050  -60.60410   -1.39300   14.11050
 6450.00000   10.84340   10.21180   10.21180   80.32130   79.40420   12.59380    -999.25   75.91210   75.91210 2000.00000    -999.25   99.98910   99.98910   12.59380   15.76260  -60.88710   -2.16150   15.76260
 6500.00000   10.12880   10.30080   10.30080   91.91890   90.69800   11.02560    -999.25   83.84400   83.84400 2000.00000    -999.25   98.12570   98.12570   11.02560   14.15040  -61.00610   -2.94030   14.15040
 6550.00000   10.67480   10.19890   10.19890   72.89090   71.28090   14.02900    -999.25   86.58800   86.58800 2000.00000    -999.25  119.64560  119.64560   14.02900   18.97730  -58.56800   -1.16200   18.97730
 6600.00000   10.10800   10.07490   10.07490   57.04180   55.37040   18.06020    -999.25   78.21410   78.21410 2000.00000    -999.25  107.04090  107.04090   18.06020   23.34850  -58.99190   -2.21300   23.34850
