~Version ---------------------------------------------------
VERS. 2.0 : CWLS log ASCII Standard -VERSION 2.0
WRAP.  NO : ONE LINE PER DEPTH STEP
~Well ------------------------------------------------------
STRT.F                        450.0 : START DEPTH
STOP.F                       6550.0 : STOP DEPTH
STEP.F                     50.00000 : STEP LENGTH
NULL.                       -999.25 : NULL VALUE
COMP.      CHEVRON STANDARD LIMITED : COMPANY
WELL. CHEVRON GIFT LAKE 11-11-78-12 : WELL
FLD .                               : FIELD
LOC .                               : LOCATION
CTRY.                        CANADA : COUNTRY
SRVC.                  Schlumberger : SERVICE COMPANY
DATE.                   09-Mar-1976 : LOGDATE
PROV.                       Alberta : PROVINCE
UWI .              100111107812W500 : UNIQUE WELL ID
SLAT.WGS84                 55.74751 : SURFACE LATITUDE
SLON.WGS84                -115.7501 : SURFACE LONGITUDE
~Curve Information -----------------------------------------
DEPT.F                 : 
CALS.IN   60 280 50 00 : CALIPER FROM SONIC LOG
DT  .US/F 60 500 00 00 : DELTA-T (INTERVAL TRANSIT TIME)
GRS .GAPI 60 310 01 00 : GAMMA RAY FROM SONIC LOG
ILD .OHMM 07 120 46 00 : INDUCTION DEEP RESISTIVITY
ILM .OHMM 07 120 44 00 : INDUCTION MEDIUM RESISTIVITY
DFL .OHMM 07 220 01 00 : DIGITAL FOCUSED LATEROLOG
SPR .MV   07 010 01 00 : SPONTANEOUS POTENTIAL FROM RESISTIVITY LOG
GR  .GAPI 99 310 01 00 : GAMMA RAY FROM CEMENT BOND
~Params ----------------------------------------------------
PD  .                     GL : PERMANENT DATUM
EPD .FT               2302.2 : ELEVATION PERMANENT DATUM
LMF .                     KB : LOG MEASURED FROM
DAPD.FT                 12.4 : FEET ABOVE PERMANENT DATUM
EKB .FT               2314.6 : KELLY BUSHING
EGL .FT               2302.2 : GROUND LEVEL
DATE.               03/09/76 : RUN DATE
RUN .                      1 : RUN NUMBER
DD  .FT                 6585 : DEPTH DRILLER
DL  .FT                 6586 : DEPTH LOGGER
BLI .FT                 6580 : BOTTOM LOG INTERVAL
TLI .FT                  716 : TOP LOG INTERVAL
CBD .FT                  717 : CASING BOTTOM DRILLER
CBL .FT                  716 : CASING BOTTOM LOGGER
BS  .IN                7.875 : BIT SIZE
BSD .FT                 6585 : BIT SIZE AT DEPTH
DFT .               GEL CHEM : DRILLING FLUID TYPE
DFD .                    9.3 : DRILLING FLUID DENSITY
DFV .                     70 : DRILLING FLUID VISCOSITY
DFPH.                    9.5 : DRILLING FLUID PH
DFL .                      9 : DRILLING FLUID LOSS
MSS .               FLOWLINE : MUD SAMPLE SOURCE
RMS .OHMM               0.61 : RESISTIVITY MUD SAMPLE
MST .DEGF                 57 : MUD SAMPLE TEMPERATURE
RMF .OHMM               0.52 : RESISTIVITY MUD FILTRATE SAMPLE
MFST.DEGF                0.9 : MUD FILTRATE SAMPLE TEMPERATURE
RMC .OHMM                0.9 : RESISTIVITY MUD CAKE
MCST.DEGF                 65 : MUD CAKE SAMPLE TEMPERATURE
TCS .HRS                 1.5 : TIME CIRCULATED STOPPED
LUN .                   7635 : LOGGING UNIT NUMBER
LUL .                    EDM : LOGGING UNIT LOCATION
ENGI.                SWANSON : RECORDING ENGINEER
WITN.                   WONG : WITNESSED BY
CLNT.                A2DTECH : CLIENT CODE
ORIG.            2" 5" PRINT : ORIGIN OF DATA
UWI .       100111107812W500 : UNIQUE WELL ID
DICO. A2D Technologies, Inc. : DIGITIZING COMPANY
~Other -----------------------------------------------------
~ASCII -----------------------------------------------------
# ...
 4450.00000    8.59790   52.69560   12.54890   35.01600   32.58230   62.33000  -79.88990    -999.25
 4500.00000    7.76960   58.97360   11.12580    6.56990    9.95510   45.44610  -76.19000    -999.25
 4550.00000    7.76930   55.40220   17.36340   10.13190   13.90940   45.60300  -38.00490    -999.25
 4600.00000    8.75650   74.62760   88.69500    3.70970    3.28640    4.34250   -6.90930    -999.25
 4650.00000    7.71740   58.89940   32.76310    3.99450    3.18170    9.51450  -46.31750    -999.25
 4700.00000    7.99760   50.75100   14.95230   19.22720   30.15380   95.65090  -68.15300    -999.25
 4750.00000    7.98910   56.79520   33.01640    6.88080    7.89160   16.27530  -67.53130    -999.25
 4800.00000    7.56900   39.75150   14.07150   13.51640   15.82760   37.27320  -85.26280    -999.25
 4850.00000    8.18760   60.40180   50.90060    5.48940    5.92200    9.70120  -44.35350    -999.25
 4900.00000    8.03810   52.81990   21.49470    8.83560    9.68910   41.29340 -100.84830    -999.25
 4950.00000    8.13040   59.15760   37.51790   24.75720   16.39670   23.75850  -56.36720    -999.25
 5000.00000    8.30240   70.61250   55.50830    8.77030    7.39330    9.96890  -52.00080    -999.25
 5050.00000    9.56420   95.91070   75.19370    3.96800    3.20520    7.28840  -53.51080    -999.25
 5100.00000    9.97370  101.81510  101.53020    2.18540    2.05830    2.68870  -36.71430    -999.25
 5150.00000   10.53860   86.75920   87.96980    3.23780    2.92370    4.23260  -41.27770    -999.25
 5200.00000   11.03100   93.28780   94.44710    2.60050    2.37660    3.19320  -59.14510    -999.25
 5250.00000   11.78150   94.20150   91.73850    2.63430    2.36360    3.05210  -34.79530    -999.25
 5300.00000   10.00880   96.02410  101.51220    2.35300    2.25080    3.02690  -10.97540    -999.25
 5350.00000   11.01610   90.22250   87.72640    2.68270    2.45990    3.15450   -6.20220    -999.25
 5400.00000   11.82300   92.74740   85.39620    2.70690    2.49110    3.22140  -20.67580    -999.25
 5450.00000   11.44750   95.07640   98.19690    2.45060    2.21140    2.82010  -26.76000    -999.25
 5500.00000   10.47800   82.05580   71.10310    3.97790    3.62730    4.66390  -24.99610    -999.25
 5550.00000   11.11120   90.22620   73.42010    2.93770    2.62850    3.35400  -40.25470    -999.25
 5600.00000   11.23530   88.27950   80.05060    3.04470    2.95410    3.61420  -53.19570    -999.25
 5650.00000   10.94940   95.46020   92.19410    2.39920    2.23490    2.79560  -52.39730    -999.25
 5700.00000    8.16920   74.67300   64.06090    6.70770    5.65290    7.40500  -41.52440    -999.25
 5750.00000    8.14680   70.95870   55.89850    6.39220    6.09280    8.79220  -28.11670    -999.25
 5800.00000   10.51060   92.22190   85.40010    2.88030    2.54190    3.50630  -64.21340    -999.25
 5850.00000   12.15750   94.90770   84.48340    2.50030    2.17840    3.03470  -75.30030    -999.25
 5900.00000   11.27850   88.96830   87.19680    2.41540    2.28810    3.12200  -53.12540    -999.25
 5950.00000   11.55280   88.32090   80.84330    2.92030    2.45180    3.27140  -58.16080    -999.25
 6000.00000   10.30260   78.73550   72.37190    3.47800    4.14990    3.64000  -54.30740    -999.25
 6050.00000    9.60250   67.54980   44.68680   10.36870   13.36720   20.93230  -35.47590    -999.25
 6100.00000    8.93820   58.84010   30.90040    9.81660   10.80930   17.54290  -26.67600    -999.25
 6150.00000    8.76860   63.80760   45.90190    6.33210    6.85640    5.20690  -16.17240    -999.25
 6200.00000    9.67570   77.39230   78.62680    4.58630    4.05730    4.83350  -36.99000    -999.25
 6250.00000    8.87150   71.88370   53.65610    5.98050    5.66300    8.04880  -22.00230    -999.25
 6300.00000    8.30340   55.52380   14.92410   12.87000   10.92840   21.66420  -57.99050    -999.25
 6350.00000    8.30820   53.55280   18.87940   23.09380   17.82590   30.03320  -28.32820    -999.25
 6400.00000    8.19500   57.96740   22.95400   25.04460   18.67350   40.71200  -22.25000    -999.25
 6450.00000    8.12270   65.60150   71.77640   11.05220    8.56330   20.08170  -24.85250    -999.25
 6500.00000    8.15100   73.62820   83.41370    6.72510    9.42870   21.13740  -30.82180    -999.25
 6550.00000    8.20230   88.23260   89.75370    5.95160    4.13510    3.34300  -27.31570    -999.25
