~Version ---------------------------------------------------
VERS.      2.0 : CWLS log ASCII Standard -VERSION 2.0
WRAP.       NO : One line per depth step
CREA. 10/19/17 : LAS Creation Date
~Well ------------------------------------------------------
STRT.FT                     1150.0 : START DEPTH
STOP.FT                    11800.0 : STOP DEPTH
STEP.FT                   50.00000 : STEP LENGTH
NULL.                      -999.25 : NULL VALUE
COMP.         PETROFINA CANADA LTD : COMPANY
WELL. PCI AMMIN ECONOMY 11-15-68-2 : WELL
FLD .                              : FIELD
LOC .                              : LOCATION
CTRY.                       CANADA : COUNTRY
SRVC.                      Unknown : SERVICE COMPANY
DATE.                  01-Jan-1900 : LOGDATE
PROV.                      Alberta : PROVINCE
UWI .             100111506802W600 : UNIQUE WELL ID
SLAT.WGS84                54.88852 : SURFACE LATITUDE
SLON.WGS84               -118.2198 : SURFACE LONGITUDE
~Curve Information -----------------------------------------
DEPT    .FT    : Depth Curve
CALDED  .IN    : CALIPER FROM DENSITY LOG [ADJ.TO RESISTIVITY LOG]
CALSED  .IN    : CALIPER FROM SONIC LOG [ADJ.TO RESISTIVITY LOG]
CALWS   .IN    : CALIPER [CALSED]
CONDWS  .MMHO  : CONDUCTIVITY [1000/DRESWS]
DCORWS  .G/C3  : DENSITY CORRECTION [DRHOED]
DENWS   .G/C3  : FORMATION BULK DENSITY [CALC. FROM DPOLSWS, M=2.71, F=1.00]
DPHILSED.V/V   : DENSITY POROSITY LIMESTONE [ASSUMED, M=2.71, F=1.00] FROM DENSITY LOG [ADJ.TO RESISTIVITY LOG]
DPHISSED.V/V   : DENSITY POROSITY SANDSTONE [ASSUMED, M=2.65, F=1.00] FROM DENSITY LOG [ADJ.TO RESISTIVITY LOG]
DPOLSWS .V/V   : DENSITY POROSITY LIMESTONE [DPHISSED CONVERTED TO LIMESTONE MATRIX, M=2.71, F=1.00 SPL.TO DPHILSED @ 6552']
DRESWS  .OHMM  : DEEP RESISTIVITY [ILDED]
DRHOED  .G/C3  : DENSITY CORRECTION FROM DENSITY LOG [ADJ.TO RESISTIVITY LOG]
DTED    .US/F  : DELTA TIME FROM SONIC LOG [ADJ.TO RESISTIVITY LOG]
DTWS    .US/F  : COMPRESSIONAL SONIC [DTED]
GRDED   .GAPI  : GAMMA RAY FROM DENSITY LOG [ADJ.TO RESISTIVITY LOG]
GRSED   .GAPI  : GAMMA RAY FROM SONIC LOG [ADJ.TO RESISTIVITY LOG]
GRWS    .GAPI  : GAMMA RAY [GRSED SPL.TO GRDED @ 11698']
ILDED   .OHMM  : DEEP INDUCTION FROM RESISTIVITY LOG
ILMED   .OHMM  : MEDIUM INDUCTION FROM RESISTIVITY LOG
LL8ED   .OHMM  : LATEROLOG-8 FROM RESISTIVITY LOG
MRESWS  .OHMM  : MEDIUM RESISTIVITY [ILMED]
NPHILSED.V/V   : NEUTRON POROSITY LIMESTONE FROM DENSITY LOG [ADJ.TO RESISTIVITY LOG]
NPHISSED.V/V   : NEUTRON POROSITY SANDSTONE FROM DENSITY LOG [ADJ.TO RESISTIVITY LOG]
NPOLSWS .V/V   : NEUTRON POROSITY LIMESTONE [NPHISSED MATRIX (SLB) CONVERSION FOR LIMESTONE, SPL.TO NPHILSED @ 6552']
RHOBED  .G/C3  : BULK DENSITY FROM DENSITY LOG [ADJ.TO RESISTIVITY LOG]
SPRED   .MV    : SPONTANEOUS POTENTIAL FROM RESISTIVITY LOG
SPWS    .MV    : SPONTANEOUS POTENTIAL [BASELINE 0 MV, SPRED]
SRESWS  .OHMM  : SHALLOW RESISTIVITY [LL8ED]
~Params ----------------------------------------------------
PD  .                     GL : PERMANENT DATUM
EPD .FT               2259.3 : ELEVATION PERMANENT DATUM
LMF .                     KB : LOG MEASURED FROM
DAPD.FT                 13.7 : FEET ABOVE PERMANENT DATUM
EKB .FT                 2273 : KELLY BUSHING
EGL .FT               2259.3 : GROUND LEVEL
DATE.               10/12/76 : RUN DATE
RUN .                      1 : RUN NUMBER
DD  .FT                11825 : DEPTH DRILLER
DL  .FT                11801 : DEPTH LOGGER
BLI .FT                11795 : BOTTOM LOG INTERVAL
TLI .FT                 1228 : TOP LOG INTERVAL
CBD .FT                 1232 : CASING BOTTOM DRILLER
CBL .FT                 1228 : CASING BOTTOM LOGGER
BS  .IN                 8.75 : BIT SIZE
BSD .FT                11825 : BIT SIZE AT DEPTH
DFT .                    GEL : DRILLING FLUID TYPE
DFD .                    8.9 : DRILLING FLUID DENSITY
DFV .                    150 : DRILLING FLUID VISCOSITY
DFPH.                   10.5 : DRILLING FLUID PH
DFL .                    5.8 : DRILLING FLUID LOSS
MSS .               FLOWLINE : MUD SAMPLE SOURCE
RMF .OHMM               0.71 : RESISTIVITY MUD FILTRATE SAMPLE
MFST.DEGF                 76 : MUD FILTRATE SAMPLE TEMPERATURE
RMB .OHMM               0.28 : RESISTIVITY MUD AT BHT
TCS .HRS                 4.5 : TIME CIRCULATED STOPPED
LUN .                   7803 : LOGGING UNIT NUMBER
LUL .                     OC : LOGGING UNIT LOCATION
ENGI.                STADNYK : RECORDING ENGINEER
WITN.                  CLARK : WITNESSED BY
CLNT.                A2DTECH : CLIENT CODE
ORIG.          1" 2.5" PRINT : ORIGIN OF DATA
UWI .       100111506802W600 : UNIQUE WELL ID
DICO. A2D Technologies, Inc. : DIGITIZING COMPANY
~Other -----------------------------------------------------
DI-LL-FDC-CNL-BHC LOG RUN.
~ASCII -----------------------------------------------------
# ...
 3750.00000   14.46300   10.54920   10.54920   85.20500    0.17910    2.15290    -999.25    0.30130    0.32580   11.73640    0.17910   79.88850   79.88850  120.92680  103.94890  103.94890   11.73640    9.83450   30.86410    9.83450    -999.25    0.26070    0.21670    2.15860 -121.01270   -5.12720   30.86410
 3800.00000   15.00000   13.89240   13.89240  102.42470    0.20490    2.01760    -999.25    0.38330    0.40490    9.76350    0.20490   79.77380   79.77380   93.08110   86.62430   86.62430    9.76350    7.73890   24.53990    7.73890    -999.25    0.48830    0.44800    2.01050 -119.64000   -4.04410   24.53990
 3850.00000   13.22300   12.41270   12.41270  155.62990    0.27070    2.14490    -999.25    0.30610    0.33040    6.42550    0.27070   90.30800   90.30800  114.54280   91.67740   91.67740    6.42550    5.93140   19.19150    5.93140    -999.25    0.45300    0.41130    2.12920 -119.06360   -3.75920   19.19150
 3900.00000   15.01130   11.35930   11.35930  177.62410    0.15660    1.90750    -999.25    0.45000    0.46930    5.63570    0.15660   85.26830   85.26830  130.49570  121.65610  121.65610    5.63570    4.68160   23.67140    4.68160    -999.25    0.45120    0.40960    1.60830 -118.49380   -3.47890   23.67140
 3950.00000   11.88940    9.69460    9.69460  122.20610    0.26610    2.24280    -999.25    0.24680    0.27320    8.18290    0.26610   86.81240   86.81240  127.70630  108.49940  108.49940    8.18290    7.81120   25.20950    7.81120    -999.25    0.31500    0.27110    2.24940 -119.41020   -4.52750   25.20950
 4000.00000   10.56480   10.02550   10.02550   90.55180    0.14090    2.43620    -999.25    0.12960    0.16010   11.04340    0.14090   77.98480   77.98480  136.70000  126.90630  126.90630   11.04340   10.48560   31.61610   10.48560    -999.25    0.26040    0.21640    2.44380 -119.13990   -4.19570   31.61610
 4050.00000   11.40020   10.29680   10.29680  105.04250    0.25840    2.32400    -999.25    0.19760    0.22570    9.52000    0.25840   80.79150   80.79150  113.67050  100.66090  100.66090    9.52000    8.93250   25.80440    8.93250    -999.25    0.26700    0.22300    2.33580 -117.85250   -2.84680   25.80440
 4100.00000   10.67680   10.25730   10.25730  151.09620    0.24990    2.13980    -999.25    0.30920    0.33340    6.61830    0.24990   89.29980   89.29980  142.05550  135.20710  135.20710    6.61830    6.00170   19.54020    6.00170    -999.25    0.37180    0.32840    2.13790 -117.91290   -2.85700   19.54020
 4150.00000    9.72880    9.63520    9.63520   62.12610    0.13700    2.41720    -999.25    0.14110    0.17120   16.10660    0.13700   79.92610   79.92610  105.02070   91.34950   91.34950   16.10660   15.04040   49.13340   15.04040    -999.25    0.26190    0.21800    2.42100 -129.49490  -14.73320   49.13340
 4200.00000   11.82380   10.35930   10.35930   89.77060    0.28870    2.44710    -999.25    0.12300    0.15380   11.13950    0.28870   76.01350   76.01350  126.91920  113.00910  113.00910   11.13950   10.96730   37.36530   10.96730    -999.25    0.26970    0.22570    2.45530 -118.31810   -3.85260   37.36530
 4250.00000   12.17370   10.56580   10.56580  139.84250    0.23950    2.10150    -999.25    0.33240    0.35580    7.15090    0.23950   87.94330   87.94330  142.36740  146.55760  146.55760    7.15090    6.77650   21.95560    6.77650    -999.25    0.37120    0.32780    2.08410 -116.97680   -2.80550   21.95560
 4300.00000   12.35780   10.83410   10.83410  141.43870    0.21070    2.15870    -999.25    0.29770    0.32240    7.07040    0.21070   86.69960   86.69960  135.78570  135.03530  135.03530    7.07040    6.47710   20.63900    6.47710    -999.25    0.42250    0.38010    2.15490 -117.06800   -3.19090   20.63900
 4350.00000   11.70710   11.24580   11.24580  272.16070    0.24980    2.03920    -999.25    0.37020    0.39230    3.67430    0.24980   98.40790   98.40790  145.04270  152.81680  152.81680    3.67430    3.45350   12.31570    3.45350    -999.25    0.41230    0.36970    2.03000 -115.30670   -1.72580   12.31570
 4400.00000   12.38050   11.07810   11.07810  261.91160    0.19840    2.12590    -999.25    0.31770    0.34160    3.81810    0.19840   98.53380   98.53380  150.45070  140.14980  140.14980    3.81810    3.70070   12.86500    3.70070    -999.25    0.40460    0.36180    2.12630 -115.68120   -2.39450   12.86500
 4450.00000   12.22680   10.32550   10.32550  170.72130    0.21820    2.07200    -999.25    0.35030    0.37310    5.85750    0.21820   91.44910   91.44910  123.94810  123.68540  123.68540    5.85750    5.67320   17.77840    5.67320    -999.25    0.37000    0.32660    2.07190 -116.90880   -3.91820   17.77840
 4500.00000   12.67870   10.72440   10.72440  227.42780    0.21530    2.04280    -999.25    0.36800    0.39020    4.39700    0.21530   92.72460   92.72460  137.83820  129.08730  129.08730    4.39700    4.11380   13.84210    4.11380    -999.25    0.44750    0.40570    2.03700 -114.32130   -1.62500   13.84210
 4550.00000   12.29550   10.82880   10.82880  190.74470    0.20350    2.20440    -999.25    0.27010    0.29570    5.24270    0.20350   85.53330   85.53330  133.39080  121.73960  121.73960    5.24270    5.10080   15.79340    5.10080    -999.25    0.36830    0.32480    2.21090 -115.48070   -3.01810   15.79340
 4600.00000   11.25560   10.52790   10.52790  198.42060    0.24210    2.26130    -999.25    0.23560    0.26240    5.03980    0.24210   91.32450   91.32450  134.61160  119.46420  119.46420    5.03980    4.70140   15.92010    4.70140    -999.25    0.36940    0.32600    2.27700 -116.26850   -3.90940   15.92010
 4650.00000   11.27280   10.25690   10.25690  147.57660    0.27300    2.15630    -999.25    0.29920    0.32380    6.77880    0.27300   88.36440   88.36440  137.24030  129.04950  129.04950    6.77880    6.48240   21.62230    6.48240    -999.25    0.36790    0.32450    2.16530 -115.68650   -3.43030   21.62230
 4700.00000   10.97090    9.94750    9.94750  110.39360    0.31860    2.32280    -999.25    0.19830    0.22640    9.05850    0.31860   83.99490   83.99490  179.91190  158.32790  158.32790    9.05850    8.57960   28.84040    8.57960    -999.25    0.30130    0.25730    2.33760 -116.23160   -4.07890   28.84040
 4750.00000    8.92630    8.55600    8.55600  121.10500    0.11130    2.41490    -999.25    0.14250    0.17260    8.25730    0.11130   75.35330   75.35330   33.33020   27.30090   27.30090    8.25730    9.05390   32.71190    9.05390    -999.25    0.17420    0.13120    2.41580 -153.84330  -41.94390   32.71190
 4800.00000    9.08060    8.79670    8.79670  120.44120    0.09830    2.49500    -999.25    0.09400    0.12570    8.30310    0.09830   76.77760   76.77760   45.60930   45.66700   45.66700    8.30310    9.73330   29.90640    9.73330    -999.25    0.21660    0.17300    2.49580 -152.85430  -41.71170   29.90640
 4850.00000   11.19960   11.54860   11.54860  260.56590    0.13060    2.08700    -999.25    0.34120    0.36430    3.83780    0.13060  116.87690  116.87690  123.29630  107.19390  107.19390    3.83780    3.32230   14.25300    3.32230    -999.25    0.43450    0.39240    2.05890 -112.06120   -1.64470   14.25300
 4900.00000   12.38830   11.39530   11.39530  101.23250    0.18270    1.88020    -999.25    0.46660    0.48530    9.87830    0.18270  116.84770  116.84770  107.18020   93.57170   93.57170    9.87830    7.80700   51.22760    7.80700    -999.25    0.48920    0.44890    1.71340 -116.00430   -6.02700   51.22760
 4950.00000   10.01930   10.65410   10.65410  184.58020    0.04380    2.45080    -999.25    0.12070    0.15160    5.41770    0.04380   78.41990   78.41990   75.52960   71.24200   71.24200    5.41770    5.00990   25.62700    5.00990    -999.25    0.29690    0.25290    2.45800 -116.83440   -7.29920   25.62700
 5000.00000   10.02640   10.21290   10.21290   63.39060    0.08980    2.55540    -999.25    0.05740    0.09040   15.77520    0.08980   74.87270   74.87270   93.78860   85.45560   85.45560   15.77520   16.80490   45.82130   16.80490    -999.25    0.21740    0.17380    2.55470 -121.82220  -12.72620   45.82130
