~Version ---------------------------------------------------
VERS.      2.0 : CWLS log ASCII Standard -VERSION 2.0
WRAP.       NO : One line per depth step
CREA. 08/01/17 : LAS Creation Date
~Well ------------------------------------------------------
STRT.FT                          300.0 : START DEPTH
STOP.FT                        13100.0 : STOP DEPTH
STEP.FT                       50.00000 : STEP LENGTH
NULL.                          -999.25 : NULL VALUE
COMP.      ANADARKO CANADA CORPORATION : COMPANY
WELL.      NORCEN ET AL FERR 9-23-40-9 : WELL
FLD .                               WC : FIELD
LOC .                                  : LOCATION
CTRY.                           CANADA : COUNTRY
SRVC. Schlumberger Well Surveying Corp : SERVICE COMPANY
DATE.                      17-Jun-1956 : LOGDATE
PROV.                          Alberta : PROVINCE
UWI .                 102092304009W500 : UNIQUE WELL ID
SLAT.WGS84                    52.45946 : SURFACE LATITUDE
SLON.WGS84                   -115.1788 : SURFACE LONGITUDE
~Curve Information -----------------------------------------
DEPT  .FT     : Depth Curve
CALWS .IN     : CALIPER [MCALED]
CONDWS.MMHO   : CONDUCTIVITY [1000/DRESWS]
DRESWS.OHMM   : DEEP RESISTIVITY [LNED]
GRNED .UR/HR  : GAMMA RAY FROM NEUTRON LOG
GRWS  .GAPI   : GAMMA RAY [GRNED WAS RESCALED FROM 0-15 UR/HR TO 0-150 PSEUDO API UNIT]
LNED  .OHMM   : 64 INCH LONG NORMAL RESISTIVITY FROM EL
LT18ED.OHMM   : LATERAL 18'8" FROM EL
MCALED.IN     : CALIPER FROM MICRO LOG
MINVED.OHMM   : MICROINVERSE RESISTIVITY FROM MICROLOG
MNORED.OHMM   : MICRONORMAL RESISTIVITY FROM MICROLOG
NEUTED.CU     : NEUTRON FROM GAMMA RAY NEUTRON LOG
NEUTWS.CU     : NEUTRON[NEUTED]
SNED  .OHMM   : 16 INCH SHORT NORMAL RESISTIVITY FROM EL
SPMED .MV     : SPONTANEOUS POTENTIAL FROM MICROLOG
SPRED .MV     : SPONTANEOUS POTENTIAL FROM RESISTIVITY LOG
SPWS  .MV     : SPONTANEOUS POTENTIAL [BASELINE 0 MV] [SPRED]
SRESWS.OHMM   : SHALLOW RESISTIVITY [SNED]
~Params ----------------------------------------------------
LMF .                     KB : LOG MEASURED FROM
DMF .                     KB : DRILLING MEASURED FROM
EGL .FT                 3455 : GROUND LEVEL
DATE.               06/17/56 : RUN DATE
RUN .                      5 : RUN NUMBER
DD  .FT                13102 : DEPTH DRILLER
DL  .FT                13103 : DEPTH LOGGER
BLI .FT                13100 : BOTTOM LOG INTERVAL
TLI .FT                11000 : TOP LOG INTERVAL
BS  .IN                    9 : BIT SIZE
BSD .FT                13102 : BIT SIZE AT DEPTH
DFT .              LIME BASE : DRILLING FLUID TYPE
DFD .                   10.9 : DRILLING FLUID DENSITY
DFV .                     98 : DRILLING FLUID VISCOSITY
DFPH.                     13 : DRILLING FLUID PH
DFL .                    4.4 : DRILLING FLUID LOSS
MSS .            CIRCULATION : MUD SAMPLE SOURCE
RMS .OHMM               0.46 : RESISTIVITY MUD SAMPLE
MST .DEGF                 61 : MUD SAMPLE TEMPERATURE
RMF .OHMM               0.21 : RESISTIVITY MUD FILTRATE SAMPLE
MFST.DEGF                 79 : MUD FILTRATE SAMPLE TEMPERATURE
RMC .OHMM               0.74 : RESISTIVITY MUD CAKE
MCST.DEGF                 68 : MUD CAKE SAMPLE TEMPERATURE
TLAB.HRS                   3 : TIME LOGGER AT BOTTOM
LUN .                   1729 : LOGGING UNIT NUMBER
LUL .                     RD : LOGGING UNIT LOCATION
ENGI.                BOSWELL : RECORDING ENGINEER
WITN.                 DUNCAN : WITNESSED BY
CLNT.                A2DTECH : CLIENT CODE
ORIG.       1" 5" 25" PRINT0 : ORIGIN OF DATA
UWI .       102092304009W500 : UNIQUE WELL ID
DICO. A2D Technologies, Inc. : DIGITIZING COMPANY
~Other -----------------------------------------------------
~ASCII -----------------------------------------------------
# ...
 2350.00000    9.51310   23.65590   42.27280    5.16250   51.62500   42.27280   35.80990    9.51310    4.85380    7.92050  211.23330  211.23330   33.10360    -999.25  -40.99840  -21.56250   33.10360
 2400.00000   10.48660   35.07890   28.50720    5.20000   52.00000   28.50720   26.11050   10.48660   10.55560    8.28210  301.12220  301.12220   20.67420    -999.25  -32.67800  -13.30240   20.67420
 2450.00000   10.17190   32.19440   31.06130    5.53750   55.37500   31.06130   28.04800   10.17190   12.97340   12.97340  252.49380  252.49380   20.52820    -999.25  -37.71140  -18.39610   20.52820
 2500.00000    9.89930   43.32400   23.08190    6.73750   67.37500   23.08190   14.77410    9.89930    8.73340    5.86420  142.76810  142.76810   12.50510    -999.25  -27.61840   -8.36340   12.50510
 2550.00000    9.32680   26.69040   37.46660    5.12500   51.25000   37.46660   32.86360    9.32680   23.90790   23.90790  198.87780  198.87780   25.26700    -999.25  -44.72730  -25.53270   25.26700
 2600.00000   11.28320   70.03140   14.27930    7.98720   79.87200   14.27930   20.23210   11.28320    2.50810    3.67480  147.56380  147.56380    8.52330    -999.25  -24.55400   -5.41970    8.52330
 2650.00000    -999.25   73.86830   13.53760    5.12500   51.25000   13.53760    3.10560    -999.25    -999.25    -999.25  195.13720  195.13720    7.19220    -999.25  -27.50420   -8.43020    7.19220
 2700.00000    -999.25   47.44240   21.07820    6.51250   65.12500   21.07820    2.09800    -999.25    -999.25    -999.25  188.61730  188.61730   13.10810    -999.25  -24.27030   -5.25660   13.10810
 2750.00000    -999.25  163.40670    6.11970    7.23080   72.30800    6.11970  159.80890    -999.25    -999.25    -999.25  113.75970  113.75970   17.22970    -999.25  -23.01200   -4.05860   17.22970
 2800.00000    -999.25   79.00330   12.65770    8.20990   82.09900   12.65770   14.36430    -999.25    -999.25    -999.25   88.85550   88.85550    6.85260    -999.25  -25.89320   -7.00010    6.85260
 2850.00000    -999.25   76.45440   13.07970    6.27500   62.75000   13.07970   12.37430    -999.25    -999.25    -999.25  184.78800  184.78800    7.51560    -999.25  -26.59640   -7.76360    7.51560
 2900.00000    -999.25   61.49570   16.26130    6.63750   66.37500   16.26130    7.01710    -999.25    -999.25    -999.25  151.48410  151.48410    7.91300    -999.25  -24.91100   -6.13860    7.91300
 2950.00000    -999.25   71.61270   13.96400    6.45000   64.50000   13.96400   14.35110    -999.25    -999.25    -999.25  153.27750  153.27750    8.38530    -999.25  -26.92770   -8.21560    8.38530
 3000.00000    -999.25  139.12080    7.18800    7.46150   74.61500    7.18800   12.58440    -999.25    -999.25    -999.25  108.41990  108.41990    6.87330    -999.25  -28.51590   -9.86410    6.87330
 3050.00000    -999.25  104.22530    9.59460    6.37500   63.75000    9.59460    9.46180    -999.25    -999.25    -999.25  268.95260  268.95260    7.79280    -999.25  -26.29930   -7.70780    7.79280
 3100.00000    -999.25   95.16290   10.50830    8.06170   80.61700   10.50830   16.31110    -999.25    -999.25    -999.25  134.87120  134.87120    9.45880    -999.25  -28.96040  -10.42920    9.45880
 3150.00000    -999.25   80.61270   12.40500    7.10260   71.02600   12.40500   22.22840    -999.25    -999.25    -999.25  113.25850  113.25850   12.38740    -999.25  -36.50600  -18.03510   12.38740
 3200.00000    -999.25   79.56970   12.56760    7.62820   76.28200   12.56760   13.87570    -999.25    -999.25    -999.25  157.26310  157.26310   10.79580    -999.25  -28.82530  -10.41480   10.79580
 3250.00000    -999.25   81.54280   12.26350    4.79010   47.90100   12.26350    9.19010    -999.25    -999.25    -999.25  188.90270  188.90270   10.64310    -999.25  -28.16900   -9.81880   10.64310
 3300.00000    -999.25  193.04270    5.18020    8.13580   81.35800    5.18020    6.27690    -999.25    -999.25    -999.25   69.20670   69.20670    3.25090    -999.25  -25.03010   -6.74020    3.25090
 3350.00000    -999.25  230.11250    4.34570    7.03850   70.38500    4.34570    6.92660    -999.25    -999.25    -999.25  130.29930  130.29930    4.12370    -999.25  -24.13940   -5.90980    4.12370
 3400.00000    -999.25  124.68830    8.02000    7.38460   73.84600    8.02000   25.48790    -999.25    -999.25    -999.25   88.46450   88.46450    5.31720    -999.25  -24.48800   -6.31870    5.31720
 3450.00000    -999.25   43.10680   23.19820    5.67500   56.75000   23.19820   31.56260    -999.25    -999.25    -999.25  205.11220  205.11220   20.95800    -999.25  -32.80120  -14.69220   20.95800
 3500.00000    -999.25   74.78090   13.37240    6.75000   67.50000   13.37240   13.77740    -999.25    -999.25    -999.25  172.28980  172.28980   11.77970    -999.25  -27.12880   -9.08010   11.77970
 3550.00000    -999.25   64.95020   15.39640    6.16250   61.62500   15.39640   16.03520    -999.25    -999.25    -999.25  127.49380  127.49380   10.94590    -999.25  -29.71390  -11.72560   10.94590
 3600.00000    -999.25   68.02120   14.70130    7.67950   76.79500   14.70130   12.76770    -999.25    -999.25    -999.25  119.07730  119.07730   13.45740    -999.25  -31.71690  -13.78890   13.45740
 3650.00000    -999.25   95.96560   10.42040    7.80770   78.07700   10.42040   13.49850    -999.25    -999.25    -999.25  152.21810  152.21810    7.43240    -999.25  -28.22290  -10.35520    7.43240
 3700.00000    -999.25   63.61040   15.72070    6.11250   61.12500   15.72070   16.33590    -999.25    -999.25    -999.25  302.39560  302.39560   12.92460    -999.25  -31.54740  -13.74000   12.92460
 3750.00000    -999.25   68.73040   14.54960    6.11250   61.12500   14.54960   15.80890    -999.25    -999.25    -999.25  332.83980  332.83980   13.10810    -999.25  -29.90960  -12.16250   13.10810
 3800.00000    -999.25   64.72320   15.45040    7.01280   70.12800   15.45040    9.51280    -999.25    -999.25    -999.25  265.73860  265.73860   14.98890    -999.25  -37.27220  -19.58540   14.98890
 3850.00000    -999.25   63.24790   15.81080    5.96250   59.62500   15.81080   15.85410    -999.25    -999.25    -999.25  201.37160  201.37160   25.43240    -999.25  -32.29190  -14.66540   25.43240
 3900.00000    -999.25   92.27560   10.83710    5.87500   58.75000   10.83710   12.06230    -999.25    -999.25    -999.25  270.35780  270.35780    9.18920    -999.25  -25.84120   -8.27510    9.18920
 3950.00000    -999.25   89.15680   11.21620    7.69230   76.92300   11.21620   12.81190    -999.25    -999.25    -999.25  124.31420  124.31420   10.00000    -999.25  -27.84830  -10.34250   10.00000
 4000.00000    -999.25   84.64750   11.81370    4.93830   49.38300   11.81370    9.86100    -999.25    -999.25    -999.25  316.18730  316.18730    8.43470    -999.25  -26.91080   -9.46530    8.43470
 4050.00000   10.19480  112.69000    8.87390    7.88460   78.84600    8.87390   16.76180   10.19480    3.83530    1.84660  166.53220  166.53220    6.18240    -999.25  -25.74550   -8.36030    6.18240
 4100.00000    9.44050   71.65070   13.95660    8.07410   80.74100   13.95660   19.05020    9.44050    2.29150    2.29590  147.31210  147.31210    7.30540    -999.25  -27.43650  -10.11160    7.30540
 4150.00000   10.52920   80.72720   12.38740    7.14100   71.41000   12.38740   12.44970   10.52920    2.59830    3.20110  133.25240  133.25240    8.96400    -999.25  -23.40360   -6.13900    8.96400
 4200.00000    -999.25   85.67000   11.67270    6.88750   68.87500   11.67270    4.73090    -999.25    -999.25    -999.25  244.21160  244.21160    7.32540    -999.25  -27.03660   -9.83230    7.32540
 4250.00000    -999.25   61.73530   16.19820    4.69140   46.91400   16.19820    7.83200    -999.25    -999.25    -999.25  257.16960  257.16960    8.10170    -999.25  -21.32530   -4.18140    8.10170
 4300.00000    -999.25   93.67070   10.67570    6.56250   65.62500   10.67570   12.67890    -999.25    -999.25    -999.25  132.78810  132.78810    7.85600    -999.25  -19.36990   -2.23080    7.85600
 4350.00000    -999.25   59.20000   16.89190    5.41250   54.12500   16.89190    9.32600    -999.25    -999.25    -999.25  316.95760  316.95760   14.09910    -999.25  -25.94160   -8.64100   14.09910
