~Version ---------------------------------------------------
VERS. 2.0 : CWLS log ASCII Standard -VERSION 2.0
WRAP.  NO : ONE LINE PER DEPTH STEP
~Well ------------------------------------------------------
STRT.F                       1050.0 : START DEPTH
STOP.F                       9550.0 : STOP DEPTH
STEP.F                     50.00000 : STEP LENGTH
NULL.                       -999.25 : NULL VALUE
COMP. GOLDEN EAGLE REFINING COMPANY : COMPANY
WELL. GREC GOA SAKWATAMAU 6-1-63-15 : WELL
FLD .                            WC : FIELD
LOC .                               : LOCATION
CTRY.                        CANADA : COUNTRY
SRVC.                  Schlumberger : SERVICE COMPANY
DATE.                   08-Dec-1970 : LOGDATE
PROV.                       Alberta : PROVINCE
UWI .              100060106315W500 : UNIQUE WELL ID
SLAT.WGS84                 54.41837 : SURFACE LATITUDE
SLON.WGS84                -116.1336 : SURFACE LONGITUDE
~Curve Information -----------------------------------------
DEPT.F                 : 
DT  .US/F 60 500 00 00 : DELTA-T (INTERVAL TRANSIT TIME)
GRS .GAPI 60 310 01 00 : GAMMA RAY FROM SONIC LOG
CALS.IN   60 280 50 00 : CALIPER FROM SONIC LOG
ILD .OHMM 07 120 46 00 : INDUCTION DEEP RESISTIVITY
ILM .OHMM 07 120 44 00 : INDUCTION MEDIUM RESISTIVITY
LL8 .OHMM 07 220 08 00 : LATEROLOG 8
SPR .MV   07 010 01 00 : SPONTANEOUS POTENTIAL FROM RESISTIVITY LOG
~Params ----------------------------------------------------
PD  .                     GL : PERMANENT DATUM
EPD .FT                 2985 : ELEVATION PERMANENT DATUM
LMF .                     KB : LOG MEASURED FROM
DAPD.FT                   14 : FEET ABOVE PERMANENT DATUM
EKB .FT                 2999 : KELLY BUSHING
EGL .FT                 2985 : GROUND LEVEL
DATE.               12/08/70 : RUN DATE
RUN .                      1 : RUN NUMBER
DD  .FT                 9566 : DEPTH DRILLER
DL  .FT                 9567 : DEPTH LOGGER
BLI .FT                 9559 : BOTTOM LOG INTERVAL
TLI .FT                 1035 : TOP LOG INTERVAL
CBD .FT                 1035 : CASING BOTTOM DRILLER
CBL .FT                 1035 : CASING BOTTOM LOGGER
BS  .IN                7.875 : BIT SIZE
BSD .FT                 9566 : BIT SIZE AT DEPTH
DFT .                    GEL : DRILLING FLUID TYPE
DFD .                      9 : DRILLING FLUID DENSITY
DFV .                    115 : DRILLING FLUID VISCOSITY
DFPH.                     10 : DRILLING FLUID PH
DFL .                   11.5 : DRILLING FLUID LOSS
MSS .               FLOWLINE : MUD SAMPLE SOURCE
RMS .OHMM               6.04 : RESISTIVITY MUD SAMPLE
MST .DEGF                 70 : MUD SAMPLE TEMPERATURE
RMF .OHMM               5.75 : RESISTIVITY MUD FILTRATE SAMPLE
MFST.DEGF                 62 : MUD FILTRATE SAMPLE TEMPERATURE
RMB .OHMM               2.15 : RESISTIVITY MUD AT BHT
TCS .HRS                   3 : TIME CIRCULATED STOPPED
LUN .                   7002 : LOGGING UNIT NUMBER
LUL .                     RD : LOGGING UNIT LOCATION
ENGI.                 TALBOT : RECORDING ENGINEER
WITN.               DUCHARME : WITNESSED BY
CLNT.                A2DTECH : CLIENT CODE
ORIG.        2" 5" 10" PRINT : ORIGIN OF DATA
UWI .       100060106315W500 : UNIQUE WELL ID
DICO. A2D Technologies, Inc. : DIGITIZING COMPANY
~Other -----------------------------------------------------
~ASCII -----------------------------------------------------
# ...
 5550.00000   76.01230   74.91360   10.47330    6.19960    6.66220    8.70370  -48.52540
 5600.00000   74.85250   38.71910    9.15920   25.39590   33.14890   55.95490  -88.10030
 5650.00000   63.27160   40.55390    9.50360   37.55980   42.46620   70.91380  -62.35630
 5700.00000  104.94710   82.27380   15.10710    2.10150    2.33380    3.75790  -47.91520
 5750.00000   84.38250   89.19120   10.28590    6.73540    7.55140   12.76420  -48.66440
 5800.00000  111.36690   93.73170   11.90960    4.78640    5.13760    7.53430  -48.06310
 5850.00000   82.41990   85.03780   10.53350    4.95350    5.32530    8.55760  -50.05610
 5900.00000   59.21260   36.61510    8.24200  189.30350  210.39020  402.19120  -79.72890
 5950.00000   70.25050  234.90750    8.45770  215.11550  400.23400 1379.72400 -110.27820
 6000.00000   54.61430   55.49160    8.77670    9.97020   11.60430   15.46240  -89.52290
 6050.00000   53.38570   17.94300    8.73430   35.38630   46.28820  678.51160  -99.41040
 6100.00000   61.08350   42.80080    8.55190   23.49390   29.89980  248.72060  -91.41240
 6150.00000   58.87150   11.72130    7.94990   16.47130   25.84020  492.80880 -200.25280
 6200.00000   51.81670   16.51640    8.37860   27.73640   42.86820  689.82350    -999.25
 6250.00000   52.52830   12.86710    8.75060   35.10640   61.57920  268.52540 -143.07230
 6300.00000   56.98820   35.57670    8.66130   18.36830   19.10550   60.18480  -86.84480
 6350.00000   76.14640   83.53310    8.32350    3.92550    4.75750    8.37180  -86.43730
 6400.00000   64.35350   68.10360    8.84800   15.06070   17.97450   47.65410  -63.16090
 6450.00000   54.35680   27.50350    8.39580   57.93130   64.21520   72.38280  -85.80370
 6500.00000   55.65020   24.69940    8.20310   27.82880   30.27730   38.15090  -94.26970
 6550.00000   57.34920   17.28510    8.39780   37.34830   39.20150   52.38170  -89.17850
 6600.00000  111.57630   17.17740    8.50400   37.15700   40.24540   67.71040 -126.11390
 6650.00000   53.06200   25.34820    8.24170  152.41750  160.95310  184.01920  -71.98070
 6700.00000   55.49910   33.71390    7.82810   62.00550   66.63040   84.55410  -68.22340
 6750.00000   54.40710   33.83910    8.17830   58.60720   63.28300   85.59690  -69.87960
 6800.00000   81.16540  170.15460    8.62880   22.14240   26.23250   30.44990  -47.19840
 6850.00000   82.45050  204.28720    8.94050   22.42730   25.30540   63.22140  -45.00960
 6900.00000   54.03090   13.82050    8.50500  142.92360  133.94270  181.13670 -146.34060
 6950.00000   50.08980   15.65680    8.47070  985.93180  610.88030 1353.94820 -117.02890
 7000.00000   50.55200   13.99490    8.44360  205.14460  241.32430  275.75490 -150.96410
 7050.00000   49.66420   10.68680    8.62290  258.56430  290.16130  880.65900 -158.02420
 7100.00000   49.40050   13.17220    8.31460  337.25460  421.34890 1289.80540 -145.30970
 7150.00000   55.18450   12.22930    7.96120   28.63990   61.66640  632.47420 -193.24600
 7200.00000   52.88990   11.54460    7.77620   30.72000   47.38770  427.58080 -194.53930
 7250.00000   49.70320   10.75200    8.33310   76.47100   86.68220  155.91450 -167.30940
 7300.00000   49.29510   13.10070    8.41630  564.27750  450.73830  633.84580 -143.59800
 7350.00000   49.87380   13.06730    8.38880  127.00850  143.13470  162.65550 -150.66360
 7400.00000   47.58550    9.62820    8.43290  338.12370  374.30040  500.44990 -147.40640
 7450.00000   50.00540    9.02490    8.53410   36.80340   51.27500  861.83300 -168.53420
 7500.00000   48.67160   13.27110    8.46610   55.98710   96.99400 1061.93290 -192.44990
 7550.00000   52.60820   16.85110    7.78690   43.59330   64.51070 1038.48580 -172.07260
 7600.00000   47.76900   14.85450    8.29660   83.43690  112.90640  584.25350 -126.43620
 7650.00000   51.93450   16.34980    8.37660  114.31350  181.31540 1417.71030  -93.41580
 7700.00000   51.20380   17.26380    8.18560  165.24470  150.98540  401.04870 -136.78100
 7750.00000   46.97480   19.38430    8.24430   75.37370  100.87740  164.13200 -108.57610
 7800.00000   51.64470   25.45260    8.22140   15.70780   16.84310   24.67830 -104.12460
 7850.00000   53.90260   40.85760    8.31500   51.67810   57.16480   76.47710  -51.40590
 7900.00000   52.85230   28.03700    8.32120   84.08670   90.84550  119.82510  -47.96600
 7950.00000   56.16590   38.06320    8.30540   41.59310   45.64680   58.35930  -62.12450
 8000.00000   59.12670   51.18960    8.35790   23.13840   25.85740   35.17020  -60.89180
 8050.00000   57.39200   51.51780    8.37710   23.91480   26.73770   38.98760  -64.45010
 8100.00000   58.57280   52.53510    8.37940   17.65030   19.58020   27.29690  -64.34370
 8150.00000   66.04330   62.44430    8.61500    8.66540    9.85780   14.63760  -58.62530
 8200.00000   58.37690   37.38350    8.36380   23.33740   25.65620   41.22480  -64.20970
 8250.00000   62.32800   55.91080    8.39130   12.22660   13.73840   19.59630  -62.25840
 8300.00000   69.47170   79.17170    8.56650   23.45550   27.45390   62.91420  -59.29870
 8350.00000   60.73330   50.97250    8.13810   12.14480   13.46970   19.97170  -60.01230
 8400.00000   61.20470   47.98310    8.18280   16.85980   19.00640   31.12540  -58.38800
 8450.00000   72.22520   80.06260    9.53660    5.66750    6.19270    8.58870  -77.51120
 8500.00000   78.51480   97.30130   10.84310    5.17720    5.97650    7.84270  -82.58670
 8550.00000   61.53900   62.77050    8.19140   11.56790   12.76760   19.13450  -62.23920
 8600.00000   67.64790   78.40730    8.25260    9.71950   10.66820   16.29480  -61.08270
 8650.00000   66.88750   75.41700    8.18010   11.11420   12.15520   20.32610  -59.24400
 8700.00000   70.02690  102.34520    8.21370    7.50910    8.35770   12.39750  -63.31600
 8750.00000   68.99900   95.68780    8.16700    8.75480    9.65720   14.78500  -58.48020
 8800.00000   66.11540   76.94760    8.17080    6.65530    7.63470   10.03810  -63.88900
 8850.00000   72.44340   91.94930    8.44290    6.44600    7.15060   10.15640  -57.90240
 8900.00000   75.34180  111.35720    8.93560    6.28150    6.72640   10.02810  -63.55510
 8950.00000   66.14020   83.23870    7.97160  140.56960  151.40730  234.01240  -38.99150
 9000.00000   66.43260  100.74990    8.02200  202.11070  249.87670  966.98550  -41.39350
 9050.00000   64.81110   78.02850    8.22430   20.60570   23.24560   36.12680  -36.61760
 9100.00000   73.51590  109.10270    8.65300    9.79800   10.89530   16.79320  -49.67480
 9150.00000   48.82210   10.68680    8.15880 1312.53580 1527.00350 1423.70730 -192.52140
 9200.00000   49.69950    8.36950    8.10230  743.81750  449.95090  468.20720 -152.33010
 9250.00000   48.15720   12.43930    8.03870 1297.83510 1550.19230 1401.02610 -179.81760
 9300.00000   49.27960    7.84610    8.03550  296.19120  220.20950  424.25170 -158.47960
 9350.00000   48.80150    9.11890    8.01960  128.01400  114.56740  170.75610 -169.43500
 9400.00000   48.40360   11.13720    8.00840 1333.10350 1494.69950 1404.97500 -146.15660
 9450.00000   50.76940   22.98210    8.00380 1305.25670 1491.00490 1423.26100 -145.57110
 9500.00000   49.50640   41.57440    7.98090 1006.24040 1024.31530 1380.75600  -73.89450
 9550.00000   58.61180    2.38080    8.08830    8.82390    9.27250   13.52760  -91.51810
