~Version ---------------------------------------------------
VERS.      2.0 : CWLS log ASCII Standard -VERSION 2.0
WRAP.       NO : One line per depth step
CREA. 01/05/18 : LAS Creation Date
~Well ------------------------------------------------------
STRT.FT                         300.0 : START DEPTH
STOP.FT                       11250.0 : STOP DEPTH
STEP.FT                      50.00000 : STEP LENGTH
NULL.                         -999.25 : NULL VALUE
COMP.            MOBIL OIL CANADA LTD : COMPANY
WELL. MOBIL ET AL ROSEVEAR 10-4-54-15 : WELL
FLD .                              WC : FIELD
LOC .                                 : LOCATION
CTRY.                          CANADA : COUNTRY
SRVC.                    Schlumberger : SERVICE COMPANY
DATE.                     09-Jul-1971 : LOGDATE
PROV.                         Alberta : PROVINCE
UWI .                100100405415W500 : UNIQUE WELL ID
SLAT.WGS84                   53.63557 : SURFACE LATITUDE
SLON.WGS84                  -116.1457 : SURFACE LONGITUDE
~Curve Information -----------------------------------------
DEPT    .FT    : Depth Curve
CALDED  .IN    : CALIPER FROM DENSITY LOG [ADJ. TO RESISTIVITY LOG]
CALNED  .IN    : CALIPER FROM NEUTRON LOG [ADJ. TO RESISTIVITY LOG]
CALSED  .IN    : CALIPER FROM SONIC LOG [ADJ. TO RESISTIVITY LOG]
CALWS   .IN    : CALIPER [CALSED]
CILDED  .MMHO  : CONDUCTIVITY FROM RESISTIVITY LOG
CONDWS  .MMHO  : CONDUCTIVITY [1000/DRESWS]
DCORWS  .G/C3  : DENSITY CORRECTION [DRHOED]
DENWS   .G/C3  : FORMATION BULK DENSITY [RHOBED]
DPHILSED.V/V   : DENSITY POROSITY LIMESTONE [M=2.71 F=1.00] FROM DENSITY LOG [ADJ. TO RESISTIVITY LOG]
DPOLSWS .V/V   : DENSITY POROSITY LIMESTONE [CALC FROM DENWS, M=2.71 F=1.00]
DRESWS  .OHMM  : DEEP RESISTIVITY [1000/CILDED IF ILDED <=1, ILDED]
DRHOED  .G/C3  : DENSITY CORRECTION FROM DENSITY LOG [ADJ. TO RESISTIVITY LOG]
DTED    .US/F  : DELTA-T FROM SONIC LOG [ADJ. TO RESISTIVITY LOG]
DTWS    .US/F  : COMPRESSIONAL SONIC [DTED]
GRDED   .GAPI  : GAMMA RAY FROM DENSITY LOG [ADJ. TO RESISTIVITY LOG]
GRNED   .GAPI  : GAMMA RAY NEUTRON LOG [ADJ. TO RESISTIVITY LOG]
GRSED   .GAPI  : GAMMA RAY FROM SONIC LOG [ADJ. TO RESISTIVITY LOG]
GRWS    .GAPI  : GAMMA RAY [GRSED]
ILDED   .OHMM  : DEEP INDUCTION FROM RERSISTIVITY LOG
MCALED  .IN    : CALIPER FROM MICROLOG
NPOLSWS .V/V   : NEUTRON POROSITY LIMESTONE [SNPLSED]
RHOBED  .G/C3  : BULK DENSITY FROM DENSITY LOG  [ADJ. TO RESISTIVITY LOG]
SNED    .OHMM  : SHORT NORMAL RESISTIVITY FROM RESISTIVITY LOG
SNPLSED .V/V   : SIDE WALL NEUTRON POROSITY FROM DENSITY LOG [ADJ. TO RESISTIVITY LOG]
SPRED   .MV    : SPONTANEOUS POTENTIAL FROM RESISTIVITY LOG
SPWS    .MV    : SPONTANEOUS POTENTIAL [BASELINE 0 MV, SPRED]
SRESWS  .OHMM  : SHALLOW RESISTIVITY [SNED]
~Params ----------------------------------------------------
PD  .                     GL : PERMANENT DATUM
EPD .FT                 2903 : ELEVATION PERMANENT DATUM
LMF .                     KB : LOG MEASURED FROM
DAPD.FT                   13 : FEET ABOVE PERMANENT DATUM
EKB .FT                 2916 : KELLY BUSHING
EGL .FT                 2903 : GROUND LEVEL
DATE.               07/09/71 : RUN DATE
RUN .                      1 : RUN NUMBER
DD  .FT                11300 : DEPTH DRILLER
DL  .FT                11289 : DEPTH LOGGER
BLI .FT                11288 : BOTTOM LOG INTERVAL
TLI .FT                 1176 : TOP LOG INTERVAL
CBD .FT                 1176 : CASING BOTTOM DRILLER
CBL .FT                 1176 : CASING BOTTOM LOGGER
BS  .IN                 8.75 : BIT SIZE
BSD .FT                11300 : BIT SIZE AT DEPTH
DFT .                    GEL : DRILLING FLUID TYPE
DFD .                    9.1 : DRILLING FLUID DENSITY
DFV .                    100 : DRILLING FLUID VISCOSITY
DFPH.                     11 : DRILLING FLUID PH
DFL .                    8.2 : DRILLING FLUID LOSS
RMS .OHMM               2.46 : RESISTIVITY MUD SAMPLE
MST .DEGF                 71 : MUD SAMPLE TEMPERATURE
RMF .OHMM               2.36 : RESISTIVITY MUD FILTRATE SAMPLE
MFST.DEGF                 72 : MUD FILTRATE SAMPLE TEMPERATURE
RMC .OHMM               2.22 : RESISTIVITY MUD CAKE
MCST.DEGF                 72 : MUD CAKE SAMPLE TEMPERATURE
TCS .HRS                   5 : TIME CIRCULATED STOPPED
LUN .                   7501 : LOGGING UNIT NUMBER
LUL .                    EDM : LOGGING UNIT LOCATION
ENGI.                  PLUNE : RECORDING ENGINEER
WITN.                   DOAN : WITNESSED BY
CLNT.                A2DTECH : CLIENT CODE
ORIG.            2" 5" PRINT : ORIGIN OF DATA
UWI .       100100405415W500 : UNIQUE WELL ID
DICO. A2D Technologies, Inc. : DIGITIZING COMPANY
~Other -----------------------------------------------------
~ASCII -----------------------------------------------------
# ...
 9400.00000   11.53430   11.18670    9.80820    9.80820   20.52560   20.41110    0.25000    2.39890    0.17130    0.18190   48.99300    0.25000   50.62220   50.62220   26.02880   26.25560   27.88660   27.88660   48.99300    9.94950    0.13400    2.39890   52.53630    0.13400 -105.25480  -62.51020   52.53630
 9450.00000    8.75790   10.15320    9.62680    9.62680   40.43520   40.96140    0.06580    2.72980    0.04260   -0.01160   24.41600    0.06580   59.77700   59.77700   55.95890   56.34470   52.49250   52.49250   24.41600    8.98420    0.08850    2.72980   36.62180    0.08850  -45.56490   -3.72140   36.62180
 9500.00000    9.41990    9.26790    9.37550    9.37550   53.62570   53.87350    0.24970    2.76650   -0.05550   -0.03300   18.56200    0.24970   60.87010   60.87010   65.85750   60.65430   61.84760   61.84760   18.56200    8.90300    0.07830    2.76650   25.98360    0.07830  -49.80590   -8.85450   25.98360
 9550.00000    8.95080    -999.25    9.18250    9.18250   47.04970   47.17270    0.04160    2.66150   -0.03200    0.02840   21.19870    0.04160   59.76300   59.76300   54.39540    -999.25   60.52720   60.52720   21.19870    9.01280    0.05880    2.66150   26.69220    0.05880  -43.63040   -3.56580   26.69220
 9600.00000   10.60600    -999.25    9.91550    9.91550   95.80910   95.68880    0.24210    2.43960    -999.25    0.15820   10.46360    0.24210   70.42100   70.42100   58.66250    -999.25   61.60530   61.60530   10.46360    9.65480    -999.25    2.43960   14.46660    -999.25  -45.24070   -6.06240   14.46660
 9650.00000   15.28370    -999.25   14.47370   14.47370  151.03640  149.97900    0.22430    1.97750    -999.25    0.42840    6.66760    0.22430   79.07670   79.07670   79.76300    -999.25   83.62440   83.62440    6.66760   10.34010    -999.25    1.97750    7.23070    -999.25  -77.32730  -39.02650    7.23070
 9700.00000   10.80710    -999.25    9.41940    9.41940   86.67150   85.51680    0.23270    2.22820    -999.25    0.28180   11.72710    0.23270   79.97890   79.97890   76.41040    -999.25   75.66950   75.66950   11.72710    9.68930    -999.25    2.22820   15.77920    -999.25  -55.28630  -17.87180   15.77920
 9750.00000    9.77300    -999.25    9.40710    9.40710   44.28540   45.20780    0.23600    2.64970    -999.25    0.03530   22.12010    0.23600   58.56140   58.56140   47.79410    -999.25   47.24080   47.24080   22.12010    9.22690    -999.25    2.64970   37.10030    -999.25  -52.19100  -15.65400   37.10030
 9800.00000   14.27410    -999.25   11.32810   11.32810   99.64760   98.84350    0.25000    2.26940    -999.25    0.25770   10.11700    0.25000   68.53090   68.53090   64.81250    -999.25   66.78740   66.78740   10.11700   11.11880    -999.25    2.26940   11.83180    -999.25  -67.04400  -31.38880   11.83180
 9850.00000    9.06540    -999.25    9.40090    9.40090   27.63440   27.61060    0.01220    2.70140    -999.25    0.00500   36.21950    0.01220   57.50480   57.50480   48.35280    -999.25   49.16370   49.16370   36.21950    8.97890    -999.25    2.70140   47.21930    -999.25  -37.06040   -2.29150   47.21930
 9900.00000   12.48050    -999.25    9.61870    9.61870   82.89160   83.47870    0.25000    2.58270    -999.25    0.07440   11.97910    0.25000   67.36810   67.36810   84.97220    -999.25   89.56260   89.56260   11.97910   10.07810    -999.25    2.58270   15.40280    -999.25  -54.09610  -21.20160   15.40280
 9950.00000    9.24040    -999.25    9.44460    9.44460   65.69070   65.65200    0.12780    2.77830    -999.25   -0.03990   15.23190    0.12780   65.50770   65.50770   78.93760    -999.25   82.12010   82.12010   15.23190    8.86290    -999.25    2.77830   20.97990    -999.25  -55.42380  -24.45920   20.97990
 10000.00000    9.08570    -999.25    9.43680    9.43680   45.43470   45.45950    0.02910    2.78320    -999.25   -0.04280   21.99760    0.02910   61.98060   61.98060   58.76030    -999.25   63.56600   63.56600   21.99760    8.88590    -999.25    2.78320   29.08810    -999.25  -45.26110  -16.20710   29.08810
 10050.00000    9.90880    -999.25    9.53900    9.53900   63.32240   62.88280    0.21170    2.56000    -999.25    0.08770   15.90260    0.21170   64.93510   64.93510   70.47740    -999.25   67.36930   67.36930   15.90260    9.24910    -999.25    2.56000   20.92960    -999.25  -45.67470  -18.54100   20.92960
 10100.00000   11.72200    -999.25   10.05300   10.05300   89.05230   89.37210    0.25000    2.48940    -999.25    0.12900   11.18920    0.25000   69.64410   69.64410   89.67950    -999.25   92.25960   92.25960   11.18920   10.08570    -999.25    2.48940   15.76500    -999.25  -41.63270  -16.42890   15.76500
 10150.00000   10.28800    -999.25    9.72040    9.72040   69.00540   69.38660    0.17870    2.62610    -999.25    0.04910   14.41200    0.17870   68.29370   68.29370   89.85640    -999.25   93.64200   93.64200   14.41200    9.66450    -999.25    2.62610   20.13460    -999.25  -38.07220  -14.77910   20.13460
 10200.00000   12.17810    -999.25   10.05410   10.05410   90.13950   91.27360    0.25000    2.58140    -999.25    0.07520   10.96100    0.25000   69.72380   69.72380   78.59380    -999.25   80.02920   80.02920   10.96100   10.28270    -999.25    2.58140   15.32960    -999.25  -33.63900  -12.27580   15.32960
 10250.00000   10.42840    -999.25    9.76050    9.76050   77.14310   77.80040    0.24850    2.58610    -999.25    0.07250   12.85340    0.24850   66.55630   66.55630   72.95730    -999.25   83.38120   83.38120   12.85340    9.61720    -999.25    2.58610   17.56410    -999.25  -29.04360   -9.59110   17.56410
 10300.00000   11.14010    -999.25    9.94870    9.94870   85.08010   85.57610    0.22340    2.69130    -999.25    0.01090   11.68550    0.22340   71.00420   71.00420   94.47830    -999.25  105.57530  105.57530   11.68550    9.94840    -999.25    2.69130   17.09020    -999.25  -29.83560  -14.42390   17.09020
 10350.00000   10.04120    -999.25    9.74810    9.74810   67.77220   68.21930    0.20560    2.69130    -999.25    0.01100   14.65880    0.20560   67.68070   67.68070   83.91280    -999.25   81.80770   81.80770   14.65880    9.54700    -999.25    2.69130   19.65790    -999.25  -22.68650  -11.42460   19.65790
 10400.00000    9.55040    9.39060    9.61180    9.61180   46.46300   46.67030    0.04790    2.71190   -0.02620   -0.00110   21.42690    0.04790   64.53270   64.53270   72.44460   72.89680   73.77410   73.77410   21.42690    8.98560    0.09270    2.71190   29.96920    0.09270  -13.95210   -6.79860   29.96920
 10450.00000    8.84420    8.82340    9.29880    9.29880    7.33410    7.55110    0.03890    2.55810    0.11560    0.08880  132.48330    0.03890   73.83740   73.83740  113.37250  113.47550  113.93580  113.93580  132.48330    8.64430    0.09770    2.55810  113.23920    0.09770  -12.90490   -9.90120  113.23920
 10500.00000    9.13540    9.17610    9.58990    9.58990   12.06160   12.08040    0.06400    2.70050    0.02390    0.00560   82.77890    0.06400   63.77320   63.77320   73.94920   71.73910   72.39390   72.39390   82.77890    8.66880    0.07240    2.70050   79.69590    0.07240   -2.48830   -3.59310   79.69590
 10550.00000   10.86850   10.59240   10.02160   10.02160   29.99440   29.95110    0.24880    2.56260    0.09210    0.08620   33.38780    0.24880   68.57230   68.57230   93.36740   98.52640   97.89300   97.89300   33.38780    9.70860    0.17920    2.56260   50.68440    0.17920    2.60110   -2.63280   50.68440
 10600.00000   11.46320   11.12370    9.68890    9.68890    0.64370    1.85610    0.20400    2.51730    0.15830    0.11270  538.75470    0.20400   50.74770   50.74770    8.03660    8.08270    7.92590    7.92590  538.75470   11.37380    0.05850    2.51730  289.89610    0.05850  -61.95600  -66.35230  289.89610
 10650.00000   10.44490    9.79250    9.62010    9.62010    1.10690    2.00000    0.24000    2.71870    0.08220   -0.00510  500.00000    0.24000   49.67640   49.67640    7.11040    6.83560    6.37030    6.37030  500.00000   10.10110    0.04030    2.71870  201.95710    0.04030 -102.50070 -105.80920  201.95710
