~Version ---------------------------------------------------
VERS.      2.0 : CWLS log ASCII Standard -VERSION 2.0
WRAP.       NO : One line per depth step
CREA. 11/16/17 : LAS Creation Date
~Well ------------------------------------------------------
STRT.FT                   1000.0 : START DEPTH
STOP.FT                  10100.0 : STOP DEPTH
STEP.FT                 50.00000 : STEP LENGTH
NULL.                    -999.25 : NULL VALUE
COMP.     CALIFORNIA STANDARD CO : COMPANY
WELL. CALSTAN MEEKWAP 4-11-65-19 : WELL
FLD .                            : FIELD
LOC .                            : LOCATION
CTRY.                     CANADA : COUNTRY
SRVC.               Schlumberger : SERVICE COMPANY
DATE.                22-Sep-1960 : LOGDATE
PROV.                    Alberta : PROVINCE
UWI .           100041106519W500 : UNIQUE WELL ID
SLAT.WGS84              54.60522 : SURFACE LATITUDE
SLON.WGS84             -116.7693 : SURFACE LONGITUDE
~Curve Information -----------------------------------------
DEPT  .FT         : Depth Curve
CALWS .IN         : CALIPER [MCALED]
CILDED.MMHO       : DEEP INDUCTION CONDUCTIVITY FROM RESISTIVITY LOG
CONDWS.MMHO       : CONDUCTIVITY [1000/DRESWS]
DRESWS.OHMM       : DEEP RESISTIVITY [1000/CILDED,IF ILDED <1,ILDED]
DT1ED .US/F       : DELTA-T FROM SONIC LOG
DTED  .US/F       : DELTA-T FROM SONIC LOG
DTWS  .US/F       : COMPRESSIONAL SONIC [DTED]
GRED  .GAPI       : GAMMA RAY (CASING & COLLARS) FROM GRN LOG [ADJ. TO RESISTIVITY]
GRSED .UgRa-Eq/T  : GAMMA RAY FROM SONIC LOG [ADJ. TO RESISTIVITY]
GRWS  .GAPI       : GAMMA RAY [GRSED*16.5]
ILDED .OHMM       : DEEP INDUCTION RESISTIVITY FROM RESISTIVITY LOG
MCALED.IN         : CALIPER FROM MICROLOG
SNED  .OHMM       : SHORT NORMAL RESISTIVITY FROM RESISTIVITY LOG
SPRED .MV         : SPONTANEOUS POTENTIAL FROM RESISTIVITY LOG
SPWS  .MV         : SPONTANEOUS POTENTIAL [BASELINE 0 MV,SPRED]
SRESWS.OHMM       : SHALLOW RESISTIVITY [SNED]
TENRED.LBF        : TENSION FROM GRN LOG
~Params ----------------------------------------------------
LMF .                     KB : LOG MEASURED FROM
DMF .                     KB : DRILLING MEASURED FROM
EKB .FT                 2604 : KELLY BUSHING
EGL .FT                 2592 : GROUND LEVEL
DATE.               09/22/60 : RUN DATE
RUN .                      2 : RUN NUMBER
DD  .FT                10120 : DEPTH DRILLER
DL  .FT                10126 : DEPTH LOGGER
BLI .FT                10122 : BOTTOM LOG INTERVAL
TLI .FT                 5400 : TOP LOG INTERVAL
BS  .IN                    9 : BIT SIZE
BSD .FT                10120 : BIT SIZE AT DEPTH
DFT .               OIL EMUL : DRILLING FLUID TYPE
DFD .                   10.5 : DRILLING FLUID DENSITY
DFV .                    108 : DRILLING FLUID VISCOSITY
DFPH.                    9.5 : DRILLING FLUID PH
DFL .                    7.6 : DRILLING FLUID LOSS
RMS .OHMM                2.6 : RESISTIVITY MUD SAMPLE
MST .DEGF                 75 : MUD SAMPLE TEMPERATURE
RMF .OHMM                  2 : RESISTIVITY MUD FILTRATE SAMPLE
MFST.DEGF                 79 : MUD FILTRATE SAMPLE TEMPERATURE
RMC .OHMM                2.7 : RESISTIVITY MUD CAKE
MCST.DEGF                 79 : MUD CAKE SAMPLE TEMPERATURE
RMB .OHMM                1.0 : RESISTIVITY MUD AT BHT
TCS .HRS                   3 : TIME CIRCULATED STOPPED
LUN .                   1534 : LOGGING UNIT NUMBER
LUL .                    SKW : LOGGING UNIT LOCATION
ENGI.                  GOETZ : RECORDING ENGINEER
WITN.                 FARKAS : WITNESSED BY
CLNT.                A2DTECH : CLIENT CODE
ORIG.            2" 5" PRINT : ORIGIN OF DATA
UWI .       100041106519W500 : UNIQUE WELL ID
DICO. A2D Technologies, Inc. : DIGITIZING COMPANY
~Other -----------------------------------------------------
~ASCII -----------------------------------------------------
# ...
 7150.00000    9.24850   19.00320   13.74510   72.75320   59.67900   60.12650   60.12650    -999.25    3.32140   54.80310   72.75320    9.24850   50.39860  -92.31790  -16.14220   50.39860    -999.25
 7200.00000    9.11540   25.49800   21.70640   46.06940   62.99130   63.55150   63.55150    -999.25    3.64050   60.06820   46.06940    9.11540   45.25590  -94.91320  -19.11660   45.25590    -999.25
 7250.00000    9.98520   12.68110    8.42610  118.67900   46.77190   46.86620   46.86620    -999.25    1.85010   30.52670  118.67900    9.98520   60.31440 -115.02840  -39.60850   60.31440    -999.25
 7300.00000    9.13090    6.89070    3.72020  268.80430   56.67580   57.08390   57.08390    -999.25    1.92890   31.82730  268.80430    9.13090  135.85660 -103.02670  -27.98340  135.85660    -999.25
 7350.00000   10.54220    3.78350    1.88140  531.51720   53.47450   53.94380   53.94380    -999.25    1.35150   22.29970  531.51720   10.54220  159.15890 -163.03750  -88.37340  159.15890    -999.25
 7400.00000   12.35030    3.34750    2.03110  492.33980   47.39050   47.86670   47.86670    -999.25    1.67110   27.57320  492.33980   12.35030  167.18800 -145.15730  -70.86990  167.18800    -999.25
 7450.00000    8.10390   13.31680    9.10600  109.81820   51.25700   52.32180   52.32180    -999.25    1.04620   17.26230  109.81820    8.10390  122.18050 -192.70990 -118.80160  122.18050    -999.25
 7500.00000   11.74990    5.41030    2.07030  483.01910   54.25190   54.66580   54.66580    -999.25    1.25120   20.64480  483.01910   11.74990  131.73010 -141.02500  -67.49340  131.73010    -999.25
 7550.00000   12.81950    4.64750    1.88140  531.51720   54.98120   55.56170   55.56170    -999.25    1.32910   21.93010  531.51720   12.81950  158.98190 -151.12210  -77.96720  158.98190    -999.25
 7600.00000   11.09700    7.72950    4.08790  244.62520   55.71540   56.20950   56.20950    -999.25    1.07740   17.77710  244.62520   11.09700  116.02460 -152.88940  -80.11360  116.02460    -999.25
 7650.00000   10.16480   10.12240    6.67380  149.84010   55.55030   56.05080   56.05080    -999.25    1.04790   17.29040  149.84010   10.16480  100.49330 -152.59610  -80.19700  100.49330    -999.25
 7700.00000   10.61290   13.25580    9.70170  103.07470   56.86840   57.44070   57.44070    -999.25    1.13280   18.69120  103.07470   10.61290   76.23320 -159.17320  -87.15320   76.23320    -999.25
 7750.00000   10.76140    8.17850    3.97000  251.89050   55.31500   55.89150   55.89150    -999.25    1.39900   23.08350  251.89050   10.76140   87.47950 -152.39460  -80.75130   87.47950    -999.25
 7800.00000   11.66560    4.64310    2.13050  469.36550   55.21860   55.63780   55.63780    -999.25    1.36000   22.44000  469.36550   11.66560  157.73650 -148.69510  -77.42850  157.73650    -999.25
 7850.00000   11.14930    3.40900    1.88140  531.51720   54.90160   54.98630   54.98630    -999.25    1.40680   23.21220  531.51720   11.14930  125.83290 -149.32000  -78.43250  125.83290    -999.25
 7900.00000    9.05360   19.57600   15.86980   63.01280   56.20980   56.77920   56.77920    -999.25    1.09560   18.07740   63.01280    9.05360  109.06710 -221.42210 -150.91130  109.06710    -999.25
 7950.00000    8.51800   16.22510   12.24110   81.69190   52.12510   52.34200   52.34200    -999.25    1.25950   20.78180   81.69190    8.51800  101.37920 -243.38000 -173.24830  101.37920    -999.25
 8000.00000   10.18180   11.20120    7.95420  125.71960   53.29960   53.94200   53.94200    -999.25    1.89150   31.20980  125.71960   10.18180   80.08280 -260.99420 -191.23920   80.08280    -999.25
 8050.00000    9.11790   23.77920   10.35420   96.57960   52.83200   53.42230   53.42230    -999.25    1.58870   26.21360   96.57960    9.11790   84.77420 -238.68570 -169.30740   84.77420    -999.25
 8100.00000    9.54750   13.17990    9.39910  106.39270   47.86860   48.07600   48.07600    -999.25    1.40430   23.17100  106.39270    9.54750   80.84060 -241.67010 -172.67090   80.84060    -999.25
 8150.00000   11.00970  130.97300  127.71880    7.82970   56.38640   57.06420   57.06420    -999.25    2.06710   34.10710    7.82970   11.00970   18.43950 -211.38000 -142.75750   18.43950    -999.25
 8200.00000    9.43820    7.87210    2.93440  340.78080   56.04920   56.62950   56.62950    -999.25    2.05190   33.85550  340.78080    9.43820  115.45550 -154.59320  -86.34980  115.45550    -999.25
 8250.00000   10.23390   10.91360    7.89450  126.67090   55.68400   56.15600   56.15600    -999.25    2.36970   39.10000  126.67090   10.23390   65.55970 -136.59050  -68.72380   65.55970    -999.25
 8300.00000   10.61000   24.88120   21.69260   46.09860   57.74990   58.25830   58.25830    -999.25    2.79900   46.18350   46.09860   10.61000   37.85020 -140.82080  -73.33080   37.85020    -999.25
 8350.00000    9.53890   15.80820   11.70030   85.46810   57.96250   58.60950   58.60950    -999.25    2.54740   42.03210   85.46810    9.53890   64.48410 -135.99690  -68.88600   64.48410    -999.25
 8400.00000    9.59610   29.37010   27.39830   36.49860   61.76360   62.30650   62.30650    -999.25    2.80420   46.26930   36.49860    9.59610   38.05760 -110.54460  -43.81040   38.05760    -999.25
 8450.00000    9.52310   24.06850   21.19820   47.17380   58.84280   59.18880   59.18880    -999.25    2.80430   46.27090   47.17380    9.52310   46.17680  -95.45230  -29.09730   46.17680    -999.25
 8500.00000   12.72360  124.98090  125.28030    7.98210   77.28800   76.57750   76.57750    -999.25    4.45520   73.51080    7.98210   12.72360   11.02250  -82.11750  -16.13910   11.02250    -999.25
 8550.00000   15.03530  227.59230  241.65680    4.13810   77.84310   78.88860   78.88860    -999.25    4.80030   79.20490    4.13810   15.03530    4.98100  -80.36980  -14.76810    4.98100    -999.25
 8600.00000   15.09230  202.88750  217.85070    4.59030   71.57870   89.37600   89.37600    -999.25    4.92990   81.34340    4.59030   15.09230    5.46130  -74.12120   -8.89860    5.46130    -999.25
 8650.00000   15.74250  244.97600  260.03740    3.84560   79.94230   80.34620   80.34620    -999.25    5.42660   89.53890    3.84560   15.74250    4.79150  -67.13540   -2.28950    4.79150    -999.25
 8700.00000   15.72060  220.06230  236.52400    4.22790   79.99580   87.16350   87.16350    -999.25    4.91830   81.15190    4.22790   15.72060    5.26600  -70.22330   -5.75660    5.26600    -999.25
 8750.00000   15.74260  268.43130  272.70990    3.66690   80.12260   76.12400   76.12400    -999.25    4.68220   77.25630    3.66690   15.74260    4.53530  -70.65640   -6.56630    4.53530    -999.25
 8800.00000   15.71670  261.33520  275.19400    3.63380   76.95750   78.77730   78.77730    -999.25    4.55900   75.22350    3.63380   15.71670    4.55390  -78.75590  -15.04250    4.55390    -999.25
 8850.00000   15.70050  243.85490  248.07740    4.03100   79.96050   79.68500   79.68500    -999.25    5.38740   88.89210    4.03100   15.70050    5.04440  -80.42720  -17.09300    5.04440    -999.25
 8900.00000   10.66880   42.32870   42.81100   23.35850   61.86300   62.10400   62.10400    -999.25    3.45680   57.03720   23.35850   10.66880   25.37330  -69.00760   -6.02070   25.37330    -999.25
 8950.00000   11.06490   97.85000  102.72210    9.73500   63.18940   64.17870   64.17870    -999.25    4.22140   69.65310    9.73500   11.06490   13.50460  -71.58560   -8.79850   13.50460    -999.25
 9000.00000   11.56140  108.09880  112.83750    8.86230   72.42180   73.05230   73.05230    -999.25    5.45930   90.07850    8.86230   11.56140   11.49630  -66.39450   -3.80310   11.49630    -999.25
 9050.00000   10.64810  111.32790  116.04020    8.61770   74.47030   74.76110   74.76110    -999.25    5.37450   88.67920    8.61770   10.64810   11.67310  -67.07710   -4.68140   11.67310    -999.25
 9100.00000   12.40650  177.18510  186.56720    5.36000   80.00950   84.09400   84.09400    -999.25    5.66390   93.45440    5.36000   12.40650    7.33710  -83.46930  -21.27070    7.33710    -999.25
 9150.00000   15.36860  164.14510  173.69250    5.75730   78.51720   78.54550   78.54550    -999.25    5.69820   94.02030    5.75730   15.36860    7.47750 -101.30890  -39.30600    7.47750    -999.25
