~Version ---------------------------------------------------
VERS.      2.0 : CWLS log ASCII Standard -VERSION 2.0
WRAP.       NO : One line per depth step
CREA. 09/22/17 : LAS Creation Date
~Well ------------------------------------------------------
STRT.FT                            1200.0 : START DEPTH
STOP.FT                           11700.0 : STOP DEPTH
STEP.FT                          50.00000 : STEP LENGTH
NULL.                             -999.25 : NULL VALUE
COMP.        PAN AMERICAN PETROLEUM CORP. : COMPANY
WELL. PAN AM FINA G-1 KAYBOBS 10-19-58-18 : WELL
FLD .                                  WC : FIELD
LOC .                                     : LOCATION
CTRY.                              CANADA : COUNTRY
SRVC.                        Schlumberger : SERVICE COMPANY
DATE.                         16-Apr-1969 : LOGDATE
PROV.                             Alberta : PROVINCE
UWI .                    100101905818W500 : UNIQUE WELL ID
SLAT.WGS84                       54.03118 : SURFACE LATITUDE
SLON.WGS84                      -116.6587 : SURFACE LONGITUDE
~Curve Information -----------------------------------------
DEPT    .FT    : Depth Curve
CALDED  .IN    : CALIPER FROM DENSITY LOG [DEP. ADJ. TO RESIS. LOG]
CALNED  .IN    : CALIPER FROM SNP LOG [DEP. ADJ. TO RESIS. LOG]
CALSED  .IN    : CALIPER FROM SONIC LOG
CALWS   .IN    : CALIPER [1200' CALSED 10727' CALDED]
CONDWS  .MMHO  : CONDUCTIVITY [1000/DRESWS]
DCORED  .G/C3  : DENSITY CORRECTION FROM DENSITY LOG [DEP. ADJ. TO RESIS. LOG]
DCORWS  .G/C3  : DENSITY CORRECTION [DCORED]
DENWS   .G/C3  : BULK DENSITY [M=2.71, F=1.00] [RHOBED]
DPHILSED.V/V   : DENSITY POROSITY [M=2.71, F=1.00] FROM DENSITY LOG [DEP. ADJ. TO RESIS. LOG]
DPOLSWS .V/V   : DENSITY POROSITY [M=2.71, F=1.00] [DPHILSED]
DRESWS  .OHMM  : DEEP RESISTIVITY [ILDED]
DTED    .US/F  : DELTA TIME FROM SONIC LOG
DTWS    .US/F  : DELTA TIME [DTED]
GRNED   .GAPI  : GAMMA RAY FROM SNP LOG [DEP. ADJ. TO RESIS. LOG]
GRSED   .GAPI  : GAMMA RAY FROM SONIC LOG
GRWS    .GAPI  : GAMMA RAY [1178' GRSED 11700' GRNED]
ILDED   .OHMM  : INDUCTION LOG DEEP RESISTIVITY
ILMED   .OHMM  : INDUCTION LOG MEDIUM RESISTIVITY
LL8ED   .OHMM  : 8 INCH LATEROLOG RESISTIVITY
MRESWS  .OHMM  : MEDIUM RESISTIVITY [ILMED]
NPOLSWS .V/V   : NEUTRON POROSITY LIMESTONE [SNPLSED]
RHOBED  .G/C3  : BULK DENSITY FROM DENSITY LOG [DEP. ADJ. TO RESIS. LOG]
SNPLSED .V/V   : SIDEWALL NEUTRON POROSITY [LIMESTONE] [DEP. ADJ. TO RESIS. LOG]
SPRED   .MV    : SPONTANEOUS POTENTIAL FROM RESISTIVITY LOG
SPWS    .MV    : SPONTANEOUS POTENTIAL [BASELINE 0 MV] [SPRED]
SRESWS  .OHMM  : SHALLOW RESISTIVITY [LL8ED]
~Params ----------------------------------------------------
PD  .                     GL : PERMANENT DATUM
EPD .FT                 3475 : ELEVATION PERMANENT DATUM
LMF .                     KB : LOG MEASURED FROM
DAPD.FT                   12 : FEET ABOVE PERMANENT DATUM
EKB .FT                 3487 : KELLY BUSHING
EGL .FT                 3475 : GROUND LEVEL
DATE.               04/16/69 : RUN DATE
RUN .                      1 : RUN NUMBER
DD  .FT                11735 : DEPTH DRILLER
DL  .FT                11734 : DEPTH LOGGER
BLI .FT                11729 : BOTTOM LOG INTERVAL
TLI .FT                 1202 : TOP LOG INTERVAL
CBD .FT                 1202 : CASING BOTTOM DRILLER
CBL .FT                 1202 : CASING BOTTOM LOGGER
BS  .IN                 8.75 : BIT SIZE
BSD .FT                11735 : BIT SIZE AT DEPTH
DFT .              GEL BENEX : DRILLING FLUID TYPE
DFD .                    9.3 : DRILLING FLUID DENSITY
DFV .                     90 : DRILLING FLUID VISCOSITY
DFPH.                    8.0 : DRILLING FLUID PH
DFL .                   11.2 : DRILLING FLUID LOSS
RMS .OHMM               2.37 : RESISTIVITY MUD SAMPLE
MST .DEGF                 67 : MUD SAMPLE TEMPERATURE
RMF .OHMM               1.81 : RESISTIVITY MUD FILTRATE SAMPLE
MFST.DEGF                 66 : MUD FILTRATE SAMPLE TEMPERATURE
RMC .OHMM               2.83 : RESISTIVITY MUD CAKE
MCST.DEGF                 68 : MUD CAKE SAMPLE TEMPERATURE
RMB .OHMM               0.62 : RESISTIVITY MUD AT BHT
TCS .HRS                   2 : TIME CIRCULATED STOPPED
LUN .                   7502 : LOGGING UNIT NUMBER
LUL .                    EDM : LOGGING UNIT LOCATION
ENGI.               ARMENTAN : RECORDING ENGINEER
WITN.                   CHUK : WITNESSED BY
CLNT.                A2DTECH : CLIENT CODE
ORIG.            2" 5" PRINT : ORIGIN OF DATA
UWI .       100101905818W500 : UNIQUE WELL ID
DICO. A2D Technologies, Inc. : DIGITIZING COMPANY
~Other -----------------------------------------------------
~ASCII -----------------------------------------------------
# ...
 2550.00000    -999.25    -999.25   11.42330   11.42330  217.41430    -999.25    -999.25    -999.25    -999.25    -999.25    4.59980   99.38750   99.38750    -999.25   71.76790   71.76790    4.59980    4.65360    4.38700    4.65360    -999.25    -999.25    -999.25   91.51970   -5.19660    4.38700
 2600.00000    -999.25    -999.25   11.99730   11.99730  227.05600    -999.25    -999.25    -999.25    -999.25    -999.25    4.40420  137.70930  137.70930    -999.25   62.64230   62.64230    4.40420    4.58600   12.10960    4.58600    -999.25    -999.25    -999.25   92.21120   -4.50510   12.10960
 2650.00000    -999.25    -999.25   10.71940   10.71940  206.95580    -999.25    -999.25    -999.25    -999.25    -999.25    4.83200   90.97820   90.97820    -999.25   68.99630   68.99630    4.83200    4.77450    4.50400    4.77450    -999.25    -999.25    -999.25   92.43630   -4.28000    4.50400
 2700.00000    -999.25    -999.25   11.17160   11.17160  291.69830    -999.25    -999.25    -999.25    -999.25    -999.25    3.42820   97.49680   97.49680    -999.25   84.39720   84.39720    3.42820    3.58690    4.86590    3.58690    -999.25    -999.25    -999.25   94.84080   -1.87550    4.86590
 2750.00000    -999.25    -999.25   10.48270   10.48270  102.20560    -999.25    -999.25    -999.25    -999.25    -999.25    9.78420   84.19760   84.19760    -999.25   71.86320   71.86320    9.78420   11.50070   13.57600   11.50070    -999.25    -999.25    -999.25   84.18560  -12.48160   13.57600
 2800.00000    -999.25    -999.25   11.00830   11.00830  279.97010    -999.25    -999.25    -999.25    -999.25    -999.25    3.57190   99.04870   99.04870    -999.25   75.48720   75.48720    3.57190    3.60560    3.63820    3.60560    -999.25    -999.25    -999.25   91.27590   -5.23590    3.63820
 2850.00000    -999.25    -999.25   11.11030   11.11030  300.97820    -999.25    -999.25    -999.25    -999.25    -999.25    3.32250   92.15330   92.15330    -999.25   66.16990   66.16990    3.32250    3.42070    2.97030    3.42070    -999.25    -999.25    -999.25   91.41940   -4.93590    2.97030
 2900.00000    -999.25    -999.25   10.97050   10.97050  227.28130    -999.25    -999.25    -999.25    -999.25    -999.25    4.40260   97.87260   97.87260    -999.25   66.47780   66.47780    4.40260    4.46510    4.95090    4.46510    -999.25    -999.25    -999.25   85.93420  -10.26570    4.95090
 2950.00000    -999.25    -999.25   11.25190   11.25190  427.64280    -999.25    -999.25    -999.25    -999.25    -999.25    2.33840   95.87840   95.87840    -999.25   80.81870   80.81870    2.33840    2.40210    2.38450    2.40210    -999.25    -999.25    -999.25   91.04260   -5.00080    2.38450
 3000.00000    -999.25    -999.25   10.76670   10.76670  310.53010    -999.25    -999.25    -999.25    -999.25    -999.25    3.22030   99.59030   99.59030    -999.25   73.62760   73.62760    3.22030    3.31090    3.70330    3.31090    -999.25    -999.25    -999.25   90.25430   -5.63370    3.70330
 3050.00000    -999.25    -999.25   11.47700   11.47700  153.13040    -999.25    -999.25    -999.25    -999.25    -999.25    6.53460   84.91840   84.91840    -999.25   88.21240   88.21240    6.53460    6.82170    8.18150    6.82170    -999.25    -999.25    -999.25   88.02210   -7.71040    8.18150
 3100.00000    -999.25    -999.25   11.54750   11.54750  243.59940    -999.25    -999.25    -999.25    -999.25    -999.25    4.10510   87.43390   87.43390    -999.25   60.99120   60.99120    4.10510    4.06610    3.50110    4.06610    -999.25    -999.25    -999.25   91.28140   -4.29470    3.50110
 3150.00000    -999.25    -999.25   11.63450   11.63450  351.78260    -999.25    -999.25    -999.25    -999.25    -999.25    2.84270  101.08910  101.08910    -999.25   80.73190   80.73190    2.84270    2.95410    2.95490    2.95410    -999.25    -999.25    -999.25   91.98490   -3.43570    2.95490
 3200.00000    -999.25    -999.25   11.60690   11.60690  212.71620    -999.25    -999.25    -999.25    -999.25    -999.25    4.70110   96.79210   96.79210    -999.25   89.00010   89.00010    4.70110    4.86010    4.70680    4.86010    -999.25    -999.25    -999.25   91.08910   -4.17500    4.70680
 3250.00000    -999.25    -999.25   11.45250   11.45250  133.70590    -999.25    -999.25    -999.25    -999.25    -999.25    7.47910   88.66890   88.66890    -999.25   60.48070   60.48070    7.47910    7.65870    6.95300    7.65870    -999.25    -999.25    -999.25   84.68610  -10.42260    6.95300
 3300.00000    -999.25    -999.25   11.96450   11.96450  244.56030    -999.25    -999.25    -999.25    -999.25    -999.25    4.09020   93.01850   93.01850    -999.25   67.63070   67.63070    4.09020    4.29580    4.21930    4.29580    -999.25    -999.25    -999.25   90.48530   -4.46800    4.21930
 3350.00000    -999.25    -999.25   11.23010   11.23010  192.85290    -999.25    -999.25    -999.25    -999.25    -999.25    5.18530   89.86070   89.86070    -999.25   73.80520   73.80520    5.18530    5.24960    5.27230    5.24960    -999.25    -999.25    -999.25   90.47710   -4.33230    5.27230
 3400.00000    -999.25    -999.25   11.95610   11.95610  242.39550    -999.25    -999.25    -999.25    -999.25    -999.25    4.12690  108.54600  108.54600    -999.25   72.31060   72.31060    4.12690    4.27900    4.30950    4.27900    -999.25    -999.25    -999.25   89.09130   -6.52170    4.30950
 3450.00000    -999.25    -999.25   11.67900   11.67900   80.41110    -999.25    -999.25    -999.25    -999.25    -999.25   12.43610   81.87960   81.87960    -999.25   75.39080   75.39080   12.43610   13.73570   13.81800   13.73570    -999.25    -999.25    -999.25   80.03400  -16.38780   13.81800
 3500.00000    -999.25    -999.25   11.91950   11.91950  211.59540    -999.25    -999.25    -999.25    -999.25    -999.25    4.72600   92.41840   92.41840    -999.25   67.80470   67.80470    4.72600    4.96410    4.60750    4.96410    -999.25    -999.25    -999.25   81.37310  -15.85230    4.60750
 3550.00000    -999.25    -999.25   11.52390   11.52390  323.89130    -999.25    -999.25    -999.25    -999.25    -999.25    3.08750  108.50390  108.50390    -999.25   79.58650   79.58650    3.08750    3.13530    3.17840    3.13530    -999.25    -999.25    -999.25   81.38720  -16.64170    3.17840
 3600.00000    -999.25    -999.25   11.90280   11.90280  228.56100    -999.25    -999.25    -999.25    -999.25    -999.25    4.37520  104.26750  104.26750    -999.25   71.65920   71.65920    4.37520    5.19990    6.56520    5.19990    -999.25    -999.25    -999.25   80.27210  -18.56570    6.56520
 3650.00000    -999.25    -999.25   11.34630   11.34630  112.15030    -999.25    -999.25    -999.25    -999.25    -999.25    8.91690   83.84440   83.84440    -999.25   48.67050   48.67050    8.91690    9.99530    9.31610    9.99530    -999.25    -999.25    -999.25   74.98510  -24.65620    9.31610
 3700.00000    -999.25    -999.25   11.41610   11.41610  109.95780    -999.25    -999.25    -999.25    -999.25    -999.25    9.09440   80.45050   80.45050    -999.25   54.58150   54.58150    9.09440   10.76740   10.37370   10.76740    -999.25    -999.25    -999.25   76.24570  -24.20450   10.37370
 3750.00000    -999.25    -999.25   11.68620   11.68620  237.50150    -999.25    -999.25    -999.25    -999.25    -999.25    4.21050   99.55910   99.55910    -999.25   64.24530   64.24530    4.21050    4.34530    3.34070    4.34530    -999.25    -999.25    -999.25   84.69300  -16.56070    3.34070
 3800.00000    -999.25    -999.25   11.67570   11.67570  120.85100    -999.25    -999.25    -999.25    -999.25    -999.25    8.27820   82.02230   82.02230    -999.25   61.45860   61.45860    8.27820    9.66340   10.30980    9.66340    -999.25    -999.25    -999.25   78.61710  -23.44020   10.30980
 3850.00000    -999.25    -999.25   12.29480   12.29480  326.95770    -999.25    -999.25    -999.25    -999.25    -999.25    3.05850  114.39250  114.39250    -999.25   70.97000   70.97000    3.05850    3.15960    4.27120    3.15960    -999.25    -999.25    -999.25   83.37330  -19.49280    4.27120
