~Version ---------------------------------------------------
VERS.      2.0 : CWLS log ASCII Standard -VERSION 2.0
WRAP.       NO : One line per depth step
CREA. 08/04/17 : LAS Creation Date
~Well ------------------------------------------------------
STRT.FT                          1000.0 : START DEPTH
STOP.FT                          9750.0 : STOP DEPTH
STEP.FT                        50.00000 : STEP LENGTH
NULL.                           -999.25 : NULL VALUE
COMP.       BRITISH AMERICAN OIL CO LTD : COMPANY
WELL. B. A. ET AL SAKWATAMAU 2-32-64-14 : WELL
FLD .                                   : FIELD
LOC .                                   : LOCATION
CTRY.                            CANADA : COUNTRY
SRVC.                        Lane Wells : SERVICE COMPANY
DATE.                       03-Apr-1966 : LOGDATE
PROV.                           Alberta : PROVINCE
UWI .                  100023206414W500 : UNIQUE WELL ID
SLAT.WGS84                     54.57622 : SURFACE LATITUDE
SLON.WGS84                    -116.0764 : SURFACE LONGITUDE
~Curve Information -----------------------------------------
DEPT  .FT    : Depth Curve
AC1ED .US/F  : DELTA T 1' SPACING FROM SONIC LOG
ACED  .US/F  : DELTA T 3' SPACING FROM SONIC LOG
CALWS .IN    : CALIPER [MCALED]
CILDED.MMHO  : CONDUCTIVITY FROM RESISTIVITY LOG
CONDWS.MMHO  : CONDUCTIVITY [1000/DRESWS]
DRESWS.OHMM  : DEEP RESISTIVITY [ILDED]
DTWS  .US/F  : COMPRESSIONAL SONIC [ACED SPL. TO AC1ED @4950.772'
GRSED .GAPI  : GAMMA RAY FROM SONIC LOG
GRWS  .GAPI  : GAMMA RAY [GRSED]
ILDED .OHMM  : DEEP INDUCTION FROM RESISTIVITY LOG
MCALED.IN    : MLT  CALIPER FROM ML LOG
SNED  .OHMM  : SHORT NORMAL FROM RESISTIVITY LOG
SPRED .MV    : SPONTANEOUS POTENTIAL FROM RESISTIVITY LOG
SPWS  .MV    : SPONTANEOUS POTENTIAL [BASELINE 0 MV, SPRED]
SRESWS.OHMM  : SHALLOW RESISTIVITY [SNED]
~Params ----------------------------------------------------
PD  .                     GL : PERMANENT DATUM
EPD .FT               3517.7 : ELEVATION PERMANENT DATUM
LMF .                     KB : LOG MEASURED FROM
DAPD.FT                 13.6 : FEET ABOVE PERMANENT DATUM
DMF .                     KB : DRILLING MEASURED FROM
EKB .FT               3531.3 : KELLY BUSHING
EGL .FT               3517.7 : GROUND LEVEL
DATE.               04/03/66 : RUN DATE
RUN .                      1 : RUN NUMBER
DD  .FT                 9767 : DEPTH DRILLER
DL  .FT                 9765 : DEPTH LOGGER
BLI .FT                 9761 : BOTTOM LOG INTERVAL
TLI .FT                  993 : TOP LOG INTERVAL
CS  .IN                9.625 : CASING SIZE
CBD .FT                  991 : CASING BOTTOM DRILLER
CBL .FT                  993 : CASING BOTTOM LOGGER
BS  .IN                 8.75 : BIT SIZE
BSD .FT                 9767 : BIT SIZE AT DEPTH
DFT .           MUD GEL CHEM : DRILLING FLUID TYPE
DFD .                   10.1 : DRILLING FLUID DENSITY
DFV .                    130 : DRILLING FLUID VISCOSITY
DFPH.                    9.5 : DRILLING FLUID PH
DFL .                      9 : DRILLING FLUID LOSS
MSS .                   CIRC : MUD SAMPLE SOURCE
RMS .OHMM                  2 : RESISTIVITY MUD SAMPLE
MST .DEGF                 60 : MUD SAMPLE TEMPERATURE
RMF .OHMM                1.6 : RESISTIVITY MUD FILTRATE SAMPLE
MFST.DEGF                 70 : MUD FILTRATE SAMPLE TEMPERATURE
RMC .OHMM                2.2 : RESISTIVITY MUD CAKE
MCST.DEGF                 70 : MUD CAKE SAMPLE TEMPERATURE
MFSS.                   MEAS : MUD FILTRATE SAMPLE SOURCE
MCSS.                   MEAS : MUD CAKE SAMPLE SOURCE
RMB .OHMM               0.71 : RESISTIVITY MUD AT BHT
TCS .HRS                   4 : TIME CIRCULATED STOPPED
LUN .                   8038 : LOGGING UNIT NUMBER
LUL .                     SL : LOGGING UNIT LOCATION
ENGI.                   COLE : RECORDING ENGINEER
WITN.              DAAE LOCK : WITNESSED BY
CLNT.                A2DTECH : CLIENT CODE
ORIG.            2" 5" PRINT : ORIGIN OF DATA
UWI .       100023206414W500 : UNIQUE WELL ID
DICO. A2D Technologies, Inc. : DIGITIZING COMPANY
~Other -----------------------------------------------------
~ASCII -----------------------------------------------------
# ...
 5600.00000   78.99160    -999.25   10.99640  186.50080  175.57100    5.69570   78.99160   54.96930   54.96930    5.69570   10.99640    6.58980  -56.10220  -17.76060    6.58980
 5650.00000   96.00370    -999.25   11.25340  213.86830  206.94260    4.83850   96.00370   53.92840   53.92840    4.83850   11.25340    5.58010  -47.76030  -10.29360    5.58010
 5700.00000   76.06790    -999.25   10.43830  170.90650  163.62060    6.11170   76.06790   59.20390   59.20390    6.11170   10.43830    6.85780  -43.16800   -6.58190    6.85780
 5750.00000   66.07070    -999.25   11.82080  142.17030  126.77160    7.88820   66.07070   42.52210   42.52210    7.88820   11.82080    8.28570  -45.52570   -9.68280    8.28570
 5800.00000   78.66490    -999.25   10.77050  102.59650   93.17270   10.73730   78.66490   56.78020   56.78020   10.73730   10.77050   13.38820  -48.20940  -13.09750   13.38820
 5850.00000   73.08380    -999.25   10.96370  103.68890   94.35920   10.59780   73.08380   68.03240   68.03240   10.59780   10.96370   15.31680  -42.90800   -9.00080   15.31680
 5900.00000   70.62850    -999.25   10.06730  188.19880  164.85020    6.07580   70.62850   59.74430   59.74430    6.07580   10.06730    8.96540  -45.60480  -13.01770    8.96540
 5950.00000   80.83700    -999.25    8.05510  111.24090  102.31230    9.77400   80.83700   17.80080   17.80080    9.77400    8.05510   33.63030 -109.37920  -78.12090   33.63030
 6000.00000   62.62600    -999.25    9.15630   17.93680   12.35120   80.96370   62.62600   22.68880   22.68880   80.96370    9.15630   88.14700  -50.17900  -20.24070   88.14700
 6050.00000   61.17460    -999.25    9.96690   82.57760   75.60640   13.39960   61.17460   34.12190   34.12190   13.39960    9.96690   18.58060  -61.99880  -32.84490   18.58060
 6100.00000   62.41130    -999.25    9.69160   64.92840   54.74410   18.26680   62.41130   34.24390   34.24390   18.26680    9.69160   27.36930  -33.90370   -5.29050   27.36930
 6150.00000   71.45380    -999.25    9.50500  459.21530  368.64550    2.71270   71.45380   30.91580   30.91580    2.71270    9.50500   14.30770 -131.46930 -103.39320   14.30770
 6200.00000   62.36550    -999.25    8.55250  115.49970  107.46330    9.30550   62.36550   26.73110   26.73110    9.30550    8.55250   27.08130  -77.30560  -49.77020   27.08130
 6250.00000   60.63960    -999.25    8.93250   55.42920   48.72750   20.52230   60.63960   18.58270   18.58270   20.52230    8.93250   51.67790  -73.66630  -46.66800   51.67790
 6300.00000   54.25270    -999.25    9.06540   47.32010   41.51420   24.09470   54.25270   12.83160   12.83160   24.09470    9.06540   76.32150 -179.84800 -153.38690   76.32150
 6350.00000   53.05140    -999.25    9.29750   30.45620   26.19800   38.17080   53.05140   16.75980   16.75980   38.17080    9.29750  106.17980 -171.16700 -145.24660  106.17980
 6400.00000   52.68540    -999.25   10.69550   26.92140   21.81750   45.83490   52.68540   13.60870   13.60870   45.83490   10.69550  102.68460 -104.29710  -78.91380  102.68460
 6450.00000   71.94680    -999.25   10.07220  371.50340  298.56090    3.34940   71.94680   60.47240   60.47240    3.34940   10.07220    3.80550  -57.95360  -33.11100    3.80550
 6500.00000   61.80090    -999.25    9.61620  231.11880  202.65070    4.93460   61.80090   43.48460   43.48460    4.93460    9.61620   10.52460  -60.83920  -36.53370   10.52460
 6550.00000   55.83890    -999.25    9.54920   53.42000   47.97430   20.84840   55.83890   26.39970   26.39970   20.84840    9.54920   27.85690  -45.37990  -21.61160   27.85690
 6600.00000   54.13930    -999.25    8.94470   31.13700   23.51600   42.52430   54.13930   17.20070   17.20070   42.52430    8.94470   54.54990  -42.24180  -19.01410   54.54990
 6650.00000   56.17280    -999.25    9.98860   32.31610   27.65580   36.15890   56.17280   16.20220   16.20220   36.15890    9.98860   47.34040  -37.12920  -14.43870   47.34040
 6700.00000   54.26090    -999.25    9.30020   37.66870   31.98650   31.26320   54.26090   10.57020   10.57020   31.26320    9.30020   45.77450  -75.11460  -52.44760   45.77450
 6750.00000   56.61340    -999.25    9.09930   42.58030   37.69430   26.52920   56.61340   24.68200   24.68200   26.52920    9.09930   32.72050  -35.72180  -12.86410   32.72050
 6800.00000   55.94890    -999.25    8.95660   41.53830   37.04580   26.99370   55.94890   26.02010   26.02010   26.99370    8.95660   34.09990  -38.35690  -15.30850   34.09990
 6850.00000   56.78730    -999.25    9.36430   41.22120   36.64940   27.28560   56.78730   22.86450   22.86450   27.28560    9.36430   41.10690  -36.96370  -13.72330   41.10690
 6900.00000   59.13610    -999.25    9.07250   34.01350   29.97140   33.37350   59.13610   24.77200   24.77200   33.37350    9.07250   43.89210  -40.39080  -21.49500   43.89210
 6950.00000   84.09990    -999.25   11.10450  165.77880  147.83930    6.76410   84.09990   75.96330   75.96330    6.76410   11.10450   10.24230  -24.20930  -12.20210   10.24230
 7000.00000   60.21040    -999.25    9.90560   83.88960   78.52560   12.73470   60.21040   38.51140   38.51140   12.73470    9.90560   20.88020  -39.86430  -30.52520   20.88020
 7050.00000   51.67210    -999.25    9.45460   13.28220    7.43340  134.64080   51.67210    9.06400    9.06400  134.64080    9.45460  130.04570  -45.95260  -34.34760  130.04570
 7100.00000   50.62090    -999.25    9.45980   13.84700    7.09530  140.93840   50.62090   12.75480   12.75480  140.93840    9.45980   85.66640  -95.38920  -83.90790   85.66640
 7150.00000   51.34680    -999.25    9.40240   15.90840    8.99770  111.15290   51.34680   15.70990   15.70990  111.15290    9.40240  104.66140  -61.67670  -50.31820  104.66140
 7200.00000   52.99640    -999.25   10.30570   18.59310   12.49900   80.00650   52.99640   11.09620   11.09620   80.00650   10.30570   82.96460 -100.57480  -89.34000   82.96460
 7250.00000   50.28230    -999.25    9.30890   19.73710   13.63280   73.35230   50.28230   11.98870   11.98870   73.35230    9.30890   92.43230 -113.34980 -102.23780   92.43230
 7300.00000   51.06050    -999.25    9.04870   38.86280   34.20120   29.24090   51.06050   15.71970   15.71970   29.24090    9.04870  102.81400 -135.49670 -124.50760  102.81400
 7350.00000   53.77630    -999.25    8.82640   30.00720   24.49130   40.83080   53.77630   11.46590   11.46590   40.83080    8.82640   95.12820 -149.76250 -138.89700   95.12820
 7400.00000   51.74390    -999.25    9.62660   17.57610   11.21480   89.17910   51.74390   10.83860   10.83860   89.17910    9.62660  113.41660 -144.75220 -134.00960  113.41660
 7450.00000   51.51290    -999.25    9.11480   30.18320   25.52820   39.17240   51.51290   12.73680   12.73680   39.17240    9.11480   97.18560 -154.67880 -144.05980   97.18560
 7500.00000   51.12550    -999.25   10.21780   15.11170    8.66020  115.47080   51.12550    7.77600    7.77600  115.47080   10.21780  113.76670 -117.34680 -106.85070  113.76670
 7550.00000   51.75000    -999.25    9.49580   13.31370    6.80590  146.93100   51.75000    8.39850    8.39850  146.93100    9.49580  107.76140  -96.51920  -86.14590  107.76140
 7600.00000   52.31480    -999.25    9.84550   13.78960    7.57620  131.99250   52.31480    8.58040    8.58040  131.99250    9.84550   87.73950 -101.48840  -91.23880   87.73950
 7650.00000   57.90100    -999.25    8.08090   47.47030   42.51020   23.53230   57.90100   11.85870   11.85870   23.53230    8.08090   84.40490 -155.30310 -145.17630   84.40490
 7700.00000   53.78570    -999.25    8.38350   29.08740   23.61400   42.34770   53.78570    9.71860    9.71860   42.34770    8.38350  105.02420 -155.91680 -145.91370  105.02420
 7750.00000   52.57580    -999.25    8.40200   33.79370   29.17250   34.27890   52.57580   14.36160   14.36160   34.27890    8.40200   83.29130 -139.56260 -129.68230   83.29130
 7800.00000   50.37480    -999.25    9.40170  102.86010   92.24820   10.85000   50.37480   15.78980   15.78980   10.85000    9.40170   31.65440  -81.99240  -72.23500   31.65440
 7850.00000   49.17010    -999.25    9.14600   57.46940   49.14030   20.34990   49.17010   20.37080   20.37080   20.34990    9.14600   78.44150 -137.31590 -127.68210   78.44150
