~Version ---------------------------------------------------
VERS.      2.0 : CWLS log ASCII Standard -VERSION 2.0
WRAP.       NO : One line per depth step
CREA. 08/01/17 : LAS Creation Date
~Well ------------------------------------------------------
STRT.FT           1100.0 : START DEPTH
STOP.FT          11400.0 : STOP DEPTH
STEP.FT         50.00000 : STEP LENGTH
NULL.            -999.25 : NULL VALUE
COMP.    SUN OIL COMPANY : COMPANY
WELL. SUN TONY 2-2-63-22 : WELL
FLD .                 WC : FIELD
LOC .                    : LOCATION
CTRY.             CANADA : COUNTRY
SRVC.       Schlumberger : SERVICE COMPANY
DATE.        01-Apr-1963 : LOGDATE
PROV.            Alberta : PROVINCE
UWI .   100020206322W500 : UNIQUE WELL ID
SLAT.WGS84      54.41639 : SURFACE LATITUDE
SLON.WGS84     -117.2104 : SURFACE LONGITUDE
~Curve Information -----------------------------------------
DEPT  .FT    : Depth Curve
CALSED.IN    : CALIPER FROM SL-GR-CAL LOG
CALWS .IN    : CALIPER [CALSED]
CILDED.MMHO  : DEEP INDUCTION CONDUCTIVITY FROM EL LOG
CONDWS.MMHO  : CONDUCTIVITY [CILDED]
DRESWS.OHMM  : DEEP RESISTIVITY [CALCULATED FROM 1000/CILDED, IF ILDED<1, ILDED]
DTED  .US/F  : DELTA-T (INTERVAL TRANSIT TIME) FROM EL LOG
DTWS  .US/F  : COMPRESSIONAL  SONIC [DTED]
GRSED .GAPI  : GAMMA RAY FROM SL-GR-CAL LOG
GRWS  .GAPI  : GAMMA RAY [GRSED]
ILDED .OHMM  : DEEP INDUCTION RESISTIVITY FROM EL LOG
SNED  .OHMM  : SHORT NORMAL RESISTIVITY FROM EL LOG
SPRED .MV    : SPONTANEOUS POTENTIAL FROM RESISTIVITY LOG
SPWS  .MV    : SPONTANEOUS POTENTIAL [BASELINE 0 MV, SPRED]
SRESWS.OHMM  : SHALLOW RESISTIVITY [SNED]
~Params ----------------------------------------------------
PD  .                     GL : PERMANENT DATUM
EPD .FT                 2843 : ELEVATION PERMANENT DATUM
LMF .                     KB : LOG MEASURED FROM
DAPD.FT                   13 : FEET ABOVE PERMANENT DATUM
EKB .FT                 2856 : KELLY BUSHING
EGL .FT                 2843 : GROUND LEVEL
DATE.               04/01/63 : RUN DATE
RUN .                      1 : RUN NUMBER
DD  .FT                11440 : DEPTH DRILLER
DL  .FT                11443 : DEPTH LOGGER
BLI .FT                11442 : BOTTOM LOG INTERVAL
TLI .FT                 1189 : TOP LOG INTERVAL
CBD .FT                 1189 : CASING BOTTOM DRILLER
CBL .FT                 1189 : CASING BOTTOM LOGGER
BS  .IN                 8.75 : BIT SIZE
BSD .FT                11440 : BIT SIZE AT DEPTH
DFT .                    GEL : DRILLING FLUID TYPE
DFD .                    9.8 : DRILLING FLUID DENSITY
DFV .                    135 : DRILLING FLUID VISCOSITY
DFPH.                    9.5 : DRILLING FLUID PH
DFL .                    9.2 : DRILLING FLUID LOSS
RMS .OHMM               2.04 : RESISTIVITY MUD SAMPLE
MST .DEGF                 64 : MUD SAMPLE TEMPERATURE
RMF .OHMM               1.36 : RESISTIVITY MUD FILTRATE SAMPLE
MFST.DEGF                 74 : MUD FILTRATE SAMPLE TEMPERATURE
RMC .OHMM               2.43 : RESISTIVITY MUD CAKE
MCST.DEGF                 74 : MUD CAKE SAMPLE TEMPERATURE
RMB .OHMM                0.7 : RESISTIVITY MUD AT BHT
TCS .HRS                   3 : TIME CIRCULATED STOPPED
LUN .                   1534 : LOGGING UNIT NUMBER
LUL .                     VV : LOGGING UNIT LOCATION
ENGI.                  KEOWN : RECORDING ENGINEER
WITN.                 FENTON : WITNESSED BY
CLNT.                A2DTECH : CLIENT CODE
ORIG.            2" 5" PRINT : ORIGIN OF DATA
UWI .       100020206322W500 : UNIQUE WELL ID
DICO. A2D Technologies, Inc. : DIGITIZING COMPANY
~Other -----------------------------------------------------
ALL CURVES HAVE BEEN TAKEN IN 1"SECTION @CSG. TO 6980'.
~ASCII -----------------------------------------------------
 1100.00000    -999.25    -999.25    -999.25    -999.25    -999.25    -999.25    -999.25   41.88280   41.88280    -999.25    -999.25    -999.25    -999.25    -999.25
 1150.00000    -999.25    -999.25    -999.25    -999.25    -999.25    -999.25    -999.25   44.01260   44.01260    -999.25    -999.25    -999.25    -999.25    -999.25
 1200.00000   10.64000   10.64000  198.95510  198.95510    5.68020  139.06930  139.06930   81.61320   81.61320    5.68020    7.39950 -154.07050  -18.68590    7.39950
 1250.00000   11.30200   11.30200  181.91930  181.91930    5.82100   99.83750   99.83750   86.15020   86.15020    5.82100    6.76610 -159.82610  -24.44150    6.76610
 1300.00000   10.61560   10.61560   72.96040   72.96040   13.33580   94.96060   94.96060   61.59860   61.59860   13.33580   10.17510 -159.34500  -24.02150   10.17510
 1350.00000   12.76830   12.76830  197.72730  197.72730    5.23190  129.12120  129.12120   89.56960   89.56960    5.23190    6.40270 -159.59210  -24.35840    6.40270
 1400.00000   11.43390   11.43390  207.44960  207.44960    5.43190  123.21880  123.21880   91.42830   91.42830    5.43190    6.10110 -158.98160  -23.83770    6.10110
 1450.00000   10.63940   10.63940  122.42360  122.42360    7.87530   95.04580   95.04580   77.00070   77.00070    7.87530    7.66330 -152.26550  -17.21140    7.66330
 1500.00000   11.34690   11.34690  139.85450  139.85450    7.28330   96.59470   96.59470   82.28060   82.28060    7.28330    7.23780 -151.02830  -16.06400    7.23780
 1550.00000   10.49200   10.49200   78.96290   78.96290   11.67090   97.52000   97.52000   78.09340   78.09340   11.67090   10.65730 -152.49280  -17.61830   10.65730
 1600.00000   11.45880   11.45880  336.50820  336.50820    4.12700  130.36060  130.36060   88.72480   88.72480    4.12700    5.02510 -152.99040  -18.20570    5.02510
 1650.00000   10.75480   10.75480  217.20440  217.20440    5.07430  128.44380  128.44380   80.43770   80.43770    5.07430    6.85050 -151.41790  -16.72310    6.85050
 1700.00000   10.57330   10.57330  208.12380  208.12380    5.40190  108.82300  108.82300   93.94680   93.94680    5.40190    5.94560 -139.76430   -5.15930    5.94560
 1750.00000   10.96120   10.96120  184.77330  184.77330    5.59230  133.30260  133.30260   96.41290   96.41290    5.59230    7.57850 -154.97470  -20.45950    7.57850
 1800.00000   11.18360   11.18360  164.42280  164.42280    6.28820  105.14150  105.14150   84.35020   84.35020    6.28820    6.71120 -157.17160  -22.74620    6.71120
 1850.00000   10.39580   10.39580   55.22990   55.22990   15.46500   90.38010   90.38010   57.76180   57.76180   15.46500   12.78940 -159.59300  -25.25740   12.78940
 1900.00000   10.11400   10.11400   52.62410   52.62410   16.65650   80.00500   80.00500   53.74820   53.74820   16.65650   15.12450 -163.09300  -28.84720   15.12450
 1950.00000   11.25700   11.25700  179.01930  179.01930    5.76910  106.51930  106.51930   72.40160   72.40160    5.76910    6.05710 -153.98470  -19.82870    6.05710
 2000.00000   10.20940   10.20940   91.41990   91.41990   10.06370  100.41160  100.41160   81.86230   81.86230   10.06370   11.80030 -157.15680  -23.09060   11.80030
 2050.00000    8.44070    8.44070   90.18140   90.18140   10.30080   99.93220   99.93220   54.95570   54.95570   10.30080   11.85090 -162.12830  -28.15190   11.85090
 2100.00000   10.30600   10.30600   63.26060   63.26060   13.67870   90.57020   90.57020   60.50460   60.50460   13.67870   10.54790 -150.10060  -16.21410   10.54790
 2150.00000   10.58690   10.58690   59.47410   59.47410   14.94930  116.87050  116.87050   64.07560   64.07560   14.94930   13.31210 -151.04500  -17.24830   13.31210
 2200.00000   10.60020   10.60020  110.25070  110.25070    8.69000   96.18890   96.18890   65.54570   65.54570    8.69000    9.59240 -155.29700  -21.59010    9.59240
 2250.00000   10.74320   10.74320  279.32340  279.32340    4.25710  127.79380  127.79380   94.57520   94.57520    4.25710    4.98150 -154.59680  -20.97970    4.98150
 2300.00000   10.00910   10.00910  394.18470  394.18470    3.80350  129.87980  129.87980  105.76520  105.76520    3.80350    4.56010 -154.56490  -21.03760    4.56010
 2350.00000   10.33280   10.33280  405.23060  405.23060    3.37160  142.99510  142.99510  114.87750  114.87750    3.37160    4.32400 -152.92360  -19.48610    4.32400
 2400.00000   10.73400   10.73400  186.12840  186.12840    6.31540  115.79540  115.79540   87.74800   87.74800    6.31540    7.53280 -157.97660  -24.62890    7.53280
 2450.00000   10.16840   10.16840  235.09540  235.09540    4.68160   98.78060   98.78060   88.57180   88.57180    4.68160    5.62840 -151.84040  -23.61790    5.62840
 2500.00000    9.73080    9.73080  352.78450  352.78450    3.66650  112.33520  112.33520   96.96750   96.96750    3.66650    4.86590 -156.58630  -34.44810    4.86590
 2550.00000    9.74030    9.74030  179.70090  179.70090    5.89620  130.15670  130.15670   69.87790   69.87790    5.89620    6.43020 -154.54090  -38.48700    6.43020
 2600.00000    8.85590    8.85590   94.05260   94.05260   10.41150   92.73710   92.73710   62.76210   62.76210   10.41150   10.18980 -161.30770  -51.33820   10.18980
 2650.00000    9.87400    9.87400  346.08330  346.08330    3.88730  131.59780  131.59780   85.32020   85.32020    3.88730    5.31770 -152.38060  -43.82770    5.31770
 2700.00000    9.87880    9.87880  214.71530  214.71530    5.06850  127.81470  127.81470   75.09720   75.09720    5.06850    5.49680 -155.61480  -46.57210    5.49680
 2750.00000   11.98350   11.98350  261.76480  261.76480    4.42290  123.95780  123.95780   76.25890   76.25890    4.42290    5.44200 -153.99750  -44.46490    5.44200
 2800.00000   10.40970   10.40970  146.17230  146.17230    6.67720   92.28240   92.28240   74.98820   74.98820    6.67720    7.38140 -149.75020  -39.72780    7.38140
 2850.00000   10.43400   10.43400  256.59860  256.59860    4.50530  136.15460  136.15460   75.87900   75.87900    4.50530    5.89290 -153.32530  -42.81310    5.89290
 2900.00000   11.00890   11.00890  200.53550  200.53550    5.29270  119.71060  119.71060   72.41730   72.41730    5.29270    6.12210 -154.53700  -43.53490    6.12210
 2950.00000   11.02760   11.02760  189.49330  189.49330    5.63400  104.20870  104.20870   64.72550   64.72550    5.63400    6.09580 -153.74030  -42.24840    6.09580
 3000.00000   10.16750   10.16750  164.54290  164.54290    6.33250   96.45050   96.45050   68.66550   68.66550    6.33250    8.85060 -153.12280  -41.14100    8.85060
 3050.00000    9.64240    9.64240  105.22020  105.22020    8.87050   93.02290   93.02290   59.83810   59.83810    8.87050   10.39950 -151.91080  -39.43920   10.39950
 3100.00000    9.40270    9.40270  152.25220  152.25220    6.75300   95.99060   95.99060   69.63580   69.63580    6.75300    8.18840 -151.92800  -38.96660    8.18840
 3150.00000   11.37130   11.37130  127.09350  127.09350    8.24390   97.84980   97.84980   71.80580   71.80580    8.24390   10.00850 -154.55760  -41.10630   10.00850
 3200.00000   12.94830   12.94830  141.62030  141.62030    7.29390   96.57940   96.57940   71.66430   71.66430    7.29390    7.94630 -153.04430  -39.10320    7.94630
 3250.00000    9.22700    9.22700   54.19260   54.19260   16.62850   90.35450   90.35450   47.84380   47.84380   16.62850   16.15300 -167.68290  -53.25200   16.15300
 3300.00000   11.83170   11.83170  278.04430  278.04430    4.34680  102.98420  102.98420   67.11970   67.11970    4.34680    5.11900 -150.04800  -34.87500    5.11900
 3350.00000   10.19570   10.19570  168.12140  168.12140    6.13900  100.18060  100.18060   70.76180   70.76180    6.13900    7.12950 -151.41040  -33.22520    7.12950
 3400.00000    9.64170    9.64170   57.66940   57.66940   15.59420   87.89940   87.89940   50.42520   50.42520   15.59420   17.15210 -170.67950  -49.48220   17.15210
 3450.00000    9.36490    9.36490  192.14200  192.14200    5.63900   99.72020   99.72020   73.33340   73.33340    5.63900    6.77120 -153.67830  -29.46880    6.77120
 3500.00000   10.85840   10.85840  199.63840  199.63840    5.57480  106.16950  106.16950   77.74200   77.74200    5.57480    6.54930 -153.61420  -26.39250    6.54930
