~Version ---------------------------------------------------
VERS.      2.0 : CWLS log ASCII Standard -VERSION 2.0
WRAP.       NO : One line per depth step
CREA. 11/17/17 : LAS Creation Date
~Well ------------------------------------------------------
STRT.FT                            950.0 : START DEPTH
STOP.FT                           9400.0 : STOP DEPTH
STEP.FT                         50.00000 : STEP LENGTH
NULL.                            -999.25 : NULL VALUE
COMP.       CANADIAN HOMESTEAD OILS LTD. : COMPANY
WELL. HOMESTEAD ET AL SWEATH 10-34-68-19 : WELL
FLD .                                    : FIELD
LOC .                                    : LOCATION
CTRY.                             CANADA : COUNTRY
SRVC.                       Schlumberger : SERVICE COMPANY
DATE.                        03-Mar-1975 : LOGDATE
PROV.                            Alberta : PROVINCE
UWI .                   100103406819W500 : UNIQUE WELL ID
SLAT.WGS84                      54.93303 : SURFACE LATITUDE
SLON.WGS84                     -116.8066 : SURFACE LONGITUDE
~Curve Information -----------------------------------------
DEPT    .FT    : Depth Curve
CALSED  .IN    : CALIPER FROM SONIC LOG
CALWS   .IN    : CALIEPR [CALSED]
CONDWS  .MMHO  : CONDUCTIVITY [1000/DRESWS]
DRESWS  .OHMM  : DEEP RESISTIVITY [ILDED]
DTED    .US/F  : DELTA TIME FROM SONIC LOG
DTWS    .US/F  : COMPRESSIONAL SONIC [DTED]
GRSED   .GAPI  : GAMMA RAY FROM SONIC LOG
GRWS    .GAPI  : GAMMA RAY [GRSED]
ILDED   .OHMM  : DEEP INDUCTION RESISTIVITY FROM RESISTIVITY LOG
ILMED   .OHMM  : MEDIUM INDUCTION RESISTIVITY FROM RESISTIVITY LOG
LL8ED   .OHMM  : 8 INCH LATEROLOG RESISTIVITY FROM RESISTIVITY LOG
MRESWS  .OHMM  : MEDIUM RESISTIVITY [ILMED]
PORALSED.V/V   : SONIC POROSITY LIMESTONE [DTM=47.6, DTF=189] FROM SONIC LOG
SPOLSWS .V/V   : SONIC POROSITY LIMESTONE [PORALSED]
SPRED   .MV    : SPONTANEOUS POTENTIAL FROM RESISTIVITY LOG
SPWS    .MV    : SPONTANEOUS POTENTIAL [BASELINE 0 MV, SPRED]
SRESWS  .OHMM  : SHALLOW RESISTIVITY [LL8ED]
~Params ----------------------------------------------------
PD  .                     GL : PERMANENT DATUM
EPD .FT               2656.5 : ELEVATION PERMANENT DATUM
LMF .                     KB : LOG MEASURED FROM
DAPD.FT                 17.2 : FEET ABOVE PERMANENT DATUM
EKB .FT               2673.7 : KELLY BUSHING
EGL .FT               2656.5 : GROUND LEVEL
DATE.               03/03/75 : RUN DATE
RUN .                      1 : RUN NUMBER
DD  .FT                 9435 : DEPTH DRILLER
DL  .FT                 9447 : DEPTH LOGGER
BLI .FT                 9441 : BOTTOM LOG INTERVAL
TLI .FT                  970 : TOP LOG INTERVAL
CS  .IN                8.625 : CASING SIZE
CBD .FT                  970 : CASING BOTTOM DRILLER
CBL .FT                  970 : CASING BOTTOM LOGGER
BS  .IN                7.875 : BIT SIZE
BSD .FT                 9435 : BIT SIZE AT DEPTH
DFT .               GEL CHEM : DRILLING FLUID TYPE
DFD .                    9.1 : DRILLING FLUID DENSITY
DFV .                    100 : DRILLING FLUID VISCOSITY
DFPH.                    9.5 : DRILLING FLUID PH
DFL .                     12 : DRILLING FLUID LOSS
MSS .               FLOWLINE : MUD SAMPLE SOURCE
RMS .OHMM               2.56 : RESISTIVITY MUD SAMPLE
MST .DEGF                 66 : MUD SAMPLE TEMPERATURE
RMF .OHMM               2.28 : RESISTIVITY MUD FILTRATE SAMPLE
MFST.DEGF                 68 : MUD FILTRATE SAMPLE TEMPERATURE
RMC .OHMM               3.05 : RESISTIVITY MUD CAKE
MCST.DEGF                 67 : MUD CAKE SAMPLE TEMPERATURE
RMB .OHMM               0.76 : RESISTIVITY MUD AT BHT
TCS .HRS                 4.5 : TIME CIRCULATED STOPPED
LUN .                   7730 : LOGGING UNIT NUMBER
LUL .                    EDM : LOGGING UNIT LOCATION
ENGI.                 SMILEY : RECORDING ENGINEER
WITN.                 KENNEY : WITNESSED BY
CLNT.                A2DTECH : CLIENT CODE
ORIG.            2" 5" PRINT : ORIGIN OF DATA
UWI .       100103406819W500 : UNIQUE WELL ID
DICO. A2D Technologies, Inc. : DIGITIZING COMPANY
~Other -----------------------------------------------------
DIL-BCS LOG RUN.
SEVERE SP DRIFT DOWNHOLE. SEVERAL ELECTRICAL BASELINE SHIFTS.
SP BASELINE QUESTIONABLE
~ASCII -----------------------------------------------------
# ...
 5050.00000   11.82480   11.82480  263.06590    3.81930  118.85560  118.85560  104.02310  104.02310    3.81930    4.42080    6.87670    4.42080    0.45130    0.45130  144.33590   -4.70920    6.87670
 5100.00000    8.71370    8.71370   99.37990   10.06240  108.67310  108.67310  160.79500  160.79500   10.06240   10.66510   17.78480   10.66510    0.43490    0.43490  149.26350   -3.49940   17.78480
 5150.00000    8.25230    8.25230    5.52350  181.30940   73.59370   73.59370  303.06300  303.06300  181.30940  530.23390 1544.27330  530.23390    0.15560    0.15560  143.09260  -14.45350 1544.27330
 5200.00000    8.22250    8.22250   42.99500   23.25850  118.35350  118.35350  253.25040  253.25040   23.25850   68.59890 1504.23100   68.59890    0.45020    0.45020  147.52930  -16.53960 1504.23100
 5250.00000    7.72700    7.72700  244.54660    4.08920   73.68450   73.68450   85.14780   85.14780    4.08920    7.33470   20.77370    7.33470    0.15460    0.15460   96.62840  -73.92070   20.77370
 5300.00000    7.78760    7.78760  321.44130    3.11400   72.96740   72.96740   79.89030   79.89030    3.11400    5.60440   20.54060    5.60440    0.15130    0.15130   87.59200  -89.43730   20.54060
 5350.00000    7.78950    7.78950  341.54170    2.92790   74.38850   74.38850   95.67130   95.67130    2.92790    4.63490   11.02230    4.63490    0.16180    0.16180   83.95360  -99.59850   11.02230
 5400.00000    7.35330    7.35330  729.49350    1.37120   69.45780   69.45780   18.69740   18.69740    1.37120    2.68930   29.85530    2.68930    0.16570    0.16570   10.89080 -179.14140   29.85530
 5450.00000    7.49590    7.49590  454.42150    2.20060   61.37010   61.37010   24.17350   24.17350    2.20060    2.66900    8.94070    2.66900    0.11560    0.11560   25.55510 -170.99990    8.94070
 5500.00000    8.23270    8.23270   72.21680   13.84720   49.62130   49.62130   29.29650   29.29650   13.84720   17.67470   26.43140   17.67470    0.03130    0.03130  109.71540  -93.31980   26.43140
 5550.00000    8.72820    8.72820  338.96580    2.95010   68.08470   68.08470   50.01290   50.01290    2.95010    3.17710   10.94560    3.17710    0.16490    0.16490   75.43990 -134.07550   10.94560
 5600.00000    8.21400    8.21400  275.53520    3.62930   61.52750   61.52750   66.60460   66.60460    3.62930    6.72970   14.04180    6.72970    0.10900    0.10900   66.31950 -149.71870   14.04180
 5650.00000    8.14500    8.14500  193.25010    5.17590   54.01450   54.01450   20.29090   20.29090    5.17590    8.09370  155.56850    8.09370    0.05650    0.05650  -15.70900 -238.22730  155.56850
 5700.00000    8.63940    8.63940   39.15580   25.53900   57.45820   57.45820   59.45750   59.45750   25.53900   29.21170   40.89830   29.21170    0.08600    0.08600  109.72540 -119.31570   40.89830
 5750.00000    8.49440    8.49440   41.07940   24.34310   58.74940   58.74940   51.15540   51.15540   24.34310   31.33220   70.03130   31.33220    0.09440    0.09440  127.88540 -107.63590   70.03130
 5800.00000    8.83650    8.83650  166.48270    6.00780   62.82860   62.82860   58.55850   58.55850    6.00780    6.57690    8.66380    6.57690    0.12380    0.12380   97.09520 -144.90620    8.66380
 5850.00000    8.45400    8.45400  122.94070    8.13400   51.90820   51.90820   20.80020   20.80020    8.13400    9.85890  170.74930    9.85890    0.04200    0.04200   69.60010 -178.92410  170.74930
 5900.00000    8.49180    8.49180   68.94710   14.50550   56.38990   56.38990   25.46410   25.46410   14.50550   17.30180   40.38580   17.30180    0.07930    0.07930  114.75150 -140.25290   40.38580
 5950.00000   11.26150   11.26150  163.85380    6.10300   81.74580   81.74580   98.29940   98.29940    6.10300    7.38690    8.27790    7.38690    0.26310    0.26310  157.04860 -104.47860    8.27790
 6000.00000    7.83460    7.83460  117.97180    8.47660   57.12410   57.12410   19.72200   19.72200    8.47660   16.86130  180.35710   16.86130    0.08390    0.08390   28.39560 -239.61180  180.35710
 6050.00000    8.55440    8.55440  102.25540    9.78730   55.27540   55.27540   17.90170   17.90170    9.78730   16.45260  151.14600   16.45260    0.06860    0.06860   28.29020 -246.19730  151.14600
 6100.00000    8.87400    8.87400   38.67470   25.85670   51.54980   51.54980   13.83110   13.83110   25.85670   47.31530  112.15120   47.31530    0.04210    0.04210    4.85100 -276.15930  112.15120
 6150.00000    9.39480    9.39480   32.99290   30.38640   52.35850   52.35850   11.08230   11.08230   30.38640   50.39420  136.92820   50.39420    0.04670    0.04670  -17.74500 -305.23550  136.92820
 6200.00000    9.05060    9.05060  439.36730    2.27600   67.48150   67.48150   61.19780   61.19780    2.27600    2.56830    6.06520    2.56830    0.16090    0.16090   19.97240 -274.04090    6.06520
 6250.00000    8.99370    8.99370  362.45020    2.75900   67.67380   67.67380   64.83630   64.83630    2.75900    3.02970    4.89340    3.02970    0.16560    0.16560   62.96460 -237.52890    4.89340
 6300.00000    9.06970    9.06970   98.99510   10.10340   61.18450   61.18450   57.62980   57.62980   10.10340   11.42070   15.92210   11.42070    0.11310    0.11310  144.46310 -162.51050   15.92210
 6350.00000    9.06700    9.06700   28.92580   34.57120   53.74960   53.74960   38.64620   38.64620   34.57120   43.58820  446.32120   43.58820    0.06110    0.06110  308.14490   -5.35150  446.32120
 6400.00000    7.85980    7.85980   84.28730   11.92480   59.11820   59.11820   15.61200   15.61200   11.92480   19.75110  102.70250   19.75110    0.09800    0.09800  145.34810 -148.15480  102.70250
 6450.00000    9.34300    9.34300  112.53020    8.88650   63.12380   63.12380   63.79640   63.79640    8.88650   10.16040   22.27410   10.16040    0.13380    0.13380   85.18450 -187.86040   22.27410
 6500.00000    8.27520    8.27520   32.25010   31.00770   54.58790   54.58790   33.21910   33.21910   31.00770   36.08080   57.37650   36.08080    0.06260    0.06260    6.70090 -246.01970   57.37650
 6550.00000    8.20810    8.20810   34.98410   28.58720   55.26830   55.26830   34.22820   34.22820   28.58720   32.90580   55.74170   32.90580    0.06830    0.06830  -10.07460 -242.47100   55.74170
 6600.00000    8.20140    8.20140   27.93720   35.79460   55.67260   55.67260   35.51530   35.51530   35.79460   40.72100   52.13310   40.72100    0.07090    0.07090   61.43000 -150.50840   52.13310
 6650.00000    8.14050    8.14050   15.10870   66.18790   53.88810   53.88810   29.71280   29.71280   66.18790   81.98020  136.84000   81.98020    0.05780    0.05780  161.18400  -30.43020  136.84000
 6700.00000    8.30820    8.30820   19.82270   50.44720   55.73320   55.73320   39.13400   39.13400   50.44720   71.48670  121.44740   71.48670    0.07040    0.07040  157.61790  -17.46010  121.44740
 6750.00000    8.85960    8.85960   61.72880   16.19990   61.87590   61.87590   64.21840   64.21840   16.19990   18.48760   25.68550   18.48760    0.11860    0.11860  147.04980  -28.43000   25.68550
 6800.00000    9.12630    9.12630   21.02220   47.63680   51.34190   51.34190   33.73350   33.73350   47.63680   79.29000  184.72170   79.29000    0.03860    0.03860  127.28810  -48.59350  184.72170
 6850.00000    8.43100    8.43100    5.57530  179.36260   51.47020   51.47020   11.88480   11.88480  179.36260  377.28560 1005.07500  377.28560    0.03760    0.03760   94.21090  -82.07510 1005.07500
 6900.00000    9.36970    9.36970   22.04100   45.37000   52.47280   52.47280   18.83410   18.83410   45.37000   47.73010  108.89760   47.73010    0.04680    0.04680   -3.60960 -180.29740  108.89760
 6950.00000    8.96220    8.96220    8.72810  114.57210   49.87710   49.87710   13.90230   13.90230  114.57210  135.16870  299.70150  135.16870    0.02750    0.02750   26.69200 -150.40020  299.70150
 7000.00000    9.01000    9.01000    5.92020  168.91430   49.80730   49.80730   17.72750   17.72750  168.91430  205.23970  358.07350  205.23970    0.02670    0.02670   13.83040 -163.66350  358.07350
 7050.00000    8.75850    8.75850    6.43390  155.44440   49.76310   49.76310   16.36570   16.36570  155.44440  201.35130  303.54720  201.35130    0.02470    0.02470   94.86560  -83.03010  303.54720
