~Version ---------------------------------------------------
VERS.      2.0 : CWLS log ASCII Standard -VERSION 2.0
WRAP.       NO : One line per depth step
CREA. 09/21/17 : LAS Creation Date
~Well ------------------------------------------------------
STRT.FT                           650.0 : START DEPTH
STOP.FT                          7250.0 : STOP DEPTH
STEP.FT                        50.00000 : STEP LENGTH
NULL.                           -999.25 : NULL VALUE
COMP.          BP CANADA ENERGY COMPANY : COMPANY
WELL. MIC MAC CALSTAN MCKEE 11-36-32-20 : WELL
FLD .                                   : FIELD
LOC .                                   : LOCATION
CTRY.                            CANADA : COUNTRY
SRVC.            Schlumberger of Canada : SERVICE COMPANY
DATE.                       21-Feb-1958 : LOGDATE
PROV.                           Alberta : PROVINCE
UWI .                  100113603220W400 : UNIQUE WELL ID
SLAT.WGS84                     51.78864 : SURFACE LATITUDE
SLON.WGS84                    -112.7113 : SURFACE LONGITUDE
~Curve Information -----------------------------------------
DEPT  .FT         : Depth Curve
CALWS .IN         : CALIPER [MCALED]
CONDWS.MMHO       : CONDUCTIVITY [1000/DRESWS]
DRESWS.OHMM       : DEEP RESISTIVITY [LNED SPL. TO LLED @ 4920']
GRNED .UgRa-Eq/T  : GAMMA RAY FROM GRN LOG
GRWS  .GAPI       : GAMMA RAY [GRNED*16.5 TO CONVERT UgRa-Eq/T TO GAPI]
LLED  .OHMM       : LATEROLOG RESISTIVITY FROM LATEROLOG
LNED  .OHMM       : LONG NORMAL RESISTIVITY FROM EL LOG
LT18ED.OHMM       : 18' LATARAL LOG RESISTIVITY FROM EL LOG
MCALED.IN         : CALIPER FROM MICROLOG
NEUTED.CPS        : NEUTRON FROM GRN LOG
NEUTWS.CPS        : NEUTRON [NEUTED]
SNED  .OHMM       : 16 INCH SHORT NORMAL RESISTIVITY FROM EL LOG
SPRED .MV         : SPONTANEOUS POTENTIAL FROM RESISTIVITY LOG
SPWS  .MV         : SPONTANEOUS POTENTIAL [BASELINE 0 MV, SPRED]
SRESWS.OHMM       : SHALLOW RESISTIVITY [SNED]
~Params ----------------------------------------------------
LMF .                     KB : LOG MEASURED FROM
DMF .                     KB : DRILLING MEASURED FROM
EKB .FT                 2808 : KELLY BUSHING
EGL .FT                 2796 : GROUND LEVEL
DATE.               02/21/58 : RUN DATE
RUN .                      1 : RUN NUMBER
DD  .FT                 7280 : DEPTH DRILLER
DL  .FT                 7281 : DEPTH LOGGER
BLI .FT                 7277 : BOTTOM LOG INTERVAL
TLI .FT                 4925 : TOP LOG INTERVAL
CBD .FT                  609 : CASING BOTTOM DRILLER
CBL .FT                  608 : CASING BOTTOM LOGGER
BS  .IN                    9 : BIT SIZE
BSD .FT                 7280 : BIT SIZE AT DEPTH
DFT .              SALT BASE : DRILLING FLUID TYPE
DFD .                   11.4 : DRILLING FLUID DENSITY
DFV .                     78 : DRILLING FLUID VISCOSITY
DFPH.                   10.0 : DRILLING FLUID PH
DFL .                      4 : DRILLING FLUID LOSS
TCS .HRS                   2 : TIME CIRCULATED STOPPED
LUN .                   2714 : LOGGING UNIT NUMBER
LUL .                    STE : LOGGING UNIT LOCATION
ENGI.               MCALPINE : RECORDING ENGINEER
WITN.                WOODMAN : WITNESSED BY
CLNT.                A2DTECH : CLIENT CODE
ORIG.            2" 5" PRINT : ORIGIN OF DATA
UWI .       100113603220W400 : UNIQUE WELL ID
DICO. A2D Technologies, Inc. : DIGITIZING COMPANY
~Other -----------------------------------------------------
~ASCII -----------------------------------------------------
  650.00000    9.80620  234.15370    4.27070    -999.25    -999.25    -999.25    4.27070   43.41640    9.80620    -999.25    -999.25    7.71470  -21.27790   -2.22660    7.71470
  700.00000   10.33580  277.84580    3.62490    -999.25    -999.25    -999.25    3.62490   24.21470   10.33580    -999.25    -999.25    8.13580  -22.26750   -2.67160    8.13580
  750.00000   10.90480   71.97400   13.89390    -999.25    -999.25    -999.25   13.89390    5.69450   10.90480    -999.25    -999.25   11.80030  -23.11530   -2.99620   11.80030
  800.00000   10.73880   87.27530   11.45800    -999.25    -999.25    -999.25   11.45800    1.70350   10.73880    -999.25    -999.25    6.86510  -22.86090   -2.21860    6.86510
  850.00000    9.48030   63.12800   15.84100    -999.25    -999.25    -999.25   15.84100   24.82860    9.48030    -999.25    -999.25   13.34580  -28.69150   -7.52250   13.34580
  900.00000    9.39880  151.19900    6.61380    -999.25    -999.25    -999.25    6.61380    6.75210    9.39880    -999.25    -999.25    6.47280  -23.48120   -2.12220    6.47280
  950.00000   10.08590  162.70610    6.14620    -999.25    -999.25    -999.25    6.14620    8.70500   10.08590    -999.25    -999.25    4.94630  -22.20960   -1.18820    4.94630
 1000.00000    9.59910  166.23170    6.01570    -999.25    -999.25    -999.25    6.01570    6.65890    9.59910    -999.25    -999.25    5.52570  -22.18410   -1.49810    5.52570
 1050.00000   11.59040  236.07180    4.23600    -999.25    -999.25    -999.25    4.23600   36.78900   11.59040    -999.25    -999.25    7.09730  -23.58820   -3.23760    7.09730
 1100.00000   11.41940   93.36880   10.71120    -999.25    -999.25    -999.25   10.71120    1.61070   11.41940    -999.25    -999.25    7.16630  -22.96820   -2.95520    7.16630
 1150.00000   10.77290  190.60690    5.24640    -999.25    -999.25    -999.25    5.24640    5.28280   10.77290    -999.25    -999.25    4.35090  -21.92890   -2.25120    4.35090
 1200.00000   11.31330  204.78680    4.88310    -999.25    -999.25    -999.25    4.88310    4.50290   11.31330    -999.25    -999.25    4.42480  -22.66650   -3.32640    4.42480
 1250.00000   12.34060  230.64860    4.33560    -999.25    -999.25    -999.25    4.33560    5.67420   12.34060    -999.25    -999.25    4.12530  -21.34620   -2.34150    4.12530
 1300.00000   10.71730  192.89010    5.18430    -999.25    -999.25    -999.25    5.18430    6.24430   10.71730    -999.25    -999.25    4.22120  -20.60800   -1.93870    4.22120
 1350.00000   10.02990  218.80880    4.57020    -999.25    -999.25    -999.25    4.57020    4.26930   10.02990    -999.25    -999.25    4.41050  -20.41630   -2.08460    4.41050
 1400.00000   12.25180  234.01670    4.27320    -999.25    -999.25    -999.25    4.27320    4.42520   12.25180    -999.25    -999.25    3.84540  -19.49430   -1.06300    3.84540
 1450.00000   10.81540  160.96600    6.21340    -999.25    -999.25    -999.25    6.21340    5.37850   10.81540    -999.25    -999.25    7.11720  -22.21960   -3.63990    7.11720
 1500.00000    9.12550   76.18290   13.12630    -999.25    -999.25    -999.25   13.12630    7.13480    9.12550    -999.25    -999.25   14.71390  -29.06980  -10.34280   14.71390
 1550.00000    9.06220  140.13850    7.13580    -999.25    -999.25    -999.25    7.13580    7.11140    9.06220    -999.25    -999.25    9.88730  -27.41610   -8.54170    9.88730
 1600.00000    9.27540  118.80440    8.41770    -999.25    -999.25    -999.25    8.41770    7.54560    9.27540    -999.25    -999.25    8.63520  -24.62920   -5.60650    8.63520
 1650.00000    9.84240  125.39970    7.97450    -999.25    -999.25    -999.25    7.97450    9.29740    9.84240    -999.25    -999.25   11.08230  -20.32200   -1.26590   11.08230
 1700.00000    9.86230  155.32310    6.43850    -999.25    -999.25    -999.25    6.43850   10.25500    9.86230    -999.25    -999.25    8.07360  -21.43460   -2.49850    8.07360
 1750.00000   10.32210  179.83020    5.56080    -999.25    -999.25    -999.25    5.56080    6.76550   10.32210    -999.25    -999.25    5.45710  -20.74250   -1.92560    5.45710
 1800.00000   10.23570  174.29800    5.73730    -999.25    -999.25    -999.25    5.73730    6.96920   10.23570    -999.25    -999.25    5.40780  -19.73580   -1.03810    5.40780
 1850.00000    9.89550  147.59860    6.77570    -999.25    -999.25    -999.25    6.77570    5.92260    9.89550    -999.25    -999.25    6.40410  -21.09450   -2.51680    6.40410
 1900.00000   10.65820  159.24580    6.27960    -999.25    -999.25    -999.25    6.27960    5.13360   10.65820    -999.25    -999.25    5.60840  -19.62050   -1.20030    5.60840
 1950.00000    8.81520  112.11860    8.92570    -999.25    -999.25    -999.25    8.92570   11.64560    8.81520    -999.25    -999.25   12.65100  -33.34890  -16.02440   12.65100
 2000.00000   10.69150  171.61780    5.82690    -999.25    -999.25    -999.25    5.82690    4.76560   10.69150    -999.25    -999.25    5.05050  -18.61950   -2.23430    5.05050
 2050.00000   10.12160  131.63960    7.59650    -999.25    -999.25    -999.25    7.59650    6.58590   10.12160    -999.25    -999.25    6.65040  -17.88820   -1.52710    6.65040
 2100.00000   10.72000  221.88290    4.52600    -999.25    -999.25    -999.25    4.52600   32.70280   10.72000    -999.25    -999.25    8.35960  -17.57310   -1.00100    8.35960
 2150.00000    9.89830  132.91160    7.52380    -999.25    -999.25    -999.25    7.52380    1.20840    9.89830    -999.25    -999.25    6.73600  -19.43340   -2.65180    6.73600
 2200.00000   10.81890  202.33710    4.94230    -999.25    -999.25    -999.25    4.94230    6.59290   10.81890    -999.25    -999.25    5.12680  -18.95770   -1.96520    5.12680
 2250.00000   10.94420  220.67750    4.53150    -999.25    -999.25    -999.25    4.53150    6.51150   10.94420    -999.25    -999.25    4.74500  -18.48230   -1.28030    4.74500
 2300.00000   10.51680  165.46980    6.04340    -999.25    -999.25    -999.25    6.04340    5.12230   10.51680    -999.25    -999.25    6.82260  -20.40210   -2.99060    6.82260
 2350.00000   12.23050  152.19490    6.57170    -999.25    -999.25    -999.25    6.57170    4.93560   12.23050    -999.25    -999.25    8.05420  -21.95950   -4.33710    8.05420
 2400.00000   10.56060  116.35890    8.59410    -999.25    -999.25    -999.25    8.59410    7.49020   10.56060    -999.25    -999.25    8.95010  -24.41720   -6.48260    8.95010
 2450.00000   10.37340  129.03110    7.75010    -999.25    -999.25    -999.25    7.75010    7.52380   10.37340    -999.25    -999.25    8.36700  -25.13560   -6.87780    8.36700
 2500.00000    9.76460  114.19310    8.75710    -999.25    -999.25    -999.25    8.75710    5.86080    9.76460    -999.25    -999.25    9.67750  -27.38740   -8.80860    9.67750
 2550.00000   10.29360   99.11690   10.08910    -999.25    -999.25    -999.25   10.08910    9.25820   10.29360    -999.25    -999.25   10.55960  -27.91080   -9.01100   10.55960
 2600.00000   11.14700   95.49510   10.47180    -999.25    -999.25    -999.25   10.47180   10.83010   11.14700    -999.25    -999.25   11.63410  -26.55390   -7.33100   11.63410
 2650.00000   10.15720  123.23160    8.11480    -999.25    -999.25    -999.25    8.11480    8.95350   10.15720    -999.25    -999.25   10.02100  -26.15270   -6.60880   10.02100
 2700.00000    9.51420   75.89120   13.17680    -999.25    -999.25    -999.25   13.17680   11.49220    9.51420    -999.25    -999.25   15.56310  -22.40870   -2.24010   15.56310
 2750.00000   10.18040   99.11880   10.08890    -999.25    -999.25    -999.25   10.08890   11.86240   10.18040    -999.25    -999.25   11.31440  -23.92050   -1.93390   11.31440
 2800.00000   11.57100  115.48680    8.65900    -999.25    -999.25    -999.25    8.65900    8.32050   11.57100    -999.25    -999.25    9.91320  -26.62700   -2.82240    9.91320
 2850.00000   11.21630  128.11240    7.80570    -999.25    -999.25    -999.25    7.80570    9.65800   11.21630    -999.25    -999.25    9.36640  -28.87960   -4.48610    9.36640
 2900.00000   10.85980  144.57340    6.91690    -999.25    -999.25    -999.25    6.91690    8.73200   10.85980    -999.25    -999.25    8.86410  -25.57000   -2.35280    8.86410
