~Version ---------------------------------------------------
VERS.      2.0 : CWLS log ASCII Standard -VERSION 2.0
WRAP.       NO : One line per depth step
CREA. 08/31/13 : LAS Creation Date
~Well ------------------------------------------------------
STRT.M                         400.0 : START DEPTH
STOP.M                        2850.0 : STOP DEPTH
STEP.M                      50.00000 : STEP LENGTH
NULL.                        -999.25 : NULL VALUE
COMP.    GULF CANADA RESOURCES LTDS. : COMPANY
WELL. GULF UNIT GOOSE RIVER 1-18-67- : WELL
FLD .                                : FIELD
LOC .                                : LOCATION
CTRY.                         CANADA : COUNTRY
SRVC.                        Unknown : SERVICE COMPANY
DATE.                    21-Feb-1995 : LOGDATE
PROV.                        Alberta : PROVINCE
UWI .               100011806718W500 : UNIQUE WELL ID
SLAT.WGS84                  54.79379 : SURFACE LATITUDE
SLON.WGS84                  -116.722 : SURFACE LONGITUDE
~Curve Information -----------------------------------------
DEPT    .M      : DEPTH METER
CALWS   .MM     : CALIPER [CALXDED]
CALXDED .MM     : CALIPER X FROM DENSITY LOG [ADJ. TO RESISTIVITY LOG]
CALXSED .MM     : CALIPER X FROM SONIC LOG
CALYDED .MM     : CALIPER Y FROM DENSITY LOG [ADJ. TO RESISTIVITY LOG]
CONDWS  .MMHO   : CONDUCTIVITY [1000/DRESWS]
DCORWS  .KG/M3  : DENSITY CORRECTION [DRHOED]
DENWS   .KG/M3  : BULK DENSITY [RHOBED]
DPOLSWS .V/V    : DENSITY POROSITY LIMESTONE [CALC. FROM DENWS, M=2710,F=1000]
DPORLSED.V/V    : DENSITY POROSITY LIMESTONE [M=2710, F=1000] FROM DENSITY LOG [ADJ. TO RESISTIVITY LOG]
DRESWS  .OHMM   : DEEP RESISTIVITY [STIDED]
DRHOED  .KG/M3  : DENSITY CORRECTION FROM DENSITY LOG [ADJ. TO RESISTIVITY LOG]
DTED    .US/M   : DELTA-T FROM SONIC LOG
DTWS    .US/M   : COMPRESSIONAL SONIC [DTED]
GRDED   .GAPI   : GAMMA RAY FROM DENSITY LOG [ADJ. TO RESISTIVITY LOG]
GRRED   .GAPI   : GAMMA RAY FROM RESISTIVITY LOG
GRWS    .GAPI   : GAMMA RAY [GRRED SPL. TO GRDED FROM 385M-393M]
MRESWS  .OHMM   : MEDIUM RESISTIVITY [STIMED]
NPOLSWS .V/V    : NEUTRON POROSITY LIMESTONE [NPORLSED]
NPORLSED.V/V    : NEUTRON POROSITY LIMESTONE FROM DENSITY LOG [ADJ. TO RESISTIVITY LOG]
PEED    .B/E    : PHOTO ELECTRIC FACTOR FROM DENSITY LOG [ADJ. TO RESISTIVITY LOG]
PEFWS   .B/E    : PHOTOELECTRIC FACTOR [PEED]
RHOBED  .KG/M3  : BULK DENSITY FROM DENSITY LOG [ADJ. TO RESISTIVITY LOG]
SFLED   .OHMM   : SPHERICALLY FOCUSED RESISTIVITY FROM RESISTIVITY LOG
SPRED   .MV     : SPONTANEOUS POTENTIAL FROM RESISTIVITY LOG
SPWS    .MV     : SPONTANEOUS POTENTIAL [BASELINE 0MV,SPRED]
SRESWS  .OHMM   : SHALLOW RESISTIVITY [SFLED]
STIDED  .OHMM   : SIMULTANEOUS TRIPLE INDUCTION DEEP RESISTIVITY FROM RESISTIVITY LOG
STIMED  .OHMM   : SIMULTANEOUS TRIPLE INDUCTION MEDIUM RESISTIVITY FROM RESISTIVITY LOG
TENDED  .N      : TENSION FROM DENSITY LOG [ADJ. TO RESISTIVITY LOG]
TENRED  .N      : TENSION FROM RESISTIVITY LOG
~Params ----------------------------------------------------
PD  .                         GL : PERMANENT DATUM
EPD .M                     753.1 : ELEVATION PERMANENT DATUM
LMF .                         KB : LOG MEASURED FROM
DAPD.M                      4.85 : FEET ABOVE PERMANENT DATUM
DMF .                         KB : DRILLING MEASURED FROM
EKB .M                    757.95 : KELLY BUSHING
EGL .M                     753.1 : GROUND LEVEL
DATE.                   02/21/95 : RUN DATE
RUN .                          1 : RUN NUMBER
DD  .M                      2882 : DEPTH DRILLER
DL  .M                    2882.9 : DEPTH LOGGER
BLI .M                    2880.8 : BOTTOM LOG INTERVAL
TLI .M                     407.3 : TOP LOG INTERVAL
CS  .MM                    219.1 : CASING SIZE
CBD .M                       407 : CASING BOTTOM DRILLER
CBL .M                     407.3 : CASING BOTTOM LOGGER
BS  .MM                      200 : BIT SIZE
BSD .M                      2882 : BIT SIZE AT DEPTH
DFT .               GEL CHEMICAL : DRILLING FLUID TYPE
DFD .                       1125 : DRILLING FLUID DENSITY
DFV .                         92 : DRILLING FLUID VISCOSITY
DFPH.                        9.5 : DRILLING FLUID PH
DFL .                        8.5 : DRILLING FLUID LOSS
MSS .                   FLOWLINE : MUD SAMPLE SOURCE
RMS .OHMM                    4.4 : RESISTIVITY MUD SAMPLE
MST .DEGC                     14 : MUD SAMPLE TEMPERATURE
RMF .OHMM                   1.96 : RESISTIVITY MUD FILTRATE SAMPLE
MFST.DEGC                     17 : MUD FILTRATE SAMPLE TEMPERATURE
RMC .OHMM                   1.96 : RESISTIVITY MUD CAKE
MCST.DEGC                     17 : MUD CAKE SAMPLE TEMPERATURE
RMB .OHMM                    1.4 : RESISTIVITY MUD AT BHT
TCS .HRS                       5 : TIME CIRCULATED STOPPED
LUN .                        344 : LOGGING UNIT NUMBER
LUL .                   EDMONTON : LOGGING UNIT LOCATION
ENGI.                    RUSSILL : RECORDING ENGINEER
WITN.                      BOUMA : WITNESSED BY
CLNT.                    A2DTECH : CLIENT CODE
ORIG. 6.5"/100M 16.5"/100M PRINT : ORIGIN OF DATA
UWI .           100011806718W500 : UNIQUE WELL ID
DICO.     A2D Technologies, Inc. : DIGITIZING COMPANY
~Other -----------------------------------------------------
SLT-CNT-GR-STI-BHC LOG RUN
~ASCII -----------------------------------------------------
  400.00000    -999.25    -999.25    -999.25    -999.25    -999.25    -999.25    -999.25    -999.25    -999.25    -999.25    -999.25    -999.25    -999.25   37.67000   43.04820   43.04820    -999.25    -999.25    -999.25    -999.25    -999.25    -999.25    -999.25    -999.25    -999.25    -999.25    -999.25    -999.25    -999.25    -999.25
  450.00000  280.96300  280.96300  276.90930  248.10030  204.80470    -999.25    -999.25    -999.25    -999.25    4.88270    -999.25  403.64750  403.64750   51.36070   54.20090   54.20090    4.25510    -999.25    -999.25    -999.25    -999.25    -999.25    3.43310 -120.73300   -2.68160    3.43310    4.88270    4.25510 6099.03360 5870.29450
  500.00000  298.48370  298.48370  321.10890  323.77900  261.58840    -999.25    -999.25    -999.25    -999.25    3.82280    -999.25  407.98700  407.98700   47.55040   51.57980   51.57980    3.19960    -999.25    -999.25    -999.25    -999.25    -999.25    3.09260 -115.95150   -3.87700    3.09260    3.82280    3.19960 6574.69800 6259.50990
  550.00000  334.27010  334.27010  346.37470  288.41010  213.06060    -999.25    -999.25    -999.25    -999.25    4.69350    -999.25  415.57230  415.57230   47.11040   50.27480   50.27480    3.96260    -999.25    -999.25    -999.25    -999.25    -999.25    3.83950 -115.49860   -6.07870    3.83950    4.69350    3.96260 6789.45460 6475.19390
  600.00000  250.95870  250.95870  275.77410  280.36900   92.53860    -999.25    -999.25    -999.25    -999.25   10.80630    -999.25  375.29800  375.29800   42.56170   40.05210   40.05210   10.51720    -999.25    -999.25    -999.25    -999.25    -999.25   10.10140 -122.55570  -14.09430   10.10140   10.80630   10.51720 7132.13930 6677.32510
  650.00000  256.12490  256.12490  267.13860  255.29100  202.90560    -999.25    -999.25    -999.25    -999.25    4.92840    -999.25  342.37210  342.37210   65.36090   63.90430   63.90430    4.39050    -999.25    -999.25    -999.25    -999.25    -999.25    4.47970 -111.40820   -3.90520    4.47970    4.92840    4.39050 7416.50970 6916.34320
  700.00000  367.14480  367.14480  371.20430  244.11630  169.44560    -999.25    -999.25    -999.25    -999.25    5.90160    -999.25  381.36330  381.36330  100.93460   87.17180   87.17180    5.37420    -999.25    -999.25    -999.25    -999.25    -999.25    5.59070 -109.40330   -2.85070    5.59070    5.90160    5.37420 7574.79830 7152.33600
  750.00000  308.47480  308.47480  275.86770  249.61240  144.74500    -999.25    -999.25    -999.25    -999.25    6.90870    -999.25  348.83830  348.83830   85.18910   74.55550   74.55550    6.23010    -999.25    -999.25    -999.25    -999.25    -999.25    5.55830 -112.20010   -6.56860    5.55830    6.90870    6.23010 7845.82360 7377.90040
  800.00000  424.48880  424.48880  420.36350  235.54510  153.51790    -999.25    -999.25    -999.25    -999.25    6.51390    -999.25  331.06680  331.06680   87.13600   74.06630   74.06630    5.50060    -999.25    -999.25    -999.25    -999.25    -999.25    5.38720 -109.93070   -5.22040    5.38720    6.51390    5.50060 7995.96170 7633.32360
  850.00000  396.34970  396.34970  393.51130  237.83000  102.85100    -999.25    -999.25    -999.25    -999.25    9.72280    -999.25  294.54460  294.54460   80.59230   76.64870   76.64870    9.02320    -999.25    -999.25    -999.25    -999.25    -999.25    8.53430 -108.58470   -4.79550    8.53430    9.72280    9.02320 8184.08900 7674.65870
  900.00000  299.28710  299.28710  342.25220  382.89790  159.48200    -999.25    -999.25    -999.25    -999.25    6.27030    -999.25  350.51930  350.51930   93.79050   89.72050   89.72050    5.43490    -999.25    -999.25    -999.25    -999.25    -999.25    5.16420 -108.11780   -5.24980    5.16420    6.27030    5.43490 8645.71260 8022.78360
  950.00000  221.49470  221.49470  326.68110  348.24270  156.54110    -999.25    -999.25    -999.25    -999.25    6.38810    -999.25  350.76460  350.76460  109.30210  111.56330  111.56330    6.16790    -999.25    -999.25    -999.25    -999.25    -999.25    6.80810 -104.57500   -2.62820    6.80810    6.38810    6.16790 8938.14260 8410.57640
 1000.00000  282.17030  282.17030  352.00920  342.65610  139.52450    -999.25    -999.25    -999.25    -999.25    7.16720    -999.25  293.93480  293.93480   88.18410   92.04670   92.04670    6.59020    -999.25    -999.25    -999.25    -999.25    -999.25    5.91960 -106.32610   -5.35220    5.91960    7.16720    6.59020 8824.28020 8465.03690
 1050.00000  253.50060  253.50060  328.46260  318.95030  200.77900    -999.25    -999.25    -999.25    -999.25    4.98060    -999.25  307.72170  307.72170   96.75460   92.18900   92.18900    4.83680    -999.25    -999.25    -999.25    -999.25    -999.25    4.70550 -102.74950   -2.75850    4.70550    4.98060    4.83680 9143.72250 8700.21440
 1100.00000  260.99970  260.99970  449.49260  353.02720  180.07310    -999.25    -999.25    -999.25    -999.25    5.55330    -999.25  295.49130  295.49130   87.28740   88.31790   88.31790    5.28450    -999.25    -999.25    -999.25    -999.25    -999.25    5.14480 -100.64780   -1.63970    5.14480    5.55330    5.28450 9285.84720 8889.40040
 1150.00000  337.92640  337.92640  429.22550  417.36510  361.40220    -999.25    -999.25    -999.25    -999.25    2.76700    -999.25  340.25440  340.25440   75.52470   82.34860   82.34860    2.70890    -999.25    -999.25    -999.25    -999.25    -999.25    3.30390 -101.44220   -3.41710    3.30390    2.76700    2.70890 9459.86740 9194.58800
 1200.00000  269.26010  269.26010  280.40170  282.93610  103.40510    -999.25    -999.25    -999.25    -999.25    9.67070    -999.25  258.12150  258.12150   75.08130   77.78770   77.78770    9.99960    -999.25    -999.25    -999.25    -999.25    -999.25    8.89650 -101.31870   -4.27650    8.89650    9.67070    9.99960 9867.76270 9494.10590
 1250.00000  240.91170  240.91170  245.20420  272.42360   72.63690    -999.25    -999.25    -999.25    -999.25   13.76710    -999.25  261.70980  261.70980   47.83430   44.96430   44.96430   19.03660    -999.25    -999.25    -999.25    -999.25    -999.25   20.46490 -133.35890  -38.70180   20.46490   13.76710   19.03660 9874.49600 9636.34570
 1300.00000  267.64630  267.64630  293.31180  300.09570  206.10060    -999.25    -999.25    -999.25    -999.25    4.85200    -999.25  397.50000  397.50000   58.73530   56.03850   56.03850    4.46090    -999.25    -999.25    -999.25    -999.25    -999.25    4.55700 -105.20880  -13.29180    4.55700    4.85200    4.46090 10428.89920 9885.89540
 1350.00000  275.79040  275.79040  324.10430  326.27510  212.07560    -999.25    -999.25    -999.25    -999.25    4.71530    -999.25  371.85490  371.85490   73.76220   66.46400   66.46400    4.08760    -999.25    -999.25    -999.25    -999.25    -999.25    3.47530  -96.22170   -7.04470    3.47530    4.71530    4.08760 10705.29390 10078.44650
 1400.00000  271.61100  271.61100  341.33320  355.80980  468.07710    -999.25    -999.25    -999.25    -999.25    2.13640    -999.25  270.52890  270.52890   40.31120   47.42930   47.42930    2.17700    -999.25    -999.25    -999.25    -999.25    -999.25    2.66730 -131.14490  -44.70800    2.66730    2.13640    2.17700 10767.94440 10506.38230
 1450.00000  296.55710  296.55710  268.10660  283.12270  132.29090    -999.25    -999.25    -999.25    -999.25    7.55910    -999.25  252.84550  252.84550   99.68160   85.00210   85.00210    7.78530    -999.25    -999.25    -999.25    -999.25    -999.25    7.42770  -98.01490  -14.31800    7.42770    7.55910    7.78530 11041.78940 10536.29840
 1500.00000  273.77840  273.77840  276.89340  275.41020   96.01810    -999.25    -999.25    -999.25    -999.25   10.41470    -999.25  226.33240  226.33240   42.48590   39.97560   39.97560   11.81940    -999.25    -999.25    -999.25    -999.25    -999.25   12.08800 -108.45560  -27.49880   12.08800   10.41470   11.81940 11152.43980 10807.20090
 1550.00000  316.91690  316.91690  463.09390  485.93080  312.03200    -999.25    -999.25    -999.25    -999.25    3.20480    -999.25  301.07110  301.07110   90.99130   80.23830   80.23830    3.13510    -999.25    -999.25    -999.25    -999.25    -999.25    3.66590  -90.23810  -12.02130    3.66590    3.20480    3.13510 11465.69070 10890.54850
