~Version ---------------------------------------------------
VERS.      2.0 : CWLS log ASCII Standard -VERSION 2.0
WRAP.       NO : One line per depth step
CREA. 01/03/18 : LAS Creation Date
~Well ------------------------------------------------------
STRT.FT                              300.0 : START DEPTH
STOP.FT                             8350.0 : STOP DEPTH
STEP.FT                           50.00000 : STEP LENGTH
NULL.                              -999.25 : NULL VALUE
COMP.             HOME OIL COMPANY LIMITED : COMPANY
WELL. HOME FPC ET AL MORSE RIVER 4-31-65-9 : WELL
FLD .                                      : FIELD
LOC .                                      : LOCATION
CTRY.                               CANADA : COUNTRY
SRVC.                         Schlumberger : SERVICE COMPANY
DATE.                          23-Jan-1960 : LOGDATE
PROV.                              Alberta : PROVINCE
UWI .                     100043106509W500 : UNIQUE WELL ID
SLAT.WGS84                        54.66358 : SURFACE LATITUDE
SLON.WGS84                       -115.3583 : SURFACE LONGITUDE
~Curve Information -----------------------------------------
DEPT  .FT     : Depth Curve
CALWS .IN     : CALIPER [MCALED]
CILDED.MMHO   : CONDUCTIVITY FROM RESISTIVITY LOG
CONDWS.MMHO   : CONDUCTIVITY [1000/DRESWS]
DRESWS.OHMM   : DEEP RESISTIVITY [ILDED] IF ILDED<1;1000/CILDED;ELSE ILDED
GRNED .UR/HR  : GAMMA RAY FROM NEUTRON LOG
GRWS  .GAPI   : GAMMA RAY [GRNED] CONVERTED SCALES McCULLOUGH *10.4API
ILDED .OHMM   : INDUCTION LOG DEEP RESISTIVITY
LLED  .OHMM   : LATEROLOG RESISTIVITY FROM LATEROLOG
MCALED.IN     : MICROCALIPER
NEUTED.CU     : NEUTRON FROM NEUTRON LOG [DEPTH ADJ TO ILD]
NEUTWS.CU     : NEUTRON [NEUTED]
SNED  .OHMM   : 16 INCH SHORT NORMAL RESISTIVITY FROM IEL
SPRED .MV     : SPONTANEOUS POTENTIAL FROM RESISTIVITY LOG
SPWS  .MV     : SPONTANEOUS POTENTIAL [BASELINE 0 MV] [SPRED]
SRESWS.OHMM   : SHALLOW RESISTIVITY [SNED]
~Params ----------------------------------------------------
LMF .                     KB : LOG MEASURED FROM
DMF .                     KB : DRILLING MEASURED FROM
EKB .FT                 3359 : KELLY BUSHING
EGL .FT               3345.4 : GROUND LEVEL
DATE.               01/23/60 : RUN DATE
RUN .                      2 : RUN NUMBER
DD  .FT                 8361 : DEPTH DRILLER
DL  .FT                 8359 : DEPTH LOGGER
BLI .FT                 8354 : BOTTOM LOG INTERVAL
TLI .FT                 5178 : TOP LOG INTERVAL
CBD .FT                  847 : CASING BOTTOM DRILLER
CBL .FT                  847 : CASING BOTTOM LOGGER
BSD .FT                 8361 : BIT SIZE AT DEPTH
DFT .                    GEL : DRILLING FLUID TYPE
DFD .                     10 : DRILLING FLUID DENSITY
DFV .                    106 : DRILLING FLUID VISCOSITY
DFPH.                     10 : DRILLING FLUID PH
DFL .                    4.6 : DRILLING FLUID LOSS
RMS .OHMM                2.5 : RESISTIVITY MUD SAMPLE
MST .DEGF                 62 : MUD SAMPLE TEMPERATURE
RMF .OHMM                1.6 : RESISTIVITY MUD FILTRATE SAMPLE
MFST.DEGF                 62 : MUD FILTRATE SAMPLE TEMPERATURE
RMC .OHMM                2.8 : RESISTIVITY MUD CAKE
MCST.DEGF                 62 : MUD CAKE SAMPLE TEMPERATURE
RMB .OHMM                0.9 : RESISTIVITY MUD AT BHT
TCS .HRS                   2 : TIME CIRCULATED STOPPED
LUN .                   2786 : LOGGING UNIT NUMBER
ENGI.             ARMBRUSTER : RECORDING ENGINEER
WITN.                  SZABO : WITNESSED BY
CLNT.                A2DTECH : CLIENT CODE
ORIG.            2" 5" PRINT : ORIGIN OF DATA
UWI .       100043106509W500 : UNIQUE WELL ID
DICO. A2D Technologies, Inc. : DIGITIZING COMPANY
~Other -----------------------------------------------------
IEL-LL-GRN-MICRO LOG RUN
~ASCII -----------------------------------------------------
  300.00000    -999.25    -999.25    -999.25    -999.25    3.14760   32.73500    -999.25    -999.25    -999.25  323.95600  323.95600    -999.25    -999.25    -999.25    -999.25
  350.00000    -999.25    -999.25    -999.25    -999.25    2.13180   22.17070    -999.25    -999.25    -999.25  277.67320  277.67320    -999.25    -999.25    -999.25    -999.25
  400.00000    -999.25    -999.25    -999.25    -999.25    2.35990   24.54300    -999.25    -999.25    -999.25  334.97990  334.97990    -999.25    -999.25    -999.25    -999.25
  450.00000    -999.25    -999.25    -999.25    -999.25    2.29250   23.84200    -999.25    -999.25    -999.25  307.89130  307.89130    -999.25    -999.25    -999.25    -999.25
  500.00000    -999.25    -999.25    -999.25    -999.25    2.32280   24.15710    -999.25    -999.25    -999.25  310.82840  310.82840    -999.25    -999.25    -999.25    -999.25
  550.00000    -999.25    -999.25    -999.25    -999.25    2.83830   29.51830    -999.25    -999.25    -999.25  255.69450  255.69450    -999.25    -999.25    -999.25    -999.25
  600.00000    -999.25    -999.25    -999.25    -999.25    2.52740   26.28500    -999.25    -999.25    -999.25  287.28700  287.28700    -999.25    -999.25    -999.25    -999.25
  650.00000    -999.25    -999.25    -999.25    -999.25    2.02360   21.04540    -999.25    -999.25    -999.25  281.60280  281.60280    -999.25    -999.25    -999.25    -999.25
  700.00000    -999.25    -999.25    -999.25    -999.25    3.17280   32.99760    -999.25    -999.25    -999.25  253.48020  253.48020    -999.25    -999.25    -999.25    -999.25
  750.00000    -999.25    -999.25    -999.25    -999.25    2.68940   27.96980    -999.25    -999.25    -999.25  265.69110  265.69110    -999.25    -999.25    -999.25    -999.25
  800.00000    -999.25    -999.25    -999.25    -999.25    3.37120   35.06050    -999.25    -999.25    -999.25  266.51640  266.51640    -999.25    -999.25    -999.25    -999.25
  850.00000    -999.25    -999.25    -999.25    -999.25    3.63220   37.77490    -999.25    -999.25    -999.25  276.11820  276.11820    -999.25    -999.25    -999.25    -999.25
  900.00000    -999.25  163.44410  163.44410    6.11830    3.48180   36.21070    4.42710    -999.25    -999.25  414.57400  414.57400    7.26730  -95.59600   -7.85760    7.26730
  950.00000    -999.25  207.29850  207.29850    4.82660    4.17810   43.45220    4.20990    -999.25    -999.25  320.08470  320.08470    6.92490  -94.60450   -6.78380    6.92490
 1000.00000    -999.25  414.68310  414.68310    2.41150    4.56090   47.43340    1.86050    -999.25    -999.25  253.27650  253.27650    4.83540  -93.39230   -5.49020    4.83540
 1050.00000    -999.25  213.92400  213.92400    4.67460    4.09670   42.60570    3.89660    -999.25    -999.25  289.70880  289.70880    6.81610  -92.64490   -4.66090    6.81610
 1100.00000    -999.25  255.19920  255.19920    3.91850    4.29220   44.63890    3.09120    -999.25    -999.25  238.79000  238.79000    6.33180  -92.74660   -4.68070    6.33180
 1150.00000    -999.25  253.71300  253.71300    3.94150    5.16690   53.73580    3.18060    -999.25    -999.25  326.62680  326.62680    5.79380  -91.42270   -3.27500    5.79380
 1200.00000    -999.25   74.76770   74.55320   13.44080    2.66810   27.74770   13.44080    -999.25    -999.25  485.41710  485.41710   18.34710 -102.56970  -14.33980   18.34710
 1250.00000    -999.25  162.53710  175.54020    5.69670    4.31710   44.89780    5.69670    -999.25    -999.25  365.93670  365.93670    8.49360  -92.80210   -4.49060    8.49360
 1300.00000    -999.25  290.43740  290.43740    3.44310    4.64550   48.31320    2.72340    -999.25    -999.25  197.31900  197.31900    6.05210  -94.31320   -5.91990    6.05210
 1350.00000    -999.25  200.53330  200.53330    4.98670    4.57840   47.61540    4.18620    -999.25    -999.25  400.91960  400.91960    7.34520  -95.13850   -6.66330    7.34520
 1400.00000    -999.25  239.52960  239.52960    4.17480    4.14040   43.06020    3.44550    -999.25    -999.25  438.68030  438.68030    7.25340  -94.92240   -6.36530    7.25340
 1450.00000    -999.25  109.72830  113.73670    8.79360    4.37320   45.48130    8.79360    -999.25    -999.25  450.69570  450.69570   11.73340 -104.10530  -15.46600   11.73340
 1500.00000    -999.25  105.03290  109.40200    9.14060    3.36260   34.97100    9.14060    -999.25    -999.25  387.82610  387.82610   11.26130 -106.38850  -17.66770   11.26130
 1550.00000    -999.25   83.17840   86.34910   11.58090    3.43650   35.73960   11.58090    -999.25    -999.25  513.57290  513.57290   13.36230 -108.48400  -19.68130   13.36230
 1600.00000    -999.25  121.33140  124.24680    8.04850    3.11140   32.35860    8.04850    -999.25    -999.25  409.40650  409.40650   10.20920 -109.14480  -20.26030   10.20920
 1650.00000    -999.25  210.33430  210.33430    4.75430    3.16250   32.89000    4.42150    -999.25    -999.25  304.61150  304.61150    6.94260  -96.12950   -7.16310    6.94260
 1700.00000    -999.25  274.53530  274.53530    3.64270    3.30180   34.33870    2.93180    -999.25    -999.25  315.99740  315.99740    6.49720  -91.99560   -2.94700    6.49720
 1750.00000    -999.25  273.47660  273.47660    3.65660    3.29260   34.24300    2.92100    -999.25    -999.25  349.01300  349.01300    6.42250  -93.79800   -4.66790    6.42250
 1800.00000    -999.25  122.52810  114.99540    8.69600    3.24280   33.72510    8.69600    -999.25    -999.25  453.92190  453.92190   12.10840 -111.14890  -21.93690   12.10840
 1850.00000    -999.25  241.55400  241.55400    4.13990    2.98010   30.99300    3.50360    -999.25    -999.25  191.75790  191.75790    6.79730  -92.08920   -2.79530    6.79730
 1900.00000    -999.25  259.24560  259.24560    3.85730    3.79610   39.47940    3.12090    -999.25    -999.25  308.00080  308.00080    6.20830  -92.99040   -3.74510    6.20830
 1950.00000    -999.25  267.15970  267.15970    3.74310    4.15750   43.23800    2.99070    -999.25    -999.25  310.85600  310.85600    6.20160  -91.81750   -3.03640    6.20160
 2000.00000    -999.25   92.87920   97.38050   10.26900    2.82770   29.40810   10.26900    -999.25    -999.25  316.76330  316.76330   13.07310 -112.93810  -24.61660   13.07310
 2050.00000    -999.25  102.62680  104.76580    9.54510    3.10980   32.34190    9.54510    -999.25    -999.25  443.87660  443.87660   12.63870 -114.43080  -26.57120   12.63870
 2100.00000    -999.25  225.87830  225.87830    4.42720    3.43880   35.76350    3.73030    -999.25    -999.25  375.73380  375.73380    7.11800  -93.89790   -6.50010    7.11800
 2150.00000    -999.25  114.41480  110.70400    9.03310    3.13360   32.58940    9.03310    -999.25    -999.25  378.06610  378.06610   12.22970 -104.99580  -18.05990   12.22970
 2200.00000    -999.25  166.11400  179.18070    5.58300    3.69550   38.43270    5.58300    -999.25    -999.25  370.89580  370.89580    8.20730  -91.99580   -5.52410    8.20730
 2250.00000    -999.25  260.31180  260.31180    3.84150    3.05610   31.78340    3.07790    -999.25    -999.25  219.23440  219.23440    6.32410  -89.46830   -3.45620    6.32410
 2300.00000    -999.25  244.87250  244.87250    4.08380    2.59290   26.96620    3.18770    -999.25    -999.25  265.51750  265.51750    3.73380  -88.32820   -2.77790    3.73380
 2350.00000    -999.25  283.90750  283.90750    3.52230    3.74740   38.97300    2.60050    -999.25    -999.25  274.64120  274.64120    3.22340  -87.77550   -2.68710    3.22340
 2400.00000    -999.25  177.24310  177.24310    5.64200    3.33210   34.65380    4.65510    -999.25    -999.25  408.66060  408.66060    5.03150  -91.66670   -7.04020    5.03150
 2450.00000    -999.25  258.87160  258.87160    3.86420    3.17420   33.01170    3.05220    -999.25    -999.25  365.26170  365.26170    3.41160  -86.30270   -2.14040    3.41160
 2500.00000    -999.25  161.03160  162.82140    6.14170    3.13370   32.59050    6.14170    -999.25    -999.25  385.42290  385.42290    6.79510  -96.39340  -12.69060    6.79510
 2550.00000    -999.25  246.87950  246.87950    4.05060    3.42510   35.62100    3.31070    -999.25    -999.25  392.59000  392.59000    3.77610  -85.60580   -2.36490    3.77610
