~Version ---------------------------------------------------
VERS.      2.0 : CWLS log ASCII Standard -VERSION 2.0
WRAP.       NO : One line per depth step
CREA. 01/05/18 : LAS Creation Date
~Well ------------------------------------------------------
STRT.FT                              300.0 : START DEPTH
STOP.FT                            15450.0 : STOP DEPTH
STEP.FT                           50.00000 : STEP LENGTH
NULL.                              -999.25 : NULL VALUE
COMP.                        BANFF OIL LTD : COMPANY
WELL. BANFF AQUIT CHIEFCO WAWA 11-20-42-13 : WELL
FLD .                                      : FIELD
LOC .                                      : LOCATION
CTRY.                               CANADA : COUNTRY
SRVC.               Schlumberger of Canada : SERVICE COMPANY
DATE.                          07-Apr-1970 : LOGDATE
PROV.                              Alberta : PROVINCE
UWI .                     100112004213W500 : UNIQUE WELL ID
SLAT.WGS84                        52.63304 : SURFACE LATITUDE
SLON.WGS84                       -115.8375 : SURFACE LONGITUDE
~Curve Information -----------------------------------------
DEPT    .FT    : Depth Curve
CALDED  .IN    : CALIPER FROM DENSITY LOG [ADJ. TO RESISTIVITY LOG]
CALNED  .IN    : CALIPER FROM SNP LOG [ADJ. TO RESISTIVITY LOG]
CALSED  .IN    : CALIPER FROM SONIC LOG [ADJ. TO RESISTIVITY LOG]
CALWS   .IN    : CALIPER [CALSED]
CONDWS  .MMHO  : CONDUCTIVITY [1000/DRESWS]
CORRED  .G/C3  : DENSITY CORRECTION FROM DENSITY LOG [ADJ. TO RESISTIVITY LOG]
DCORWS  .G/C3  : DENSITY CORRECTION [CORRED]
DENWS   .G/C3  : FORMATION BULK DENSITY [RHOBED]
DPHILSED.V/V   : DENSITY POROSITY LIMESTONE FROM DENSITY LOG [ADJ. TO RESISTIVITY LOG]
DPOLSWS .V/V   : DENSITY POROSITY LIMESTONE [CALC. FROM DENWS, M=2.71 F=1.00]
DRESWS  .OHMM  : DEEP RESISTIVITY [ILDED]
DTED    .US/F  : DELTA T FROM SONIC LOG [ADJ. TO RESISTIVITY LOG]
DTWS    .US/F  : COMPRESSIONAL SONIC [DTED]
GRDED   .GAPI  : GAMMA RAY FROM DENSITY LOG [ADJ. TO RESISTIVITY LOG]
GRDRED  .GAPI  : GAMMA RAY (REPEAT) FROM DENSITY LOG
GRNED   .GAPI  : GAMMA RAY FROM SNP LOG [ADJ. TO RESISTIVITY LOG]
GRSED   .GAPI  : GAMMA RAY FROM SONIC LOG [ADJ. TO RESISTIVITY LOG]
GRWS    .GAPI  : GAMMA RAY [GRSED]
ILDED   .OHMM  : DEEP INDUCTION RESISTIVITY FROM RESISTIVITY LOG
ILMED   .OHMM  : MEDIUM INDUCTION RESISTIVITY FROM RESISTIVITY LOG
ILMRED  .OHMM  : MEDIUM INDUCTION RESISTIVITY(REPEAT) FROM RESISTIVITY LOG [ADJ. TO ILDED]
LL8ED   .OHMM  : LATEROLOG 8 RESISTIVITY FROM RESISTIVITY LOG
MRESWS  .OHMM  : MEDIUM RESISTIVITY [ILMED SPL. TO ILMRED @ 15233']
NPOLSWS .V/V   : NEUTRON POROSITY LIMESTONE [SNPLSED]
RHOBED  .G/C3  : BULK DENSITY FROM DENSITY LOG [ADJ. TO RESISTIVITY LOG]
SNPLSED .V/V   : SIDEWALL NEUTRON POROSITY LIMESTONE FROM SNP LOG [ADJ. TO RESISTIVITY LOG]
SPRED   .MV    : SPONTANEOUS POTENTIAL FROM RESISTIVITY LOG
SPRRED  .MV    : SPONTANEOUS POTENTIAL(REPEAT) FROM RESISTIVITY LOG [ADJ. TO ILDED]
SPWS    .MV    : SPONTANEOUS POTENTIAL [BASELINE 0 MV, SPRED SPL. TO SPRRED @ 15223']
SRESWS  .OHMM  : SHALLOW RESISTIVITY [LL8ED]
~Params ----------------------------------------------------
PD  .                     GL : PERMANENT DATUM
EPD .FT                 4345 : ELEVATION PERMANENT DATUM
LMF .                     KB : LOG MEASURED FROM
DAPD.FT                   14 : FEET ABOVE PERMANENT DATUM
EKB .FT                 4359 : KELLY BUSHING
EGL .FT                 4345 : GROUND LEVEL
DATE.               06/04/70 : RUN DATE
RUN .                      3 : RUN NUMBER
DD  .FT                15476 : DEPTH DRILLER
DL  .FT                15473 : DEPTH LOGGER
BLI .FT                15471 : BOTTOM LOG INTERVAL
TLI .FT                14327 : TOP LOG INTERVAL
CBD .FT                12360 : CASING BOTTOM DRILLER
CBL .FT                12355 : CASING BOTTOM LOGGER
BS  .IN                    6 : BIT SIZE
BSD .FT                15476 : BIT SIZE AT DEPTH
DFT .               GEL CHEM : DRILLING FLUID TYPE
DFD .                    8.9 : DRILLING FLUID DENSITY
DFV .                     47 : DRILLING FLUID VISCOSITY
DFPH.                     11 : DRILLING FLUID PH
DFL .                   12.4 : DRILLING FLUID LOSS
MSS .               FLOWLINE : MUD SAMPLE SOURCE
RMS .OHMM               2.62 : RESISTIVITY MUD SAMPLE
TCS .HRS                   4 : TIME CIRCULATED STOPPED
LUN .                  CSU C : LOGGING UNIT NUMBER
LUL .                 364 RD : LOGGING UNIT LOCATION
ENGI.                 MEGSON : RECORDING ENGINEER
WITN.                BRINKER : WITNESSED BY
CLNT.                A2DTECH : CLIENT CODE
ORIG.        2" 5" 10" PRINT : ORIGIN OF DATA
UWI .       100112004213W500 : UNIQUE WELL ID
DICO. A2D Technologies, Inc. : DIGITIZING COMPANY
~Other -----------------------------------------------------
~ASCII -----------------------------------------------------
# ...
 2700.00000    -999.25    -999.25   10.23890   10.23890   31.28700    -999.25    -999.25    -999.25    -999.25    -999.25   31.96220   74.50680   74.50680    -999.25    -999.25    -999.25   45.80290   45.80290   31.96220   24.45530    -999.25   22.18870   24.45530    -999.25    -999.25    -999.25 -745.25970    -999.25  -23.44270   22.18870
 2750.00000    -999.25    -999.25   10.15170   10.15170   55.91340    -999.25    -999.25    -999.25    -999.25    -999.25   17.88480   76.57770   76.57770    -999.25    -999.25    -999.25   61.07750   61.07750   17.88480   15.19250    -999.25   15.03350   15.19250    -999.25    -999.25    -999.25 -742.88600    -999.25  -20.92810   15.03350
 2800.00000    -999.25    -999.25   10.26300   10.26300   37.85370    -999.25    -999.25    -999.25    -999.25    -999.25   26.42080   74.72740   74.72740    -999.25    -999.25    -999.25   38.47720   38.47720   26.42080   22.38090    -999.25   20.98580   22.38090    -999.25    -999.25    -999.25 -747.68460    -999.25  -25.58650   20.98580
 2850.00000    -999.25    -999.25    9.84700    9.84700   33.34800    -999.25    -999.25    -999.25    -999.25    -999.25   29.98680   73.04650   73.04650    -999.25    -999.25    -999.25   47.12120   47.12120   29.98680   25.14130    -999.25   22.48400   25.14130    -999.25    -999.25    -999.25 -744.95760    -999.25  -22.71790   22.48400
 2900.00000    -999.25    -999.25    9.38250    9.38250   33.98720    -999.25    -999.25    -999.25    -999.25    -999.25   29.42280   71.92160   71.92160    -999.25    -999.25    -999.25   44.35810   44.35810   29.42280   24.65530    -999.25   23.03540   24.65530    -999.25    -999.25    -999.25 -740.77960    -999.25  -18.39910   23.03540
 2950.00000    -999.25    -999.25    9.69280    9.69280   40.54020    -999.25    -999.25    -999.25    -999.25    -999.25   24.66690   74.91510   74.91510    -999.25    -999.25    -999.25   46.64360   46.64360   24.66690   19.83820    -999.25   19.46640   19.83820    -999.25    -999.25    -999.25 -739.90170    -999.25  -17.38030   19.46640
 3000.00000    -999.25    -999.25    9.58610    9.58610   65.85580    -999.25    -999.25    -999.25    -999.25    -999.25   15.18470   74.35910   74.35910    -999.25    -999.25    -999.25   64.29350   64.29350   15.18470   12.24270    -999.25   11.33610   12.24270    -999.25    -999.25    -999.25 -734.59480    -999.25  -11.93250   11.33610
 3050.00000    -999.25    -999.25    9.01790    9.01790   36.14250    -999.25    -999.25    -999.25    -999.25    -999.25   27.66860   72.94500   72.94500    -999.25    -999.25    -999.25   45.75650   45.75650   27.66860   25.14980    -999.25   22.11900   25.14980    -999.25    -999.25    -999.25 -741.71500    -999.25  -18.91250   22.11900
 3100.00000    -999.25    -999.25    9.69020    9.69020   52.20680    -999.25    -999.25    -999.25    -999.25    -999.25   19.15460   74.47890   74.47890    -999.25    -999.25    -999.25   46.68130   46.68130   19.15460   16.15570    -999.25   13.62890   16.15570    -999.25    -999.25    -999.25 -738.54050    -999.25  -15.59640   13.62890
 3150.00000    -999.25    -999.25    9.03790    9.03790   79.03140    -999.25    -999.25    -999.25    -999.25    -999.25   12.65320   78.93910   78.93910    -999.25    -999.25    -999.25   74.43450   74.43450   12.65320   10.53570    -999.25   14.80030   10.53570    -999.25    -999.25    -999.25 -733.97480    -999.25  -10.88980   14.80030
 3200.00000    -999.25    -999.25    8.89460    8.89460   45.09460    -999.25    -999.25    -999.25    -999.25    -999.25   22.17560   74.63880   74.63880    -999.25    -999.25    -999.25   58.05320   58.05320   22.17560   19.07530    -999.25   16.43090   19.07530    -999.25    -999.25    -999.25 -742.48710    -999.25  -19.26120   16.43090
 3250.00000    -999.25    -999.25    8.98200    8.98200   49.03720    -999.25    -999.25    -999.25    -999.25    -999.25   20.39270   78.52590   78.52590    -999.25    -999.25    -999.25   48.45200   48.45200   20.39270   18.24680    -999.25   19.76240   18.24680    -999.25    -999.25    -999.25 -748.81880    -999.25  -25.45200   19.76240
 3300.00000    -999.25    -999.25    9.45390    9.45390   95.00930    -999.25    -999.25    -999.25    -999.25    -999.25   10.52530   76.66840   76.66840    -999.25    -999.25    -999.25   54.34480   54.34480   10.52530   10.07010    -999.25    8.39860   10.07010    -999.25    -999.25    -999.25 -732.49180    -999.25   -8.98480    8.39860
 3350.00000    -999.25    -999.25    9.11540    9.11540   33.53240    -999.25    -999.25    -999.25    -999.25    -999.25   29.82190   77.65310   77.65310    -999.25    -999.25    -999.25   41.82640   41.82640   29.82190   26.94670    -999.25   28.03990   26.94670    -999.25    -999.25    -999.25 -767.18220    -999.25  -43.53360   28.03990
 3400.00000    -999.25    -999.25    9.20850    9.20850  114.87250    -999.25    -999.25    -999.25    -999.25    -999.25    8.70530   75.18450   75.18450    -999.25    -999.25    -999.25   57.24610   57.24610    8.70530    7.85090    -999.25    9.54440    7.85090    -999.25    -999.25    -999.25 -733.75080    -999.25   -9.96130    9.54440
 3450.00000    -999.25    -999.25    9.00180    9.00180   59.77430    -999.25    -999.25    -999.25    -999.25    -999.25   16.72960   74.00670   74.00670    -999.25    -999.25    -999.25   46.96850   46.96850   16.72960   13.75470    -999.25   13.97330   13.75470    -999.25    -999.25    -999.25 -739.76760    -999.25  -15.83720   13.97330
 3500.00000    -999.25    -999.25    9.18490    9.18490  113.95750    -999.25    -999.25    -999.25    -999.25    -999.25    8.77520   91.79000   91.79000    -999.25    -999.25    -999.25   78.95200   78.95200    8.77520    8.09430    -999.25    6.80160    8.09430    -999.25    -999.25    -999.25 -733.19080    -999.25   -9.11950    6.80160
 3550.00000    -999.25    -999.25    8.92030    8.92030   78.79960    -999.25    -999.25    -999.25    -999.25    -999.25   12.69090   75.02440   75.02440    -999.25    -999.25    -999.25   66.26150   66.26150   12.69090   11.54210    -999.25   13.53800   11.54210    -999.25    -999.25    -999.25 -734.31030    -999.25  -10.09890   13.53800
 3600.00000    -999.25    -999.25    8.76160    8.76160   60.66080    -999.25    -999.25    -999.25    -999.25    -999.25   16.48510   71.38360   71.38360    -999.25    -999.25    -999.25   62.28660   62.28660   16.48510   13.61370    -999.25   14.97880   13.61370    -999.25    -999.25    -999.25 -734.51280    -999.25  -10.15980   14.97880
 3650.00000    -999.25    -999.25    9.14050    9.14050   98.14990    -999.25    -999.25    -999.25    -999.25    -999.25   10.18850   84.64930   84.64930    -999.25    -999.25    -999.25   73.15050   73.15050   10.18850    9.48690    -999.25   15.72500    9.48690    -999.25    -999.25    -999.25 -729.79830    -999.25   -5.30440   15.72500
 3700.00000    -999.25    -999.25    9.29230    9.29230  110.03280    -999.25    -999.25    -999.25    -999.25    -999.25    9.08820   75.54000   75.54000    -999.25    -999.25    -999.25   64.85680   64.85680    9.08820    8.45240    -999.25    9.23880    8.45240    -999.25    -999.25    -999.25 -731.12600    -999.25   -6.49120    9.23880
 3750.00000    -999.25    -999.25    8.82440    8.82440  270.03670    -999.25    -999.25    -999.25    -999.25    -999.25    3.70320   89.40160   89.40160    -999.25    -999.25    -999.25   72.06020   72.06020    3.70320    3.06920    -999.25    5.99360    3.06920    -999.25    -999.25    -999.25 -729.62340    -999.25   -4.89410    5.99360
 3800.00000    -999.25    -999.25    9.02250    9.02250  102.96150    -999.25    -999.25    -999.25    -999.25    -999.25    9.71250   82.08200   82.08200    -999.25    -999.25    -999.25   75.95130   75.95130    9.71250    8.87110    -999.25   12.20840    8.87110    -999.25    -999.25    -999.25 -733.87880    -999.25   -9.06440   12.20840
 3850.00000    -999.25    -999.25    9.54770    9.54770  156.61220    -999.25    -999.25    -999.25    -999.25    -999.25    6.38520   77.93900   77.93900    -999.25    -999.25    -999.25   66.51580   66.51580    6.38520    5.86250    -999.25    7.62840    5.86250    -999.25    -999.25    -999.25 -730.87380    -999.25   -5.97330    7.62840
