~Version ---------------------------------------------------
VERS.      2.0 : CWLS log ASCII Standard -VERSION 2.0
WRAP.       NO : One line per depth step
CREA. 10/03/17 : LAS Creation Date
~Well ------------------------------------------------------
STRT.FT                        850.0 : START DEPTH
STOP.FT                       8400.0 : STOP DEPTH
STEP.FT                     50.00000 : STEP LENGTH
NULL.                        -999.25 : NULL VALUE
COMP.   PAN AMERICAN PETROLEUM CORP. : COMPANY
WELL. MUSKEG A-1 PARK COURT 12-34-54 : WELL
FLD .                                : FIELD
LOC .                                : LOCATION
CTRY.                         CANADA : COUNTRY
SRVC.                        Unknown : SERVICE COMPANY
DATE.                    25-Jan-1965 : LOGDATE
PROV.                        Alberta : PROVINCE
UWI .               100123405407W500 : UNIQUE WELL ID
SLAT.WGS84                  53.71025 : SURFACE LATITUDE
SLON.WGS84                 -114.9552 : SURFACE LONGITUDE
~Curve Information -----------------------------------------
DEPT  .FT    : Depth Curve
CALSED.IN    : CALIPER FROM SONIC LOG
CALWS .IN    : CALIPER [CALSED]
CILDED.MMHO  : CONDUCTIVITY FROM RESISTIVITY LOG
CONDWS.MMHO  : CONDUCTIVITY [1000/DRESWS]
DRESWS.OHMM  : DEEP RESISTIVITY [1000/CILDED, IF ILDED<5, ILDED]
DT1ED .US/F  : DELTA TIME 1 FT SPACING FROM SONIC LOG [ADJ. TO DTED]
DTED  .US/F  : DELTA TIME 3 FT SPACING FROM SONIC LOG
DTWS  .US/F  : COMPRESSIONAL SONIC [DTED]
GRSED .GAPI  : GAMMA RAY FROM SONIC LOG
GRWS  .GAPI  : GAMMA RAY [GRSED]
ILDED .OHMM  : DEEP INDUCTION RESISTIVITY FROM RESISTIVITY LOG
SNED  .OHMM  : 16 INCH SHORT NORMAL RESISTIVITY FROM RESISTIVITY LOG
SPRED .MV    : SPONTANEOUS POTENTIAL FROM RESISTIVITY LOG
SPWS  .MV    : SPONTANEOUS POTENTIAL [BASELINE 0 MV, SPRED]
SRESWS.OHMM  : SHALLOW RESISTIVITY [SNED]
~Params ----------------------------------------------------
PD  .                     GL : PERMANENT DATUM
EPD .FT                 2437 : ELEVATION PERMANENT DATUM
LMF .                     KB : LOG MEASURED FROM
DAPD.FT                 13.2 : FEET ABOVE PERMANENT DATUM
DMF .                     KB : DRILLING MEASURED FROM
EKB .FT               2450.2 : KELLY BUSHING
EGL .FT                 2437 : GROUND LEVEL
DATE.               01/25/65 : RUN DATE
RUN .                      1 : RUN NUMBER
DD  .FT                 8420 : DEPTH DRILLER
DL  .FT                 8420 : DEPTH LOGGER
BLI .FT                 8419 : BOTTOM LOG INTERVAL
TLI .FT                  875 : TOP LOG INTERVAL
CBD .FT                  875 : CASING BOTTOM DRILLER
CBL .FT                  875 : CASING BOTTOM LOGGER
BS  .IN                7.875 : BIT SIZE
BSD .FT                 8420 : BIT SIZE AT DEPTH
DFT .               GEL CHEM : DRILLING FLUID TYPE
DFD .                   10.1 : DRILLING FLUID DENSITY
DFV .                    123 : DRILLING FLUID VISCOSITY
DFPH.                    9.5 : DRILLING FLUID PH
DFL .                    8.1 : DRILLING FLUID LOSS
MSS .             CIRCULATED : MUD SAMPLE SOURCE
RMS .OHMM               1.93 : RESISTIVITY MUD SAMPLE
MST .DEGF                 66 : MUD SAMPLE TEMPERATURE
RMF .OHMM               1.62 : RESISTIVITY MUD FILTRATE SAMPLE
MFST.DEGF                 54 : MUD FILTRATE SAMPLE TEMPERATURE
RMC .OHMM               2.17 : RESISTIVITY MUD CAKE
MCST.DEGF                 62 : MUD CAKE SAMPLE TEMPERATURE
RMB .OHMM               0.88 : RESISTIVITY MUD AT BHT
TCS .HRS                   3 : TIME CIRCULATED STOPPED
LUN .                   1574 : LOGGING UNIT NUMBER
LUL .                    EDM : LOGGING UNIT LOCATION
ENGI.                  FIELD : RECORDING ENGINEER
WITN.                  SAMIS : WITNESSED BY
CLNT.                A2DTECH : CLIENT CODE
ORIG.           2"  5" PRINT : ORIGIN OF DATA
UWI .       100123405407W500 : UNIQUE WELL ID
DICO. A2D Technologies, Inc. : DIGITIZING COMPANY
~Other -----------------------------------------------------
IEL-SONIC TOOL RUN
CILD GAPS NOT FILLED DUE TO MISSING IMAGE
~ASCII -----------------------------------------------------
# ...
 5450.00000    8.34780    8.34780   33.25470   31.62710   31.61850    -999.25   59.51510   59.51510   34.94960   34.94960   31.61850   41.65820 -136.73230  -40.81970   41.65820
 5500.00000    8.39770    8.39770   28.30590   26.68300   37.47700    -999.25   59.59100   59.59100   42.49300   42.49300   37.47700   47.89860 -126.71600  -30.71160   47.89860
 5550.00000    8.21630    8.21630   21.43000   20.12380   49.69230    -999.25   57.76190   57.76190   32.95060   32.95060   49.69230   61.44840 -119.11650  -23.02030   61.44840
 5600.00000    8.29590    8.29590   15.13850   14.93240   66.96830    -999.25   58.43810   58.43810   41.92680   41.92680   66.96830   79.30460 -108.66990  -12.48130   79.30460
 5650.00000    8.24890    8.24890    9.31260    5.35250  186.82950    -999.25   57.67640   57.67640   46.82530   46.82530  186.82950  152.45370  -97.85930   -1.57890  152.45370
 5700.00000    8.38280    8.38280    8.18170    5.41080  184.81600    -999.25   51.50330   51.50330   18.31050   18.31050  184.81600  152.17970 -132.14990  -35.99620  152.17970
 5750.00000    8.20250    8.20250   24.46910   21.85310   45.76020    -999.25   50.43010   50.43010   18.41660   18.41660   45.76020  185.05460 -198.45070 -102.47150  185.05460
 5800.00000    7.48850    7.48850   75.79120   70.13210   14.25880   56.76960   53.71410   53.71410   22.02020   22.02020   14.25880   61.90840 -219.58240 -123.77780   61.90840
 5850.00000    7.24370    7.24370  570.06770  533.02060    1.87610   66.10980   63.05030   63.05030   12.48160   12.48160    1.87610   22.70600 -244.96990 -149.34100   22.70600
 5900.00000    7.29470    7.29470   28.70420   25.80650   38.74990   52.97250   53.08540   53.08540   14.82260   14.82260   38.74990  141.37990 -237.80980 -142.35540  141.37990
 5950.00000    8.01780    8.01780   19.05980   16.96170   58.95630   50.80820   50.05920   50.05920   14.88420   14.88420   58.95630  135.16340 -211.20010 -115.92140  135.16340
 6000.00000    7.66510    7.66510   16.35230   14.04550   71.19710   53.35960   52.12390   52.12390   13.34060   13.34060   71.19710  143.69220 -260.09580 -164.99170  143.69220
 6050.00000    8.02230    8.02230   12.30250    9.65450  103.57900    -999.25   52.00910   52.00910   14.35290   14.35290  103.57900  140.60220 -210.54690 -115.61740  140.60220
 6100.00000    8.00260    8.00260   14.27110   12.15210   82.29030    -999.25   51.98930   51.98930   13.92610   13.92610   82.29030  148.78510 -215.82560 -121.07180  148.78510
 6150.00000    7.72670    7.72670   14.74110   12.26650   81.52290    -999.25   52.12860   52.12860   14.99470   14.99470   81.52290  144.19140 -300.00000 -205.42070  144.19140
 6200.00000    7.53870    7.53870   27.59610   25.67030   38.95550    -999.25   53.15230   53.15230   14.29020   14.29020   38.95550  132.40580 -264.59270 -170.18910  132.40580
 6250.00000    7.43610    7.43610  182.81820  183.01610    5.46400    -999.25   54.00590   54.00590   14.45890   14.45890    5.46400   35.07570 -251.35260 -157.12360   35.07570
 6300.00000    7.99140    7.99140    4.44160    2.37850  420.43540   50.55190   49.94930   49.94930   17.91980   17.91980  420.43540  233.93190 -172.60730  -78.55280  233.93190
 6350.00000    8.15090    8.15090   33.48530   32.48990   30.77880   57.73320   58.86720   58.86720   51.87390   51.87390   30.77880   39.88720 -142.24440  -48.36560   39.88720
 6400.00000    8.09040    8.09040   29.56440   28.40510   35.20500   50.64280   50.14790   50.14790   23.03910   23.03910   35.20500   84.74970 -192.45810  -98.75390   84.74970
 6450.00000    7.62770    7.62770   33.78090   32.44580   30.82060   56.40860   53.10300   53.10300   18.42540   18.42540   30.82060   87.19070 -219.52310 -125.99460   87.19070
 6500.00000    8.17650    8.17650  106.34230   96.78860   10.33180   58.54280   55.01490   55.01490   31.19220   31.19220   10.33180   17.60990 -159.60230  -66.24840   17.60990
 6550.00000    8.26750    8.26750   41.07550   39.70130   25.18810   63.54120   58.34690   58.34690   51.31440   51.31440   25.18810   28.12600 -104.68150  -11.50210   28.12600
 6600.00000   12.43080   12.43080  190.44980  183.78300    5.44120    -999.25   84.24890   84.24890   75.72450   75.72450    5.44120    7.32860 -103.40160  -10.39790    7.32860
 6650.00000    8.55750    8.55750  111.44290  105.75070    9.45620    -999.25   70.54500   70.54500   73.70410   73.70410    9.45620   13.24790  -95.84880   -3.13380   13.24790
 6700.00000   12.09660   12.09660  205.46560  205.46560    4.86700    -999.25   83.31730   83.31730   77.09700   77.09700    4.81450    6.34970 -106.35810  -14.10980    6.34970
 6750.00000    8.40390    8.40390  113.83300  107.93190    9.26510    -999.25   66.17000   66.17000   69.13210   69.13210    9.26510   14.09320 -129.11230  -37.32770   14.09320
 6800.00000    8.79510    8.79510   71.98060   71.81840   13.92400    -999.25   73.55290   73.55290   39.45120   39.45120   13.92400   16.31570 -119.90110  -28.58010   16.31570
 6850.00000   10.48220   10.48220  183.44040  175.48170    5.69860    -999.25   63.60320   63.60320   60.48720   60.48720    5.69860    6.29160 -129.28970  -38.43540    6.29160
 6900.00000    8.21580    8.21580   55.92950   50.70630   19.72140    -999.25   61.49090   61.49090   56.41060   56.41060   19.72140   28.43540 -106.54070  -16.15010   28.43540
 6950.00000    8.51550    8.51550  108.51360  106.14020    9.42150    -999.25   70.63190   70.63190   66.55110   66.55110    9.42150   14.27490 -111.45720  -21.53330   14.27490
 7000.00000    8.28730    8.28730  127.40040  123.45220    8.10030    -999.25   70.64980   70.64980   74.98750   74.98750    8.10030   12.37200 -111.91220  -22.45190   12.37200
 7050.00000    8.49290    8.49290  116.39100  110.43130    9.05540    -999.25   68.84280   68.84280   72.55020   72.55020    9.05540   14.07910 -107.02150  -18.02490   14.07910
 7100.00000    8.14260    8.14260   79.68190   72.57580   13.77870    -999.25   63.60230   63.60230   51.16140   51.16140   13.77870   19.75030 -106.56920  -18.03930   19.75030
 7150.00000    8.19220    8.19220  101.95410   94.78220   10.55050    -999.25   67.83740   67.83740   57.68510   57.68510   10.55050   15.47720 -104.78520  -16.71890   15.47720
 7200.00000    9.10070    9.10070  126.77240  119.34030    8.37940    -999.25   68.80640   68.80640   66.41100   66.41100    8.37940   11.56280 -109.88250  -22.28290   11.56280
 7250.00000    9.06070    9.06070  122.22190  119.14550    8.39310    -999.25   76.80290   76.80290   48.86420   48.86420    8.39310   12.62580 -111.74490  -24.60900   12.62580
 7300.00000   13.04220   13.04220  171.14830  167.52940    5.96910    -999.25   86.63850   86.63850   58.24060   58.24060    5.96910    7.46430 -123.50490  -36.83270    7.46430
 7350.00000   13.22090   13.22090  179.41050  180.90380    5.52780    -999.25   80.57760   80.57760   55.95780   55.95780    5.52780    7.70260 -112.49920  -26.29370    7.70260
 7400.00000   11.29820   11.29820  163.93390  161.25390    6.20140    -999.25   75.48300   75.48300   64.77640   64.77640    6.20140    8.93800 -112.35610  -26.61420    8.93800
 7450.00000    8.27190    8.27190  102.98920   98.30520   10.17240    -999.25   68.52040   68.52040   54.96960   54.96960   10.17240   17.16390  -99.51340  -14.23820   17.16390
 7500.00000    8.19620    8.19620   13.92640   11.66460   85.72960    -999.25   78.95880   78.95880  142.36710  142.36710   85.72960   96.08510  -90.35630   -5.54480   96.08510
 7550.00000    8.07270    8.07270   16.91510   14.99850   66.67340    -999.25   53.44170   53.44170   25.65980   25.65980   66.67340   80.12180  -97.58160  -13.23370   80.12180
 7600.00000    9.30550    9.30550  135.34360  129.52860    7.72030    -999.25   85.38460   85.38460   63.59900   63.59900    7.72030   12.19890 -110.27230  -26.39110   12.19890
 7650.00000   12.29440   12.29440  250.18130  250.18130    3.99710    -999.25   93.30550   93.30550   92.53880   92.53880    4.03760    6.21590 -112.45160  -29.03410    6.21590
 7700.00000   10.96040   10.96040  226.09420  226.09420    4.42290   82.43750   77.68710   77.68710   75.09150   75.09150    4.43110    8.13630 -107.14170  -24.19090    8.13630
