~Version ---------------------------------------------------
VERS.      2.0 : CWLS log ASCII Standard -VERSION 2.0
WRAP.       NO : One line per depth step
CREA. 11/13/17 : LAS Creation Date
~Well ------------------------------------------------------
STRT.FT                            1100.0 : START DEPTH
STOP.FT                           11000.0 : STOP DEPTH
STEP.FT                          50.00000 : STEP LENGTH
NULL.                             -999.25 : NULL VALUE
COMP.        PAN AMERICAN PETROLEUM CORP. : COMPANY
WELL. PAN AM A-1 ASPLUND CREEK 4-22-66-23 : WELL
FLD .                                     : FIELD
LOC .                                     : LOCATION
CTRY.                              CANADA : COUNTRY
SRVC.              Schlumberger of Canada : SERVICE COMPANY
DATE.                         29-Mar-1964 : LOGDATE
PROV.                             Alberta : PROVINCE
UWI .                    100042206623W500 : UNIQUE WELL ID
SLAT.WGS84                       54.72149 : SURFACE LATITUDE
SLON.WGS84                      -117.4003 : SURFACE LONGITUDE
~Curve Information -----------------------------------------
DEPT  .FT    : Depth Curve
CALSED.IN    : CALIPER FROM SONIC LOG
CALWS .IN    : CALIPER [CALSED]
CILDED.MMHO  : CONDUCTIVITY FROM RESISTIVITY LOG
CONDWS.MMHO  : CONDUCTIVITY [1000/DRESWS]
DRESWS.OHMM  : DEEP RESISTIVITY [ILDED] IF ILDED<2;1000/CILDED;ELSE ILDED
DTED  .US/F  : DELTA TIME FROM SONIC LOG
DTWS  .US/F  : DELTA TIME [DTED]
GRSED .GAPI  : GAMMA RAY FROM SONIC LOG
GRWS  .GAPI  : GAMMA RAY [GRSED]
ILDED .OHMM  : INDUCTION LOG DEEP RESISTIVITY
SNED  .OHMM  : 16 INCH SHORT NORMAL RESISTIVITY FROM RESISTIVITY LOG
SPRED .MV    : SPONTANEOUS POTENTIAL FROM RESISTIVITY LOG
SPWS  .MV    : SPONTANEOUS POTENTIAL [BASELINE 0 MV] [SPRED]
SRESWS.OHMM  : SHALLOW RESISTIVITY [SNED]
~Params ----------------------------------------------------
PD  .                     GL : PERMANENT DATUM
EPD .FT               2726.1 : ELEVATION PERMANENT DATUM
LMF .                     KB : LOG MEASURED FROM
DAPD.FT                 13.1 : FEET ABOVE PERMANENT DATUM
EKB .FT               2739.2 : KELLY BUSHING
EGL .FT               2726.1 : GROUND LEVEL
DATE.               03/29/64 : RUN DATE
RUN .                      1 : RUN NUMBER
DD  .FT                11007 : DEPTH DRILLER
DL  .FT                11012 : DEPTH LOGGER
BLI .FT                11011 : BOTTOM LOG INTERVAL
TLI .FT                 1140 : TOP LOG INTERVAL
CBD .FT                 1138 : CASING BOTTOM DRILLER
CBL .FT                 1139 : CASING BOTTOM LOGGER
BS  .IN                 8.75 : BIT SIZE
BSD .FT                11007 : BIT SIZE AT DEPTH
DFT .               GEL CHEM : DRILLING FLUID TYPE
DFD .                    9.2 : DRILLING FLUID DENSITY
DFV .                     75 : DRILLING FLUID VISCOSITY
DFPH.                    8.5 : DRILLING FLUID PH
DFL .                   13.4 : DRILLING FLUID LOSS
RMS .OHMM               4.61 : RESISTIVITY MUD SAMPLE
MST .DEGF                 60 : MUD SAMPLE TEMPERATURE
RMF .OHMM                  4 : RESISTIVITY MUD FILTRATE SAMPLE
MFST.DEGF                 66 : MUD FILTRATE SAMPLE TEMPERATURE
RMC .OHMM               3.83 : RESISTIVITY MUD CAKE
MCST.DEGF                 64 : MUD CAKE SAMPLE TEMPERATURE
RMB .OHMM               1.61 : RESISTIVITY MUD AT BHT
TCS .HRS                   5 : TIME CIRCULATED STOPPED
LUN .                   3534 : LOGGING UNIT NUMBER
LUL .                    WCT : LOGGING UNIT LOCATION
ENGI.                 HAMTON : RECORDING ENGINEER
WITN.               FONTEYNE : WITNESSED BY
CLNT.                A2DTECH : CLIENT CODE
ORIG.            2" 5" PRINT : ORIGIN OF DATA
UWI .       100042206623W500 : UNIQUE WELL ID
DICO. A2D Technologies, Inc. : DIGITIZING COMPANY
~Other -----------------------------------------------------
~ASCII -----------------------------------------------------
# ...
 6000.00000   11.62670   11.62670   62.84590   59.01690   16.94430   71.90960   71.90960   68.68960   68.68960   16.94430   25.62270  -54.10830  -33.01410   25.62270
 6050.00000   11.37120   11.37120   54.31380   46.71220   21.40770   70.70340   70.70340   69.19570   69.19570   21.40770   27.72170  -49.79530  -29.00410   27.72170
 6100.00000   13.91850   13.91850   97.96390   83.40630   11.98950   62.07780   62.07780   68.48160   68.48160   11.98950   13.10620  -52.30120  -31.81490   13.10620
 6150.00000    8.41890    8.41890  100.93990   97.82730   10.22210   73.25470   73.25470   30.38810   30.38810   10.22210   39.76030 -157.42710 -137.24380   39.76030
 6200.00000    8.47710    8.47710   67.63000   62.25910   16.06190   78.35030   78.35030   25.82360   25.82360   16.06190   45.30980 -133.65780 -113.77940   45.30980
 6250.00000    8.24120    8.24120  144.42230  128.68190    7.77110   78.37230   78.37230   30.62830   30.62830    7.77110   35.38150 -151.43790 -131.86240   35.38150
 6300.00000    8.37160    8.37160  106.25880   95.77350   10.44130   73.17180   73.17180   26.83900   26.83900   10.44130   45.42370 -153.31410 -134.04160   45.42370
 6350.00000   10.56950   10.56950   22.46470   18.85860   53.02610   94.16850   94.16850   83.12000   83.12000   53.02610   96.73830  -41.09510  -22.12750   96.73830
 6400.00000   10.06860   10.06860   12.83990    8.21310  121.75640   83.50350   83.50350  208.71650  208.71650  121.75640  124.59110  -53.65610  -34.99150  124.59110
 6450.00000   11.12310   11.12310  190.70840  163.67950    6.10950   72.21340   72.21340   73.54630   73.54630    6.10950   34.25530  -91.84410  -73.48440   34.25530
 6500.00000   12.80920   12.80920   99.21740   91.43940   10.93620   68.94250   68.94250   73.38430   73.38430   10.93620   13.57470  -41.84540  -23.78860   13.57470
 6550.00000   11.79490   11.79490  113.64300  108.88980    9.18360   67.53090   67.53090   62.00090   62.00090    9.18360   17.05610  -63.22720  -45.47340   17.05610
 6600.00000   12.75050   12.75050   93.12360   84.46730   11.83890   67.02360   67.02360   62.73310   62.73310   11.83890   14.95520  -53.44420  -35.99530   14.95520
 6650.00000   12.06640   12.06640   71.20450   67.33920   14.85020   64.39060   64.39060   66.15270   66.15270   14.85020   19.52590  -44.78160  -27.63560   19.52590
 6700.00000   12.56830   12.56830   48.76740   45.13940   22.15360   64.51960   64.51960   65.98960   65.98960   22.15360   27.83450  -25.07120   -8.23020   27.83450
 6750.00000   12.40100   12.40100   42.58500   39.27310   25.46270   62.59620   62.59620   59.61630   59.61630   25.46270   30.83780  -28.42740  -11.88930   30.83780
 6800.00000    7.95110    7.95110   51.89060   49.80250   20.07930   63.23040   63.23040   23.32050   23.32050   20.07930  102.74280 -180.44400 -164.20890  102.74280
 6850.00000    7.97700    7.97700   88.38490   82.73760   12.08640   67.00010   67.00010   26.86760   26.86760   12.08640   65.62440 -180.29440 -164.33600   65.62440
 6900.00000   10.43290   10.43290   39.90820   34.94450   28.61680   51.76850   51.76850   26.01110   26.01110   28.61680   37.81050  -76.59790  -60.90920   37.81050
 6950.00000    9.84600    9.84600   26.29140   21.75950   45.95700   51.53390   51.53390   32.37280   32.37280   45.95700   70.48050  -70.37060  -54.95340   70.48050
 7000.00000    8.30940    8.30940   37.34010   31.83700   31.41000   54.98020   54.98020   18.66730   18.66730   31.41000   70.04390 -124.24850 -109.10100   70.04390
 7050.00000    8.18330    8.18330  135.76530  130.84210    7.64280   66.75360   66.75360   14.83730   14.83730    7.64280   37.79170 -196.11880 -181.24100   37.79170
 7100.00000   10.02430   10.02430  331.91440  256.29850    3.90170   65.22760   65.22760   24.11780   24.11780    3.90170   23.36010 -126.40760 -111.80130   23.36010
 7150.00000    9.08640    9.08640  451.56320  306.52280    3.26240   70.51570   70.51570   23.78470   23.78470    3.26240   28.14000 -190.15200 -175.81540   28.14000
 7200.00000   10.62530   10.62530   65.57650   64.76980   15.43930   53.25810   53.25810   18.24300   18.24300   15.43930   87.42030 -117.12550 -103.06040   87.42030
 7250.00000    9.10140    9.10140   73.69650   72.58050   13.77780   56.01900   56.01900   19.70700   19.70700   13.77780   79.36590 -167.20750 -153.41210   79.36590
 7300.00000   10.09840   10.09840   10.36160    6.52210  153.32450   51.93320   51.93320   28.17690   28.17690  153.32450  153.63040  -76.94920  -63.42350  153.63040
 7350.00000   13.00700   13.00700   99.60770   90.58630   11.03920   65.94540   65.94540   56.47760   56.47760   11.03920   17.00430  -10.47890    0.00000   17.00430
 7400.00000   10.19020   10.19020   54.23230   52.79860   18.93990   55.29500   55.29500   32.68660   32.68660   18.93990   51.86660  -46.03390  -32.24770   51.86660
 7450.00000    9.02190    9.02190  221.34830  177.01620    5.64920   56.65130   56.65130   18.64600   18.64600    5.64920   44.22600 -188.19510 -174.01380   44.22600
 7500.00000   10.32210   10.32210   44.09520   40.18000   24.88800   52.24770   52.24770   22.90720   22.90720   24.88800   51.98890  -61.30630  -46.73250   51.98890
 7550.00000   10.56470   10.56470  132.40500  119.88970    8.34100   55.11240   55.11240   26.26620   26.26620    8.34100   19.06700  -78.84940  -63.88300   19.06700
 7600.00000    9.67730    9.67730    8.93150    4.48040  223.19620   49.83490   49.83490   10.90560   10.90560  223.19620  253.23320 -111.24300  -95.88150  253.23320
 7650.00000    9.17090    9.17090   65.67440   63.36130   15.78250   60.47330   60.47330   18.92920   18.92920   15.78250   89.00650 -179.76770 -164.01370   89.00650
 7700.00000   10.28890   10.28890   12.72680    8.33570  119.96660   51.08400   51.08400   11.21770   11.21770  119.96660  123.84680 -188.70540 -172.55620  123.84680
 7750.00000    9.88890    9.88890   73.57740   67.11770   14.89920   58.65240   58.65240   59.14550   59.14550   14.89920   24.04970  -85.06880  -68.52710   24.04970
 7800.00000   10.94780   10.94780  293.60970  237.21980    4.21550   64.24820   64.24820   57.75630   57.75630    4.21550    6.41650 -101.03150  -84.09720    6.41650
 7850.00000   10.30770   10.30770   69.27080   66.42970   15.05350   61.69370   61.69370   61.60690   61.60690   15.05350   28.46000  -72.07470  -54.74530   28.46000
 7900.00000   10.49370   10.49370   37.38250   34.20690   29.23390   54.50860   54.50860   43.24250   43.24250   29.23390   53.54110  -87.10350  -69.38160   53.54110
 7950.00000   10.65360   10.65360   19.83420   19.90030   50.25040   53.65100   53.65100   20.29750   20.29750   50.25040   59.22190  -80.20290  -62.08590   59.22190
 8000.00000   10.08970   10.08970   22.76300   18.03800   55.43860   54.66880   54.66880   29.61620   29.61620   55.43860   63.01790  -78.00650  -59.49690   63.01790
 8050.00000   10.13380   10.13380   34.51640   31.60720   31.63840   59.76560   59.76560   55.89500   55.89500   31.63840   49.99750  -75.61240  -56.71030   49.99750
 8100.00000    9.46500    9.46500   22.84570   20.23800   49.41210   55.03560   55.03560   35.76710   35.76710   49.41210   77.53250  -86.12870  -66.83150   77.53250
 8150.00000    9.42200    9.42200   10.00840    6.22350  160.68220   52.72570   52.72570   29.84750   29.84750  160.68220  179.77850  -96.83040  -77.14060  179.77850
 8200.00000    9.45770    9.45770    9.15110    5.02030  199.19310   51.81380   51.81380   21.38360   21.38360  199.19310  206.91140  -89.01500  -68.93010  206.91140
 8250.00000    9.51300    9.51300   12.61290    8.83010  113.24950   55.53540   55.53540   32.96200   32.96200  113.24950  141.56020  -73.59450  -53.11700  141.56020
 8300.00000    9.88530    9.88530   14.66900   10.51030   95.14500   54.63770   54.63770   36.22160   36.22160   95.14500  106.87900  -66.55940  -45.68940  106.87900
 8350.00000    9.73620    9.73620   21.09080   18.00500   55.54010   58.31200   58.31200   43.57550   43.57550   55.54010   81.47740  -53.40140  -32.13630   81.47740
 8400.00000   10.92130   10.92130    8.83080    5.04760  198.11460   53.05530   53.05530   16.01100   16.01100  198.11460  259.86570  -80.91850  -59.26080  259.86570
