~Version ---------------------------------------------------
VERS.      2.0 : CWLS log ASCII Standard -VERSION 2.0
WRAP.       NO : One line per depth step
CREA. 10/04/13 : LAS Creation Date
~Well ------------------------------------------------------
STRT.M                                400.0 : START DEPTH
STOP.M                               2800.0 : STOP DEPTH
STEP.M                             50.00000 : STEP LENGTH
NULL.                               -999.25 : NULL VALUE
COMP. CONOCOPHILLIPS CANADA RESOURCES CORP. : COMPANY
WELL.         GULF ET AL LPINECK 6-14-31-27 : WELL
FLD .                                       : FIELD
LOC .                                       : LOCATION
CTRY.                                CANADA : COUNTRY
SRVC.                          Schlumberger : SERVICE COMPANY
DATE.                           20-Aug-1988 : LOGDATE
PROV.                               Alberta : PROVINCE
UWI .                      100061403127W400 : UNIQUE WELL ID
SLAT.WGS84                         51.65514 : SURFACE LATITUDE
SLON.WGS84                        -113.7265 : SURFACE LONGITUDE
~Curve Information -----------------------------------------
DEPT    .M      : DEPTH METER
C1ED    .MM     : CALIPER 1 FROM DENSITY LOG [ADJ. TO RESISTIVITY LOG]
C2ED    .MM     : CALIPER 2 FROM DENSITY LOG [ADJ. TO RESISTIVITY LOG]
CALDED  .MM     : CALIPER FROM DENSITY LOG [ADJ. TO RESISTIVITY LOG]
CALSED  .MM     : CALIPER FROM SONIC LOG
CALWS   .MM     : CALIPER [CALDED]
CONDWS  .MMHO   : CONDUCTIVITY [1000/DRESWS]
DCORWS  .KG/M3  : DENSITY CORRECTION [DRHOED]
DENWS   .KG/M3  : FORMATION BULK DENSITY [CALC FROM DPOLSWS, M=2710, F=1000]
DPHILSED.V/V    : DENSITY POROSITY LIMESTONE [M=2710, F=1000] FROM DENSITY LOG [ADJ. TO RESISTIVITY LOG]
DPHISSED.V/V    : DENSITY POROSITY SANDSTONE [M=2650, F=1000] FROM DENSITY LOG [ADJ. TO RESISTIVITY LOG]
DPOLSWS .V/V    : DENSITY POROSITY LIMESTONE [DPHISSED MATRIX CONVERTED TO LS(M=2710,F=1000) & SPL TO DPHILSED @ 1959M]
DRESWS  .OHMM   : DEEP RESISTIVITY [ILDED]
DRHOED  .KG/M3  : DENSITY CORRECTION FROM DENSITY LOG [ADJ. TO RESISTIVITY LOG]
DTED    .US/M   : DELTA TIME FROM SONIC LOG
DTWS    .US/M   : COMPRESSIONAL SONIC [DTED]
GRDED   .GAPI   : GAMMA RAY FROM DENSITY LOG [ADJ. TO RESISTIVITY LOG]
GRSED   .GAPI   : GAMMA RAY FROM SONIC LOG
GRWS    .GAPI   : GAMMA RAY [GRSED SPL. TO GRDED @ 2824M]
ILDED   .OHMM   : DEEP INDUCTION RESISTIVITY FROM RESISTIVITY LOG
ILMED   .OHMM   : MEDIUM INDUCTION RESISTIVITY FROM RESISTIVITY LOG
MRESWS  .OHMM   : MEDIUM RESISTIVITY [ILMED]
NPHILSED.V/V    : NEUTRON POROSITY LIMESTONE FROM DENSITY LOG [ADJ. TO RESISTIVITY LOG]
NPHISSED.V/V    : NEUTRON POROSITY SANDSTONE FROM DENSITY LOG [ADJ. TO RESISTIVITY LOG]
NPOLSWS .V/V    : NEUTRON POROSITY LIMESTONE [NPHISSED MATRIX CONVERTED TO LS & SPL TO NPHILSED @ 1959M]
RHOBED  .KG/M3  : BULK DENSITY FROM DENSITY LOG [ADJ. TO RESISTIVITY LOG]
SFLUED  .OHMM   : SPHERICALLY FOCUSED LOG RESISTIVITY FROM RESISTIVITY LOG
SPRED   .MV     : SPONTANEOUS POTENTIAL FROM RESISTIVITY LOG
SPWS    .MV     : SPONTANEOUS POTENTIAL [BASELINE 0 MV, SPRED]
SRESWS  .OHMM   : SHALLOW RESISTIVITY [SFLUED]
TENDED  .N      : TENSION FROM DENSITY LOG [ADJ. TO RESISTIVITY LOG]
TENRED  .N      : TOTAL TENSION FROM RESISTIVITY LOG
~Params ----------------------------------------------------
PD  .                         GL : PERMANENT DATUM
EPD .M                     925.4 : ELEVATION PERMANENT DATUM
LMF .                         KB : LOG MEASURED FROM
DAPD.M                       4.8 : FEET ABOVE PERMANENT DATUM
DMF .                         KB : DRILLING MEASURED FROM
EKB .M                     930.2 : KELLY BUSHING
EDF .M                     929.9 : DRILLING FLOOR
EGL .M                     925.4 : GROUND LEVEL
DATE.                   08/26/88 : RUN DATE
RUN .                          1 : RUN NUMBER
DD  .M                      2848 : DEPTH DRILLER
DL  .M                      2845 : DEPTH LOGGER
BLI .M                      2844 : BOTTOM LOG INTERVAL
TLI .M                     424.5 : TOP LOG INTERVAL
CS  .MM                      244 : CASING SIZE
CBD .M                       426 : CASING BOTTOM DRILLER
CBL .M                     424.5 : CASING BOTTOM LOGGER
BS  .MM                      222 : BIT SIZE
BSD .M                      2848 : BIT SIZE AT DEPTH
DFT .                   GEL CHEM : DRILLING FLUID TYPE
DFD .                       1085 : DRILLING FLUID DENSITY
DFV .                         61 : DRILLING FLUID VISCOSITY
DFPH.                       10.5 : DRILLING FLUID PH
DFL .                        6.4 : DRILLING FLUID LOSS
MSS .                   FLOWLINE : MUD SAMPLE SOURCE
RMS .OHMM                   0.62 : RESISTIVITY MUD SAMPLE
MST .DEGC                     18 : MUD SAMPLE TEMPERATURE
RMF .OHMM                  0.561 : RESISTIVITY MUD FILTRATE SAMPLE
MFST.DEGC                     20 : MUD FILTRATE SAMPLE TEMPERATURE
MFSS.                      PRESS : MUD FILTRATE SAMPLE SOURCE
RMB .OHMM                  0.254 : RESISTIVITY MUD AT BHT
TCS .HRS                    1730 : TIME CIRCULATED STOPPED
TLAB.HRS                    2324 : TIME LOGGER AT BOTTOM
LUN .                       8063 : LOGGING UNIT NUMBER
LUL .                   RED DEER : LOGGING UNIT LOCATION
ENGI.              CURTIS BROCHU : RECORDING ENGINEER
WITN.                    STEVENS : WITNESSED BY
CLNT.                    A2DTECH : CLIENT CODE
ORIG. 6.5"/100M 16.5"/100M PRINT : ORIGIN OF DATA
UWI .           100061403127W400 : UNIQUE WELL ID
DICO.     A2D Technologies, Inc. : DIGITIZING COMPANY
~Other -----------------------------------------------------
DIL-SFL-BHC RUN IN COMBO & CNFD LOG RUN
GRD,C1,C2,CALD FROM TOP-1594.5M & RHOB FROM SMALL SCALE LOG
NEUTRON CONVERSION: SCHLUMBERGER, CNL(NPHI)
~ASCII -----------------------------------------------------
# ...
 1550.00000  231.80580  230.12350  247.42710  238.85280  247.42710  130.22530    -999.25    -999.25    -999.25    -999.25    -999.25    7.67900    -999.25  238.79290  238.79290  108.74730   96.48990   96.48990    7.67900    6.22020    6.22020    -999.25    -999.25    -999.25    -999.25   29.19790 -102.43630   -4.54550   29.19790    -999.25 9672.37460
 1600.00000  281.93480  209.88680  223.87020  239.79660  223.87020   43.99700   -4.98100 2440.12000    -999.25    0.12720    0.15780   22.72880   -4.98100  343.87220  343.87220  212.74720  227.18680  227.18680   22.72880   20.64320   20.64320    -999.25    0.46630    0.42460 2441.72020   39.61900 -105.04190   -7.78100   39.61900 11359.36040 9840.07790
 1650.00000  367.69110  226.39450  244.76430  257.01090  244.76430  238.15190  122.41360 2178.92500    -999.25    0.28550    0.31060    4.19900  122.41360  274.09800  274.09800   95.79960  103.42770  103.42770    4.19900    4.11310    4.11310    -999.25    0.44750    0.40570 2165.12670    5.43050 -100.33070   -3.46250    5.43050 11572.89240 10040.62550
 1700.00000  247.00410  300.12730  308.02930  260.42260  308.02930  130.89350   19.29380 2316.20500    -999.25    0.20230    0.23030    7.63980   19.29380  277.33960  277.33960  106.34770  105.91940  105.91940    7.63980    7.21770    7.21770    -999.25    0.26570    0.22170 2315.19340    7.61030 -104.42780   -5.75900    7.61030 12305.54920 10500.88610
 1750.00000  294.30990  333.76840  339.07830  309.91020  339.07830   53.14060   88.33170 1707.35500    -999.25    0.57130    0.58630   18.81800   88.33170  365.06360  365.06360   46.53370   44.12320   44.12320   18.81800   11.88630   11.88630    -999.25    0.62400    0.58230 1500.87480   70.50150  -84.77390   -6.97080   70.50150 12028.14870 10559.91400
 1800.00000  282.51010  336.36030  334.37250  310.43240  334.37250   60.20690    4.98870 2586.14500    -999.25    0.03870    0.07240   16.60940    4.98870  234.33810  234.33810   53.48240   43.91890   43.91890   16.60940   13.06010   13.06010    -999.25    0.19810    0.15470 2612.77000   13.78070  -92.06350  -13.12820   13.78070 12181.30940 10650.33700
 1850.00000  306.33270  329.26740  307.34460  314.92110  307.34460   50.79620   -4.98930 2599.34500    -999.25    0.03070    0.06470   19.68650   -4.98930  227.16210  227.16210   55.96020   50.23930   50.23930   19.68650   17.44530   17.44530    -999.25    0.20320    0.15970 2599.44870   19.31340 -105.40180  -15.41760   19.31340 12391.27080 10920.65230
 1900.00000  269.45940  289.32390  264.34890  277.24410  264.34890   25.41940   46.68070 2636.96500    -999.25    0.00790    0.04270   39.34010   46.68070  216.35470  216.35470   69.92140   67.86120   67.86120   39.34010   34.21970   34.21970    0.08330    0.13740    0.09500 2641.07590   43.28910 -108.79870  -17.59890   43.28910 12549.27790 11086.40060
 1950.00000  259.56020  271.70760  285.11240  268.76380  285.11240    5.99980   85.21640 2603.30500    -999.25    0.02830    0.06240  166.67140   85.21640  163.89050  163.89050   13.18250   16.45440   16.45440  166.67140 1875.83460 1875.83460    0.02400    0.06340    0.02400 2608.50200  130.52910 -143.30980  -47.28970  130.52910 12757.43870 11354.79160
 2000.00000  352.06110  264.78710  267.84170  286.46160  267.84170    0.49120   -1.90180 2717.18200   -0.00420    -999.25   -0.00420 2035.90300   -1.90180  162.65380  162.65380   13.63490   13.13330   13.13330 2035.90300  245.42860  245.42860    0.00170    -999.25    0.00170 2721.89820 1686.53920  -87.75710  -35.75960 1686.53920 13403.19770 11551.53960
 2050.00000  248.18470  234.02470  236.57650  236.95280  236.57650   34.63360   14.14950 2658.18700    0.03030    -999.25    0.03030   28.87370   14.14950  196.02750  196.02750   44.07800   41.37600   41.37600   28.87370   26.06340   26.06340    0.07430    -999.25    0.07430 2652.45260   30.83120  -41.77270  -66.88480   30.83120 13249.34610 11777.74940
 2100.00000  264.34760  254.76870  256.78310  259.67230  256.78310   35.60160   -0.43530 2655.28000    0.03200    -999.25    0.03200   28.08860   -0.43530  202.80490  202.80490   39.77390   41.49400   41.49400   28.08860   30.35160   30.35160    0.06980    -999.25    0.06980 2663.43410   33.77910    6.35370  -85.73160   33.77910 13657.94200 11938.13320
 2150.00000  253.90850  288.14400  279.56670  252.33990  279.56670    3.99820  177.35580 2594.06200    0.06780    -999.25    0.06780  250.10960  177.35580  182.61000  182.61000   87.27150   62.71740   62.71740  250.10960  110.23710  110.23710    0.02600    -999.25    0.02600 2593.53050  524.74960  -41.96270  -93.18360  524.74960 13838.76930 12499.23540
 2200.00000  245.15080  282.23680  268.37310  254.21830  268.37310   18.36410    5.54760 2921.35600   -0.12360    -999.25   -0.12360   54.45420    5.54760  189.25040  189.25040   12.09020   14.48790   14.48790   54.45420   50.81840   50.81840    0.01360    -999.25    0.01360 2926.81960   81.14890  -13.27310  -24.87030   81.14890 13868.72010 12697.36190
 2250.00000  293.06740  239.57130  240.91150  248.95840  240.91150    0.61460   -0.38350 2829.52900   -0.06990    -999.25   -0.06990 1627.08960   -0.38350  161.56690  161.56690    9.95020   12.00580   12.00580 1627.08960 1463.55110 1463.55110    0.07440    -999.25    0.07440 2827.42240  641.24260 -112.04970  -81.06580  641.24260 13824.59590 12974.52660
 2300.00000  276.71420  268.47800  258.54370  276.06840  258.54370    0.50000    3.06310 2934.35200   -0.13120    -999.25   -0.13120 2000.00000    3.06310  161.61270  161.61270   12.37280   12.21900   12.21900 2000.00000 1955.21570 1955.21570    0.00700    -999.25    0.00700 2936.84500 1752.73210 -229.08600 -155.52100 1752.73210 14226.23700 13049.98220
 2350.00000  272.01190  263.41140  262.28560  264.67670  262.28560    0.50000   -0.00280 2954.87200   -0.14320    -999.25   -0.14320 2000.00000   -0.00280  166.36190  166.36190   10.14770   10.55210   10.55210 2000.00000 2000.00000 2000.00000    0.00350    -999.25    0.00350 2954.83060 1408.92810  263.65160  -30.11590 1408.92810 14432.23240 13418.60140
 2400.00000  283.05360  257.00150  261.59700  274.98610  261.59700    7.32090   -0.78580 2814.65200   -0.06120    -999.25   -0.06120  136.59560   -0.78580  166.85820  166.85820   47.45820   44.00930   44.00930  136.59560   91.79280   91.79280    0.08370    -999.25    0.08370 2818.83420  112.91590 1090.14730 -104.26260  112.91590 15013.98720 13668.84640
 2450.00000  250.02870  246.70350  245.10940  234.96620  245.10940    0.50000   21.71670 2731.54600   -0.01260    -999.25   -0.01260 2000.00000   21.71670  165.30880  165.30880   24.50950   21.37800   21.37800 2000.00000 1494.73140 1494.73140    0.01450    -999.25    0.01450 2739.99510 1861.87760 -226.64950 -623.31070 1861.87760 15148.06380 13763.40130
 2500.00000  234.02550  318.57620  330.06200  255.57300  330.06200    2.44670  197.55060 2519.50600    0.11140    -999.25    0.11140  408.71550  197.55060  209.40510  209.40510   28.47690   21.94540   21.94540  408.71550   54.83150   54.83150    0.01350    -999.25    0.01350 2534.73780 1823.10750 -988.25200 -552.82470 1823.10750 15384.42850 14013.58260
 2550.00000  257.68000  221.01900  247.83270  226.48450  247.83270    0.50000   -0.78580 2690.59150    0.01140    -999.25    0.01140 2000.00000   -0.78580  163.30130  163.30130   26.15410   23.49440   23.49440 2000.00000 2022.70040 2022.70040    0.01330    -999.25    0.01330 2687.13640 1826.41530 -1445.87500 -793.18340 1826.41530 15352.89990 14174.33290
 2600.00000  265.34470  213.55100  226.49140  228.69760  226.49140    0.50000    2.79870 2702.64700    0.00430    -999.25    0.00430 2000.00000    2.79870  165.80960  165.80960    9.49230   14.04390   14.04390 2000.00000  302.46290  302.46290    0.01160    -999.25    0.01160 2707.16550  326.62810 -1396.36010 -896.87520  326.62810 15736.69160 14320.87690
 2650.00000  258.57120  219.31120  228.79970  234.10550  228.79970   13.53890   -5.15220 2661.60700    0.02830    -999.25    0.02830   73.86140   -5.15220  164.74440  164.74440    9.17380    8.62210    8.62210   73.86140   59.64550   59.64550    0.01780    -999.25    0.01780 2664.99020  108.09890 -1741.90650 -1395.62830  108.09890 15951.01450 14643.93350
