~Version ---------------------------------------------------
VERS.      2.0 : CWLS log ASCII Standard -VERSION 2.0
WRAP.       NO : One line per depth step
CREA. 11/14/17 : LAS Creation Date
~Well ------------------------------------------------------
STRT.FT                         300.0 : START DEPTH
STOP.FT                       10450.0 : STOP DEPTH
STEP.FT                      50.00000 : STEP LENGTH
NULL.                         -999.25 : NULL VALUE
COMP.      THE CALIFORNIA STANDARD CO : COMPANY
WELL. CALSTAN B.A. LOSEGUN 12-5-63-19 : WELL
FLD .                                 : FIELD
LOC .                                 : LOCATION
CTRY.                          CANADA : COUNTRY
SRVC.          Schlumberger of Canada : SERVICE COMPANY
DATE.                     10-Jan-1958 : LOGDATE
PROV.                         Alberta : PROVINCE
UWI .                100120506319W500 : UNIQUE WELL ID
SLAT.WGS84                    54.4238 : SURFACE LATITUDE
SLON.WGS84                  -116.8449 : SURFACE LONGITUDE
~Curve Information -----------------------------------------
DEPT  .FT         : Depth Curve
CALWS .IN         : CALIPER [MCALED]
CONDWS.MMHO       : CONDUCTIVITY [1000/DRESWS]
DRESWS.OHMM       : DEEP RESISTIVITY [LNED]
GRNED .UgRa-Eq/T  : GAMMA RAY FROM GRN LOG
GRWS  .GAPI       : GAMMA RAY [GRNED*16.50]
LNED  .OHMM       : LONG NORMAL RESISTIVITY FROM EL LOG
LT18ED.OHMM       : LATERAL 18' FROM EL LOG
MCALED.IN         : MICROLOG CALIPER FROM ML LOG
NEUTED.CPS        : NEUTRON FROM GRN LOG
NEUTWS.CPS        : NEUTRON [NEUTED]
SNED  .OHMM       : SHORT NORMAL RESISTIVITY FROM EL LOG
SPRED .MV         : SPONTANEOUS POTENTIAL FROM EL LOG
SPWS  .MV         : SPONTANEOUS POTENTIAL [BASELINE 0 MV, SPRED]
SRESWS.OHMM       : SHALLOW RESISTIVITY [SNED]
~Params ----------------------------------------------------
LMF .                     KB : LOG MEASURED FROM
DMF .                     KB : DRILLING MEASURED FROM
EKB .FT                 2631 : KELLY BUSHING
DATE.               01/10/58 : RUN DATE
RUN .                      1 : RUN NUMBER
DD  .FT                10462 : DEPTH DRILLER
DL  .FT                10466 : DEPTH LOGGER
BLI .FT                10465 : BOTTOM LOG INTERVAL
TLI .FT                  827 : TOP LOG INTERVAL
CBD .FT                  828 : CASING BOTTOM DRILLER
CBL .FT                  827 : CASING BOTTOM LOGGER
BS  .IN                    9 : BIT SIZE
BSD .FT                10462 : BIT SIZE AT DEPTH
DFT .                    GEL : DRILLING FLUID TYPE
DFD .                   10.7 : DRILLING FLUID DENSITY
DFV .                    130 : DRILLING FLUID VISCOSITY
DFPH.                    9.5 : DRILLING FLUID PH
DFL .                    5.7 : DRILLING FLUID LOSS
MSS .             CIRCULATED : MUD SAMPLE SOURCE
RMS .OHMM               2.32 : RESISTIVITY MUD SAMPLE
MST .DEGF                 68 : MUD SAMPLE TEMPERATURE
RMF .OHMM               1.16 : RESISTIVITY MUD FILTRATE SAMPLE
MFST.DEGF                 76 : MUD FILTRATE SAMPLE TEMPERATURE
RMC .OHMM               2.52 : RESISTIVITY MUD CAKE
MCST.DEGF                 76 : MUD CAKE SAMPLE TEMPERATURE
TCS .HRS                   5 : TIME CIRCULATED STOPPED
LUN .                   1534 : LOGGING UNIT NUMBER
LUL .                     VV : LOGGING UNIT LOCATION
ENGI.                DEMAERE : RECORDING ENGINEER
WITN.                JOHNSON : WITNESSED BY
CLNT.                A2DTECH : CLIENT CODE
ORIG.            2" 5" PRINT : ORIGIN OF DATA
UWI .       100120506319W500 : UNIQUE WELL ID
DICO. A2D Technologies, Inc. : DIGITIZING COMPANY
~Other -----------------------------------------------------
~ASCII -----------------------------------------------------
# ...
 7650.00000    9.18700   11.39230   87.78190    3.71890   61.36180   87.78190  102.19610    9.18700  272.91340  272.91340   43.79440 -117.88050  -81.26590   43.79440
 7700.00000    9.41750    1.35830  736.21550    1.58400   26.13600  736.21550  317.87410    9.41750  395.42000  395.42000  220.22000 -101.85930  -65.58550  220.22000
 7750.00000    9.53260    2.27930  438.73470    3.29780   54.41370  438.73470  456.40920    9.53260  293.57370  293.57370  149.68300  -97.45080  -61.51560  149.68300
 7800.00000    9.96150    4.32220  231.71010    2.26490   37.37000  231.71010  142.86960    9.96150  350.61530  350.61530  100.45060 -103.95280  -68.35620  100.45060
 7850.00000    9.96320    1.74590  572.76970    1.14870   18.95360  572.76970  200.43550    9.96320  399.32670  399.32670  183.99210  -93.31190  -58.05610  183.99210
 7900.00000   10.14600    1.55760  642.03260    0.92510   15.26410  642.03260  913.50630   10.14600  412.58610  412.58610  133.77770 -135.27040 -100.35320  133.77770
 7950.00000   10.16550    1.17050  854.36910    1.46930   24.24340  854.36910 1103.16220   10.16550  408.98080  408.98080  166.84690 -105.83340  -71.25700  166.84690
 8000.00000   10.43470    1.15450  866.14000    1.32860   21.92190  866.14000 1043.48010   10.43470  433.67450  433.67450  169.01130 -119.08820  -84.85040  169.01130
 8050.00000   11.28640    1.36460  732.79020    0.85370   14.08520  732.79020  810.30420   11.28640  382.59500  382.59500  148.12520 -127.87600  -93.97680  148.12520
 8100.00000   10.29260    1.02610  974.60250    1.35740   22.39710  974.60250 1157.49630   10.29260  378.53380  378.53380  179.73660 -131.77340  -98.21500  179.73660
 8150.00000   12.55790    0.90300 1107.37210    1.03150   17.01980 1107.37210 1203.30410   12.55790  325.90470  325.90470  132.60690 -159.98100 -126.76120  132.60690
 8200.00000    9.86670    2.32670  429.79380    0.87480   14.43420  429.79380  781.29240    9.86670  381.80280  381.80280  102.40410 -168.79170 -135.91270  102.40410
 8250.00000   10.82120    1.09720  911.40110    0.99820   16.47030  911.40110 1013.39100   10.82120  304.97710  304.97710  138.95530 -167.46950 -134.92910  138.95530
 8300.00000    9.91900    1.78400  560.55080    0.95160   15.70140  560.55080 1520.53920    9.91900  373.48150  373.48150   81.64400 -170.57710 -138.37530   81.64400
 8350.00000   11.19110    1.20620  829.06310    1.07980   17.81670  829.06310  631.37460   11.19110  351.47000  351.47000  164.89280 -166.86360 -135.00260  164.89280
 8400.00000   10.89440    0.93630 1068.01900    1.01260   16.70870 1068.01900 1511.17420   10.89440  398.60700  398.60700  161.08290 -159.60880 -128.08640  161.08290
 8450.00000   10.93280    3.18270  314.20010    0.98200   16.20300  314.20010  994.23780   10.93280  331.03850  331.03850   74.41480 -166.55540 -135.37380   74.41480
 8500.00000   10.22110    2.09930  476.34860    0.82700   13.64550  476.34860  787.13090   10.22110  390.95190  390.95190  119.81730 -153.44050 -122.59750  119.81730
 8550.00000    9.42050    3.95290  252.97830    0.86910   14.34100  252.97830  348.89210    9.42050  370.85220  370.85220   96.13400 -216.44900 -185.94460   96.13400
 8600.00000   10.43760    3.88910  257.13030    1.07950   17.81180  257.13030  301.96330   10.43760  344.33410  344.33410   98.46860 -113.38840  -83.22480   98.46860
 8650.00000    9.03600    2.34640  426.20980    1.14920   18.96180  426.20980 1780.86910    9.03600  311.90310  311.90310   99.36030 -120.58060  -90.75560   99.36030
 8700.00000    8.80060    2.32450  430.19760    0.99810   16.46870  430.19760  557.24480    8.80060  327.13670  327.13670  138.53970 -156.68650 -127.20230  138.53970
 8750.00000    8.94920    8.65920  115.48460    1.60810   26.53370  115.48460  123.83420    8.94920  267.28050  267.28050   52.18230 -135.41680 -106.27120   52.18230
 8800.00000   10.11690    6.86500  145.66680    2.24900   37.10850  145.66680  266.07890   10.11690  263.58080  263.58080   50.39490 -144.48390 -115.67690   50.39490
 8850.00000    9.65820    3.48600  286.85950    1.68650   27.82730  286.85950  597.09040    9.65820  275.49180  275.49180   80.80480 -168.60910 -140.14290   80.80480
 8900.00000    8.75220    4.85690  205.89910    2.75110   45.39230  205.89910  234.95740    8.75220  289.47200  289.47200   80.46070 -114.50920  -86.38160   80.46070
 8950.00000    8.70770    3.90780  255.89550    3.19950   52.79180  255.89550  356.14920    8.70770  330.03160  330.03160   95.53710 -133.47350 -105.68670   95.53710
 9000.00000    9.11450    7.70780  129.73900    2.71410   44.78270  129.73900  293.80650    9.11450  297.89150  297.89150   59.48840 -144.35760 -116.90940   59.48840
 9050.00000   12.21770   54.91090   18.21130    4.35230   71.81380   18.21130   32.54820   12.21770  194.57020  194.57020   14.47370 -133.62450 -106.51490   14.47370
 9100.00000   13.77510   65.05720   15.37110    4.54940   75.06510   15.37110   15.28380   13.77510  154.66450  154.66450    9.99850  -96.74890  -69.98010    9.99850
 9150.00000   13.76580   78.52600   12.73470    4.59560   75.82740   12.73470   10.61150   13.76580  159.01210  159.01210    8.23850  -57.73870  -31.30850    8.23850
 9200.00000   13.57610   76.29630   13.10680    4.42020   72.93330   13.10680    9.21890   13.57610  159.41600  159.41600    9.02960  -34.16460   -8.07520    9.02960
 9250.00000   11.42610   52.24800   19.13950    4.64830   76.69700   19.13950    4.27540   11.42610  176.26690  176.26690   12.31410  -28.75780   -3.00700   12.31410
 9300.00000    9.39100   53.68690   18.63490    4.20560   69.39240   18.63490   47.17120    9.39100  202.81120  202.81120   15.52520  -34.28970   -9.42270   15.52520
 9350.00000   11.85400  110.39960    9.05800    5.12410   84.54770    9.05800    4.11770   11.85400  165.81610  165.81610    6.62810  -35.11770  -11.31050    6.62810
 9400.00000   12.97070  133.90100    7.46840    3.98820   65.80530    7.46840    5.67480   12.97070  161.30540  161.30540    6.24520  -35.16840  -12.41420    6.24520
 9450.00000   11.09390  132.26110    7.56080    4.98540   82.25910    7.56080    4.57750   11.09390  170.45510  170.45510    8.04190  -48.31740  -26.62300    8.04190
 9500.00000    9.34550   57.57550   17.36850    4.81270   79.40960   17.36850    7.54120    9.34550  207.62680  207.62680   19.65100  -66.72010  -46.07860   19.65100
 9550.00000    9.07810   57.75180   17.31550    4.22050   69.63820   17.31550   13.25820    9.07810  221.09170  221.09170   16.63090  -85.64280  -66.05430   16.63090
 9600.00000    9.10900   42.63470   23.45510    3.89610   64.28570   23.45510   12.62000    9.10900  237.52320  237.52320   22.61890  -79.96400  -61.43530   22.61890
 9650.00000    9.23220   73.52900   13.60010    5.83630   96.29980   13.60010    9.36060    9.23220  183.16450  183.16450   11.98120  -77.85420  -60.37850   11.98120
 9700.00000    9.41560   84.15880   11.88230    5.86040   96.69660   11.88230    9.69640    9.41560  190.60470  190.60470   14.29900  -70.04550  -53.62960   14.29900
 9750.00000    9.44300   80.51340   12.42030    5.50920   90.90180   12.42030    9.95330    9.44300  184.31340  184.31340   13.26910  -65.80660  -50.44370   13.26910
 9800.00000   10.22940   76.39280   13.09030    5.33870   88.08850   13.09030    9.40690   10.22940  167.15760  167.15760   12.49210  -40.04080  -25.73080   12.49210
 9850.00000    9.01540    3.00440  332.84630    5.63560   92.98740  332.84630   54.94360    9.01540  206.47920  206.47920  132.44810  -22.24890   -8.99880  132.44810
 9900.00000    9.02920    1.75610  569.48820    5.09950   84.14180  569.48820  922.43060    9.02920  199.45250  199.45250  145.54680  -17.03330   -4.41830  145.54680
 9950.00000    9.05690    3.20260  312.24990    9.10930  150.30350  312.24990  190.71520    9.05690  182.62930  182.62930  122.15000  -28.27730  -15.39030  122.15000
 10000.00000    9.21280    8.84510  113.05640    8.27830  136.59200  113.05640  113.36430    9.21280  176.45970  176.45970   57.06520  -48.98360  -35.82640   57.06520
 10050.00000    9.74300   31.72670   31.55340    5.39460   89.01090   31.55340    9.48590    9.74300  165.06650  165.06650   20.23090  -69.49930  -56.07180   20.23090
