~Version ---------------------------------------------------
VERS.      2.0 : CWLS log ASCII Standard -VERSION 2.0
WRAP.       NO : One line per depth step
CREA. 11/28/17 : LAS Creation Date
~Well ------------------------------------------------------
STRT.FT                         1150.0 : START DEPTH
STOP.FT                        10350.0 : STOP DEPTH
STEP.FT                       50.00000 : STEP LENGTH
NULL.                          -999.25 : NULL VALUE
COMP.           QUINTANA PETROLEUM LTD : COMPANY
WELL. QUINTANA ET AL HSOUND 6-33-61-17 : WELL
FLD .                                  : FIELD
LOC .                                  : LOCATION
CTRY.                           CANADA : COUNTRY
SRVC.                     Schlumberger : SERVICE COMPANY
DATE.                      09-Sep-1973 : LOGDATE
PROV.                          Alberta : PROVINCE
UWI .                 100063306117W500 : UNIQUE WELL ID
SLAT.WGS84                    54.31664 : SURFACE LATITUDE
SLON.WGS84                   -116.4934 : SURFACE LONGITUDE
~Curve Information -----------------------------------------
DEPT  .FT    : Depth Curve
CALSED.IN    : CALIPER FROM SONIC LOG
CALWS .IN    : CALIPER [CALSED]
CILDED.MMHO  : DEEP INDUCTION CONDUCTIVITY FROM RESISTIVITY LOG
CONDWS.MMHO  : CONDUCTIVITY [1000/DRESWS]
DRESWS.OHMM  : DEEP RESISTIVITY [1000/CILDED IF ILDED <=5, ILDED]
DTED  .US/F  : DELTA-TIME FROM SONIC LOG
DTWS  .US/F  : COMPRESSIONAL SONIC [DTED]
GRSED .GAPI  : GAMMA RAY FROM SONIC LOG
GRWS  .GAPI  : GAMMA RAY [GRSED]
ILDED .OHMM  : DEEP INDUCTION RESISTIVITY FROM RESISTIVITY LOG
ILMED .OHMM  : MEDIUM INDUCTION RESISTIVITY FROM RESISTIVITY LOG
LL8ED .OHMM  : 8 INCH LATEROLOG FROM RESWISTIVITY LOG
MRESWS.OHMM  : MEDIUM RESISTIVITY [ILMED]
SPRED .MV    : SPONTANEOUS POTENTIAL FROM RESISTIVITY LOG
SPWS  .MV    : SPONTANEOUS POTENTIAL [BASELINE 0 MV, SPRED]
SRESWS.OHMM  : SHALLOW RESISTIVITY [LL8ED]
~Params ----------------------------------------------------
PD  .                     GL : PERMANENT DATUM
EPD .FT               2958.7 : ELEVATION PERMANENT DATUM
LMF .                     KB : LOG MEASURED FROM
DAPD.FT                 17.5 : FEET ABOVE PERMANENT DATUM
EKB .FT               2976.2 : KELLY BUSHING
EGL .FT               2958.7 : GROUND LEVEL
DATE.               09/09/73 : RUN DATE
RUN .                      1 : RUN NUMBER
DD  .FT                10370 : DEPTH DRILLER
DL  .FT                10364 : DEPTH LOGGER
BLI .FT                10358 : BOTTOM LOG INTERVAL
TLI .FT                 1130 : TOP LOG INTERVAL
CBD .FT                 1130 : CASING BOTTOM DRILLER
CBL .FT                 1130 : CASING BOTTOM LOGGER
BS  .IN                 8.75 : BIT SIZE
BSD .FT                10370 : BIT SIZE AT DEPTH
DFT .               GEL CHEM : DRILLING FLUID TYPE
DFD .                    9.2 : DRILLING FLUID DENSITY
DFV .                    125 : DRILLING FLUID VISCOSITY
DFPH.                   10.5 : DRILLING FLUID PH
DFL .                    9.8 : DRILLING FLUID LOSS
MSS .             CIRCULATED : MUD SAMPLE SOURCE
RMS .OHMM               2.45 : RESISTIVITY MUD SAMPLE
MST .DEGF                 66 : MUD SAMPLE TEMPERATURE
RMF .OHMM               2.33 : RESISTIVITY MUD FILTRATE SAMPLE
MFST.DEGF                 65 : MUD FILTRATE SAMPLE TEMPERATURE
RMB .OHMM               0.85 : RESISTIVITY MUD AT BHT
TCS .HRS                 2.5 : TIME CIRCULATED STOPPED
LUN .                   7502 : LOGGING UNIT NUMBER
LUL .                    RDM : LOGGING UNIT LOCATION
ENGI.                  LEITH : RECORDING ENGINEER
WITN.                  FEDOR : WITNESSED BY
CLNT.                A2DTECH : CLIENT CODE
ORIG.            2" 5" PRINT : ORIGIN OF DATA
UWI .       100063306117W500 : UNIQUE WELL ID
DICO. A2D Technologies, Inc. : DIGITIZING COMPANY
~Other -----------------------------------------------------
~ASCII -----------------------------------------------------
 1150.00000    9.13810    9.13810  123.09780  123.66600    8.08630   97.99540   97.99540   65.40770   65.40770    8.08630    -999.25    7.66940    -999.25  -83.20770  -17.20900    7.66940
 1200.00000    9.05730    9.05730  187.55080  185.07020    5.40630   99.20010   99.20010   75.62190   75.62190    5.49620    -999.25    4.99440    -999.25  -87.07290  -21.07420    4.99440
 1250.00000    9.92940    9.92940  181.31680  181.31680    5.51520  104.88230  104.88230   74.14980   74.14980    5.48520    -999.25    4.97700    -999.25  -85.44080  -19.44210    4.97700
 1300.00000    9.28100    9.28100  100.39650  104.92190    9.53090   73.55710   73.55710   57.36490   57.36490    9.53090    -999.25   10.82980    -999.25  -81.44760  -15.44890   10.82980
 1350.00000    9.70830    9.70830  202.27950  202.27950    4.94370  107.71140  107.71140   72.75830   72.75830    4.46730    -999.25    4.64970    -999.25  -81.13430  -15.13560    4.64970
 1400.00000   11.45470   11.45470  241.92520  241.92520    4.13350  147.67540  147.67540   78.41370   78.41370    3.81100    -999.25    4.83400    -999.25  -83.48050  -17.48180    4.83400
 1450.00000    9.93450    9.93450  112.40090  113.41010    8.87030   91.67880   91.67880   54.41510   54.41510    8.87030    -999.25    8.24100    -999.25  -85.28750  -19.28880    8.24100
 1500.00000    9.81430    9.81430   35.46800   35.83450   27.90610   70.58480   70.58480   57.35300   57.35300   27.90610    -999.25   23.13100    -999.25  -90.23350  -24.23480   23.13100
 1550.00000   10.53350   10.53350  257.70500  257.70500    3.88040  107.46210  107.46210   79.86660   79.86660    3.64520    -999.25    4.16280    -999.25  -83.20670  -17.20800    4.16280
 1600.00000   10.13630   10.13630  208.67570  208.67570    4.79210  140.10490  140.10490   72.27140   72.27140    4.27100    -999.25    4.84450    -999.25  -83.30670  -17.30800    4.84450
 1650.00000   10.20770   10.20770  123.98750  124.46940    8.03410   99.05310   99.05310   78.82630   78.82630    8.03410    -999.25    7.32360    -999.25  -82.29000  -16.29130    7.32360
 1700.00000    9.86110    9.86110  164.17590  169.85310    5.88740   97.40470   97.40470   65.80470   65.80470    5.66710    -999.25    6.17040    -999.25  -80.29940  -14.30070    6.17040
 1750.00000   10.08840   10.08840  258.86010  258.86010    3.86310  109.44730  109.44730   65.10920   65.10920    3.34840    -999.25    3.87920    -999.25  -80.66500  -14.66630    3.87920
 1800.00000    9.99050    9.99050  214.05500  214.05500    4.67170   96.88640   96.88640   69.65850   69.65850    4.40090    -999.25    4.93330    -999.25  -79.36020  -13.36150    4.93330
 1850.00000   10.24010   10.24010  169.17850  173.41840    5.76640   90.76510   90.76510   64.66660   64.66660    5.76640    -999.25    6.59260    -999.25  -79.65050  -13.65180    6.59260
 1900.00000   10.75020   10.75020  278.78690  278.78690    3.58700  101.68950  101.68950   65.15340   65.15340    3.42370    -999.25    4.04110    -999.25  -80.66950  -14.67080    4.04110
 1950.00000    9.29560    9.29560  407.90240  407.90240    2.45520  100.79340  100.79340   65.47370   65.47370    2.44590    -999.25    2.85080    -999.25  -80.69190  -14.69320    2.85080
 2000.00000    9.42940    9.42940  131.28690  132.71580    7.53490   96.41400   96.41400   54.64190   54.64190    7.53490    -999.25    8.13550    -999.25  -81.33270  -15.33400    8.13550
 2050.00000   10.54610   10.54610  195.68130  195.68130    5.11040   92.05660   92.05660   81.94050   81.94050    5.04520    -999.25    5.37860    -999.25  -79.85750  -13.85880    5.37860
 2100.00000   10.30270   10.30270  221.89560  221.89560    4.50660   92.49670   92.49670   69.94790   69.94790    4.37280    -999.25    4.80590    -999.25  -79.67330  -13.67460    4.80590
 2150.00000    9.31150    9.31150  120.73280  120.54440    8.29570   90.93160   90.93160   56.81540   56.81540    8.29570    -999.25    7.47410    -999.25  -78.44970  -12.45100    7.47410
 2200.00000   14.83140   14.83140  233.94080  233.94080    4.32350  150.47500  150.47500   78.27220   78.27220    3.87530    -999.25    5.16340    -999.25  -81.83880  -15.84010    5.16340
 2250.00000    9.60890    9.60890  220.85610  220.85610    4.52780   95.62960   95.62960   73.65830   73.65830    4.34650    -999.25    4.89260    -999.25  -84.97710  -18.97840    4.89260
 2300.00000   11.23610   11.23610  346.11690  346.11690    2.88920  105.80270  105.80270   83.98540   83.98540    2.83790    -999.25    3.25520    -999.25  -84.72320  -18.72450    3.25520
 2350.00000   10.38270   10.38270  147.57640  156.45780    6.39150   93.38980   93.38980   63.94880   63.94880    6.39150    -999.25    6.88150    -999.25  -86.39640  -20.39770    6.88150
 2400.00000   10.83370   10.83370  327.27680  327.27680    3.05550  101.51460  101.51460   95.78540   95.78540    2.80770    -999.25    3.48850    -999.25  -84.72280  -18.72410    3.48850
 2450.00000   11.16050   11.16050  150.58440  151.77360    6.60110   92.97510   92.97510   83.30120   83.30120    6.60110    -999.25    7.55940    -999.25  -84.94020  -18.94150    7.55940
 2500.00000    8.69380    8.69380   87.80460   90.65610   11.03070   93.25550   93.25550   51.38300   51.38300   11.03070    -999.25   11.71960    -999.25  -97.96280  -31.96410   11.71960
 2550.00000   11.76050   11.76050  302.02430  302.02430    3.31100  110.87880  110.87880   60.88060   60.88060    3.32190    -999.25    3.75040    -999.25  -83.67410  -17.67540    3.75040
 2600.00000    8.86820    8.86820   68.10380   73.49430   13.60650   79.96020   79.96020   50.85620   50.85620   13.60650    -999.25   15.34100    -999.25  -86.77710  -20.77840   15.34100
 2650.00000    9.70000    9.70000  203.23430  203.23430    4.92040  103.57230  103.57230   64.94500   64.94500    4.77010    -999.25    5.28600    -999.25  -83.30120  -17.30250    5.28600
 2700.00000    8.59460    8.59460   79.10920   85.74970   11.69620   89.15340   89.15340   38.62630   38.62630   11.69620    -999.25   10.56030    -999.25  -95.84620  -29.84750   10.56030
 2750.00000   10.07840   10.07840  231.62100  231.62100    4.31740   98.64040   98.64040   55.60250   55.60250    4.18500    -999.25    4.62830    -999.25  -83.90760  -17.90890    4.62830
 2800.00000    9.98380    9.98380  155.01130  162.60960    6.14970   94.57770   94.57770   54.22870   54.22870    6.14970    -999.25    7.06480    -999.25  -83.29180  -17.29310    7.06480
 2850.00000    8.46980    8.46980   57.11240   56.99530   17.54530   80.54320   80.54320   40.88480   40.88480   17.54530    -999.25   20.71510    -999.25  -89.32100  -23.32230   20.71510
 2900.00000    9.05060    9.05060  116.29890  122.44550    8.16690   94.65110   94.65110   43.10120   43.10120    8.16690    -999.25    7.48700    -999.25  -84.34430  -18.34560    7.48700
 2950.00000    9.52780    9.52780   72.10340   69.26530   14.46610   80.84600   80.84600   46.72880   46.72880   14.46610    -999.25   17.23380    -999.25  -87.00440  -21.00570   17.23380
 3000.00000   10.24930   10.24930  150.49690  141.49270    7.06750   95.65110   95.65110   54.62390   54.62390    7.06750    -999.25    8.71520    -999.25  -89.53000  -23.53130    8.71520
 3050.00000    8.86750    8.86750   61.67180   62.83420   15.91490   74.75670   74.75670   47.61730   47.61730   15.91490    -999.25   16.50600    -999.25  -94.34900  -28.35030   16.50600
 3100.00000    9.82610    9.82610  205.05760  205.05760    4.87670   89.53270   89.53270   64.04650   64.04650    4.79940    -999.25    5.31250    -999.25  -86.36920  -20.37050    5.31250
 3150.00000    9.10670    9.10670  201.68140  201.68140    4.95830   94.06960   94.06960   45.30990   45.30990    4.73980    -999.25    5.43380    -999.25  -87.20230  -21.20360    5.43380
 3200.00000   10.47230   10.47230  230.69630  230.69630    4.33960  103.24180  103.24180   61.35290   61.35290    4.35120    -999.25    4.96950    -999.25  -87.34360  -21.34490    4.96950
 3250.00000   11.89180   11.89180  208.23160  208.23160    4.80230   90.79940   90.79940   56.17640   56.17640    4.45460    -999.25    5.53080    -999.25  -86.60520  -20.60650    5.53080
