~Version ---------------------------------------------------
VERS.      2.0 : CWLS log ASCII Standard -VERSION 2.0
WRAP.      YES : MULTIPLE LINES PER DEPTH STEP
CREA. 03/19/14 : LAS CREATION DATE
~Well ------------------------------------------------------
STRT.M                          450.0 : START DEPTH
STOP.M                         3150.0 : STOP DEPTH
STEP.M                       50.00000 : STEP LENGTH
NULL.                          -999.0 : NULL VALUE
COMP.          DOME PETROLEUM LIMITED : COMPANY
WELL. DOME UNION FOX CREEK 5-36-61-18 : WELL
FLD .                                 : FIELD
LOC .                                 : LOCATION
CTRY.                          CANADA : COUNTRY
SRVC.                    Schlumberger : SERVICE COMPANY
DATE.                     02-Mar-1983 : LOGDATE
PROV.                         Alberta : PROVINCE
UWI .                100053606118W500 : UNIQUE WELL ID
SLAT.WGS84                    54.3159 : SURFACE LATITUDE
SLON.WGS84                  -116.5694 : SURFACE LONGITUDE
~Curve Information -----------------------------------------
DEPT    .M      : DEPTH METERS
CALDED  .MM     : CALIPER FROM DENSITY LOG
CALSED  .MM     : CALIPER FROM SONIC LOG
CALWS   .MM     : CALIPER [CALSED]
CONDWS  .MMHO   : CONDUCTIVITY [1000/DRESWS]
DCORWS  .KG/M3  : DENSITY CORRECTION [DRHOED]
DENWS   .KG/M3  : BULK DENSITY [M=2650/2710 AT 2025.2 F=1000] [CALCULATED FROM DPHISSED/DPHILSED]
DPHILSED.V/V    : DENSITY POROSITY [M=2710 F=1000] FROM DENSITY LOG
DPHISSED.V/V    : DENSITY POROSITY [M=2650 F=1000] FROM DENSITY LOG
DPOLSWS .V/V    : DENSITY POROSITY LIMESTONE [M=2710 F=1000] [CALCULATED FROM DENWS]
DRESWS  .OHMM   : DEEP RESISTIVITY [ILDED]
DRHOED  .KG/M3  : DENSITY CORRECTION FROM DENSITY LOG
DTED    .US/M   : DELTA TIME FROM SONIC LOG
DTWS    .US/M   : DELTA TIME [DTED]
GRDED   .GAPI   : GAMMA RAY FROM DENSITY LOG
GRSED   .GAPI   : GAMMA RAY FROM SONIC LOG
GRWS    .GAPI   : GAMMA RAY [GRSED] BULK SHIFTED +30API IN CASED HOLE @436m
ILDED   .OHMM   : INDUCTION LOG DEEP RESISTIVITY
ILMED   .OHMM   : INDUCTION LOG MEDIUM RESISTIVITY
MRESWS  .OHMM   : MEDIUM RESISTIVITY [ILMED]
NPHILSED.V/V    : NEUTRON POROSITY LIMESTONE FROM DENSITY LOG
NPHISSED.V/V    : NEUTRON POROSITY SANDSTONE FROM DENSITY LOG
NPOLSWS .V/V    : NEUTRON POROSITY LIMESTONE [NPHISSED CONVERTED TO LIMESTONE IN POWER LOG FROM TOP TO 2025.2, THEN, NPHILSED TO BOTTOM]
RHOBED  .KG/M3  : BULK DENSITY FROM DENSITY LOG
SFLUED  .OHMM   : SPHERICALLY FOCUSED LOG RESISTIVITY
SPRED   .MV     : SPONTANEOUS POTENTIAL FROM RESISTIVITY LOG
SPWS    .MV     : SPONTANEOUS POTENTIAL [SHIFTED/BASELINE 0 MV] [SPRED]
SRESWS  .OHMM   : SHALLOW RESISTIVITY [SFLUED]
TENDED  .KG     : TENSION FROM DENSITY LOG
TENRED  .LBF    : TENSION FROM RESISTIVITY LOG
~Params ----------------------------------------------------
PD  .                         GL : PERMANENT DATUM
EPD .M                     862.2 : ELEVATION PERMANENT DATUM
LMF .                         KB : LOG MEASURED FROM
DAPD.M                       6.8 : FEET ABOVE PERMANENT DATUM
DMF .                         KB : DRILLING MEASURED FROM
EKB .M                       869 : KELLY BUSHING
EGL .M                     862.2 : GROUND LEVEL
DATE.                 03/02/1983 : RUN DATE
RUN .                          1 : RUN NUMBER
DD  .M                      3170 : DEPTH DRILLER
DL  .M                    3169.5 : DEPTH LOGGER
BLI .M                    3168.6 : BOTTOM LOG INTERVAL
TLI .M                       436 : TOP LOG INTERVAL
CS  .MM                    244.5 : CASING SIZE
CBD .M                       436 : CASING BOTTOM DRILLER
CBL .M                       436 : CASING BOTTOM LOGGER
BS  .MM                    222.2 : BIT SIZE
BSD .M                      3170 : BIT SIZE AT DEPTH
DFT .                   GEL CHEM : DRILLING FLUID TYPE
DFD .                       1120 : DRILLING FLUID DENSITY
DFV .                         70 : DRILLING FLUID VISCOSITY
DFPH.                         10 : DRILLING FLUID PH
DFL .                         11 : DRILLING FLUID LOSS
MSS .                   FLOWLINE : MUD SAMPLE SOURCE
RMS .OHMM                   1.77 : RESISTIVITY MUD SAMPLE
MST .DEGC                   8.33 : MUD SAMPLE TEMPERATURE
RMF .OHMM                   1.45 : RESISTIVITY MUD FILTRATE SAMPLE
MFST.DEGC                   12.7 : MUD FILTRATE SAMPLE TEMPERATURE
MFSS.                      PRESS : MUD FILTRATE SAMPLE SOURCE
RMB .OHMM                  0.457 : RESISTIVITY MUD AT BHT
TCS .HRS                    1100 : TIME CIRCULATED STOPPED
TLAB.HRS                     200 : TIME LOGGER AT BOTTOM
LUN .                       8211 : LOGGING UNIT NUMBER
LUL .                        EDM : LOGGING UNIT LOCATION
ENGI.                    GAGGINO : RECORDING ENGINEER
WITN.                     FRASER : WITNESSED BY
CLNT.                    A2DTECH : CLIENT CODE
ORIG. 6.5"/100M 16.5"/100M PRINT : ORIGIN OF DATA
UWI .           100053606118W500 : UNIQUE WELL ID
DICO.     A2D Technologies, Inc. : DIGITIZING COMPANY
~Other -----------------------------------------------------
~ASCII -----------------------------------------------------
  450.00000  271.90340  245.03430  245.03430  107.21100  205.27350 2283.20510     -999.0    0.22230    0.24960    9.32740  205.27350  349.93200  349.93200   74.40160   69.79400   69.79400    9.32740    8.63710    8.63710     -999.0    0.37650    0.33320 2297.49780    9.71710  -38.83830  -11.33090    9.71710  535.00230 1456.14250
  500.00000  281.20690  325.44980  325.44980  186.94380  143.94530 1758.17500     -999.0    0.54050    0.55660    5.34920  143.94530  411.36560  411.36560   83.18850   80.96390   80.96390    5.34920    3.58420    3.58420     -999.0    0.42170    0.37930 1735.91800    3.30680  -34.98990   -8.35920    3.30680  560.51310 1713.27860
  550.00000  335.24580  294.44200  294.44200  228.59760  115.62110 1765.76500     -999.0    0.53590    0.55220    4.37450  115.62110  357.90950  357.90950   68.77220   67.28750   67.28750    4.37450    3.63970    3.63970     -999.0    0.50000    0.45830 1766.77370    4.09860  -34.48020   -8.72630    4.09860  612.04520 1139.54810
  600.00000  238.39500  227.86250  227.86250   92.79450   18.77960 2339.47000     -999.0    0.18820    0.21670   10.77650   18.77960  309.79430  309.79430   66.70300   66.14760   66.14760   10.77650   10.53700   10.53700     -999.0    0.33380    0.29000 2340.45650   10.07200  -37.33020  -12.45300   10.07200  622.67680 1731.47400
  650.00000  215.72080  216.26920  216.26920  102.85420   56.27390 2354.32010     -999.0    0.17920    0.20800    9.72250   56.27390  297.45180  297.45180   92.32100   94.86180   94.86180    9.72250    8.35990    8.35990     -999.0    0.29820    0.25420 2367.02730    6.35720  -39.19280  -15.19230    6.35720  642.55430 1625.59630
  700.00000  313.43280  241.28950  241.28950  203.23140  175.14320 2186.67990     -999.0    0.28080    0.30600    4.92050  175.14320  309.67040  309.67040   71.01230   68.65700   68.65700    4.92050    4.84730    4.84730     -999.0    0.33990    0.29620 2241.00270    4.94520  -32.22470   -9.10100    4.94520  675.03860 1728.05140
  750.00000  250.46440  230.24480  230.24480  157.78100  246.25750 2087.02000     -999.0    0.34120    0.36430    6.33790  246.25750  303.53050  303.53050   68.71930   66.33600   66.33600    6.33790    5.37250    5.37250     -999.0    0.36190    0.31840 2065.22610    6.12290  -32.45240  -10.20540    6.12290  679.22320 2631.90770
  800.00000  225.31850  228.13140  228.13140   89.07810    8.74300 2400.68510     -999.0    0.15110    0.18090   11.22610    8.74300  294.29650  294.29650   65.07760   62.89250   62.89250   11.22610    9.29820    9.29820     -999.0    0.37680    0.33350 2371.58890   10.06090  -33.30300  -11.93270   10.06090  723.61980 1709.14480
  850.00000  337.62820  240.79260  240.79260  137.50620   53.45380 2303.83010     -999.0    0.20980    0.23750    7.27240   53.45380  292.99830  292.99830   58.38420   49.59980   49.59980    7.27240    7.30020    7.30020     -999.0    0.36830    0.32490 2258.99510    6.10560  -33.25630  -12.76280    6.10560  749.01750 1796.60420
  900.00000  305.22990  243.77700  243.77700  192.52980  104.89550 2263.57010     -999.0    0.23420    0.26110    5.19400  104.89550  318.09970  318.09970   71.74770   59.29080   59.29080    5.19400    4.94380    4.94380     -999.0    0.45580    0.41410 2261.76760    3.59350  -32.15150  -12.53470    3.59350  766.95350 1715.21390
  950.00000  345.74130  252.25810  252.25810  134.73640  147.58610 1805.86000     -999.0    0.51160    0.52870    7.42190  147.58610  304.37440  304.37440   62.32260   52.82530   52.82530    7.42190    5.78450    5.78450     -999.0    0.41710    0.37460 1778.82450    6.51040  -34.02560  -15.28560    6.51040  809.34720 2051.48630
 1000.00000  336.34840  254.32440  254.32440  185.08920  167.63440 1981.25500     -999.0    0.40530    0.42620    5.40280  167.63440  308.34290  308.34290   62.23030   60.07720   60.07720    5.40280    5.22980    5.22980     -999.0    0.39980    0.35690 1972.16990    5.00350  -32.24660  -14.38330    5.00350  853.71500 2601.45730
 1050.00000  274.95040  276.49630  276.49630  130.26770  100.30110 2404.81010     -999.0    0.14860    0.17850    7.67650  100.30110  291.18840  291.18840   87.18420   78.75390   78.75390    7.67650    6.96740    6.96740     -999.0    0.34720    0.30350 2415.52030    6.69680  -34.30750  -17.32090    6.69680  826.19780 2099.99460
 1100.00000  361.22650  371.52970  371.52970  139.01250   85.47220 2417.02000     -999.0    0.14120    0.17130    7.19360   85.47220  322.48260  322.48260   92.23180   78.73600   78.73600    7.19360    6.25810    6.25810     -999.0    0.44700    0.40520 2393.99630    6.61940  -32.91140  -16.80160    6.61940  839.46120 2104.06030
 1150.00000  323.56180  290.61730  290.61730  100.36430  226.71040 2079.10010     -999.0    0.34600    0.36890    9.96370  226.71040  261.75960  261.75960   83.60210   78.92020   78.92020    9.96370    9.59090    9.59090     -999.0    0.31050    0.26660 2075.79080   11.73700  -34.59250  -19.35940   11.73700  880.29080 2189.94850
 1200.00000  359.03660  336.44960  336.44960  115.71130  100.39550 1765.60000     -999.0    0.53600    0.55230    8.64220  100.39550  272.71440  272.71440   84.91060   78.62850   78.62850    8.64220    8.25250    8.25250     -999.0    0.40590    0.36310 1750.97490    7.54740  -29.80580  -15.44940    7.54740  902.79530 2182.59010
 1250.00000  473.54760  351.69400  351.69400  118.93150  140.27760 1883.57500     -999.0    0.46450    0.48330    8.40820  140.27760  285.25120  285.25120   81.53200   81.03870   81.03870    8.40820    7.13810    7.13810     -999.0    0.45850    0.41680 1874.95340    7.52580  -27.44780  -13.96820    7.52580  923.52320 2231.91330
 1300.00000  316.28930  277.23900  277.23900  119.71030  115.66310 2039.33500     -999.0    0.37010    0.39220    8.35350  115.66310  284.48860  284.48860  102.27730   94.13500   94.13500    8.35350    7.99400    7.99400     -999.0    0.34370    0.30000 2000.35380    8.58620  -21.45560   -8.85270    8.58620  942.47490 2319.34690
 1350.00000  332.59770  305.85280  305.85280  143.06770   51.96570 2320.16500     -999.0    0.19990    0.22800    6.98970   51.96570  290.91400  290.91400  103.40730   95.28590   95.28590    6.98970    6.81270    6.81270     -999.0    0.36150    0.31800 2325.20260    7.19670  -17.59980   -5.87360    7.19670  953.97760 2366.59840
 1400.00000  281.64810  255.99490  255.99490  111.94200   32.77330 2460.08500     -999.0    0.11510    0.14610    8.93320   32.77330  294.62830  294.62830  103.59490   99.78310   99.78310    8.93320    8.52410    8.52410     -999.0    0.33320    0.28940 2467.55660   10.05480  -18.04850   -7.19910   10.05480 1005.55960 2444.44580
 1450.00000  327.92560  291.32120  291.32120  153.36250  159.37910 2101.21000     -999.0    0.33260    0.35600    6.52050  159.37910  307.32640  307.32640  103.09460   96.87060   96.87060    6.52050    6.73210    6.73210     -999.0    0.44150    0.39960 2095.44380    8.03300  -14.40870   -4.43600    8.03300 1011.46900 2499.76810
 1500.00000  252.94820  247.87020  247.87020  127.70250   97.02080 2551.16500     -999.0    0.05990    0.09290    7.83070   97.02080  273.99580  273.99580  105.29180   97.00290   97.00290    7.83070    8.04720    8.04720     -999.0    0.34710    0.30340 2551.01540    8.24030  -15.40210   -6.30620    8.24030 1039.16480 2511.49730
 1550.00000  323.23640  307.98910  307.98910  167.50700  135.57580 1958.48500     -999.0    0.41910    0.43950    5.96990  135.57580  269.01400  269.01400   98.30340   91.33220   91.33220    5.96990    5.39420    5.39420     -999.0    0.33630    0.29250 1905.50340    6.41820  -15.15940   -6.94020    6.41820 1075.24410 2638.78300
 1600.00000  280.44360  273.58620  273.58620  343.59540  189.77760 2017.72000     -999.0    0.38320    0.40480    2.91040  189.77760  290.53920  290.53920   94.69120   79.48190   79.48190    2.91040    2.56710    2.56710     -999.0    0.47390    0.43220 1991.95360    3.39560  -11.45500   -4.11250    3.39560 1073.83890 2566.91040
 1650.00000  241.46910  250.44700  250.44700   94.00180   92.95250 2516.51490     -999.0    0.08090    0.11310   10.63810   92.95250  227.97390  227.97390   52.31100   45.44170   45.44170   10.63810   12.46920   12.46920     -999.0    0.14290    0.10050 2590.88920   13.99620  -15.72680   -9.26110   13.99620 1378.87080 2708.91720
