~Version ---------------------------------------------------
VERS. 2.0 : CWLS log ASCII Standard -VERSION 2.0
WRAP.  NO : ONE LINE PER DEPTH STEP
~Well ------------------------------------------------------
STRT.M                      350.0 : START DEPTH
STOP.M                     2750.0 : STOP DEPTH
STEP.M                   50.00000 : STEP LENGTH
NULL.                     -999.25 : NULL VALUE
COMP.           NEXEN CANADA LTD. : COMPANY
WELL. ICGR ET AL WROSES 1-18-44-3 : WELL
FLD .               WILDSON SOUTH : FIELD
LOC .                             : LOCATION
CTRY.                      CANADA : COUNTRY
SRVC.                     Unknown : SERVICE COMPANY
DATE.                 14-Apr-1985 : LOGDATE
PROV.                     Alberta : PROVINCE
UWI .            100011804403W500 : UNIQUE WELL ID
SLAT.WGS84               52.78729 : SURFACE LATITUDE
SLON.WGS84              -114.4146 : SURFACE LONGITUDE
~Curve Information -----------------------------------------
DEPT    .M      : DEPTH METERS
CALDED  .MM     : CALIPER FROM CND LOG [DSH TO GRRED]
CALSED  .MM     : CALIPER FROM BHC SONIC LOG
CALWS   .MM     : CALIPER [CALSED]
CONDWS  .MMHO   : CONDUCTIVITY [1000/DRESWS]
DCORWS  .KG/M3  : BULK DENSITY CORRECTION [DRHOED]
DENWS   .KG/M3  : FORMATION DENSITY [RHOBED]
DPHILSED.V/V    : DENSITY POROSITY LIMESTONE[M=2710,F=1000] FROM CND LOG[DSH TO GRRED]
DPHISSED.V/V    : DENSITY POROSITY SANDSTONE[M=2650,F=1000] FROM CND LOG[DSH TO GRRED]
DPOLSWS .V/V    : DENSITY POROSITY LIMESTONE[CALCULATED FROM DENWS, M=2710,F=1000]
DRESWS  .OHMM   : DEEP RESISTIVITY [ILDED]
DRHOED  .KG/M3  : BULK DENSITY CORRECTION FROM CND LOG[DSH TO GRRED]
DTED    .US/M   : COMPRESIONAL SONIC FROM BHC SONIC LOG
DTWS    .US/M   : COMPRESIONAL SONIC[DTED]
GRRED   .GAPI   : GAMMA RAY FROM RESISTIVITY LOG
GRSED   .GAPI   : GAMMA RAY FROM SONIC LOG
GRWS    .GAPI   : GAMMA RAY [GRSED SPLICED TO SGRED AT 2771 M]
ILDED   .OHMM   : INDUCTION LOG DEEP RESISTIVITY
ILMED   .OHMM   : INDUCTION LOG MEDIUM RESISTIVITY
LAED    .MM     : DUAL AXIS CALIPER FROM CND LOG[DSH TO GRRED]
MRESWS  .OHMM   : MEDIUM RESISTIVITY [ILMED]
NPHILSED.V/V    : NEUTRON POROSITY LIMESTONE FROM CND LOG[DSH TO GRRED]
NPHISSED.V/V    : NEUTRON POROSITY SANDSTONE FROM CND LOG[DSH TO GRRED]
NPOLSWS .V/V    : NEUTRON POROSITY LIMESTONE [NPHSSED SPLICED TO LIMESTONE AND SPLICED TO NPHILSED AT 1967 M]
PEFED   .B/E    : PHOTOELECTRIC FACTOR FROM CND LOG [DSH TO GRRED]
PEFWS   .B/E    : PHOTOELECTRIC FACTOR [PEFED]
RHOBED  .KG/M3  : FORMATION DENSITY FROM CND LOG[DSH TO GRRED]
SFLUED  .OHMM   : SPHERICALLY FOCUSED LOG RESISTIVITY
SGRED   .GAPI   : SPECTROSCOPY GAMMA RAY FROM CND LOG[DSH TO GRRED]
SPRED   .MV     : SPONTANEOUS POTENTIAL FROM RESISTIVITY LOG
SPWS    .MV     : SPONTANEOUS POTENTIAL [BASELINE 0 MV] [SPRED]
SRESWS  .OHMM   : SHALLOW RESISTIVITY [SFLUED]
TENRED  .N      : TENSION FROM RESISTIVITY
TENSED  .N      : TENSION FROM BHC SONIC LOG
~Params ----------------------------------------------------
PD  .                                  GL : PERMANENT DATUM
EPD .M                             941.65 : ELEVATION PERMANENT DATUM
LMF .                                  KB : LOG MEASURED FROM
DAPD.M                               6.75 : FEET ABOVE PERMANENT DATUM
DMF .                                  KB : DRILLING MEASURED FROM
EKB .M                              948.4 : KELLY BUSHING
EGL .M                             941.65 : GROUND LEVEL
DATE.                            04/14/85 : RUN DATE
RUN .                                   1 : RUN NUMBER
DD  .M                               2792 : DEPTH DRILLER
DL  .M                               2792 : DEPTH LOGGER
BLI .M                             2790.3 : BOTTOM LOG INTERVAL
TLI .M                              413.3 : TOP LOG INTERVAL
CS  .MM                             244.5 : CASING SIZE
CBD .M                                413 : CASING BOTTOM DRILLER
CBL .M                                413 : CASING BOTTOM LOGGER
BS  .MM                               222 : BIT SIZE
BSD .M                               2792 : BIT SIZE AT DEPTH
DFT .                            GEL CHEM : DRILLING FLUID TYPE
DFD .                                1100 : DRILLING FLUID DENSITY
DFV .                                  85 : DRILLING FLUID VISCOSITY
DFPH.                                  10 : DRILLING FLUID PH
DFL .                                10.5 : DRILLING FLUID LOSS
MSS .                          CIRCULATED : MUD SAMPLE SOURCE
RMS .OHMM                            1.33 : RESISTIVITY MUD SAMPLE
MST .DEGC                              26 : MUD SAMPLE TEMPERATURE
RMF .OHMM                            0.54 : RESISTIVITY MUD FILTRATE SAMPLE
MFST.DEGC                            16.7 : MUD FILTRATE SAMPLE TEMPERATURE
RMC .OHMM                           0.256 : RESISTIVITY MUD CAKE
MCST.DEGC                              59 : MUD CAKE SAMPLE TEMPERATURE
MFSS.                                MEAS : MUD FILTRATE SAMPLE SOURCE
RMB .OHMM                           0.787 : RESISTIVITY MUD AT BHT
TCS .HRS                             1100 : TIME CIRCULATED STOPPED
TLAB.HRS                             1617 : TIME LOGGER AT BOTTOM
LUN .                                8376 : LOGGING UNIT NUMBER
LUL .                                  RD : LOGGING UNIT LOCATION
ENGI.                              BROCHU : RECORDING ENGINEER
WITN.                             EDWARDS : WITNESSED BY
CLNT.                             A2DTECH : CLIENT CODE
ORIG. 6.5"/100M 16.5"/100M 80"/100M PRINT : ORIGIN OF DATA
UWI .                    100011804403W500 : UNIQUE WELL ID
DICO.              A2D Technologies, Inc. : DIGITIZING COMPANY
~Other -----------------------------------------------------
~ASCII -----------------------------------------------------
# ...
 1450.00000  268.88280  282.08110  282.08110  141.70330  164.92680 2612.99980    -999.25    0.02070    0.05670    7.05700  164.92680  281.39470  281.39470   99.67430   99.95770   99.95770    7.05700    7.23210  299.99840    7.23210    -999.25    0.36480    0.32130    2.91270    2.91270 2612.99980    7.39290   97.25240  -31.22910   -2.96210    7.39290 9766.69630 9719.77050
 1500.00000  270.33940  266.98910  266.98910  140.34690  113.81900 2566.42360    -999.25    0.05050    0.08400    7.12520  113.81900  275.58130  275.58130  109.78100  109.41800  109.41800    7.12520    7.29160  275.05420    7.29160    -999.25    0.35330    0.30970    3.05590    3.05590 2566.42360    7.80920  101.89810  -28.81900   -3.11270    7.80920 9929.08400 9822.31250
 1550.00000  285.33950  289.92810  289.92810  136.76520  235.36300 2590.81150    -999.25    0.03580    0.06970    7.31180  235.36300  267.36650  267.36650  110.25520  109.86850  109.86850    7.31180    7.61210  281.61020    7.61210    -999.25    0.34090    0.29720    2.82620    2.82620 2590.81150    8.07490   99.93350  -27.29860   -4.15290    8.07490 10070.62110 9972.57230
 1600.00000  249.46890  247.19460  247.19460  121.00680   71.16080 2533.55320    -999.25    0.07060    0.10320    8.26400   71.16080  299.25990  299.25990  130.80740  131.95760  131.95760    8.26400    8.55060  234.22310    8.55060    -999.25    0.39090    0.34790    3.22000    3.22000 2533.55320    9.83780  123.32040  -24.69590   -4.11090    9.83780 10210.94920 10159.60350
 1650.00000  240.78290  246.87640  246.87640   48.56820   21.88450 2633.47190    -999.25    0.01000    0.04480   20.58960   21.88450  241.51850  241.51850  101.68110  101.68160  101.68160   20.58960   23.18280  255.20330   23.18280    -999.25    0.24860    0.20470    3.34280    3.34280 2633.47190   29.33590   93.49780  -19.56870   -1.54430   29.33590 10737.67480 10581.42870
 1700.00000  238.05920  232.67310  232.67310  109.67920   59.64160 2514.56350    -999.25    0.08180    0.11430    9.11750   59.64160  330.30960  330.30960  166.03170  165.27350  165.27350    9.11750    9.59660  251.86970    9.59660    -999.25    0.40880    0.36610    3.28030    3.28030 2514.56350   12.91430  167.35300  -16.04720   -0.97180   12.91430 10812.05760 10740.65630
 1750.00000  270.50490  284.83560  284.83560  241.45840  212.63900 2398.57500    -999.25    0.15240    0.18210    4.14150  212.63900  291.24820  291.24820   94.49140   90.42810   90.42810    4.14150    3.96890  311.43340    3.96890    -999.25    0.46380    0.42210    2.73550    2.73550 2398.57500    4.79580   94.37120  -18.18230   -7.11660    4.79580 10981.85940 11044.60740
 1800.00000  353.20480  334.43060  334.43060  560.09860  116.50540 1983.94700    -999.25    0.39810    0.42460    1.78540  116.50540  371.37340  371.37340   82.39190   81.16000   81.16000    1.78540    1.54640  302.69970    1.54640    -999.25    0.59630    0.55460    2.79410    2.79410 1983.94700    1.99640   83.15260  -15.59080   -8.53480    1.99640 11364.30860 11201.17970
 1850.00000  290.55040  289.37500  289.37500   89.75450   31.12830 2735.32620    -999.25   -0.04050   -0.01480   11.14150   31.12830  252.05920  252.05920   87.19840   86.45710   86.45710   11.14150   12.81020  257.32700   12.81020    -999.25    0.32210    0.27820    4.05560    4.05560 2735.32620   12.91330   83.13420  -16.63040  -13.58410   12.91330 11547.77340 11533.58300
 1900.00000  291.91860  303.63580  303.63580   29.24810  145.60000 2486.43680    -999.25    0.09930    0.13070   34.19030  145.60000  220.90120  220.90120   61.95820   63.22330   63.22330   34.19030   35.86710  288.94150   35.86710    -999.25    0.26230    0.21830    2.53110    2.53110 2486.43680   37.97200   60.23300  -24.93380  -22.07980   37.97200 11682.48140 11482.88090
 1950.00000  268.99440  265.14740  265.14740   46.43130   26.30560 2631.87040    -999.25    0.00720    0.04570   21.53720   26.30560  221.02200  221.02200   78.64750   79.29290   79.29290   21.53720   25.91370  258.63700   25.91370    -999.25    0.26130    0.21730    3.19180    3.19180 2631.87040   35.17390   81.12370  -24.90260  -21.65010   35.17390 11782.69630 11750.60060
 2000.00000  333.28660  297.81800  297.81800   55.02240  139.03120 2490.55350    0.13210    0.06590    0.12830   18.17440  139.03120  251.14940  251.14940   80.32670   78.98150   78.98150   18.17440   19.65280  297.93340   19.65280    0.33220    0.35500    0.33220    2.27420    2.27420 2490.55350   28.52540   84.89760  -15.48280  -11.83190   28.52540 12105.05370 12075.09770
 2050.00000  238.69670  246.49220  246.49220   17.40350    9.74130 2710.58010   -0.00730   -0.04070   -0.00030   57.45980    9.74130  174.36160  174.36160   31.11990   29.99140   29.99140   57.45980   65.58970  254.04300   65.58970    0.05100    0.07250    0.05100    3.85090    3.85090 2710.58010   81.98720   36.08460  -33.18830  -29.13900   81.98720 12171.71390 11876.44040
 2100.00000  242.72320  239.47420  239.47420    7.72550   -0.59390 2718.50660   -0.00490    -999.25   -0.00500  129.44100   -0.59390  174.88990  174.88990   29.88310   31.14600   31.14600  129.44100  166.07490  237.09680  166.07490    0.04290    -999.25    0.04290    4.53220    4.53220 2718.50660  159.49130   28.92660  -51.14610  -46.69840  159.49130 12156.98540 12121.23050
 2150.00000  244.39730  238.82650  238.82650    1.16800   13.78090 2712.61500   -0.00160    -999.25   -0.00150  856.19290   13.78090  178.63980  178.63980   38.47240   38.31480   38.31480  856.19290 1967.89030  235.54430 1967.89030    0.05810    -999.25    0.05810    3.91640    3.91640 2712.61500 1070.39980   38.95920  -74.02280  -69.17660 1070.39980 12455.90530 12396.15430
 2200.00000  228.13740  251.81990  251.81990    0.48890   25.49450 2806.54880   -0.05260    -999.25   -0.05650 2045.27260   25.49450  158.39440  158.39440   12.75000   12.87470   12.87470 2045.27260 2051.32230  230.52640 2051.32230    0.10000    -999.25    0.10000    2.85460    2.85460 2806.54880 1847.14690   15.66850 -172.70690 -167.46230 1847.14690 12697.71190 12623.86620
 2250.00000  244.19040  234.61430  234.61430    0.63650   10.84900 2859.48220   -0.08900    -999.25   -0.08740 1571.09790   10.84900  149.74420  149.74420   14.49050   13.91340   13.91340 1571.09790 1989.69020  228.98040 1989.69020    0.05460    -999.25    0.05460    3.08540    3.08540 2859.48220 1938.42240   18.28380 -155.68990 -150.04690 1938.42240 12875.06050 12814.14260
 2300.00000  237.07080  236.43220  236.43220    1.46430   82.60350 2880.10620   -0.09950    -999.25   -0.09950  682.92870   82.60350  157.80960  157.80960    9.73960    9.25100    9.25100  682.92870  722.48810  240.73690  722.48810    0.08720    -999.25    0.08720    3.61540    3.61540 2880.10620 1893.59780   10.43360 -153.57610 -147.53470 1893.59780 13281.00200 13231.46880
 2350.00000  253.52060  249.59610  249.59610    6.67570   14.92080 2889.60910   -0.10860    -999.25   -0.10500  149.79800   14.92080  169.84650  169.84650    8.34810    7.34820    7.34820  149.79800  226.70530  249.02150  226.70530    0.03720    -999.25    0.03720    4.09520    4.09520 2889.60910  211.71180   10.52000  -85.57690  -79.13700  211.71180 13485.65720 13519.72070
 2400.00000  247.30530  240.93850  240.93850   63.09980   19.39370 2719.88820   -0.00520    -999.25   -0.00580   15.84790   19.39370  190.92200  190.92200   85.41560   85.09360   85.09360   15.84790   17.19720  251.82180   17.19720    0.13750    -999.25    0.13750    3.09510    3.09510 2719.88820   18.64480   85.27680  -25.95420  -19.11590   18.64480 13880.27340 13730.46970
 2450.00000  240.01440  241.46240  241.46240    0.48950   12.39110 2895.79880   -0.10550    -999.25   -0.10870 2042.73100   12.39110  153.56160  153.56160   10.08550   10.29650   10.29650 2042.73100  958.24970  239.44890  958.24970    0.02380    -999.25    0.02380    3.94040    3.94040 2895.79880 1850.54090   12.11750  -82.63990  -75.40320 1850.54090 14019.10550 13903.38670
 2500.00000  232.40560  229.41100  229.41100  129.56890   44.79780 2719.38430   -0.01120    -999.25   -0.00550    7.71790   44.79780  231.55000  231.55000   98.23130   98.16840   98.16840    7.71790    8.43910  226.47680    8.43910    0.22030    -999.25    0.22030    3.89450    3.89450 2719.38430   10.63120   98.86540  -11.08000   -3.36240   10.63120 14212.95020 14163.28420
