~Version ---------------------------------------------------
VERS.      2.0 : CWLS log ASCII Standard -VERSION 2.0
WRAP.       NO : One line per depth step
CREA. 11/08/17 : LAS Creation Date
~Well ------------------------------------------------------
STRT.FT                      650.0 : START DEPTH
STOP.FT                     5600.0 : STOP DEPTH
STEP.FT                   50.00000 : STEP LENGTH
NULL.                      -999.25 : NULL VALUE
COMP.     BP CANADA ENERGY COMPANY : COMPANY
WELL. AMOCO J-11 NIPISI 10-27-80-9 : WELL
FLD .                       NIPISI : FIELD
LOC .                              : LOCATION
CTRY.                       CANADA : COUNTRY
SRVC.                Dresser Atlas : SERVICE COMPANY
DATE.                  21-Dec-1969 : LOGDATE
PROV.                      Alberta : PROVINCE
UWI .             100102708009W500 : UNIQUE WELL ID
SLAT.WGS84           55.9647865295 : SURFACE LATITUDE
SLON.WGS84         -115.3164901733 : SURFACE LONGITUDE
~Curve Information -----------------------------------------
DEPT  .FT    : Depth Curve
ACED  .US/F  : DELTA TIME (ACOUSTIC) FROM SONIC LOG
CALSED.IN    : CALIPER FROM SONIC LOG
CALWS .IN    : CALIPER [CALSED]
CILDED.MMHO  : CONDUCTIVITY FROM IEL LOG
CONDWS.MMHO  : CONDUCTIVITY [CILDED]
DRESWS.OHMM  : DEEP RESISTIVITY [ILDED]
DTWS  .US/F  : DELTA TIME [ACED]
GRSED .GAPI  : GAMMA RAY FROM SONIC LOG
GRWS  .GAPI  : GAMMA RAY [GRSED]
ILDED .OHMM  : INDUCTION LOG DEEP RESISTIVITY
SNED  .OHMM  : 16 INCH SHORT NORMAL RESISTIVITY FROM IEL LOG
SPRED .MV    : SPONTANEOUS POTENTIAL FROM IEL LOG
SPWS  .MV    : SPONTANEOUS POTENTIAL [BASELINE 0 MV] [SPRED]
SRESWS.OHMM  : SHALLOW RESISTIVITY [SNED]
~Params ----------------------------------------------------
PD  .                     GL : PERMANENT DATUM
EPD .FT                 2120 : ELEVATION PERMANENT DATUM
LMF .                     KB : LOG MEASURED FROM
DAPD.FT                 13.2 : FEET ABOVE PERMANENT DATUM
DMF .                     KB : DRILLING MEASURED FROM
EKB .FT               2133.2 : KELLY BUSHING
EGL .FT                 2120 : GROUND LEVEL
DATE.               12/21/69 : RUN DATE
RUN .                      1 : RUN NUMBER
DD  .FT                 5650 : DEPTH DRILLER
DL  .FT                 5650 : DEPTH LOGGER
BLI .FT                 5646 : BOTTOM LOG INTERVAL
TLI .FT                  629 : TOP LOG INTERVAL
CS  .IN                8.625 : CASING SIZE
CBD .FT                  631 : CASING BOTTOM DRILLER
CBL .FT                  629 : CASING BOTTOM LOGGER
BS  .IN                7.875 : BIT SIZE
BSD .FT                 5650 : BIT SIZE AT DEPTH
DFT .                    GEL : DRILLING FLUID TYPE
DFD .                    9.4 : DRILLING FLUID DENSITY
DFV .                     85 : DRILLING FLUID VISCOSITY
DFPH.                      9 : DRILLING FLUID PH
DFL .                     11 : DRILLING FLUID LOSS
MSS .                   CIRC : MUD SAMPLE SOURCE
RMS .OHMM                1.5 : RESISTIVITY MUD SAMPLE
MST .DEGF                 63 : MUD SAMPLE TEMPERATURE
RMF .OHMM                1.2 : RESISTIVITY MUD FILTRATE SAMPLE
MFST.DEGF                 63 : MUD FILTRATE SAMPLE TEMPERATURE
RMC .OHMM                1.1 : RESISTIVITY MUD CAKE
MCST.DEGF                 63 : MUD CAKE SAMPLE TEMPERATURE
MFSS.                      M : MUD FILTRATE SAMPLE SOURCE
MCSS.                      M : MUD CAKE SAMPLE SOURCE
RMB .OHMM               0.86 : RESISTIVITY MUD AT BHT
TCS .HRS                   3 : TIME CIRCULATED STOPPED
LUN .                   6000 : LOGGING UNIT NUMBER
LUL .                    EDM : LOGGING UNIT LOCATION
ENGI.                  MANLY : RECORDING ENGINEER
WITN.                CHRAPKO : WITNESSED BY
CLNT.                A2DTECH : CLIENT CODE
ORIG.            2" 5" PRINT : ORIGIN OF DATA
UWI .       100102708009W500 : UNIQUE WELL ID
DICO. A2D Technologies, Inc. : DIGITIZING COMPANY
~Other -----------------------------------------------------
~ASCII -----------------------------------------------------
# ...
 3100.00000   58.78570    8.48220    8.48220   46.94480   46.94480   22.34260   58.78570   14.84380   14.84380   22.34260   71.04100 -117.07510  -82.73290   71.04100
 3150.00000   52.50930    7.92890    7.92890   24.85720   24.85720   38.03800   52.50930   14.05530   14.05530   38.03800   65.88940  -75.89600  -40.30980   65.88940
 3200.00000   65.88250    8.54140    8.54140   63.39410   63.39410   15.42250   65.88250   15.02590   15.02590   15.42250   39.69490 -114.74960  -77.90700   39.69490
 3250.00000   53.87210    8.38200    8.38200   26.39270   26.39270   36.21890   53.87210   17.14020   17.14020   36.21890   46.78520  -78.55870  -40.47200   46.78520
 3300.00000   54.28350    8.42740    8.42740   28.92260   28.92260   33.05100   54.28350   12.82920   12.82920   33.05100   69.74100  -89.19110  -49.86050   69.74100
 3350.00000   51.90160    8.47080    8.47080   25.10360   25.10360   38.27360   51.90160   14.33510   14.33510   38.27360   76.67040  -85.23780  -44.64440   76.67040
 3400.00000   54.09610    8.90800    8.90800   24.82910   24.82910   40.35740   54.09610   13.20880   13.20880   40.35740   72.01730  -85.17370  -43.33630   72.01730
 3450.00000   51.61210    8.48260    8.48260   19.92380   19.92380   47.94520   51.61210   14.36690   14.36690   47.94520   81.83940  -82.37890  -39.28510   81.83940
 3500.00000   52.44190    8.57140    8.57140   24.25530   24.25530   39.87230   52.44190   14.36050   14.36050   39.87230   83.89740  -86.04330  -41.70540   83.89740
 3550.00000   56.53330    8.83650    8.83650   37.53140   37.53140   26.54860   56.53330   14.25670   14.25670   26.54860   63.44750  -89.03030  -43.44850   63.44750
 3600.00000   56.08310    8.81360    8.81360   54.52440   54.52440   18.74390   56.08310   20.60940   20.60940   18.74390   28.52990  -80.69050  -33.84600   28.52990
 3650.00000   57.33130    8.75050    8.75050  144.28370  144.28370    6.44540   57.33130   25.69320   25.69320    6.44540   21.48000  -83.84720  -35.75870   21.48000
 3700.00000   63.75620    7.73580    7.73580  125.52810  125.52810    7.61710   63.75620   36.71410   36.71410    7.61710   23.60730 -101.21460  -51.86960   23.60730
 3750.00000   70.24490    7.88660    7.88660   37.51690   37.51690   27.22270   70.24490   16.02210   16.02210   27.22270   77.46350 -114.03490  -63.44590   77.46350
 3800.00000   69.66410    9.58100    9.58100  127.94020  127.94020    7.52880   69.66410   49.93550   49.93550    7.52880   10.36600  -56.89860   -5.06560   10.36600
 3850.00000   53.27390    7.97700    7.97700   37.11440   37.11440   26.55630   53.27390   25.73480   25.73480   26.55630   44.92580  -82.53650  -29.44080   44.92580
 3900.00000   69.57420    8.53550    8.53550  295.22170  295.22170    3.00010   69.57420   50.07870   50.07870    3.00010   12.16370 -108.14050  -53.80080   12.16370
 3950.00000   64.48240    8.14490    8.14490  148.54560  148.54560    6.47150   64.48240   38.10240   38.10240    6.47150   12.00710  -93.01910  -37.42290   12.00710
 4000.00000   61.88090    7.27400    7.27400   88.32520   88.32520   11.31200   61.88090   34.03360   34.03360   11.31200   38.02990 -127.93840  -71.09820   38.02990
 4050.00000  106.66550    7.41840    7.41840   86.65010   86.65010   11.36460  106.66550   37.09730   37.09730   11.36460   24.38840 -100.74320  -42.65900   24.38840
 4100.00000  139.13640   10.55370   10.55370  136.08000  136.08000    7.03020  139.13640   60.90100   60.90100    7.03020    6.99670  -72.88990  -13.54300    6.99670
 4150.00000   97.41000    9.56570    9.56570  255.46630  255.46630    3.73260   97.41000   59.40060   59.40060    3.73260    5.49840  -74.04880  -13.45780    5.49840
 4200.00000  159.88060    8.74980    8.74980  237.05670  237.05670    4.15560  159.88060   59.54450   59.54450    4.15560    6.02810  -73.30470  -11.45730    6.02810
 4250.00000   85.86290    8.37140    8.37140  185.44180  185.44180    4.95700   85.86290   62.19880   62.19880    4.95700    7.29650  -67.51660   -6.08700    7.29650
 4300.00000  102.03860   12.25880   12.25880  287.24020  287.24020    3.20640  102.03860   60.90660   60.90660    3.20640    4.72690  -82.46310  -22.43510    4.72690
 4350.00000   80.72990    8.00190    8.00190  151.74650  151.74650    6.10940   80.72990   47.88720   47.88720    6.10940    8.96720  -56.23920    2.36610    8.96720
 4400.00000   99.22850   13.45550   13.45550  312.15270  312.15270    2.95680   99.22850   58.90010   58.90010    2.95680    4.31730  -79.41290  -22.20920    4.31730
 4450.00000   86.76450   10.72640   10.72640  211.09640  211.09640    4.05350   86.76450   56.59250   56.59250    4.05350    6.27320  -63.97850   -8.19050    6.27320
 4500.00000  102.83750   11.72440   11.72440  316.19560  316.19560    2.83660  102.83750   66.51430   66.51430    2.83660    4.07640  -65.35730  -10.97090    4.07640
 4550.00000   60.42010    7.82230    7.82230   57.71560   57.71560   16.62130   60.42010   26.31400   26.31400   16.62130   28.28590  -59.02200   -6.03710   28.28590
 4600.00000   63.98100    8.38300    8.38300   64.16790   64.16790   15.24210   63.98100   37.99850   37.99850   15.24210   20.08130  -50.66760    0.89450   20.08130
 4650.00000   60.08580    8.08390    8.08390   56.35210   56.35210   17.59050   60.08580   29.06670   29.06670   17.59050   20.90830  -67.90260  -17.74210   20.90830
 4700.00000   72.79860    8.58990    8.58990  110.59120  110.59120    8.72910   72.79860   52.47740   52.47740    8.72910   11.14740  -58.89220  -10.14730   11.14740
 4750.00000   72.50100    8.42780    8.42780  116.17210  116.17210    8.25370   72.50100   46.50330   46.50330    8.25370   11.42790  -48.53100   -1.18770   11.42790
 4800.00000   67.50680    8.04880    8.04880   81.59540   81.59540   11.87610   67.50680   50.15550   50.15550   11.87610   15.59440  -50.72280   -4.77440   15.59440
 4850.00000  105.41480   10.88360   10.88360  248.22830  248.22830    3.62380  105.41480   60.39510   60.39510    3.62380    6.10210  -62.84280  -18.30790    6.10210
 4900.00000  102.85580   12.81320   12.81320  342.31950  342.31950    2.63860  102.85580   76.50510   76.50510    2.63860    4.21930  -64.90590  -21.76340    4.21930
 4950.00000   73.39230    7.86930    7.86930  116.14570  116.14570    9.54160   73.39230   53.38990   53.38990    9.54160   12.51330  -49.74300   -8.00700   12.51330
 5000.00000   89.43900   11.24000   11.24000  303.84910  303.84910    2.88660   89.43900   69.70790   69.70790    2.88660    5.03040  -63.31720  -22.97350    5.03040
 5050.00000   65.87040    7.59100    7.59100   68.43730   68.43730   13.99810   65.87040   38.16990   38.16990   13.99810   22.01340  -56.06460  -17.11350   22.01340
 5100.00000   82.82760    9.45350    9.45350  156.22830  156.22830    5.70880   82.82760   53.50390   53.50390    5.70880    7.82200  -56.15060  -18.61290    7.82200
 5150.00000   88.73990   10.03140   10.03140  127.35630  127.35630    7.95670   88.73990   57.43190   57.43190    7.95670    9.21850  -52.02070  -15.87550    9.21850
 5200.00000   69.43430    9.01950    9.01950  104.35980  104.35980    8.76130   69.43430   44.65550   44.65550    8.76130   11.25310  -43.46470   -8.72590   11.25310
 5250.00000   78.54250    9.44490    9.44490  118.03560  118.03560    8.13980   78.54250   67.71060   67.71060    8.13980   10.84570  -43.13810   -9.79170   10.84570
 5300.00000   74.41150    9.85450    9.85450  106.41380  106.41380    9.04310   74.41150   62.74490   62.74490    9.04310   11.33620  -34.48950   -2.53570   11.33620
 5350.00000   65.37320    8.40390    8.40390   66.36860   66.36860   14.48520   65.37320   45.95340   45.95340   14.48520   16.24710  -39.13430   -7.02690   16.24710
 5400.00000   69.21350    8.22130    8.22130   76.42100   76.42100   12.63060   69.21350   51.91410   51.91410   12.63060   15.46160  -35.28210   -2.33960   15.46160
 5450.00000   71.15780    8.63910    8.63910   86.91190   86.91190   11.20010   71.15780   56.60600   56.60600   11.20010   13.62310  -35.95280   -2.16700   13.62310
 5500.00000   55.14270    8.34310    8.34310   32.04820   32.04820   31.15690   55.14270   21.82310   21.82310   31.15690   42.50310  -80.83400  -46.21320   42.50310
