~Version ---------------------------------------------------
VERS.      2.0 : CWLS log ASCII Standard -VERSION 2.0
WRAP.       NO : One line per depth step
CREA. 12/01/17 : LAS Creation Date
~Well ------------------------------------------------------
STRT.FT                        1050.0 : START DEPTH
STOP.FT                        9950.0 : STOP DEPTH
STEP.FT                      50.00000 : STEP LENGTH
NULL.                         -999.25 : NULL VALUE
COMP.          PACIFIC PETROLEUMS LTD : COMPANY
WELL. PACIFIC ET AL KAYBOB 6-23-63-18 : WELL
FLD .                                 : FIELD
LOC .                                 : LOCATION
CTRY.                          CANADA : COUNTRY
SRVC.          Schlumberger of Canada : SERVICE COMPANY
DATE.                     28-Feb-1971 : LOGDATE
PROV.                         Alberta : PROVINCE
UWI .                100062306318W500 : UNIQUE WELL ID
SLAT.WGS84                   54.46224 : SURFACE LATITUDE
SLON.WGS84                  -116.6138 : SURFACE LONGITUDE
~Curve Information -----------------------------------------
DEPT  .FT    : Depth Curve
CALSED.IN    : CALIPER FROM SONIC LOG [ADJ. TO RESISTIVITY LOG]
CALWS .IN    : CALIPER [CALSED]
CILDED.MMHO  : DEEP INDUCTION CONDUCTIVITY FROM RESISTIVITY LOG
CONDWS.MMHO  : CONDUCTIVITY [1000/DRESWS]
DRESWS.OHMM  : DEEP RESISTIVITY [1000/CILDED IF ILDED<1,ILDED & SPL. TO ILDED @ 4488'
DTED  .US/F  : DELTA-T FROM SONIC LOG [ADJ. TO RESISTIVITY LOG]
DTWS  .US/F  : COMPRESSIONAL SONIC [DTED]
GRSED .GAPI  : GAMMA RAY FROM SONIC LOG [ADJ. TO RESISTIVITY LOG]
GRWS  .GAPI  : AMMA RAY [GRSED]
ILDED .OHMM  : DEEP INDUCTION FROM RESISTIVITY LOG
ILMED .OHMM  : MEDIUM INDUCTION FROM RESISTIVITY LOG
LL8ED .OHMM  : LATEROLOG 8 RESISTIVITY FROM RESISTIVITY LOG
MRESWS.OHMM  : MEDIUM RESISTIVITY [ILMED]
SPRED .MV    : SPONTANEOUS POTENTIAL FROM RESISTIVITY LOG
SPWS  .MV    : SPONTANEOUS POTENTIAL [BASELINE 0 MV,SPRED]
SRESWS.OHMM  : SHALLOW RESISTIVITY [LL8ED]
~Params ----------------------------------------------------
PD  .                     GL : PERMANENT DATUM
EPD .FT               2627.5 : ELEVATION PERMANENT DATUM
LMF .                     KB : LOG MEASURED FROM
DAPD.FT                 17.5 : FEET ABOVE PERMANENT DATUM
EKB .FT                 2645 : KELLY BUSHING
EGL .FT               2627.5 : GROUND LEVEL
DATE.               02/28/71 : RUN DATE
RUN .                      1 : RUN NUMBER
DD  .FT                 9960 : DEPTH DRILLER
DL  .FT                 9964 : DEPTH LOGGER
BLI .FT                 9958 : BOTTOM LOG INTERVAL
TLI .FT                 1035 : TOP LOG INTERVAL
CBD .FT                 1035 : CASING BOTTOM DRILLER
CBL .FT                 1035 : CASING BOTTOM LOGGER
BS  .IN                 8.75 : BIT SIZE
BSD .FT                 9960 : BIT SIZE AT DEPTH
DFT .              FRESH GEL : DRILLING FLUID TYPE
DFD .                    9.5 : DRILLING FLUID DENSITY
DFV .                     90 : DRILLING FLUID VISCOSITY
DFPH.                    9.5 : DRILLING FLUID PH
DFL .                    9.2 : DRILLING FLUID LOSS
MSS .               FLOWLINE : MUD SAMPLE SOURCE
RMS .OHMM               2.04 : RESISTIVITY MUD SAMPLE
MST .DEGF                 60 : MUD SAMPLE TEMPERATURE
RMF .OHMM               1.79 : RESISTIVITY MUD FILTRATE SAMPLE
MFST.DEGF                 60 : MUD FILTRATE SAMPLE TEMPERATURE
RMC .OHMM                1.7 : RESISTIVITY MUD CAKE
MCST.DEGF                 64 : MUD CAKE SAMPLE TEMPERATURE
RMB .OHMM               0.55 : RESISTIVITY MUD AT BHT
TCS .HRS                   5 : TIME CIRCULATED STOPPED
LUN .                   7501 : LOGGING UNIT NUMBER
LUL .                    EDM : LOGGING UNIT LOCATION
ENGI.                 BUFTON : RECORDING ENGINEER
WITN.                SHEDDEN : WITNESSED BY
CLNT.                A2DTECH : CLIENT CODE
ORIG.            2" 5" PRINT : ORIGIN OF DATA
UWI .       100062306318W500 : UNIQUE WELL ID
DICO. A2D Technologies, Inc. : DIGITIZING COMPANY
~Other -----------------------------------------------------
DIL-BHC LOG RUN
ALL DATA FROM TOP TO 4488' FROM 2" SCALE SECTION
~ASCII -----------------------------------------------------
# ...
 7500.00000    9.24520    9.24520    -999.25    1.06690  937.27150   49.60280   49.60280    7.54920    7.54920  937.27150 1851.39860  817.53410 1851.39860 -114.20270  -88.13390  817.53410
 7550.00000    9.27620    9.27620    -999.25    3.23820  308.81700   48.55270   48.55270    5.86460    5.86460  308.81700  416.84160  333.39850  416.84160 -112.06740  -86.69800  333.39850
 7600.00000    9.40150    9.40150    -999.25    3.04230  328.70140   50.14620   50.14620   10.89210   10.89210  328.70140  115.82450  965.45900  115.82450 -118.65770  -93.99230  965.45900
 7650.00000    9.41610    9.41610    -999.25    1.44150  693.73100   48.84260   48.84260    5.72780    5.72780  693.73100   95.58860  768.41740   95.58860 -139.89400 -115.92800  768.41740
 7700.00000    8.84360    8.84360    -999.25    8.29890  120.49720   48.35950   48.35950   10.42530   10.42530  120.49720   81.40850  161.29840   81.40850 -120.44950  -97.18750  161.29840
 7750.00000    9.22870    9.22870    -999.25    1.37300  728.35170   48.49370   48.49370    5.62330    5.62330  728.35170  170.85850  703.03630  170.85850 -122.89510 -100.33250  703.03630
 7800.00000    9.24670    9.24670    -999.25    4.05020  246.89880   49.22040   49.22040    9.14730    9.14730  246.89880   88.89100  275.69830   88.89100 -122.47000 -100.60690  275.69830
 7850.00000    8.96190    8.96190    -999.25    4.70720  212.44010   50.06790   50.06790    8.00250    8.00250  212.44010   62.81200  176.48970   62.81200 -121.40280 -100.24370  176.48970
 7900.00000    9.29750    9.29750    -999.25    0.88630 1128.24150   49.31520   49.31520    9.01170    9.01170 1128.24150  114.95690  643.53550  114.95690 -121.29920 -100.83950  643.53550
 7950.00000    9.21280    9.21280    -999.25    9.50560  105.20150   50.61940   50.61940    6.67000    6.67000  105.20150   57.48750  114.65060   57.48750 -131.88220 -112.12650  114.65060
 8000.00000    9.28050    9.28050    -999.25    7.42810  134.62380   51.92670   51.92670    7.21290    7.21290  134.62380   88.45080  151.07560   88.45080 -126.02500 -106.96870  151.07560
 8050.00000    8.83510    8.83510    -999.25   14.41050   69.39370   51.27710   51.27710    6.82360    6.82360   69.39370   57.43650   88.44670   57.43650 -123.84600 -105.48920   88.44670
 8100.00000    8.46970    8.46970    -999.25   37.37090   26.75880   49.77140   49.77140   11.23530   11.23530   26.75880   41.62580   73.71460   41.62580 -117.84630 -100.19350   73.71460
 8150.00000    9.20860    9.20860    -999.25    7.46690  133.92390   47.41520   47.41520    9.59770    9.59770  133.92390  241.41070  493.93500  241.41070 -125.33860 -108.38520  493.93500
 8200.00000    9.61340    9.61340    -999.25   12.34360   81.01380   50.83230   50.83230   12.32000   12.32000   81.01380   85.16710   89.77630   85.16710 -109.63140  -93.38200   89.77630
 8250.00000    9.23700    9.23700    -999.25   15.61710   64.03230   52.33680   52.33680   25.93260   25.93260   64.03230   37.01730  130.56660   37.01730  -92.18030  -76.63030  130.56660
 8300.00000    8.67740    8.67740    -999.25   16.69360   59.90320   52.89710   52.89710   29.33910   29.33910   59.90320   48.77170   77.01130   48.77170  -51.34450  -36.49390   77.01130
 8350.00000    8.83840    8.83840    -999.25   13.49390   74.10780   54.00300   54.00300   25.90160   25.90160   74.10780   77.75020   94.72160   77.75020  -19.93760   -5.79110   94.72160
 8400.00000    8.98870    8.98870    -999.25   27.64780   36.16920   56.59890   56.59890   41.92860   41.92860   36.16920   43.48980   53.98520   43.48980  -16.79110   -3.34400   53.98520
 8450.00000    8.97070    8.97070    -999.25   49.30410   20.28230   57.62430   57.62430   34.61820   34.61820   20.28230   24.11360   29.07830   24.11360  -19.17420   -6.38770   29.07830
 8500.00000   13.13390   13.13390    -999.25  180.91030    5.52760   75.41570   75.41570   71.83720   71.83720    5.52760    6.04560    6.87370    6.04560  -24.61640  -12.45340    6.87370
 8550.00000   14.47860   14.47860    -999.25  189.43700    5.27880   77.15650   77.15650   68.26190   68.26190    5.27880    5.50920    7.12560    5.50920  -25.12460  -13.58520    7.12560
 8600.00000   12.82490   12.82490    -999.25  157.23760    6.35980   72.24990   72.24990   63.18140   63.18140    6.35980    7.11900    8.56700    7.11900  -19.18730   -8.27560    8.56700
 8650.00000    9.99620    9.99620    -999.25   89.64190   11.15550   67.12770   67.12770   52.34180   52.34180   11.15550   10.30560   16.64130   10.30560  -15.46940   -5.18120   16.64130
 8700.00000    9.22580    9.22580    -999.25   52.74460   18.95930   69.38590   69.38590   68.26040   68.26040   18.95930   20.08030   30.57050   20.08030  -18.29170   -8.63120   30.57050
 8750.00000    9.84420    9.84420    -999.25  115.92460    8.62630   65.56200   65.56200   57.17740   57.17740    8.62630   10.13310   13.23730   10.13310  -16.90120   -7.86430   13.23730
 8800.00000   12.59710   12.59710    -999.25  225.32160    4.43810   77.61470   77.61470   78.25960   78.25960    4.43810    4.77460    6.37160    4.77460  -24.52540  -16.11200    6.37160
 8850.00000   13.38880   13.38880    -999.25  225.08330    4.44280   82.09100   82.09100   80.79260   80.79260    4.44280    4.80030    6.58920    4.80030  -20.35040  -12.56470    6.58920
 8900.00000   13.23430   13.23430    -999.25  222.85610    4.48720   79.26460   79.26460   85.70180   85.70180    4.48720    4.94470    6.14290    4.94470  -19.73960  -12.57750    6.14290
 8950.00000   10.08560   10.08560    -999.25  117.61940    8.50200   72.95330   72.95330   67.78260   67.78260    8.50200    9.24300   11.80720    9.24300  -13.10500   -6.57060   11.80720
 9000.00000    9.73540    9.73540    -999.25   73.87930   13.53560   63.42460   63.42460   64.43430   64.43430   13.53560   15.83150   18.94180   15.83150   -8.78700   -2.61320   18.94180
 9050.00000    9.59250    9.59250    -999.25  108.80330    9.19090   67.49030   67.49030   78.17460   78.17460    9.19090   11.23880   14.13340   11.23880  -10.62220   -4.28850   14.13340
 9100.00000    9.39470    9.39470    -999.25   96.12700   10.40290   64.53780   64.53780   68.80840   68.80840   10.40290   13.01790   16.27100   13.01790  -12.00090   -5.50620   16.27100
 9150.00000    9.85260    9.85260    -999.25  124.46480    8.03440   72.23160   72.23160  101.47810  101.47810    8.03440   10.22650   12.40140   10.22650  -19.95670  -13.30210   12.40140
 9200.00000    9.79990    9.79990    -999.25  140.98800    7.09280   71.42360   71.42360   78.09900   78.09900    7.09280    8.53600   10.54770    8.53600  -19.59570  -12.78010   10.54770
 9250.00000    9.20640    9.20640    -999.25   98.11620   10.19200   66.46830   66.46830   70.91320   70.91320   10.19200   11.48480   15.77920   11.48480  -18.31690  -11.34140   15.77920
 9300.00000   10.65280   10.65280    -999.25  134.57860    7.43060   76.07130   76.07130   90.48640   90.48640    7.43060    9.22470   12.51050    9.22470  -28.01390  -20.87850   12.51050
 9350.00000    9.34830    9.34830    -999.25    1.46320  683.43840   88.98180   88.98180   98.24240   98.24240  683.43840 1974.17800 1287.61430 1974.17800  -20.41690  -13.12050 1287.61430
 9400.00000    9.32870    9.32870    -999.25    3.29500  303.49140   62.24250   62.24250   86.61120   86.61120  303.49140 1967.28150  313.67760 1967.28150  -14.66660   -7.21030  313.67760
 9450.00000    8.86560    8.86560    -999.25    4.30900  232.07470   53.08200   53.08200   34.82790   34.82790  232.07470 1906.36780  502.63960 1906.36780  -13.47460   -5.94990  502.63960
 9500.00000    9.74590    9.74590    -999.25   52.32530   19.11120   76.24550   76.24550  104.90690  104.90690   19.11120   24.39660   33.68480   24.39660  -11.98560   -4.46090   33.68480
 9550.00000    8.83270    8.83270    -999.25    7.60940  131.41690   51.46580   51.46580    7.20280    7.20280  131.41690  381.74910  415.96970  381.74910  -78.69220  -71.16750  415.96970
 9600.00000    8.80750    8.80750    -999.25    1.07510  930.18790   48.10770   48.10770    6.73130    6.73130  930.18790 1781.81400 1027.72990 1781.81400 -100.43730  -92.91260 1027.72990
