~Version ---------------------------------------------------
VERS.      2.0 : CWLS log ASCII Standard -VERSION 2.0
WRAP.       NO : One line per depth step
CREA. 09/26/17 : LAS Creation Date
~Well ------------------------------------------------------
STRT.FT                            1050.0 : START DEPTH
STOP.FT                           10300.0 : STOP DEPTH
STEP.FT                          50.00000 : STEP LENGTH
NULL.                             -999.25 : NULL VALUE
COMP.        CANADIAN HOMESTEAD OILS LTD. : COMPANY
WELL. HOMESTEAD S. SNIPE LAKE 10-14-68-19 : WELL
FLD .                                     : FIELD
LOC .                                     : LOCATION
CTRY.                              CANADA : COUNTRY
SRVC.              Schlumberger of Canada : SERVICE COMPANY
DATE.                         04-Mar-1963 : LOGDATE
PROV.                             Alberta : PROVINCE
UWI .                    100101406819W500 : UNIQUE WELL ID
SLAT.WGS84                       54.88835 : SURFACE LATITUDE
SLON.WGS84                      -116.7806 : SURFACE LONGITUDE
~Curve Information -----------------------------------------
DEPT  .FT    : Depth Curve
CALSED.IN    : CALIPER FROM SONIC LOG [ADJ. TO RESISTIVITY LOG]
CALWS .IN    : CALIPER [CALSED]
CILDED.MMHO  : CONDUCTIVITY FROM RESISTIVITY LOG
CONDWS.MMHO  : CONDUCTIVITY [1000/DRESWS]
DRESWS.OHMM  : DEEP RESISTIVITY [1000/CILDED, IF ILDED<1, ILDED]
DTED  .US/F  : DELTA TIME FROM SONIC LOG [ADJ. TO RESISTIVITY LOG]
DTWS  .US/F  : COMPRESSIONAL SONIC [DTED]
GRSED .GAPI  : GAMMA RAY FROM SONIC LOG [ADJ. TO RESISTIVITY LOG]
GRWS  .GAPI  : GAMMA RAY [GRSED]
ILDED .OHMM  : DEEP INDUCTION RESISTIVITY FROM RESISTIVITY LOG
SNED  .OHMM  : SHORT NORMAL 16"  FROM RESISTIVITY LOG
SPRED .MV    : SPONTANEOUS POTENTIAL FROM RESISTIVITY LOG
SPWS  .MV    : SPONTANEOUS POTENTIAL [BASELINE 0 MV, SPRED]
SRESWS.OHMM  : SHALLOW RESISTIVITY [SNED]
~Params ----------------------------------------------------
PD  .                     GL : PERMANENT DATUM
EPD .FT               2807.4 : ELEVATION PERMANENT DATUM
LMF .                     KB : LOG MEASURED FROM
DAPD.FT                 13.6 : FEET ABOVE PERMANENT DATUM
EKB .FT                 2821 : KELLY BUSHING
EDF .FT               2807.4 : DRILLING FLOOR
DATE.               03/04/63 : RUN DATE
RUN .                      1 : RUN NUMBER
DD  .FT                10320 : DEPTH DRILLER
DL  .FT                10325 : DEPTH LOGGER
BLI .FT                10324 : BOTTOM LOG INTERVAL
TLI .FT                 1073 : TOP LOG INTERVAL
CBD .FT                 1075 : CASING BOTTOM DRILLER
CBL .FT                 1073 : CASING BOTTOM LOGGER
BS  .IN                    9 : BIT SIZE
BSD .FT                10320 : BIT SIZE AT DEPTH
DFT .                    GEL : DRILLING FLUID TYPE
DFD .                    9.9 : DRILLING FLUID DENSITY
DFV .                     84 : DRILLING FLUID VISCOSITY
DFPH.                      9 : DRILLING FLUID PH
DFL .                    8.6 : DRILLING FLUID LOSS
RMS .OHMM               3.51 : RESISTIVITY MUD SAMPLE
MST .DEGF                 55 : MUD SAMPLE TEMPERATURE
RMF .OHMM               1.98 : RESISTIVITY MUD FILTRATE SAMPLE
MFST.DEGF                 74 : MUD FILTRATE SAMPLE TEMPERATURE
RMC .OHMM               1.05 : RESISTIVITY MUD CAKE
MCST.DEGF                171 : MUD CAKE SAMPLE TEMPERATURE
RMB .OHMM               1.15 : RESISTIVITY MUD AT BHT
TCS .HRS                 3.5 : TIME CIRCULATED STOPPED
LUN .                   1571 : LOGGING UNIT NUMBER
LUL .                    WCT : LOGGING UNIT LOCATION
ENGI.                 PAVLIN : RECORDING ENGINEER
WITN.                   EARL : WITNESSED BY
CLNT.                A2DTECH : CLIENT CODE
ORIG.            2" 5" PRINT : ORIGIN OF DATA
UWI .       100101406819W500 : UNIQUE WELL ID
DICO. A2D Technologies, Inc. : DIGITIZING COMPANY
~Other -----------------------------------------------------
IEL-BHC SONIC TOOL RUN
RESISTIVITY LOG FROM (TOP TO 3960') HAS TAKEN FROM SMALL SECTION
~ASCII -----------------------------------------------------
# ...
 3500.00000   10.68610   10.68610  170.90670  178.69270    5.59620  103.55910  103.55910   99.63060   99.63060    5.59620    8.14310  -44.65950   -5.98770    8.14310
 3550.00000   10.99910   10.99910  192.45610  193.86980    5.15810   94.87460   94.87460   86.36970   86.36970    5.15810    7.09160  -46.60160   -7.38020    7.09160
 3600.00000   10.22630   10.22630  181.42130  185.57010    5.38880   97.12110   97.12110   93.16500   93.16500    5.38880    7.71920  -47.44930   -7.67470    7.71920
 3650.00000   10.93200   10.93200  212.34210  211.43880    4.72950   91.29530   91.29530   84.05750   84.05750    4.72950    6.45200  -46.30970   -5.98550    6.45200
 3700.00000   11.85040   11.85040  235.18810  230.91490    4.33060   93.41470   93.41470   88.90200   88.90200    4.33060    5.95470  -46.59420   -5.71680    5.95470
 3750.00000   11.99590   11.99590  195.19030  200.83950    4.97910   94.19280   94.19280   83.13290   83.13290    4.97910    7.03280  -46.29540   -4.86850    7.03280
 3800.00000   11.58730   11.58730  217.46140  218.34060    4.58000   95.26700   95.26700   96.54760   96.54760    4.58000    6.69530  -48.74760   -6.77110    6.69530
 3850.00000   10.61820   10.61820  410.31730  349.66260    2.85990  107.51230  107.51230  114.51840  114.51840    2.85990    4.38480  -45.32040   -2.79070    4.38480
 3900.00000    9.36840    9.36840  471.91980  379.98250    2.63170  116.55630  116.55630   88.19330   88.19330    2.63170    3.88040  -46.23010   -3.10670    3.88040
 3950.00000   11.36910   11.36910  273.52750  268.47800    3.72470   89.95510   89.95510   73.38350   73.38350    3.72470    5.39590  -49.97020   -5.77530    5.39590
 4000.00000   11.16280   11.16280  298.58020  283.11770    3.53210  104.07000  104.07000   88.36690   88.36690    3.53210    5.26590  -48.96370   -3.70420    5.26590
 4050.00000   10.58960   10.58960  409.36180  349.85830    2.85830  108.52170  108.52170   92.52460   92.52460    2.85830    4.61710  -52.98280   -6.65870    4.61710
 4100.00000   11.70320   11.70320  228.97090  235.94370    4.23830  101.37160  101.37160   87.64110   87.64110    4.23830    6.91740  -54.91910   -7.52340    6.91740
 4150.00000   11.04480   11.04480  182.30510  197.88270    5.05350   96.33000   96.33000   76.91780   76.91780    5.05350    9.13510  -83.75430  -35.29400    9.13510
 4200.00000   10.68570   10.68570  165.95070  173.47860    5.76440   86.43110   86.43110   71.64070   71.64070    5.76440    9.56580  -57.15680   -7.62490    9.56580
 4250.00000    8.92280    8.92280  131.57470  147.00260    6.80260   80.47150   80.47150   39.39460   39.39460    6.80260   21.01430  -91.58610  -40.98960   21.01430
 4300.00000   11.11940   11.11940  190.81010  191.04750    5.23430   89.69250   89.69250   88.53750   88.53750    5.23430    8.62120  -53.50370   -1.84260    8.62120
 4350.00000   10.62560   10.62560  118.37660  122.36010    8.17260   96.66290   96.66290   47.36070   47.36070    8.17260   19.45800  -95.86090  -45.73740   19.45800
 4400.00000    7.92080    7.92080  159.46800  163.39070    6.12030   72.42030   72.42030   36.56800   36.56800    6.12030   24.93030 -131.38530  -82.78940   24.93030
 4450.00000    9.14450    9.14450  130.52970  135.52710    7.37860   67.59540   67.59540   56.07310   56.07310    7.37860   12.85640  -55.67770   -8.61940   12.85640
 4500.00000    9.72130    9.72130  172.90910  166.45030    6.00780   85.41660   85.41660   79.49350   79.49350    6.00780    9.60810  -51.26390   -4.11730    9.60810
 4550.00000   10.52460   10.52460  166.63620  176.02220    5.68110  101.74340  101.74340   71.56680   71.56680    5.68110    8.86400  -57.02360   -9.55790    8.86400
 4600.00000    9.68400    9.68400  257.06210  251.46480    3.97670   92.15120   92.15120   75.11750   75.11750    3.97670    6.95080  -55.59400   -7.80710    6.95080
 4650.00000   10.44320   10.44320  193.14350  183.58390    5.44710   75.66110   75.66110   74.04860   74.04860    5.44710    9.24680  -56.63680   -8.53080    9.24680
 4700.00000   10.17000   10.17000  223.15700  220.25460    4.54020   79.10460   79.10460   56.49090   56.49090    4.54020    9.30130  -77.46640  -29.03920    9.30130
 4750.00000   10.68000   10.68000  198.88580  203.03330    4.92530   83.86470   83.86470   78.18180   78.18180    4.92530    7.53470  -52.36980   -3.62350    7.53470
 4800.00000    8.41550    8.41550  154.16080  157.50020    6.34920   76.13420   76.13420   48.92780   48.92780    6.34920   24.60670 -139.13830  -90.07290   24.60670
 4850.00000   11.34520   11.34520  229.39490  225.08330    4.44280   93.91460   93.91460   84.67730   84.67730    4.44280    7.04660  -56.79840   -7.41170    7.04660
 4900.00000   10.78220   10.78220  160.21230  160.91140    6.21460   85.29960   85.29960   75.05140   75.05140    6.21460    8.78570  -56.72220   -7.01640    8.78570
 4950.00000   11.55920   11.55920  208.82310  213.96320    4.67370   80.69140   80.69140   85.39730   85.39730    4.67370    7.69300  -52.48230   -4.21190    7.69300
 5000.00000   11.81550   11.81550  212.04390  217.36770    4.60050   87.84960   87.84960   81.04490   81.04490    4.60050    7.09950  -52.67380   -6.06220    7.09950
 5050.00000   10.40960   10.40960  134.15100  140.23870    7.13070   73.01060   73.01060   60.89760   60.89760    7.13070   13.54120  -79.82560  -34.87270   13.54120
 5100.00000   10.81290   10.81290   86.11940   86.07410   11.61790   78.49750   78.49750   70.36840   70.36840   11.61790   16.01450  -56.90690  -13.62360   16.01450
 5150.00000   10.62730   10.62730  106.28720  104.46160    9.57290   79.49460   79.49460   93.94900   93.94900    9.57290   15.52350  -50.99490   -9.37030   15.52350
 5200.00000   11.44260   11.44260  221.47120  223.23420    4.47960   89.11000   89.11000   88.85780   88.85780    4.47960    8.22990  -49.21550   -9.26050    8.22990
 5250.00000   10.58980   10.58980  462.10360  376.66200    2.65490  107.42300  107.42300   49.54840   49.54840    2.65490    6.65670  -78.59090  -40.29460    6.65670
 5300.00000   10.43820   10.43820   44.44660   42.72010   23.40820  103.88820  103.88820  143.13240  143.13240   23.40820   37.54600  -39.28940   -2.65180   37.54600
 5350.00000    9.47540    9.47540    7.04440    4.53620  220.44880   72.00380   72.00380  179.87170  179.87170  220.44880  119.54710  -47.90030   -8.28600  119.54710
 5400.00000    9.73110    9.73110    7.25150    5.90870  169.24180   70.10650   70.10650  113.55580  113.55580  169.24180  103.92260  -70.37690  -26.72570  103.92260
 5450.00000    9.49330    9.49330  292.65380  276.10580    3.62180   73.74200   73.74200   72.89560   72.89560    3.62180   17.12810 -127.70530  -79.99070   17.12810
 5500.00000   10.38030   10.38030  238.05670  233.24700    4.28730   70.05160   70.05160   73.01420   73.01420    4.28730   14.11290  -87.52550  -35.77410   14.11290
 5550.00000    9.82120    9.82120  169.84580  169.85430    5.88740   66.08290   66.08290  105.35400  105.35400    5.88740   12.31440  -80.28360  -25.02940   12.31440
 5600.00000    8.15660    8.15660  754.99850  499.72520    2.00110   69.92220   69.92220   35.72120   35.72120    2.00110   14.83930 -160.49280 -108.60300   14.83930
 5650.00000    8.94680    8.94680   42.82150   41.82180   23.91100   49.94130   49.94130   23.42480   23.42480   23.91100   91.18950 -167.19650 -118.64920   91.18950
 5700.00000    8.76000    8.76000   65.18130   58.91640   16.97320   51.65140   51.65140   33.28190   33.28190   16.97320   81.85470 -182.37000 -137.18710   81.85470
 5750.00000    9.87930    9.87930   29.41200   25.42740   39.32770   53.30840   53.30840   39.54810   39.54810   39.32770   61.19040  -82.19330  -40.35280   61.19040
 5800.00000    8.35290    8.35290  261.23250  258.19110    3.87310   61.64140   61.64140   29.07060   29.07060    3.87310   36.75150 -182.32690 -143.82890   36.75150
 5850.00000    9.24670    9.24670   24.85010   23.81420   41.99180   51.63300   51.63300   25.30650   25.30650   41.99180   96.99050  -77.79080  -42.65720   96.99050
 5900.00000   11.04200   11.04200   70.69860   69.96530   14.29280   63.01900   63.01900   75.64170   75.64170   14.29280   20.94150  -33.81810   -2.02690   20.94150
