~Version ---------------------------------------------------
VERS.      2.0 : CWLS log ASCII Standard -VERSION 2.0
WRAP.       NO : One line per depth step
CREA. 08/31/17 : LAS Creation Date
~Well ------------------------------------------------------
STRT.FT                     900.0 : START DEPTH
STOP.FT                   11750.0 : STOP DEPTH
STEP.FT                  50.00000 : STEP LENGTH
NULL.                     -999.25 : NULL VALUE
COMP.        MOBIL OIL CANADA LTD : COMPANY
WELL. MOBIL ET AL PINE CREEK 6-36 : WELL
FLD .                             : FIELD
LOC .                             : LOCATION
CTRY.                      CANADA : COUNTRY
SRVC.                Schlumberger : SERVICE COMPANY
DATE.                 21-Apr-1961 : LOGDATE
PROV.                     Alberta : PROVINCE
UWI .            100063605819W500 : UNIQUE WELL ID
SLAT.WGS84               54.05556 : SURFACE LATITUDE
SLON.WGS84              -116.6911 : SURFACE LONGITUDE
~Curve Information -----------------------------------------
DEPT  .FT         : Depth Curve
CALWS .IN         : CALIPER [MCALED]
CILDED.MMHO       : DEEP INDUCTION CONDUCTIVITY FROM IEL LOG
CONDWS.MMHO       : CONDUCTIVITY [CILDED]
DRESWS.OHMM       : DEEP RESISTIVITY [CALCULATED FROM 1000/CILDED, IF ILDED<1, ILDED]
DT1ED .US/F       : ACOUSTIC TRANSIT TIME SLOWNESS, DELTA T FROM SONIC LOG
DT2ED .US/F       : ACOUSTIC TRANSIT TIME SLOWNESS, DELTA T FROM SONIC LOG
DT3ED .US/F       : ACOUSTIC TRANSIT TIME SLOWNESS, DELTA T FROM SONIC LOG
DTED  .US/F       : ACOUSTIC TRANSIT TIME SLOWNESS, DELTA T FROM SONIC LOG
DTWS  .US/F       : COMPRESSIONAL SONIC [DTED]
GRSED .UgRa-Eq/T  : GAMMA RAY FROM SONIC LOG
GRWS  .GAPI       : GAMMA RAY [GRSED*16.5 FOR GAPI]
ILDED .OHMM       : DEEP INDUCTION FROM IEL LOG
MCALED.IN         : MLT [MICROLOG] CALIPER FROM MICRO LOG [ADJ. TO ILDED]
SNED  .OHMM       : SHORT NORMAL FROM IEL LOG
SPRED .MV         : SPONTANEOUS POTENTIAL FROM IEL LOG
SPWS  .MV         : SPONTANEOUS POTENTIAL [BASELINE 0 MV, SPRED]
SRESWS.OHMM       : SHALLOW RESISTIVITY [SNED]
~Params ----------------------------------------------------
PD  .                     GL : PERMANENT DATUM
LMF .                     KB : LOG MEASURED FROM
DAPD.FT                 13.6 : FEET ABOVE PERMANENT DATUM
DMF .                     KB : DRILLING MEASURED FROM
EKB .FT                 3433 : KELLY BUSHING
EGL .FT               3419.4 : GROUND LEVEL
DATE.               04/21/61 : RUN DATE
RUN .                      2 : RUN NUMBER
DD  .FT                11780 : DEPTH DRILLER
DL  .FT                11781 : DEPTH LOGGER
BLI .FT                11780 : BOTTOM LOG INTERVAL
TLI .FT                 8720 : TOP LOG INTERVAL
BS  .IN                    9 : BIT SIZE
BSD .FT                11780 : BIT SIZE AT DEPTH
DFT .              LIME BASE : DRILLING FLUID TYPE
DFV .                    120 : DRILLING FLUID VISCOSITY
DFPH.                     13 : DRILLING FLUID PH
DFL .                    8.8 : DRILLING FLUID LOSS
RMS .OHMM                1.0 : RESISTIVITY MUD SAMPLE
MST .DEGF                 55 : MUD SAMPLE TEMPERATURE
RMF .OHMM               0.22 : RESISTIVITY MUD FILTRATE SAMPLE
MFST.DEGF                203 : MUD FILTRATE SAMPLE TEMPERATURE
RMC .OHMM               0.39 : RESISTIVITY MUD CAKE
MCST.DEGF                203 : MUD CAKE SAMPLE TEMPERATURE
RMB .OHMM               0.28 : RESISTIVITY MUD AT BHT
TCS .HRS                   4 : TIME CIRCULATED STOPPED
LUN .                   2742 : LOGGING UNIT NUMBER
LUL .                    EDM : LOGGING UNIT LOCATION
ENGI.               MC CAMUS : RECORDING ENGINEER
WITN.           CURRIE MOORE : WITNESSED BY
CLNT.                A2DTECH : CLIENT CODE
ORIG.            2" 5" PRINT : ORIGIN OF DATA
UWI .       100063605819W500 : UNIQUE WELL ID
DICO. A2D Technologies, Inc. : DIGITIZING COMPANY
~Other -----------------------------------------------------
~ASCII -----------------------------------------------------
# ...
 7050.00000   10.67010   54.35860   54.35860   18.23100    -999.25    -999.25    -999.25   69.42060   69.42060    3.82470   63.10840   18.23100   10.67010   15.61260  -75.60370  -13.64690   15.61260
 7100.00000   10.65850   59.37880   59.37880   16.57270    -999.25    -999.25    -999.25   71.34910   71.34910    4.38160   72.29640   16.57270   10.65850   14.34860  -72.52240  -11.71020   14.34860
 7150.00000   11.20500   49.46690   49.46690   19.74830    -999.25    -999.25    -999.25   69.30370   69.30370    4.30020   70.95330   19.74830   11.20500   13.04600  -68.16300   -8.48780   13.04600
 7200.00000   10.90360   58.52340   58.52340   15.60400    -999.25    -999.25    -999.25   69.91830   69.91830    4.70150   77.57480   15.60400   10.90360   16.24810  -73.05100  -12.61980   16.24810
 7250.00000   14.13510   34.80850   34.80850   35.43290    -999.25    -999.25    -999.25  136.40420  136.40420    2.84870   47.00350   35.43290   14.13510   19.01430  -76.10300  -14.10900   19.01430
 7300.00000   11.34610   68.76040   68.76040   13.77170    -999.25    -999.25    -999.25   70.01510   70.01510    3.70700   61.16630   13.77170   11.34610   14.54890  -88.82330  -25.26650   14.54890
 7350.00000   11.40650   57.61060   57.61060   15.58450    -999.25    -999.25    -999.25   82.75750   82.75750    5.61830   92.70190   15.58450   11.40650   14.10300  -80.25480  -15.12490   14.10300
 7400.00000   12.45980   68.86700   68.86700   12.75840    -999.25    -999.25    -999.25   78.82590   78.82590    4.33310   71.49700   12.75840   12.45980   11.88610  -71.27230   -4.57960   11.88610
 7450.00000   10.58620   41.39500   41.39500   25.12690    -999.25    -999.25    -999.25   67.00420   67.00420    3.91450   64.58920   25.12690   10.58620   16.13180  -71.33860   -8.60630   16.13180
 7500.00000   11.69120   80.08150   80.08150   11.84630    -999.25    -999.25    -999.25   72.20850   72.20850    4.19460   69.21090   11.84630   11.69120   10.97400  -78.37790  -20.92090   10.97400
 7550.00000   11.80790   55.20460   55.20460   18.73730    -999.25    -999.25    -999.25   71.52530   71.52530    4.88370   80.58020   18.73730   11.80790   13.34780  -72.30410  -20.12240   13.34780
 7600.00000   12.33530   23.21980   23.21980   48.08450    -999.25    -999.25    -999.25   70.51150   70.51150    2.40950   39.75670   48.08450   12.33530   26.68660  -86.33460  -39.46290   26.68660
 7650.00000   10.10480   30.19180   30.19180   37.63600    -999.25    -999.25    -999.25   65.99800   65.99800    3.92380   64.74270   37.63600   10.10480   22.13520  -59.17370  -17.57730   22.13520
 7700.00000   13.14860   80.66770   80.66770   10.14150    -999.25    -999.25    -999.25   66.48540   66.48540    4.36020   71.94330   10.14150   13.14860   13.75270  -39.51470   -3.17040   13.75270
 7750.00000   12.06390   76.04620   76.04620   12.36170    -999.25    -999.25    -999.25   82.19120   82.19120    3.32160   54.80640   12.36170   12.06390   11.53710  -88.79520  -48.91800   11.53710
 7800.00000   14.32220   58.72290   58.72290   15.55250    -999.25    -999.25    -999.25   80.60450   80.60450    5.54110   91.42810   15.55250   14.32220   15.76450  -47.00580   -3.59580   15.76450
 7850.00000   14.33730   90.63660   90.63660   10.15130    -999.25    -999.25    -999.25   92.07030   92.07030    5.25770   86.75200   10.15130   14.33730    8.19770  -48.74070   -7.35510    8.19770
 7900.00000   14.34780  129.95940  129.95940    7.22000    -999.25    -999.25    -999.25  114.80280  114.80280    4.69340   77.44030    7.22000   14.34780    6.33980  -43.78160   -5.49010    6.33980
 7950.00000   10.09880   10.00610   10.00610   95.19530    -999.25    -999.25    -999.25  114.05070  114.05070    7.83020  129.19830   95.19530   10.09880   14.32040  -41.04300   -5.86590   14.32040
 8000.00000    8.95760    6.26040    6.26040  397.13020    -999.25    -999.25    -999.25   56.87510   56.87510    3.10280   51.19620  397.13020    8.95760   64.00940  -57.55760  -16.27510   64.00940
 8050.00000    8.77970    2.16190    2.16190  380.90080    -999.25    -999.25    -999.25   67.35130   67.35130    4.80070   79.21070  380.90080    8.77970   58.46290  -56.41230   -5.95800   58.46290
 8100.00000   10.08290   26.55700   26.55700   37.45910    -999.25    -999.25    -999.25   62.70510   62.70510    4.14340   68.36610   37.45910   10.08290   30.33030  -62.45950   -8.64450   30.33030
 8150.00000    9.19130   21.22530   21.22530   50.19330    -999.25    -999.25    -999.25   61.12760   61.12760    4.10800   67.78200   50.19330    9.19130   30.88900  -66.41060  -10.13390   30.88900
 8200.00000    9.17210   70.87610   70.87610   13.02530    -999.25    -999.25    -999.25   57.14260   57.14260    6.05100   99.84150   13.02530    9.17210   17.63690  -95.51780  -36.76320   17.63690
 8250.00000    9.30640   37.58000   37.58000   28.70270    -999.25    -999.25    -999.25   57.89150   57.89150    3.83950   63.35180   28.70270    9.30640   26.43510  -63.87580   -2.65960   26.43510
 8300.00000   11.28450   13.21270   13.21270   75.61410    -999.25    -999.25    -999.25   53.85460   53.85460    4.00470   66.07750   75.61410   11.28450   26.54190 -101.58100  -33.18150   26.54190
 8350.00000    9.22710   66.01280   66.01280   15.37340    -999.25    -999.25    -999.25   54.63250   54.63250    2.34710   38.72720   15.37340    9.22710   22.55160 -114.56430  -38.87090   22.55160
 8400.00000    9.12590   18.07090   18.07090   79.56910    -999.25    -999.25    -999.25   54.11260   54.11260    2.13510   35.22910   79.56910    9.12590   29.18630 -101.83590  -18.89620   29.18630
 8450.00000   10.43730    7.21600    7.21600  301.07830    -999.25    -999.25    -999.25   54.43260   54.43260    1.03660   17.10390  301.07830   10.43730   95.95090 -103.70660  -15.38660   95.95090
 8500.00000    7.54060  217.94470  217.94470    4.50380    -999.25    -999.25    -999.25   53.92650   53.92650    1.09680   18.09720    4.50380    7.54060   18.23320 -162.83480  -71.74330   18.23320
 8550.00000    9.07430   23.77410   23.77410   44.30240    -999.25    -999.25    -999.25   51.67460   51.67460    0.87450   14.42930   44.30240    9.07430   35.98990 -163.34670  -69.48380   35.98990
 8600.00000    8.67510   61.23970   61.23970   16.14720    -999.25    -999.25    -999.25   61.73490   61.73490    5.35210   88.30970   16.14720    8.67510   17.67180 -119.79420  -23.14170   17.67180
 8650.00000    8.69980   71.62810   71.62810   13.06220    -999.25    -999.25    -999.25   59.18660   59.18660    6.05700   99.94130   13.06220    8.69980   17.89650 -119.13120  -23.31500   17.89650
 8700.00000    8.81770   83.66320   83.66320   11.97860   57.12720    -999.25    -999.25   56.96360   56.96360    2.16940   35.79510   11.97860    8.81770   17.13230  -94.02540   -4.19490   17.13230
 8750.00000   10.58010    9.56060    9.56060  133.36160   59.63390    -999.25    -999.25   60.23170   60.23170    1.70810   28.18370  133.36160   10.58010   42.72320  -94.14070   -1.94480   42.72320
 8800.00000   11.60500    7.72850    7.72850  185.73480   56.71720    -999.25    -999.25   57.24530   57.24530    1.07960   17.81420  185.73480   11.60500   57.28490 -107.88080  -13.31950   57.28490
 8850.00000    9.95980   25.58490   25.58490   47.93830   56.23350    -999.25    -999.25   56.25180   56.25180    1.53000   25.24500   47.93830    9.95980   35.73200 -123.11240  -26.17010   35.73200
 8900.00000    9.43280    5.57670    5.57670  211.89420   54.64520    -999.25    -999.25   55.12340   55.12340    1.14380   18.87270  211.89420    9.43280   61.40190 -129.80560  -30.49790   61.40190
 8950.00000    9.64720   15.81220   15.81220   80.95230   56.53090    -999.25    -999.25   57.05180   57.05180    1.40640   23.20560   80.95230    9.64720   43.68200 -116.31460  -14.62590   43.68200
 9000.00000   10.03040   21.82190   21.82190   53.83270   59.53540    -999.25    -999.25   59.98650   59.98650    1.44200   23.79300   53.83270   10.03040   34.32100 -123.27850  -19.22440   34.32100
 9050.00000    9.27400   15.59580   15.59580   77.74560   56.77170    -999.25    -999.25   57.26130   57.26130    1.73010   28.54580   77.74560    9.27400   40.52520 -133.27490  -26.85540   40.52520
