~Version ---------------------------------------------------
VERS.      2.0 : CWLS log ASCII Standard -VERSION 2.0
WRAP.       NO : One line per depth step
CREA. 09/27/17 : LAS Creation Date
~Well ------------------------------------------------------
STRT.FT                    300.0 : START DEPTH
STOP.FT                  13950.0 : STOP DEPTH
STEP.FT                 50.00000 : STEP LENGTH
NULL.                    -999.25 : NULL VALUE
COMP.   PENN WEST PETROLEUM LTD. : COMPANY
WELL. CONOCO WEB PECO 6-26-47-15 : WELL
FLD .                       PECO : FIELD
LOC .                            : LOCATION
CTRY.                     CANADA : COUNTRY
SRVC.     Schlumberger of Canada : SERVICE COMPANY
DATE.                03-May-1960 : LOGDATE
PROV.                    Alberta : PROVINCE
UWI .           100062604715W500 : UNIQUE WELL ID
SLAT.WGS84         53.0817985535 : SURFACE LATITUDE
SLON.WGS84       -116.0888900757 : SURFACE LONGITUDE
~Curve Information -----------------------------------------
DEPT  .FT         : Depth Curve
CALMED.IN         : CALIPER FROM MICRO LOG [ADJ. TO EL LOG]
CALWS .IN         : CALIPER [MCALED SPL. TO CALMED @ 9383']
CILDED.MMHO       : CONDUCTIVITY FROM IL LOG
CONDWS.MMHO       : CONDUCTIVITY [1000/DRESWS]
DRESWS.OHMM       : DEEP RESISTIVITY [LNED]
DT1ED .US/F       : DELTA-T 1 FEET SPACING FROM SONIC LOG [ADJ. TO EL LOG/DTED]
DTED  .US/F       : DELTA-T 3 FEET SPACING FROM SONIC LOG [ADJ. TO EL LOG]
DTWS  .US/F       : COMPRESSIONAL SONIC [DTED]
GRSED .UgRa-Eq/T  : GAMMA RAY FROM SONIC LOG [ADJ. TO EL LOG]
GRWS  .GAPI       : GAMMA RAY [GRSED*16.50, GRWS (CSG+15) @ 9354'-9407']
ILDED .OHMM       : DEEP INDUCTION FROM IL LOG
LNED  .OHMM       : LONG NORMAL FROM EL LOG
LT18ED.OHMM       : LATERAL 18 FROM EL LOG
MCALED.IN         : CALIPER FROM MICRO LOG [ADJ. TO EL LOG]
MLLED .OHMM       : CALIPER FROM MICRO LOG [ADJ. TO EL LOG]
SNED  .OHMM       : SHORT NORMAL FROM EL LOG
SPR1ED.MV         : SPONTANEOUS POTENTIAL FROM IL LOG
SPRED .MV         : SPONTANEOUS POTENTIAL FROM EL LOG
SPWS  .MV         : SPONTANEOUS POTENTIAL [SPRED SPL. TO SPR1ED @ 9383', BASELINE 0 MV]
SRESWS.OHMM       : SHALLOW RESISTIVITY [SNED]
~Params ----------------------------------------------------
PD  .                    GND : PERMANENT DATUM
LMF .                    GND : LOG MEASURED FROM
DMF .                    GND : DRILLING MEASURED FROM
EGL .FT                 3857 : GROUND LEVEL
DATE.               05/03/60 : RUN DATE
RUN .                      2 : RUN NUMBER
DD  .FT                13975 : DEPTH DRILLER
DL  .FT                13965 : DEPTH LOGGER
BLI .FT                13960 : BOTTOM LOG INTERVAL
TLI .FT                 9389 : TOP LOG INTERVAL
CBD .FT                 9386 : CASING BOTTOM DRILLER
CBL .FT                 9389 : CASING BOTTOM LOGGER
BS  .IN                8.875 : BIT SIZE
BSD .FT                13975 : BIT SIZE AT DEPTH
DFT .                   LIME : DRILLING FLUID TYPE
DFD .                     10 : DRILLING FLUID DENSITY
DFV .                     96 : DRILLING FLUID VISCOSITY
DFPH.                     13 : DRILLING FLUID PH
RMS .OHMM               0.69 : RESISTIVITY MUD SAMPLE
MST .DEGF                 58 : MUD SAMPLE TEMPERATURE
RMF .OHMM                0.4 : RESISTIVITY MUD FILTRATE SAMPLE
MFST.DEGF                 70 : MUD FILTRATE SAMPLE TEMPERATURE
RMC .OHMM                0.7 : RESISTIVITY MUD CAKE
MCST.DEGF                 70 : MUD CAKE SAMPLE TEMPERATURE
RMB .OHMM               0.16 : RESISTIVITY MUD AT BHT
TCS .HRS                   5 : TIME CIRCULATED STOPPED
LUN .               DSU C 72 : LOGGING UNIT NUMBER
ENGI.                  JAMES : RECORDING ENGINEER
WITN.               SHERRIFF : WITNESSED BY
CLNT.                A2DTECH : CLIENT CODE
ORIG.            2" 5" PRINT : ORIGIN OF DATA
UWI .       100062604715W500 : UNIQUE WELL ID
DICO. A2D Technologies, Inc. : DIGITIZING COMPANY
~Other -----------------------------------------------------
TOOL RAN: IL-EL-SONIC-ML-MLL LOG RAN.
EL LOG ARE FROM SMALL SECTION @FR-5350'& 680'0-7600',8200'-8900'
SONIC LOG ARE FROM SMALL SECTION @ FR-5000'& 6800'-7900',8200'-9000'
~ASCII -----------------------------------------------------
# ...
 7300.00000    -999.25   16.29230    -999.25   41.26710   24.23250    -999.25   82.93420   82.93420    5.69480   93.96420    -999.25   24.23250   26.31220   16.29230    -999.25   11.09860    -999.25  -40.72680   -7.82610   11.09860
 7350.00000    -999.25   16.64680    -999.25   55.91340   17.88480    -999.25   76.85330   76.85330    4.74250   78.25120    -999.25   17.88480   25.44620   16.64680    -999.25    8.48040    -999.25  -39.71860   -6.77550    8.48040
 7400.00000    -999.25   16.54780    -999.25   79.73390   12.54230    -999.25   83.12650   83.12650    5.37030   88.60990    -999.25   12.54230   14.73150   16.54780    -999.25    6.44180    -999.25  -39.55430   -6.56910    6.44180
 7450.00000    -999.25   16.63390    -999.25   91.53740   10.92450    -999.25   85.62350   85.62350    5.39290   88.98280    -999.25   10.92450   14.53540   16.63390    -999.25    5.87500    -999.25  -40.06500   -7.03740    5.87500
 7500.00000    -999.25   16.69130    -999.25   91.95830   10.87450    -999.25   78.48360   78.48360    5.25040   86.63160    -999.25   10.87450   12.24870   16.69130    -999.25    6.19680    -999.25  -41.43070   -8.36100    6.19680
 7550.00000    -999.25   16.46830    -999.25   91.40300   10.94070    -999.25   80.38300   80.38300    5.13880   84.79020    -999.25   10.94070   12.26250   16.46830    -999.25    6.50290    -999.25  -45.51830  -12.40650    6.50290
 7600.00000    -999.25   16.12420    -999.25   97.07230   10.30160    -999.25   81.92500   81.92500    4.99300   82.38450    -999.25   10.30160   11.69380   16.12420    -999.25    6.21740    -999.25  -44.78120  -11.62700    6.21740
 7650.00000    -999.25   16.60100    -999.25   74.21710   13.47420    -999.25   76.95440   76.95440    5.14470   84.88840    -999.25   13.47420   13.47350   16.60100    -999.25    7.55040    -999.25  -48.08250  -14.88610    7.55040
 7700.00000    -999.25   16.50230    -999.25   93.59530   10.68430    -999.25   80.52910   80.52910    5.15610   85.07570    -999.25   10.68430   17.89040   16.50230    -999.25    6.05540    -999.25  -47.41390  -14.17510    6.05540
 7750.00000    -999.25   16.59820    -999.25   80.05960   12.49070    -999.25   80.14530   80.14530    5.42580   89.52570    -999.25   12.49070   15.26140   16.59820    -999.25    7.15060    -999.25  -47.42610  -14.14520    7.15060
 7800.00000    -999.25   16.67070    -999.25   91.24140   10.96000    -999.25   83.43060   83.43060    5.83780   96.32290    -999.25   10.96000   14.86870   16.67070    -999.25    6.72690    -999.25  -46.75070  -13.42770    6.72690
 7850.00000    -999.25   16.73200  188.83480   93.81830   10.65890    -999.25   83.12350   83.12350    5.90110   97.36810    5.17180   10.65890   14.01180   16.73200    -999.25    6.27150  -42.46520  -45.08040  -11.71500    6.27150
 7900.00000    -999.25   16.71540  201.64230  109.66380    9.11880   87.55490   86.01070   86.01070    5.37940   88.76090    5.09300    9.11880   10.12390   16.71540    -999.25    5.57200  -41.57200  -44.69800  -11.29050    5.57200
 7950.00000    -999.25   16.70030  137.22410   78.62070   12.71930   81.97290   80.13180   80.13180    4.66650   76.99730    7.72230   12.71930   16.78130   16.70030    -999.25    6.90640  -42.69560  -47.34800  -13.89810    6.90640
 8000.00000    -999.25   16.60890  116.96840   66.07900   15.13340   71.21770   77.83110   77.83110    5.97710   98.62220    9.34610   15.13340   16.49660   16.60890    -999.25    7.88420  -43.00500  -46.39120  -12.89910    7.88420
 8050.00000    -999.25   13.93730  101.81470   54.58970   18.31850   75.89510   74.40470   74.40470    4.60330   75.95360   10.05200   18.31850   24.14010   13.93730    -999.25    9.60420  -43.65080  -48.41300  -14.87880    9.60420
 8100.00000    -999.25   13.81180   88.24660   50.94170   19.63030   72.90290   73.03540   73.03540    4.20070   69.31160   11.67190   19.63030   26.63580   13.81180    -999.25    9.90690  -41.52700  -47.31740  -13.74080    9.90690
 8150.00000    -999.25   14.39850  116.29490   61.09100   16.36910   76.99230   76.83420   76.83420    5.56630   91.84400    9.02030   16.36910   22.91320   14.39850    -999.25    8.58460  -40.14580  -45.52290  -11.90420    8.58460
 8200.00000    -999.25   15.62770  129.86450   70.59450   14.16540   77.98150   79.16210   79.16210    5.19400   85.70100    8.11900   14.16540   17.56620   15.62770    -999.25    8.14100  -37.87720  -44.20660  -10.54550    8.14100
 8250.00000    -999.25   15.68580    -999.25   78.85130   12.68210    -999.25   83.35250   83.35250    5.88140   97.04310    -999.25   12.68210   14.60230   15.68580    -999.25    7.45700    -999.25  -44.32160  -10.61840    7.45700
 8300.00000    -999.25   15.14890    -999.25   78.16050   12.79420    -999.25   80.93450   80.93450    6.00460   99.07510    -999.25   12.79420   13.61220   15.14890    -999.25    7.71840    -999.25  -43.67540   -9.93000    7.71840
 8350.00000    -999.25   15.05570    -999.25   67.69880   14.77130    -999.25   79.67240   79.67240    5.56420   91.80930    -999.25   14.77130   15.71070   15.05570    -999.25    8.44300    -999.25  -41.72060   -7.93280    8.44300
 8400.00000    -999.25   14.96060    -999.25   70.02860   14.27990    -999.25   89.55640   89.55640    5.90120   97.36980    -999.25   14.27990   13.03940   14.96060    -999.25    8.44390    -999.25  -43.41410   -9.58420    8.44390
 8450.00000    -999.25   14.04880    -999.25   52.04050   19.21580    -999.25   86.08410   86.08410    6.12850  101.12030    -999.25   19.21580   22.89530   14.04880    -999.25   10.12900    -999.25  -43.89260  -10.02030   10.12900
 8500.00000    -999.25   14.07310    -999.25   59.11210   16.91700    -999.25   84.92610   84.92610    5.69840   94.02360    -999.25   16.91700   19.06330   14.07310    -999.25    9.76780    -999.25  -44.71190  -10.79750    9.76780
 8550.00000    -999.25   12.76060    -999.25   56.43710   17.71900    -999.25   87.13370   87.13370    6.03860   99.63690    -999.25   17.71900   18.93680   12.76060    -999.25    9.75640    -999.25  -44.13520  -10.17870    9.75640
 8600.00000    -999.25   12.79680    -999.25   58.28520   17.15700    -999.25   90.38460   90.38460    6.10220  100.68630    -999.25   17.15700   20.28610   12.79680    -999.25    9.47560    -999.25  -44.78070  -10.78180    9.47560
 8650.00000    -999.25   13.26310    -999.25   44.66320   22.39010    -999.25   91.08780   91.08780    5.62240   92.77040    -999.25   22.39010   24.35190   13.26310    -999.25   11.47880    -999.25  -44.19380  -10.15270   11.47880
 8700.00000    -999.25   13.22730    -999.25   35.26990   28.35280    -999.25   86.31300   86.31300    6.06680  100.10220    -999.25   28.35280   36.92020   13.22730    -999.25   13.59520    -999.25  -45.47890  -11.39540   13.59520
 8750.00000    -999.25   13.12560    -999.25   53.30920   18.75850    -999.25   88.27780   88.27780    5.05520   83.41080    -999.25   18.75850   26.65720   13.12560    -999.25    9.90400    -999.25  -43.05880   -8.93320    9.90400
 8800.00000    -999.25   14.68500    -999.25   67.08520   14.90700    -999.25   91.27000   91.27000    6.79900  112.18350    -999.25   14.90700   14.60040   14.68500    -999.25    8.38780    -999.25  -40.87040   -6.70270    8.38780
 8850.00000    -999.25   13.61950    -999.25   65.99270   15.15320    -999.25   91.05700   91.05700    6.80410  112.26770    -999.25   15.15320   20.25070   13.61950    -999.25    8.39660    -999.25  -40.84540   -6.63530    8.39660
 8900.00000    8.76690   13.31290    -999.25   76.69330   13.04010    -999.25   81.33790   81.33790    5.17460   85.38090    -999.25   13.04010    9.18650   13.31290    -999.25    7.89130    -999.25  -41.11750   -6.86530    7.89130
 8950.00000    8.77930   13.93460  176.20590   92.54030   10.80610    -999.25   83.71880   83.71880    6.07820  100.29030    6.15590   10.80610   19.61840   13.93460    -999.25    6.68730  -43.11100  -40.79560   -6.50100    6.68730
 9000.00000    8.79600   14.22430  214.66290  114.49380    8.73410    -999.25   85.21310   85.21310    5.55760   91.70040    4.84080    8.73410    9.83250   14.22430    -999.25    5.88830  -39.11180  -39.70880   -5.37210    5.88830
