~Version ---------------------------------------------------
VERS.      2.0 : CWLS log ASCII Standard -VERSION 2.0
WRAP.       NO : One line per depth step
CREA. 11/22/17 : LAS Creation Date
~Well ------------------------------------------------------
STRT.FT                              300.0 : START DEPTH
STOP.FT                            16950.0 : STOP DEPTH
STEP.FT                           50.00000 : STEP LENGTH
NULL.                              -999.25 : NULL VALUE
COMP.                        BANFF OIL LTD : COMPANY
WELL. BANFF AQUIT SIEBENS RAMR 14-21-37-11 : WELL
FLD .                                      : FIELD
LOC .                                      : LOCATION
CTRY.                               CANADA : COUNTRY
SRVC.                         Schlumberger : SERVICE COMPANY
DATE.                          21-Oct-1970 : LOGDATE
PROV.                              Alberta : PROVINCE
UWI .                     100142103711W500 : UNIQUE WELL ID
SLAT.WGS84                        52.19912 : SURFACE LATITUDE
SLON.WGS84                       -115.5164 : SURFACE LONGITUDE
~Curve Information -----------------------------------------
DEPT    .FT    : Depth Curve
CALDED  .IN    : CALIPER FROM DENSITY LOG [DEP. ADJ. TO ILMED]
CALNED  .IN    : CALIPER FROM NEUTRON LOG [DEP. ADJ. TO ILMED]
CALSED  .IN    : CALIPER FROM SONIC LOG [DEP. ADJ. TO ILMED]
CALWS   .IN    : CALIPER 148' CALSED 13012' CALNED 13190' CALDED 14980' CALSED 15315' CALDED 16246' CALSED]
CONDWS  .MMHO  : DEEP CONDUCTIVITY [1000/DRESWS]
DCORWS  .G/C3  : DENSITY CORRECTION [DRHOED]
DENWS   .G/C3  : BULK DENSITY [M=2.71, F=1.00] [RHOBED]
DPHILSED.V/V   : DENSITY POROSITY [M=2.71, F=1.00] FROM DENSITY LOG [DEP. ADJ. TO ILMED]
DPOLSWS .V/V   : DENSITY POROSITY [M=2.71, F=1.00] [CAL. FROM DENWS]
DRESWS  .OHMM  : DEEP RESISTIVITY [ILDED]
DRHOED  .G/C3  : DENSITY CORRECTION FROM DENSITY LOG [DEP. ADJ. TO ILMED]
DTED    .US/F  : DELTA TIME FROM SONIC LOG [DEP. ADJ. TO ILMED]
DTWS    .US/F  : DELTA TIME [DTED]
GRDED   .GAPI  : GAMMA RAY FROM DENSITY LOG [DEP. ADJ. TO ILMED]
GRNED   .GAPI  : GAMMA RAY FROM NEUTRON LOG [DEP. ADJ. TO ILMED]
GRSED   .GAPI  : GAMMA RAY FROM SONIC LOG [DEP. ADJ. TO ILMED]
GRWS    .GAPI  : GAMMA RAY [GRSED]
ILDED   .OHMM  : INDUCTION LOG DEEP RESISTIVITY
ILMED   .OHMM  : INDUCTION LOG MEDIUM RESISTIVITY
LL8ED   .OHMM  : 8 INCH LATEROLOG RESISTIVITY
MRESWS  .OHMM  : MEDIUM RESISTIVITY [ILMED]
NPOLSWS .V/V   : NEUTRON POROSITY LIMESTONE [SNPLSED]
RHOBED  .G/C3  : BULK DENSITY FROM DENSITY LOG [DEP. ADJ. TO ILMED]
SNPLSED .V/V   : SIDEWALL NEUTRON POROSITY [LIMESTONE] [DEP. ADJ. TO ILMED]
SPRED   .MV    : SPONTANEOUS POTENTIAL FROM RESIST. LOG [DIVIDED BY 2 BELOW 13778'], SHIFTS REMOVED, PATCHED]
SPWS    .MV    : SPONTANEOUS POTENTIAL [BASELINE 0 MV] [SPRED][PL. USE W/ RESERVATION]
SRESWS  .OHMM  : SHALLOW RESISTIVITY [LL8ED]
~Params ----------------------------------------------------
PD  .                     GL : PERMANENT DATUM
EPD .FT                 4914 : ELEVATION PERMANENT DATUM
LMF .                     KB : LOG MEASURED FROM
DAPD.FT                 18.7 : FEET ABOVE PERMANENT DATUM
EKB .FT               4932.7 : KELLY BUSHING
EGL .FT                 4914 : GROUND LEVEL
DATE.               10/21/70 : RUN DATE
RUN .                      4 : RUN NUMBER
DD  .FT                16960 : DEPTH DRILLER
DL  .FT                16960 : DEPTH LOGGER
BLI .FT                16954 : BOTTOM LOG INTERVAL
TLI .FT                16000 : TOP LOG INTERVAL
BS  .IN                8.375 : BIT SIZE
BSD .FT                16960 : BIT SIZE AT DEPTH
DFT .                    GEL : DRILLING FLUID TYPE
DFD .                   10.1 : DRILLING FLUID DENSITY
DFV .                     61 : DRILLING FLUID VISCOSITY
DFPH.                     10 : DRILLING FLUID PH
DFL .                    8.4 : DRILLING FLUID LOSS
MSS .               FLOWLINE : MUD SAMPLE SOURCE
RMS .OHMM               1.51 : RESISTIVITY MUD SAMPLE
MST .DEGF                 66 : MUD SAMPLE TEMPERATURE
RMF .OHMM               1.11 : RESISTIVITY MUD FILTRATE SAMPLE
MFST.DEGF                 70 : MUD FILTRATE SAMPLE TEMPERATURE
TCS .HRS                   4 : TIME CIRCULATED STOPPED
LUN .                   7002 : LOGGING UNIT NUMBER
LUL .                     RD : LOGGING UNIT LOCATION
ENGI.                 TALBOT : RECORDING ENGINEER
WITN.          LEMEE BRINKER : WITNESSED BY
CLNT.                A2DTECH : CLIENT CODE
ORIG.            2" 5" PRINT : ORIGIN OF DATA
UWI .       100142103711W500 : UNIQUE WELL ID
DICO. A2D Technologies, Inc. : DIGITIZING COMPANY
~Other -----------------------------------------------------
~ASCII -----------------------------------------------------
# ...
 9400.00000    -999.25    -999.25   14.71750   14.71750   43.94580    -999.25    -999.25    -999.25    -999.25   22.75530    -999.25  120.08670  120.08670    -999.25    -999.25   35.32840   35.32840   22.75530   14.87270    9.23280   14.87270    -999.25    -999.25    -999.25   69.06090  -15.25170    9.23280
 9450.00000    -999.25    -999.25   14.35890   14.35890   58.12230    -999.25    -999.25    -999.25    -999.25   17.20510    -999.25  122.93590  122.93590    -999.25    -999.25   42.49650   42.49650   17.20510    7.99630   13.71330    7.99630    -999.25    -999.25    -999.25   71.95550  -12.43630   13.71330
 9500.00000    -999.25    -999.25   14.04600   14.04600   46.61140    -999.25    -999.25    -999.25    -999.25   21.45400    -999.25   65.63050   65.63050    -999.25    -999.25   38.04660   38.04660   21.45400   22.74340   29.18020   22.74340    -999.25    -999.25    -999.25   60.89830  -23.57280   29.18020
 9550.00000    -999.25    -999.25   15.02110   15.02110   92.29090    -999.25    -999.25    -999.25    -999.25   10.83530    -999.25   81.65290   81.65290    -999.25    -999.25   48.48420   48.48420   10.83530   11.30580    9.79570   11.30580    -999.25    -999.25    -999.25   73.17990  -11.37040    9.79570
 9600.00000    -999.25    -999.25   15.04690   15.04690   81.80900    -999.25    -999.25    -999.25    -999.25   12.22360    -999.25   75.72720   75.72720    -999.25    -999.25   52.82830   52.82830   12.22360   11.87050   11.28100   11.87050    -999.25    -999.25    -999.25   74.27760  -10.35200   11.28100
 9650.00000    -999.25    -999.25   15.07420   15.07420  101.35200    -999.25    -999.25    -999.25    -999.25    9.86660    -999.25   87.62230   87.62230    -999.25    -999.25   56.18100   56.18100    9.86660    9.32250   10.57170    9.32250    -999.25    -999.25    -999.25   76.70310   -8.00570   10.57170
 9700.00000    -999.25    -999.25   15.10750   15.10750   89.13450    -999.25    -999.25    -999.25    -999.25   11.21900    -999.25   93.59380   93.59380    -999.25    -999.25   60.48550   60.48550   11.21900   11.59190   12.38030   11.59190    -999.25    -999.25    -999.25   74.96490   -9.82320   12.38030
 9750.00000    -999.25    -999.25   15.10850   15.10850   88.86910    -999.25    -999.25    -999.25    -999.25   11.25250    -999.25   83.04190   83.04190    -999.25    -999.25   58.39210   58.39210   11.25250   12.00470   10.66670   12.00470    -999.25    -999.25    -999.25   74.30170  -10.56560   10.66670
 9800.00000    -999.25    -999.25   15.05340   15.05340   68.85200    -999.25    -999.25    -999.25    -999.25   14.52390    -999.25   74.40830   74.40830    -999.25    -999.25   55.29570   55.29570   14.52390   14.16180   16.11050   14.16180    -999.25    -999.25    -999.25   72.94810  -11.99850   16.11050
 9850.00000    -999.25    -999.25   15.09200   15.09200   93.12200    -999.25    -999.25    -999.25    -999.25   10.73860    -999.25   76.39190   76.39190    -999.25    -999.25   55.35180   55.35180   10.73860   10.07900   12.24220   10.07900    -999.25    -999.25    -999.25   75.00700  -10.01890   12.24220
 9900.00000    -999.25    -999.25   14.91740   14.91740   87.32560    -999.25    -999.25    -999.25    -999.25   11.45140    -999.25   86.28090   86.28090    -999.25    -999.25   56.01580   56.01580   11.45140   11.24520   15.29230   11.24520    -999.25    -999.25    -999.25   74.51920  -10.58590   15.29230
 9950.00000    -999.25    -999.25   15.14880   15.14880   93.63030    -999.25    -999.25    -999.25    -999.25   10.68030    -999.25   77.46420   77.46420    -999.25    -999.25   54.99060   54.99060   10.68030    9.97960   12.13810    9.97960    -999.25    -999.25    -999.25   77.38450   -7.79990   12.13810
 10000.00000    -999.25    -999.25   14.84380   14.84380   89.16070    -999.25    -999.25    -999.25    -999.25   11.21570    -999.25   85.68950   85.68950    -999.25    -999.25   58.15010   58.15010   11.21570   12.56500   14.43410   12.56500    -999.25    -999.25    -999.25   78.18130   -7.08230   14.43410
 10050.00000    -999.25    -999.25   14.88740   14.88740   59.27470    -999.25    -999.25    -999.25    -999.25   16.87060    -999.25   75.90350   75.90350    -999.25    -999.25   59.31040   59.31040   16.87060   16.25750   19.94280   16.25750    -999.25    -999.25    -999.25   79.41720   -5.92570   19.94280
 10100.00000    -999.25    -999.25   14.81230   14.81230   53.80050    -999.25    -999.25    -999.25    -999.25   18.58720    -999.25   75.58770   75.58770    -999.25    -999.25   54.51660   54.51660   18.58720   17.78200   21.46520   17.78200    -999.25    -999.25    -999.25   78.92150   -6.50060   21.46520
 10150.00000    -999.25    -999.25   14.92950   14.92950   79.41990    -999.25    -999.25    -999.25    -999.25   12.59130    -999.25   78.36400   78.36400    -999.25    -999.25   59.70810   59.70810   12.59130   11.74860   13.69350   11.74860    -999.25    -999.25    -999.25   80.34060   -5.16080   13.69350
 10200.00000    -999.25    -999.25   14.38770   14.38770   88.35410    -999.25    -999.25    -999.25    -999.25   11.31810    -999.25   81.27220   81.27220    -999.25    -999.25   64.30370   64.30370   11.31810   10.57250   13.38530   10.57250    -999.25    -999.25    -999.25   80.94340   -4.63720   13.38530
 10250.00000    -999.25    -999.25   15.07150   15.07150   86.19870    -999.25    -999.25    -999.25    -999.25   11.60110    -999.25   78.42780   78.42780    -999.25    -999.25   55.99620   55.99620   11.60110   11.23080   13.55470   11.23080    -999.25    -999.25    -999.25   80.26030   -5.39960   13.55470
 10300.00000    -999.25    -999.25   15.04200   15.04200   84.26520    -999.25    -999.25    -999.25    -999.25   11.86730    -999.25   74.36040   74.36040    -999.25    -999.25   53.13840   53.13840   11.86730   11.65260   13.35670   11.65260    -999.25    -999.25    -999.25   78.62060   -7.11850   13.35670
 10350.00000    -999.25    -999.25   15.02280   15.02280  110.63170    -999.25    -999.25    -999.25    -999.25    9.03900    -999.25   76.85980   76.85980    -999.25    -999.25   53.87020   53.87020    9.03900    8.58930    9.99760    8.58930    -999.25    -999.25    -999.25   76.02960   -9.78880    9.99760
 10400.00000    -999.25    -999.25   15.03400   15.03400  115.73270    -999.25    -999.25    -999.25    -999.25    8.64060    -999.25   90.06100   90.06100    -999.25    -999.25   57.02060   57.02060    8.64060    7.87260   10.17100    7.87260    -999.25    -999.25    -999.25   74.81990  -11.07770   10.17100
 10450.00000    -999.25    -999.25   14.79900   14.79900  131.40780    -999.25    -999.25    -999.25    -999.25    7.60990    -999.25   77.81240   77.81240    -999.25    -999.25   52.53080   52.53080    7.60990    6.71280    8.38290    6.71280    -999.25    -999.25    -999.25   77.85500   -8.12190    8.38290
 10500.00000    -999.25    -999.25   15.01590   15.01590  132.27690    -999.25    -999.25    -999.25    -999.25    7.55990    -999.25   89.07880   89.07880    -999.25    -999.25   58.26520   58.26520    7.55990    6.57730    8.20480    6.57730    -999.25    -999.25    -999.25   78.38110   -7.67510    8.20480
 10550.00000    -999.25    -999.25   14.48980   14.48980   82.40490    -999.25    -999.25    -999.25    -999.25   12.13520    -999.25   72.98290   72.98290    -999.25    -999.25   55.44490   55.44490   12.13520   12.61520   12.85240   12.61520    -999.25    -999.25    -999.25   79.04170   -7.09370   12.85240
 10600.00000    -999.25    -999.25   15.00010   15.00010  143.42470    -999.25    -999.25    -999.25    -999.25    6.97230    -999.25   91.18320   91.18320    -999.25    -999.25   51.66220   51.66220    6.97230    6.03830    7.80230    6.03830    -999.25    -999.25    -999.25   78.45430   -7.76040    7.80230
 10650.00000    -999.25    -999.25   14.98250   14.98250  101.64150    -999.25    -999.25    -999.25    -999.25    9.83850    -999.25   81.41090   81.41090    -999.25    -999.25   52.41350   52.41350    9.83850    9.20810   10.15470    9.20810    -999.25    -999.25    -999.25   79.82780   -6.46610   10.15470
