~Version ---------------------------------------------------
VERS. 2.0 : CWLS log ASCII Standard -VERSION 2.0
WRAP.  NO : One line per depth step
~Well ------------------------------------------------------
STRT.m                          300.0 : START DEPTH
STOP.m                         4550.0 : STOP DEPTH
STEP.m                       50.00000 : STEP LENGTH
NULL.                         -999.25 : NULL VALUE
COMP.       GULF CANADA RESOURCES INC : COMPANY
WELL. GULF ET AL WILD RIVER 5-7-56-24 : WELL
FLD .                                 : FIELD
LOC .                                 : LOCATION
CTRY.                          CANADA : COUNTRY
SRVC.                    Schlumberger : SERVICE COMPANY
DATE.                     01-Jan-1981 : LOGDATE
PROV.                         Alberta : PROVINCE
UWI .                100050705624W502 : UNIQUE WELL ID
SLAT.WGS84                   53.82225 : SURFACE LATITUDE
SLON.WGS84                   -117.563 : SURFACE LONGITUDE
~Curve Information -----------------------------------------
DEPT    .m      : Depth Curve
CALDED  .MM     : CALIPER  CNFD (ADJ TO RES.)
CALSED  .MM     : CALIPER  SONIC
CALWS   .MM     : CALIPER (CALDED)
CILDED  .MMHO   : CONDUCTIVITY FROM LOG
CONDWS  .MMHO   : CONDUCTIVITY (1000/DRESWS)
DCORWS  .KG/M3  : DENSITY CORRECTION (DRHOED)
DENWS   .KG/M3  : BULK DENSITY  (RHOBED<3440>FROM DPHILSED
DPHILSED.V/V    : DENSITY POROSITY SANDSTONE  (ADJ TO RES.)
DPHISSED.V/V    : DENSITY POROSITY LIMESTONE (ADJ TO RES.)
DPOLSWS .V/V    : DENSITY POROSITY (M=2710 F=1000 DPHILSED<3440>FROM DENWS)
DRESWS  .OHMM   : DEEP RESISTIVITY (ILDED)
DRHOED  .KG/M3  : DENSITY CORRECTION (ADJ TO RES.)
DTED    .US/F   : DELTA TIME
DTWS    .US/F   : DELTA TIME  (DTED)
GRDED   .GAPI   : GAMMA RAY  CNFD (ADJ TO RES.)
GRSED   .GAPI   : GAMMA RAY  SONIC
GRWS    .GAPI   : GAMMA RAY (GRDED/GRSED/GRDED @ 2647,2807)ADJUSTED IN CASING
ILDED   .OHMM   : DEEP INDUCTION RESISTIVITY
ILMED   .OHMM   : MEDIUM INDUCTION RESISTIVITY
MRESWS  .OHMM   : MEDIUM RESISTIVITY (ILMED)
NPHILSED.V/V    : NEUTRON POROSITY LIMESTONE (ADJ TO RES.)
NPHISSED.V/V    : NEUTRON POROSITY SANDSTONE (ADJ TO RES.)
NPOLSWS .V/V    : NEUTRON POROSITY LIMESTONE (NPHISSED CONVERTED TO LS<3440>NPHILSED)
RHOBED  .KG/M3  : BULK DENSITY ADJUSTED TO DPHISSED AND DPHILSED
SFLED   .OHMM   : SPHERICALLY FOCUSED RESISTIVITY
SPRED   .MV     : Spontaneous Potential  DIL
SPWS    .MV     : SPONTANEOUS POTENTIAL (SPRED) BASELINE 0 MV
SRESWS  .OHMM   : SHALLOW RESISTIVITY (SFLED)
~Params ----------------------------------------------------
PD  .                         GL : PERMANENT DATUM
EPD .M                    1096.4 : ELEVATION PERMANENT DATUM
LMF .                         KB : LOG MEASURED FROM
DAPD.M                       7.3 : FEET ABOVE PERMANENT DATUM
DMF .                         KB : DRILLING MEASURED FROM
EKB .M                    1103.7 : KELLY BUSHING
EGL .M                    1096.4 : GROUND LEVEL
DATE.                   01/01/81 : RUN DATE
RUN .                          2 : RUN NUMBER
DD  .M                      4578 : DEPTH DRILLER
DL  .M                      4576 : DEPTH LOGGER
BLI .M                      4575 : BOTTOM LOG INTERVAL
TLI .M                      2808 : TOP LOG INTERVAL
CS  .MM                      244 : CASING SIZE
CBD .M                      2810 : CASING BOTTOM DRILLER
CBL .M                      2808 : CASING BOTTOM LOGGER
BS  .MM                      215 : BIT SIZE
BSD .M                      4578 : BIT SIZE AT DEPTH
DFT .                   GEL CHEM : DRILLING FLUID TYPE
DFD .                       1285 : DRILLING FLUID DENSITY
DFV .                         95 : DRILLING FLUID VISCOSITY
DFPH.                         10 : DRILLING FLUID PH
DFL .                        7.5 : DRILLING FLUID LOSS
MSS .                CIRCULATION : MUD SAMPLE SOURCE
RMS .OHMM                   1.45 : RESISTIVITY MUD SAMPLE
MST .DEGC                   21.1 : MUD SAMPLE TEMPERATURE
RMF .OHMM                   0.89 : RESISTIVITY MUD FILTRATE SAMPLE
MFST.DEGC                   21.1 : MUD FILTRATE SAMPLE TEMPERATURE
RMC .OHMM                    1.6 : RESISTIVITY MUD CAKE
MCST.DEGC                   20.0 : MUD CAKE SAMPLE TEMPERATURE
MFSS.                      PRESS : MUD FILTRATE SAMPLE SOURCE
MCSS.                       MEAS : MUD CAKE SAMPLE SOURCE
RMB .OHMM                    0.4 : RESISTIVITY MUD AT BHT
TCS .HRS                    1630 : TIME CIRCULATED STOPPED
TLAB.HRS                     700 : TIME LOGGER AT BOTTOM
LUN .                       8108 : LOGGING UNIT NUMBER
LUL .                      EDSON : LOGGING UNIT LOCATION
ENGI.                   CHALMERS : RECORDING ENGINEER
WITN.           ELLIS TODDINGTON : WITNESSED BY
CLNT.                    A2DTECH : CLIENT CODE
ORIG. 6.5"/100M 16.5"/100M PRINT : ORIGIN OF DATA
UWI .           100050705624W502 : UNIQUE WELL ID
DICO.     A2D Technologies, Inc. : DIGITIZING COMPANY
~Other -----------------------------------------------------
~ASCII -----------------------------------------------------
# ...
 1550.00000  326.76310  333.89930  326.76310    -999.25   17.38730   59.47850 2056.09890    -999.25    0.36790    0.38240   57.51340   59.47850  192.02290  192.02290   52.27830   63.77580   52.27830   57.51340   33.57560   33.57560    -999.25    0.20130    0.27210 2056.09890   43.05490  -51.69490  -19.85280   43.05490
 1600.00000  449.59610  360.14440  449.59610    -999.25   35.61560   83.69730 1864.28540    -999.25    0.47260    0.49460   28.07760   83.69730  238.38250  238.38250   71.45130   87.97460   71.45130   28.07760   26.62810   26.62810    -999.25    0.21790    0.28680 1864.28540   25.15260  -46.29630  -14.45420   25.15260
 1650.00000  448.22130  367.41980  448.22130    -999.25   41.88460   86.39400 1807.11320    -999.25    0.43170    0.52800   23.87510   86.39400  283.68950  283.68950   53.72840   63.93840   53.72840   23.87510   12.22480   12.22480    -999.25    0.51010    0.52510 1807.11320   12.93400  -44.10580   10.65180   12.93400
 1700.00000  492.25870  368.48360  492.25870    -999.25   41.83020   -6.52880 2017.05480    -999.25    0.27870    0.40520   23.90620   -6.52880  233.78370  233.78370   54.42940   59.87670   54.42940   23.90620   21.82960   21.82960    -999.25    0.32340    0.37310 2017.05480   20.17200  -40.18550   21.15540   20.17200
 1750.00000  492.49320  333.22430  492.49320    -999.25   13.98410   44.07410 1870.02830    -999.25    0.47770    0.49120   71.50990   44.07410  231.56550  231.56550   50.39530   61.32630   50.39530   71.50990   21.35140   21.35140    -999.25    0.27900    0.33810 1870.02830   32.47210  -47.70360   15.17200   32.47210
 1800.00000  492.32250  369.58700  492.32250    -999.25   40.60140   81.16590 1882.58520    -999.25    0.54190    0.48390   24.62970   81.16590  249.27640  249.27640   61.37320   70.25800   61.37320   24.62970   16.53660   16.53660    -999.25    0.50160    0.51660 1882.58520    9.81380  -20.04940   44.36090    9.81380
 1850.00000  391.27440  334.56870  391.27440    -999.25   20.37050   42.98050 1763.96560    -999.25    0.54100    0.55320   49.09050   42.98050  221.24300  221.24300   57.83330   63.24570   57.83330   49.09050   45.26390   45.26390    -999.25    0.26360    0.32550 1763.96560   48.47110  -36.61350   29.33150   48.47110
 1900.00000  404.99820  335.29600  404.99820    -999.25    7.70160   64.75100 2389.16360    -999.25    0.15250    0.18760  129.84360   64.75100  203.78420  203.78420   36.70490   47.35450   36.70490  129.84360   67.86520   67.86520    -999.25    0.13820    0.21430 2389.16360  100.86890  -58.49250    8.98720  100.86890
 1950.00000  430.70540  334.67320  430.70540    -999.25   33.03220  142.19510 2147.46700    -999.25    0.30310    0.32900   30.27350  142.19510  240.01590  240.01590   91.73370  109.92650   91.73370   30.27350   24.59590   24.59590    -999.25    0.26030    0.32280 2147.46700   30.03140  -48.77420    9.69050   30.03140
 2000.00000  412.05540  343.83590  412.05540    -999.25   48.67390   11.38830 1647.92630    -999.25    0.59420    0.62110   20.54490   11.38830  238.47070  238.47070   90.24020   94.36620   90.24020   20.54490   16.17070   16.17070    -999.25    0.33940    0.38530 1647.92630   17.80460  -43.36370  -22.83740   17.80460
 2050.00000  352.91680  351.66420  352.91680    -999.25   37.54050   37.46420 2030.25520    -999.25    0.39180    0.39750   26.63790   37.46420  248.35370  248.35370  101.67450  108.04730  101.67450   26.63790   24.77420   24.77420    -999.25    0.30150    0.35600 2030.25520   31.70680  -39.60710  -19.08080   31.70680
 2100.00000  492.35510  335.41450  492.35510    -999.25   65.67370   46.05230 2057.78130    -999.25    0.45480    0.38140   15.22680   46.05230  265.38350  265.38350   86.68620  103.68370   86.68620   15.22680   15.38130   15.38130    -999.25    0.37540    0.41210 2057.78130   16.03770  -43.30830  -22.78200   16.03770
 2150.00000  492.22120  357.87340  492.22120    -999.25   99.47380    7.45790 1802.17410    -999.25    0.53650    0.53090   10.05290    7.45790  281.86760  281.86760   76.06270  113.51180   76.06270   10.05290    7.82450    7.82450    -999.25    0.46190    0.47690 1802.17410    8.32390  -38.01780  -17.49150    8.32390
 2200.00000  492.45800  339.02740  492.45800    -999.25   21.60570  174.90930 2280.86500    -999.25    0.22040    0.25100   46.28400  174.90930  204.53490  204.53490   64.98740   73.68890   64.98740   46.28400   41.80510   41.80510    -999.25    0.12130    0.19760 2280.86500   44.79900  -48.01590  -27.48960   44.79900
 2250.00000  492.52870  317.91610  492.52870    -999.25   73.62630  110.42810 2566.64360    -999.25    0.04670    0.08380   13.58210  110.42810  242.78650  242.78650  104.38680  113.07960  104.38680   13.58210   13.31450   13.31450    -999.25    0.21750    0.28640 2566.64360   11.99390  -49.81870  -29.29240   11.99390
 2300.00000  310.93330  326.98190  310.93330    -999.25    7.79880   97.45650 2262.01760    -999.25    0.23590    0.26200  128.22530   97.45650  212.22430  212.22430   32.86380   39.94920   32.86380  128.22530   72.08870   72.08870    -999.25    0.07330    0.14660 2262.01760  128.20530  -74.70310  -54.17680  128.20530
 2350.00000  324.23280  339.82100  324.23280    -999.25   50.88930   78.44920 2037.83000    -999.25    0.37430    0.39310   19.65050   78.44920  226.66820  226.66820   95.28150  110.94850   95.28150   19.65050   18.74070   18.74070    -999.25    0.31820    0.36910 2037.83000   21.46020  -39.51060  -18.98430   21.46020
 2400.00000  356.77510  341.70820  356.77510    -999.25   55.16390   58.66170 1813.13060    -999.25    0.46600    0.52450   18.12780   58.66170  245.65670  245.65670   84.47470   96.46470   84.47470   18.12780   15.78570   15.78570    -999.25    0.37300    0.41040 1813.13060   17.95780  -40.23430  -19.70800   17.95780
 2450.00000  341.36990  356.87920  341.36990    -999.25   72.73570   -8.90790 1570.61720    -999.25    0.66010    0.66630   13.74840   -8.90790  273.12600  273.12600   89.46100  108.11980   89.46100   13.74840   11.39710   11.39710    -999.25    0.48310    0.49810 1570.61720   13.05100  -43.73470  -23.20840   13.05100
 2500.00000  459.69140  358.58070  459.69140    -999.25   65.54110   32.41100 1729.34350    -999.25    0.50980    0.57350   15.25760   32.41100  272.50500  272.50500   78.76760   86.56540   78.76760   15.25760   10.41460   10.41460    -999.25    0.53330    0.54830 1729.34350   13.86880  -43.60090  -23.07460   13.86880
 2550.00000  388.09100  368.30700  388.09100    -999.25   89.09560   16.37990 1653.98440    -999.25    0.58760    0.61760   11.22390   16.37990  299.56160  299.56160   86.67260   95.59460   86.67260   11.22390    8.93340    8.93340    -999.25    0.41830    0.44300 1653.98440   11.91490  -40.46190  -19.93560   11.91490
 2600.00000  492.56510  370.15030  492.56510    -999.25   99.80640    5.62930 1659.76540    -999.25    0.58790    0.61420   10.01940    5.62930  349.25630  349.25630   74.13420   64.32520   74.13420   10.01940    5.65400    5.65400    -999.25    0.58010    0.59510 1659.76540    9.12940  -38.73020  -18.20390    9.12940
 2650.00000  407.36410  365.00380  407.36410    -999.25   75.50080  189.89820 2405.16190    -999.25    0.14780    0.17830   13.24490  189.89820  284.40180  284.40180  105.59100   92.55720   92.55720   13.24490   12.48350   12.48350    -999.25    0.43130    0.45210 2405.16190   14.40100  -39.32020  -18.79390   14.40100
 2700.00000    -999.25  323.43750    -999.25    -999.25  102.91980    -999.25    -999.25    -999.25    -999.25    -999.25    9.71630    -999.25  246.53070  246.53070    -999.25  102.35080  102.35080    9.71630    8.72140    8.72140    -999.25    -999.25    -999.25    -999.25    9.41050  -37.24680  -16.07760    9.41050
 2750.00000    -999.25  346.21440    -999.25    -999.25  164.97570    -999.25    -999.25    -999.25    -999.25    -999.25    6.06150    -999.25  281.35530  281.35530    -999.25   95.49830   95.49830    6.06150    5.61170    5.61170    -999.25    -999.25    -999.25    -999.25    6.33310  -35.79270  -13.52280    6.33310
