~Version ---------------------------------------------------
VERS.      2.0 : CWLS log ASCII Standard -VERSION 2.0
WRAP.       NO : One line per depth step
CREA. 09/29/14 : LAS Creation Date
~Well ------------------------------------------------------
STRT.M                        450.0 : START DEPTH
STOP.M                       3300.0 : STOP DEPTH
STEP.M                     50.00000 : STEP LENGTH
NULL.                       -999.25 : NULL VALUE
COMP.    MURPHY OIL COMPANY LIMITED : COMPANY
WELL. MURPHY ET AL ANTE 14-23-67-24 : WELL
FLD .                               : FIELD
LOC .                               : LOCATION
CTRY.                        CANADA : COUNTRY
SRVC.                       Unknown : SERVICE COMPANY
DATE.                   27-Apr-1984 : LOGDATE
PROV.                       Alberta : PROVINCE
UWI .              100142306724W500 : UNIQUE WELL ID
SLAT.WGS84                 54.81812 : SURFACE LATITUDE
SLON.WGS84                -117.5484 : SURFACE LONGITUDE
~Curve Information -----------------------------------------
DEPT    .M      : Depth Curve
C2DED   .MM     : CALIPER FROM DENSITY LOG
CALDED  .MM     : CALIPER FROM DENSITY LOG
CALSED  .MM     : CALIPER FROM SONIC LOG
CALWS   .MM     : CALIPER [CALDED]
CONDWS  .MMHO   : CONDUCTIVITY [1000/DRESWS]
DCORWS  .KG/M3  : DENSITY CORRECTION [DRHOED SPL. TO DRHORED FROM 1027-1075M & 1340-1406M]
DENWS   .KG/M3  : FORMATION BULK DENSITY [CALC. FROM DPOLSWS,M=2710,F=1000]
DPHILSED.V/V    : DENSITY POROSITY LIMESTONE [M=2710,F=1000] FROM DENSITY LOG
DPHISSED.V/V    : DENSITY POROSITY SANDSTONE [M=2650,F=1000] FROM DENSITY LOG
DPOLSWS .V/V    : DENSITY POROSITY LIMESTONE [DPHISSED CONVERTED TO LIMESTONE MATRIX, M=2710 F=1000 SPL.TO DPHILSED @ 1975M]
DRESWS  .OHMM   : DEEP RESISTIVITY [ILDED]
DRHOED  .KG/M3  : DENSITY CORRECTION FROM DENSITY LOG [ADJ. TO DPHISSED/DPHILSED]
DRHORED .KG/M3  : DENSITY CORRECTION (OVERLAP SECTION) FROM DENSITY LOG [ADJ. TO RESISTIVITY LOG]
DTED    .US/M   : 3-4 FT COMPENSATED SONIC FROM SONIC LOG
DTWS    .US/M   : COMPRESSIONAL SONIC [DTED]
GRDED   .GAPI   : GAMMA RAY FROM DENSITY LOG
GRRED   .GAPI   : GAMMA RAY FROM RESISTIVITY LOG
GRSED   .GAPI   : GAMMA RAY FROM SONIC LOG
GRWS    .GAPI   : GAMMA RAY [GRRED SPL. TO GRDED @ 3315M]
ILDED   .OHMM   : DEEP INDUCTION LOG RESISTIVITY FROM RESISTIVITY LOG
ILMED   .OHMM   : MEDIUM INDUCTION LOG RESISTIVITY FROM RESISTIVITY LOG
MRESWS  .OHMM   : MEDIUM RESISTIVITY [ILMED]
NPHILSED.V/V    : NEUTRON POROSITY LIMESTONE FROM DENSITY LOG
NPHISSED.V/V    : NEUTRON POROSITY SANDSTONE FROM DENSITY LOG
NPOLSWS .V/V    : NEUTRON POROSITY LIMESTONE [NPHISSED MATRIX (SLB) CONVERSION FOR LIMESTONE, SPL.TO NPHILSED @ 2104M]
PEFED   .V/V    : PHOTOELECTRIC FACTOR FROM DENSITY LOG
PEFWS   .B/E    : PHOTOELECTRIC FACTOR [PEFED]
RHOBED  .KG/M3  : BULK DENSITY FROM DENSITY LOG [ADJ. TO DPHISSED/DPHILSED]
RHOBRED .KG/M3  : BULK DENSITY (OVERLAP SECTION) FROM DENSITY LOG [ADJ. TO RESISTIVITY LOG]
SFLUED  .OHMM   : SHALLOW FOCUSSED LOG RESISTIVITY FROM RESISTIVITY LOG
SPRED   .MV     : SPONTANEOUS POTENTIAL FROM RESISTIVITY
SPWS    .MV     : SPONTANEOUS POTENTIAL [BASELINE 0 MV, SPRED]
SRESWS  .OHMM   : SHALLOW RESISTIVITY [SFLUED]
TENDED  .N      : TENSION FROM DENSITY LOG
TENRED  .N      : TENSION FROM RESISTIVITY LOG
~Params ----------------------------------------------------
PD  .                          GL : PERMANENT DATUM
EPD .M                      778.7 : ELEVATION PERMANENT DATUM
LMF .                          KB : LOG MEASURED FROM
DAPD.M                          7 : FEET ABOVE PERMANENT DATUM
DMF .                          KB : DRILLING MEASURED FROM
EKB .M                      785.7 : KELLY BUSHING
EDF .M                      785.7 : DRILLING FLOOR
EGL .M                      778.7 : GROUND LEVEL
DATE.                    04/27/84 : RUN DATE
RUN .                           1 : RUN NUMBER
DD  .M                       3337 : DEPTH DRILLER
DL  .M                       3336 : DEPTH LOGGER
BLI .M                       3335 : BOTTOM LOG INTERVAL
TLI .M                        448 : TOP LOG INTERVAL
CS  .MM                     339.7 : CASING SIZE
CBD .M                        448 : CASING BOTTOM DRILLER
CBL .M                        448 : CASING BOTTOM LOGGER
BSD .M                       3337 : BIT SIZE AT DEPTH
DFT .                    GEL CHEM : DRILLING FLUID TYPE
DFD .                        1320 : DRILLING FLUID DENSITY
DFV .                          80 : DRILLING FLUID VISCOSITY
DFPH.                        10.5 : DRILLING FLUID PH
DFL .                         7.8 : DRILLING FLUID LOSS
MSS .                    FLOWLINE : MUD SAMPLE SOURCE
RMS .OHMM                   1.365 : RESISTIVITY MUD SAMPLE
MST .DEGC                      19 : MUD SAMPLE TEMPERATURE
RMF .OHMM                   0.727 : RESISTIVITY MUD FILTRATE SAMPLE
MFST.DEGC                    17.5 : MUD FILTRATE SAMPLE TEMPERATURE
RMC .OHMM                   0.297 : RESISTIVITY MUD CAKE
MCST.DEGC                      74 : MUD CAKE SAMPLE TEMPERATURE
MFSS.                   WATERLOSS : MUD FILTRATE SAMPLE SOURCE
RMB .OHMM                    0.58 : RESISTIVITY MUD AT BHT
TCS .HRS                     2130 : TIME CIRCULATED STOPPED
TLAB.HRS                      330 : TIME LOGGER AT BOTTOM
LUN .                        8204 : LOGGING UNIT NUMBER
LUL .                          GP : LOGGING UNIT LOCATION
ENGI.                     KRIBERG : RECORDING ENGINEER
WITN.                        HECK : WITNESSED BY
CLNT.                     A2DTECH : CLIENT CODE
ORIG. 6.5"/100M  16.5"/100M PRINT : ORIGIN OF DATA
UWI .            100142306724W500 : UNIQUE WELL ID
DICO.      A2D Technologies, Inc. : DIGITIZING COMPANY
~Other -----------------------------------------------------
DIL-BHC TOOLS RUN IN COMBO. & CNLD TOOL RUN
RHOBED,DRHOED,RHOBRED, & DRHORED FROM TOP TO BOTTOM FROM 2" SCALE SECTION.
RHOBRED, DRHORED FROM OVERLAP SECTION
GRSED DUPLICATE WITH GRRED
~ASCII -----------------------------------------------------
# ...
 1500.00000  226.86180  221.49870  214.30000  221.49870   99.39070   62.65530 2415.20500    -999.25    0.14230    0.17240   10.06130   62.65530    -999.25  241.19890  241.19890   20.73550   31.10910   31.18500   31.10910   10.06130   12.81100   12.81100    -999.25    0.19630    0.15290    3.97790    3.97790 2413.05220    -999.25   15.75710 -300.50410  -70.36850   15.75710 13464.83790 5736.74660
 1550.00000  280.84040  306.00830  295.55000  306.00830   16.24970   21.57720 1486.09000    -999.25    0.70540    0.71570   61.53960   21.57720    -999.25  473.30680  473.30680   21.73750   28.08940   28.86000   28.08940   61.53960   61.37790   61.37790    -999.25    0.67030    0.64130    1.53590    1.53590 1481.62400    -999.25  188.67100 -265.83780  -22.80180  188.67100 13800.38670 6072.28910
 1600.00000  289.78180  305.18580  293.75000  305.18580  111.12960   24.16280 2543.90500    -999.25    0.06430    0.09710    8.99850   24.16280    -999.25  252.29790  252.29790   58.30110   77.37550   76.54500   77.37550    8.99850    8.80240    8.80240    -999.25    0.29450    0.25050    3.81940    3.81940 2546.18970    -999.25    8.56840 -256.49850  -14.58080    8.56840 14114.30860 6422.83890
 1650.00000  252.82670  268.82340  254.02500  268.82340  111.52750  181.48380 2529.71500    -999.25    0.07290    0.10540    8.96640  181.48380    -999.25  257.64750  257.64750   49.94650   55.65540   56.28000   55.65540    8.96640    9.99780    9.99780    -999.25    0.27640    0.23240    4.08240    4.08240 2545.15140    -999.25   11.26730 -277.34190  -36.54240   11.26730 14279.01660 6663.50150
 1700.00000  326.98880  333.40990  302.07500  333.40990  109.44990   43.29400 2496.05500    -999.25    0.09330    0.12510    9.13660   43.29400    -999.25  253.86120  253.86120   54.19910   60.31340   59.29500   60.31340    9.13660    8.70770    8.70770    -999.25    0.28910    0.24510    3.60600    3.60600 2517.04520    -999.25    8.65810 -264.29060  -26.07840    8.65810 14925.50680 6721.13380
 1750.00000  315.11590  342.29080  314.35000  342.29080   61.17970   68.50150 2070.52000    -999.25    0.35120    0.37400   16.34530   68.50150    -999.25  298.30510  298.30510   70.14940   82.37610   82.41000   82.37610   16.34530   14.58190   14.58190    -999.25    0.52610    0.48760    2.92950    2.92950 2221.35500    -999.25   21.84540 -242.51450  -10.41740   21.84540 15165.43950 6935.29640
 1800.00000  322.92390  362.56700  325.72500  362.56700  157.35640  246.24280 2268.02500    -999.25    0.23150    0.25850    6.35500  246.24280    -999.25  255.87600  255.87600   74.59920   71.36350   70.54500   71.36350    6.35500    6.18650    6.18650    -999.25    0.39750    0.35460    3.42060    3.42060 2303.37060    -999.25    7.05330 -237.80750  -11.82550    7.05330 15367.93070 7083.41360
 1850.00000  279.85370  334.59200  295.25000  334.59200  385.90670  184.22170 2090.48500    -999.25    0.33910    0.36230    2.59130  184.22170    -999.25  368.15730  368.15730   71.27110   85.56030   86.46000   85.56030    2.59130    2.29640    2.29640    -999.25    0.55280    0.51580    4.74130    4.74130 2125.35400    -999.25    2.68550 -247.48370  -46.09050    2.68550 15690.21580 7047.85940
 1900.00000  318.98390  298.96090  306.32500  298.96090   78.33920   16.51980 2564.20000    -999.25    0.05200    0.08530   12.76500   16.51980    -999.25  222.99790  222.99790   56.20650   63.82980   65.32500   63.82980   12.76500   13.13480   13.13480    -999.25    0.18910    0.14580    3.13140    3.13140 2563.52270    -999.25   15.09270 -192.64750  -25.96650   15.09270 15628.82910 7251.67190
 1950.00000  294.69380  299.67630  291.72500  299.67630   86.48570   25.40620 2664.02500    -999.25   -0.00850    0.02690   11.56260   25.40620    -999.25  221.03680  221.03680   76.24080   81.61150   85.03500   81.61150   11.56260   11.63980   11.63980    -999.25    0.18640    0.14320    3.96380    3.96380 2666.79220    -999.25    9.55350 -190.28990  -53.42190    9.55350 15767.87210 7585.90230
 2000.00000  315.50810  298.61770  292.77500  298.61770   50.45000   26.28340 2695.80700    0.00830   -0.01540    0.00830   19.82160   26.28340    -999.25  208.60290  208.60290   74.86170   84.78240   83.34000   84.78240   19.82160   20.01620   20.01620    0.15820    0.17110    0.12810    4.01750    4.01750 2696.56230    -999.25   21.07730 -202.90990  -68.11370   21.07730 15988.64060 7877.10160
 2050.00000  269.38950  292.25200  270.77500  292.25200   68.89660   30.96830 2617.48900    0.05410   -0.00970    0.05410   14.51450   30.96830    -999.25  214.01810  214.01810   30.40320   37.14160   37.72500   37.14160   14.51450   16.82040   16.82040    0.14890    0.15210    0.10950    3.43060    3.43060 2628.55590    -999.25   19.19030 -189.87170  -57.14730   19.19030 16028.47560 8021.67580
 2100.00000  257.01760  265.31360  257.22500  265.31360   15.00380   25.21570 2876.21200   -0.09720   -0.12150   -0.09720   66.64960   25.21570    -999.25  155.79990  155.79990   20.27840   17.64430   18.97500   17.64430   66.64960   84.09190   84.09190    0.01750    0.03750    0.00660    4.29590    4.29590 2875.39330    -999.25  563.86380 -225.65120  -94.99860  563.86380 16567.93160 8351.11720
 2150.00000  261.72130  274.78970  261.22500  274.78970    5.75620   19.91400 2824.57000   -0.06700    -999.25   -0.06700  173.72660   19.91400    -999.25  159.22310  159.22310   17.03390   18.49250   19.60500   18.49250  173.72660  184.19280  184.19280    0.03190    -999.25    0.03190    4.23460    4.23460 2826.23100    -999.25  411.32030 -172.43040  -45.96540  411.32030 17311.32620 8650.62600
 2200.00000  251.94860  278.89900  268.67500  278.89900   64.36700   66.69130 2726.75800   -0.00980    -999.25   -0.00980   15.53590   66.69130    -999.25  168.37710  168.37710   20.70000   20.64250   21.96000   20.64250   15.53590   17.56430   17.56430    0.13760    -999.25    0.13760    5.30630    5.30630 2748.49930    -999.25   36.64590 -227.21730 -106.20400   36.64590 17425.86720 8991.78030
 2250.00000  262.75250  287.55760  288.50000  287.55760   51.82740   17.87600 2791.22500   -0.04750    -999.25   -0.04750   19.29480   17.87600    -999.25  183.67930  183.67930   49.36000   57.05370   56.02500   57.05370   19.29480   21.39650   21.39650    0.06870    -999.25    0.06870    3.91350    3.91350 2792.94140    -999.25   21.88210 -132.42380  -16.35250   21.88210 17831.04300 9507.05080
 2300.00000  225.29180  286.74570  263.37500  286.74570   24.86700   74.62840 2740.95100   -0.01810    -999.25   -0.01810   40.21390   74.62840    -999.25  163.81470  163.81470   26.85130   28.55090   30.42000   28.55090   40.21390   43.61450   43.61450    0.04200    -999.25    0.04200    5.56690    5.56690 2731.32840    -999.25   94.33970 -201.12730  -86.05610   94.33970 18066.65040 9702.17090
 2350.00000  240.72530  259.72470  257.85000  259.72470    0.96640   15.89360 2855.86300   -0.08530    -999.25   -0.08530 1034.71740   15.89360    -999.25  152.68650  152.68650   11.76490   12.74540   13.32000   12.74540 1034.71740  334.39890  334.39890    0.00890    -999.25    0.00890    5.12810    5.12810 2853.92500    -999.25 1907.50880 -216.61320 -102.54220 1907.50880 18175.41020 9365.11910
 2400.00000  265.19770  368.72040  266.02500  368.72040   75.06610  187.21070 2201.78800    0.29720    -999.25    0.29720   13.32160  187.21070    -999.25  225.64410  225.64410   66.56560   70.39250   71.41500   70.39250   13.32160   13.42660   13.42660    0.21930    -999.25    0.21930    9.30020    9.30020 2171.05470    -999.25   19.52530 -291.73340 -178.66250   19.52530 18706.17580 10085.86330
 2450.00000  236.75640  253.70070  245.95000  253.70070    3.25270   37.85170 2858.77000   -0.08700    -999.25   -0.08700  307.43960   37.85170    -999.25  157.43570  157.43570   15.12270   17.52180   17.52000   17.52180  307.43960  232.74320  232.74320    0.01640    -999.25    0.01640    4.54490    4.54490 2851.95950    -999.25 1115.36110 -316.75570 -204.68500 1115.36110 19216.58200 10515.94730
 2500.00000  232.15230  234.14300  225.40000  234.14300   52.36210   14.58120 2774.98000   -0.03800    -999.25   -0.03800   19.09780   14.58120    -999.25  181.08630  181.08630   33.85640   34.46620   34.68000   34.46620   19.09780   19.65620   19.65620    0.07380    -999.25    0.07380    4.51590    4.51590 2775.48410    -999.25   21.53910 -249.13890 -138.06830   21.53910 19477.22850 10432.00490
