~Version ---------------------------------------------------
VERS.      2.0 : CWLS log ASCII Standard -VERSION 2.0
WRAP.       NO : One line per depth step
CREA. 12/12/17 : LAS Creation Date
~Well ------------------------------------------------------
STRT.FT                      1000.0 : START DEPTH
STOP.FT                      9550.0 : STOP DEPTH
STEP.FT                    50.00000 : STEP LENGTH
NULL.                       -999.25 : NULL VALUE
COMP.    TEXACO EXPLORATION COMPANY : COMPANY
WELL. TEXACO SAKWATAMAU 10-24-61-14 : WELL
FLD .                               : FIELD
LOC .                               : LOCATION
CTRY.                        CANADA : COUNTRY
SRVC.                  Schlumberger : SERVICE COMPANY
DATE.                   24-May-1968 : LOGDATE
PROV.                       Alberta : PROVINCE
UWI .              100102406114W500 : UNIQUE WELL ID
SLAT.WGS84                 54.29276 : SURFACE LATITUDE
SLON.WGS84                -115.9587 : SURFACE LONGITUDE
~Curve Information -----------------------------------------
DEPT   .FT    : Depth Curve
CALDED .IN    : CALIPER FROM DENSITY LOG
CALWS  .IN    : CALIPER [CALDED]
CILDED .MMHO  : DEEP INDUCTION CONDUCTIVITY FROM RESISTIVITY LOG
CONDWS .MMHO  : CONDUCTIVITY [CILDED]
DCORWS .G/C3  : DENSITY CORRECTION [DRHOED]
DENWS  .G/C3  : FORMATION BULK DENSITY [RHOBED]
DPOLSWS.V/V   : DENSITY POROSITY LIMESTONE [CALC FROM DENWS,M=2.71, F=1.00 ASSUMED]
DRESWS .OHMM  : DEEP RESISTIVITY [1000/CILDED]
DRHOED .G/C3  : DENSITY CORRECTION FROM DENSITY LOG
GRDED  .GAPI  : GAMA RAY FROM DENSITY LOG
GRWS   .GAPI  : GAMMA RAY [GRDED]
ILDED  .OHMM  : DEEP INDUCTION LOG RESISTIVITY FROM RESISTIVITY LOG
RHOBED .G/C3  : BULK DENSITY FROM DENSITY LOG
SNED   .OHMM  : SHORT NORMAL 16" RESISTIVITY FROM RESISTIVITY LOG
SPRED  .MV    : SELF POTENTIAL FROM RESISTIVITY LOG
SPWS   .MV    : SPONTANEOUS POTENTIAL [BASELINE 0 MV,SPRED]
SRESWS .OHMM  : SHALLOW RESISTIVITY [SNED]
~Params ----------------------------------------------------
PD  .                     GL : PERMANENT DATUM
EPD .FT               3060.2 : ELEVATION PERMANENT DATUM
LMF .                     KB : LOG MEASURED FROM
DAPD.FT                 14.3 : FEET ABOVE PERMANENT DATUM
EKB .FT               3074.5 : KELLY BUSHING
EGL .FT               3060.2 : GROUND LEVEL
DATE.               05/24/68 : RUN DATE
RUN .                      1 : RUN NUMBER
DD  .FT                 9585 : DEPTH DRILLER
DL  .FT                 9586 : DEPTH LOGGER
BLI .FT                 9585 : BOTTOM LOG INTERVAL
TLI .FT                  977 : TOP LOG INTERVAL
CBD .FT                  977 : CASING BOTTOM DRILLER
CBL .FT                  977 : CASING BOTTOM LOGGER
BS  .IN                7.625 : BIT SIZE
BSD .FT                 9585 : BIT SIZE AT DEPTH
DFT .                    GEL : DRILLING FLUID TYPE
DFD .                    9.6 : DRILLING FLUID DENSITY
DFV .                    157 : DRILLING FLUID VISCOSITY
DFPH.                    9.1 : DRILLING FLUID PH
DFL .                    7.8 : DRILLING FLUID LOSS
TCS .HRS                   3 : TIME CIRCULATED STOPPED
LUN .                 DSU A9 : LOGGING UNIT NUMBER
LUL .                    EDM : LOGGING UNIT LOCATION
ENGI.               STUEHMER : RECORDING ENGINEER
WITN.                   GUNN : WITNESSED BY
CLNT.                A2DTECH : CLIENT CODE
ORIG.            2" 5" PRINT : ORIGIN OF DATA
UWI .       100102406114W500 : UNIQUE WELL ID
DICO. A2D Technologies, Inc. : DIGITIZING COMPANY
~Other -----------------------------------------------------
~ASCII -----------------------------------------------------
# ...
 3050.00000    -999.25    -999.25   92.56470   92.56470    -999.25    -999.25    -999.25   10.80330    -999.25    -999.25    -999.25   10.47120    -999.25   11.71790  -48.32730  -38.52820   11.71790
 3100.00000    -999.25    -999.25  110.04850  110.04850    -999.25    -999.25    -999.25    9.08690    -999.25    -999.25    -999.25    8.58580    -999.25   10.67180  -49.18620  -39.42510   10.67180
 3150.00000    -999.25    -999.25  147.44360  147.44360    -999.25    -999.25    -999.25    6.78230    -999.25    -999.25    -999.25    6.58630    -999.25    6.23980  -40.39630  -30.67300    6.23980
 3200.00000    -999.25    -999.25  232.16370  232.16370    -999.25    -999.25    -999.25    4.30730    -999.25    -999.25    -999.25    4.25120    -999.25    3.94970  -39.19340  -29.50800    3.94970
 3250.00000    -999.25    -999.25  214.94920  214.94920    -999.25    -999.25    -999.25    4.65230    -999.25    -999.25    -999.25    4.68940    -999.25    4.40860  -36.16010  -26.51250    4.40860
 3300.00000    -999.25    -999.25  139.92860  139.92860    -999.25    -999.25    -999.25    7.14650    -999.25    -999.25    -999.25    6.78170    -999.25    5.96870  -39.88290  -30.27300    5.96870
 3350.00000    -999.25    -999.25  151.81550  151.81550    -999.25    -999.25    -999.25    6.58690    -999.25    -999.25    -999.25    6.52500    -999.25    5.91480  -41.04660  -31.47470    5.91480
 3400.00000    -999.25    -999.25  154.75540  154.75540    -999.25    -999.25    -999.25    6.46180    -999.25    -999.25    -999.25    6.52800    -999.25    6.01880  -41.12090  -31.58670    6.01880
 3450.00000    -999.25    -999.25  144.51410  144.51410    -999.25    -999.25    -999.25    6.91970    -999.25    -999.25    -999.25    6.56300    -999.25    7.99620  -37.38980  -27.89360    7.99620
 3500.00000    -999.25    -999.25   97.15860   97.15860    -999.25    -999.25    -999.25   10.29240    -999.25    -999.25    -999.25    9.63220    -999.25   11.49820  -36.77530  -27.31690   11.49820
 3550.00000    -999.25    -999.25  146.40870  146.40870    -999.25    -999.25    -999.25    6.83020    -999.25    -999.25    -999.25    6.71260    -999.25    7.26220  -37.74830  -28.32760    7.26220
 3600.00000    -999.25    -999.25  135.81700  135.81700    -999.25    -999.25    -999.25    7.36280    -999.25    -999.25    -999.25    7.09950    -999.25    7.55840  -38.41430  -29.03160    7.55840
 3650.00000    -999.25    -999.25  153.86320  153.86320    -999.25    -999.25    -999.25    6.49930    -999.25    -999.25    -999.25    6.53710    -999.25    6.10460  -40.42720  -31.08220    6.10460
 3700.00000    -999.25    -999.25  163.01620  163.01620    -999.25    -999.25    -999.25    6.13440    -999.25    -999.25    -999.25    6.36260    -999.25    6.01860  -39.87750  -30.57050    6.01860
 3750.00000    -999.25    -999.25  135.40320  135.40320    -999.25    -999.25    -999.25    7.38530    -999.25    -999.25    -999.25    7.09220    -999.25    7.60050  -39.59440  -30.32520    7.60050
 3800.00000    -999.25    -999.25  147.49320  147.49320    -999.25    -999.25    -999.25    6.78000    -999.25    -999.25    -999.25    6.73500    -999.25    6.49780  -39.98640  -30.75490    6.49780
 3850.00000    -999.25    -999.25  140.98980  140.98980    -999.25    -999.25    -999.25    7.09270    -999.25    -999.25    -999.25    6.88550    -999.25    6.25020  -40.61420  -31.42070    6.25020
 3900.00000    -999.25    -999.25  132.57640  132.57640    -999.25    -999.25    -999.25    7.54280    -999.25    -999.25    -999.25    7.33760    -999.25    7.12340  -40.89310  -31.73730    7.12340
 3950.00000    -999.25    -999.25  170.92580  170.92580    -999.25    -999.25    -999.25    5.85050    -999.25    -999.25    -999.25    5.89640    -999.25    5.46810  -40.53960  -31.42180    5.46810
 4000.00000    -999.25    -999.25  116.35460  116.35460    -999.25    -999.25    -999.25    8.59440    -999.25    -999.25    -999.25    8.49940    -999.25    8.30790  -40.77940  -31.69930    8.30790
 4050.00000    -999.25    -999.25  133.50540  133.50540    -999.25    -999.25    -999.25    7.49030    -999.25    -999.25    -999.25    7.65170    -999.25    7.05570  -40.25740  -31.21510    7.05570
 4100.00000    -999.25    -999.25  128.65730  128.65730    -999.25    -999.25    -999.25    7.77260    -999.25    -999.25    -999.25    7.57450    -999.25    7.26240  -39.86270  -30.85840    7.26240
 4150.00000    -999.25    -999.25  131.24790  131.24790    -999.25    -999.25    -999.25    7.61920    -999.25    -999.25    -999.25    7.66530    -999.25    7.24040  -40.61740  -31.65080    7.24040
 4200.00000    -999.25    -999.25  159.25390  159.25390    -999.25    -999.25    -999.25    6.27930    -999.25    -999.25    -999.25    6.21460    -999.25    6.94390  -39.98290  -31.05430    6.94390
 4250.00000    -999.25    -999.25  140.33360  140.33360    -999.25    -999.25    -999.25    7.12590    -999.25    -999.25    -999.25    6.98160    -999.25    8.39170  -38.67930  -29.78840    8.39170
 4300.00000    -999.25    -999.25  132.54860  132.54860    -999.25    -999.25    -999.25    7.54440    -999.25    -999.25    -999.25    7.26290    -999.25    9.12000  -37.53870  -28.68560    9.12000
 4350.00000    -999.25    -999.25  130.01030  130.01030    -999.25    -999.25    -999.25    7.69170    -999.25    -999.25    -999.25    7.36960    -999.25    9.49960  -36.47070  -27.65560    9.49960
 4400.00000    -999.25    -999.25   86.40590   86.40590    -999.25    -999.25    -999.25   11.57330    -999.25    -999.25    -999.25   11.14590    -999.25   15.68040  -36.82750  -28.05010   15.68040
 4450.00000    -999.25    -999.25  147.89150  147.89150    -999.25    -999.25    -999.25    6.76170    -999.25    -999.25    -999.25    6.74530    -999.25    8.64070  -35.80680  -27.06740    8.64070
 4500.00000    -999.25    -999.25  162.46060  162.46060    -999.25    -999.25    -999.25    6.15530    -999.25    -999.25    -999.25    6.12360    -999.25    6.82400  -36.33470  -27.63300    6.82400
 4550.00000    -999.25    -999.25  153.96090  153.96090    -999.25    -999.25    -999.25    6.49520    -999.25    -999.25    -999.25    6.44940    -999.25    7.26680  -35.25230  -26.58840    7.26680
 4600.00000    -999.25    -999.25  156.31330  156.31330    -999.25    -999.25    -999.25    6.39740    -999.25    -999.25    -999.25    6.30780    -999.25    6.99250  -36.94920  -28.32320    6.99250
 4650.00000    -999.25    -999.25  198.45450  198.45450    -999.25    -999.25    -999.25    5.03890    -999.25    -999.25    -999.25    4.90270    -999.25    5.73470  -35.24830  -26.66010    5.73470
 4700.00000    -999.25    -999.25  204.67870  204.67870    -999.25    -999.25    -999.25    4.88570    -999.25    -999.25    -999.25    4.85750    -999.25    5.33750  -34.62690  -26.07670    5.33750
 4750.00000    -999.25    -999.25  176.03980  176.03980    -999.25    -999.25    -999.25    5.68050    -999.25    -999.25    -999.25    5.00900    -999.25    6.14650  -36.35380  -27.84130    6.14650
 4800.00000    -999.25    -999.25  180.37670  180.37670    -999.25    -999.25    -999.25    5.54400    -999.25    -999.25    -999.25    5.54190    -999.25    6.23680  -34.76320  -26.28840    6.23680
 4850.00000   15.12340   15.12340  411.30050  411.30050    0.19680    2.16760    0.31720    2.43130    0.19680   87.60000   87.60000    2.24650    2.16760    2.78680  -32.99460  -24.55780    2.78680
 4900.00000   14.80390   14.80390  302.59040  302.59040    0.12530    2.26710    0.25900    3.30480    0.12530   89.41500   89.41500    2.84360    2.26710    3.19410  -32.17460  -23.77560    3.19410
 4950.00000   10.72590   10.72590  214.13420  214.13420    0.13990    2.42240    0.16820    4.67000    0.13990   93.67500   93.67500    4.44460    2.42240    5.04600  -31.33650  -23.05220    5.04600
 5000.00000    7.68690    7.68690   87.57490   87.57490    0.10740    2.55650    0.08980   11.41880    0.10740   52.98000   52.98000   11.49060    2.55650   13.78780  -40.50650  -32.74560   13.78780
 5050.00000   10.28110   10.28110  140.98100  140.98100    0.23760    2.29630    0.24190    7.09320    0.23760   77.35500   77.35500    6.78860    2.29630    7.79350  -32.31530  -25.07790    7.79350
