~Version ---------------------------------------------------
VERS. 2.0 : CWLS log ASCII Standard -VERSION 2.0
WRAP.  NO : ONE LINE PER DEPTH STEP
~Well ------------------------------------------------------
STRT.F                          900.0 : START DEPTH
STOP.F                         8350.0 : STOP DEPTH
STEP.F                       50.00000 : STEP LENGTH
NULL.                         -999.25 : NULL VALUE
COMP.         QUINTANA EXPLORATION CO : COMPANY
WELL. QUINTANA ET AL SNIPE 6-23-72-18 : WELL
FLD .                                 : FIELD
LOC .                                 : LOCATION
CTRY.                          CANADA : COUNTRY
SRVC.          Schlumberger of Canada : SERVICE COMPANY
DATE.                     22-Mar-1977 : LOGDATE
PROV.                         Alberta : PROVINCE
UWI .                100062307218W500 : UNIQUE WELL ID
SLAT.WGS84                   55.24794 : SURFACE LATITUDE
SLON.WGS84                  -116.6597 : SURFACE LONGITUDE
~Curve Information -----------------------------------------
DEPT   .F    0   1   0  0 : 1 MEASURED DEPTH
LL8    .OHMM 07 220 08 00 : LATEROLOG 8
SPR    .MV   07 010 01 00 : SPONTANEOUS POTENTIAL FROM RESISTIVITY LOG
ILD    .OHMM 07 120 46 00 : INDUCTION DEEP RESISTIVITY
ILM    .OHMM 07 120 44 00 : INDUCTION MEDIUM RESISTIVITY
GRS    .GAPI 60 310 01 00 : GAMMA RAY FROM SONIC LOG
DT     .US/F 60 500 00 00 : DELTA-T (INTERVAL TRANSIT TIME)
CALS   .IN   60 280 50 00 : CALIPER FROM SONIC LOG
GRD    .GAPI 45 310 01 00 : GAMMA RAY FROM DENSITY LOG
NPHI_SS.DEC  42 890 03 00 : NEUTRON POROSITY SANDSTONE
CALD   .IN   45 280 60 00 : CALIPER FROM DENSITY LOG
DPHI_SS.DEC  45 890 12 00 : DENSITY POROSITY SANDSTONE
NPHI_LS.DEC  42 890 01 00 : NEUTRON POROSITY LIMESTONE
DPHI_LS.DEC  45 890 10 00 : DENSITY POROSITY LIMESTONE
DRHO   .G/C3 45 356 01 00 : BULK DENSITY CORRECTION
RHOB   .G/C3 45 350 01 00 : BULK DENSITY
~Params ----------------------------------------------------
PD  .                     GL : PERMANENT DATUM
EPD .FT                 2330 : ELEVATION PERMANENT DATUM
LMF .                     KB : LOG MEASURED FROM
DAPD.FT                    7 : FEET ABOVE PERMANENT DATUM
EKB .FT                 2347 : KELLY BUSHING
EGL .FT                 2330 : GROUND LEVEL
DATE.               03/22/77 : RUN DATE
RUN .                      1 : RUN NUMBER
DD  .FT                 8390 : DEPTH DRILLER
DL  .FT                 8389 : DEPTH LOGGER
BLI .FT                 8383 : BOTTOM LOG INTERVAL
TLI .FT                  615 : TOP LOG INTERVAL
CBD .FT                  918 : CASING BOTTOM DRILLER
CBL .FT                  916 : CASING BOTTOM LOGGER
BS  .IN                 8.75 : BIT SIZE
BSD .FT                 8390 : BIT SIZE AT DEPTH
DFT .               GEL CHEM : DRILLING FLUID TYPE
DFD .                    9.3 : DRILLING FLUID DENSITY
DFV .                     76 : DRILLING FLUID VISCOSITY
DFPH.                    9.0 : DRILLING FLUID PH
DFL .                    6.0 : DRILLING FLUID LOSS
MSS .               FLOWLINE : MUD SAMPLE SOURCE
RMS .OHMM               3.18 : RESISTIVITY MUD SAMPLE
MST .DEGF                 68 : MUD SAMPLE TEMPERATURE
RMF .OHMM               2.96 : RESISTIVITY MUD FILTRATE SAMPLE
MFST.DEGF                 70 : MUD FILTRATE SAMPLE TEMPERATURE
RMB .OHMM               1.48 : RESISTIVITY MUD AT BHT
TCS .HRS                 1.5 : TIME CIRCULATED STOPPED
LUN .                   7802 : LOGGING UNIT NUMBER
LUL .                    EDM : LOGGING UNIT LOCATION
ENGI.              CERANTOLA : RECORDING ENGINEER
WITN.                  SKOKO : WITNESSED BY
CLNT.                A2DTECH : CLIENT CODE
ORIG.            2" 5" PRINT : ORIGIN OF DATA
UWI .       100062307218W500 : UNIQUE WELL ID
DICO. A2D Technologies, Inc. : DIGITIZING COMPANY
~Other -----------------------------------------------------
~ASCII -----------------------------------------------------
# ...
 5500.00000   12.26900  -39.14740    9.14190    9.89380   59.34570   67.43230    9.89990   72.47000    -999.25    9.95920    -999.25    0.09520    0.01710    0.06190    2.68490
 5550.00000   14.86960  -38.41290   10.18000   11.58600   58.95020   65.18110    9.79650   68.10420    -999.25    9.88160    -999.25    0.08150    0.01350    0.08530    2.69470
 5600.00000    4.41760  -63.60700    3.28070    2.97960  113.15060   88.07400   14.23440  131.84690    -999.25    -999.25    -999.25    0.37800    0.30080    0.21240    2.19980
 5650.00000   48.11460  -43.95320   22.74590   29.65330   82.40370   57.06430    9.91420   49.99860    -999.25   10.07860    -999.25    0.02390   -0.00370    0.02790    2.70460
 5700.00000    4.31690  -30.44850    2.43980    2.09330  300.16610   70.21990   14.10150  217.51900    -999.25    -999.25    -999.25    -999.25    0.45030    0.20960    1.92100
 5750.00000  106.04710  -31.92440   51.42580   59.39010   25.02180   52.88250   10.06990   30.35550    -999.25    9.98740    -999.25    0.01350   -0.00670    0.03540    2.70950
 5800.00000   73.11120  -59.22290   41.58730   47.43220   21.40690   52.95060   10.67830   23.79830    -999.25   10.54680    -999.25    0.03820    0.04090    0.00560    2.63790
 5850.00000  131.11570  -44.44440   68.51310   72.76370   16.43280   51.54200   10.59860   22.40910    -999.25   10.64780    -999.25    0.02420    0.00000    0.05810    2.69290
 5900.00000   54.00690  -74.71620   30.78870   33.94560   23.32660   54.34160   11.11050   23.56660    -999.25   12.13500    -999.25    0.03800    0.07030    0.09480    2.56320
 5950.00000  116.73210  -40.19640   59.67110   68.99880   20.28080   51.71630   10.07930   24.68120    -999.25   10.35010    -999.25    0.01840   -0.00460    0.04350    2.71410
 6000.00000   87.55990  -45.73340   36.27700   45.09350   21.91980   55.20200   10.27100   27.12940    -999.25   11.04250    -999.25    0.04300    0.02250    0.06950    2.66310
 6050.00000  207.35970  -60.83280   27.93720   43.45200   17.72400   54.05130   10.30740   20.56490    -999.25   10.81530    -999.25    0.04650    0.05730    0.07830    2.59970
 6100.00000  115.74970  -66.60470   15.77730   21.98770   20.00170   55.81290   10.54000   19.16010    -999.25   10.30400    -999.25    0.07060    0.04260    0.08020    2.62900
 6150.00000  130.05050  -64.33200   21.00790   27.17150   13.77370   54.60560   10.71230   20.58600    -999.25   10.97700    -999.25    0.05720    0.04470    0.04220    2.61570
 6200.00000  556.09000  -63.15980  120.58300  191.34180   16.25710   49.42240   10.39470   21.84390    -999.25   10.69890    -999.25    0.00970    0.00610    0.03560    2.67930
 6250.00000  125.74100  -59.28440   66.44800   83.71750   17.29840   51.64490   10.34030   22.19660    -999.25   10.61590    -999.25    0.01920   -0.01090    0.05280    2.70030
 6300.00000  146.48850  -61.26460   79.97330  110.43570   13.85430   50.47150   10.22470   20.98450    -999.25   10.63280    -999.25    0.01200    0.01280    0.03070    2.67910
 6350.00000  179.63040  -83.84080   81.50130  113.97330   18.79120   51.52620   10.20290   20.16220    -999.25   10.67310    -999.25    0.01010    0.03150    0.01150    2.64750
 6400.00000  163.25760  -99.32000   40.12390   65.02640   17.33570   51.45790   10.30290   24.79020    -999.25   10.49790    -999.25    0.00830    0.01310    0.07110    2.69300
 6450.00000  511.80780  -91.80180   71.15250  163.51190   24.79030   49.18460   10.00480   25.89710    -999.25   10.56400    -999.25    0.00320    0.00780    0.09370    2.69470
 6500.00000  240.16090 -100.55560   38.89140   71.62330   22.72020   49.81590   10.12330   24.34980    -999.25   10.88600    -999.25    0.00700    0.03500    0.20790    2.63470
 6550.00000   18.91770  -98.68690    5.53030    8.82720   33.05690   58.00890    9.64020   36.26160    -999.25    9.01460    -999.25    0.22130    0.04080    0.08690    2.64140
 6600.00000  223.16630 -140.02840   21.04500   34.48460   15.44300   52.19020   10.04530   19.97010    -999.25   10.60200    -999.25    0.14900    0.01660    0.16700    2.67790
 6650.00000  296.65710 -146.05110   57.88350  130.93750   23.46210   48.78550    9.38050   28.91910    -999.25    9.59550    -999.25    0.07840   -0.02690    0.11120    2.77070
 6700.00000   52.58600  -85.58910   32.96390   40.76970   37.31680   53.09110    9.81160   43.66300    -999.25    9.73600    -999.25    0.09420   -0.04780    0.05150    2.78050
 6750.00000   44.47550  -39.28770   29.55060   34.90340   46.36350   52.19490    9.78790   51.64590    -999.25   10.25400    -999.25    0.02170    0.02190    0.00550    2.66600
 6800.00000   42.55670 -101.39910   21.19960   21.78150   15.51360   54.12400    9.85510   20.78220    -999.25    9.59740    -999.25    0.02630    0.02140    0.01310    2.67100
 6850.00000   17.88710  -34.14030   12.11030   12.61120   56.87550   62.43520   10.01950   75.40360    -999.25    9.69630    -999.25    0.11160    0.04360    0.01430    2.63520
 6900.00000   10.01220  -41.96010    7.16620    8.10790   84.89840   68.32970    9.71540   84.33450    -999.25   10.24290    -999.25    0.08480    0.03160    0.11550    2.67780
 6950.00000   11.05470  -73.69410    5.68600    7.73750   83.33330   80.44870   11.71410   99.68050    -999.25   15.13180    -999.25    0.35210    0.32690    0.20880    2.22710
 7000.00000    7.69060  -79.86260    5.11960    6.26680   86.57660   87.45280   14.08950  119.30640    -999.25    -999.25    -999.25    0.40580    0.42800    0.20080    1.93740
 7050.00000    5.06760  -88.46060    3.78780    4.01010  117.65140   82.54700   14.36840  129.11890    -999.25    -999.25    -999.25    0.36290    0.38000    0.19330    2.04870
 7100.00000    4.72000  -92.54530    3.51870    3.35700  127.46140   89.62060   14.44680  140.61800    -999.25    -999.25    -999.25    0.40180    0.32030    0.17340    2.11540
 7150.00000    4.63100  -83.82670    3.44030    3.16450  121.50940   85.52370   14.15100  135.93210    -999.25    -999.25    -999.25    0.40900    0.38420    0.18620    2.00670
 7200.00000    5.24710  -94.24150    4.10200    3.77110  108.86930   84.88250   14.21240  118.48580    -999.25    -999.25    -999.25    0.42720    -999.25    0.17560    1.81840
 7250.00000    4.90240  -73.07950    3.59870    3.13650  115.70590   84.23820   14.25540  133.59850    -999.25    -999.25    -999.25    0.43450    -999.25    0.16530    1.79390
 7300.00000    4.88460  -61.00550    3.26490    2.96960  124.42770   88.67740   14.18070  137.10620    -999.25    -999.25    -999.25    0.39590    0.38940    0.19520    2.03220
 7350.00000    5.70260  -58.63440    3.87930    3.53160  103.73700   83.73050   13.77650  120.07680    -999.25    -999.25    -999.25    0.37640    0.37620    0.25800    2.05380
 7400.00000    7.22500  -60.31280    5.88490    6.00360  114.69290   83.71040   12.42610  125.01370    -999.25   11.40400    -999.25    0.32150    0.27550    0.25680    2.12180
 7450.00000    9.61480  -58.92780    7.68690    7.33650   88.28900   69.39030   10.05600   98.46810    -999.25   11.70420    -999.25    0.20060    0.20680    0.24410    2.39300
 7500.00000   17.42500  -45.95220   10.47430   11.53170   74.43790   66.19200    9.57710   96.86960    -999.25    9.65330    -999.25    0.12310    0.01260    0.06680    2.67290
 7550.00000    9.08490  -64.85070    6.17910    6.47840   86.40180   73.50770   11.20490  106.00320    -999.25   11.57430    -999.25    0.27100    0.26630    0.19120    2.18070
 7600.00000    9.55810  -78.52920    6.34850    6.00780  114.58700   76.60610   11.29460  132.51680    -999.25   12.79520    -999.25    0.25910    0.31290    0.25170    2.15710
 7650.00000    9.43130  -76.05730    6.71510    6.31860   94.83450   73.91920   11.28330  113.77510    -999.25   13.55600    -999.25    0.26050    0.19870    0.23700    2.37150
 7700.00000    8.50780  -68.77240    6.01200    6.54770  102.41630   74.56490   10.19450  119.58230    -999.25   13.04360    -999.25    0.25880    0.30950    0.23500    2.20580
 7750.00000    9.09900  -67.04770    5.26110    5.86200   94.08960   79.02350   12.46770  110.48860    -999.25   11.40670    -999.25    0.29110    0.39510    0.18460    1.99970
