~Version ---------------------------------------------------
VERS. 2.0 : CWLS log ASCII Standard -VERSION 2.0
WRAP.  NO : ONE LINE PER DEPTH STEP
~Well ------------------------------------------------------
STRT.F                              900.0 : START DEPTH
STOP.F                             9050.0 : STOP DEPTH
STEP.F                           50.00000 : STEP LENGTH
NULL.                             -999.25 : NULL VALUE
COMP. EDWIN L. COX SOUTHERN DRILLING INC. : COMPANY
WELL.               COX AZTEC 11-30-69-19 : WELL
FLD .                                     : FIELD
LOC .                                     : LOCATION
CTRY.                              CANADA : COUNTRY
SRVC.                       Dresser Atlas : SERVICE COMPANY
DATE.                         18-Dec-1971 : LOGDATE
PROV.                             Alberta : PROVINCE
UWI .                    100113006919W500 : UNIQUE WELL ID
SLAT.WGS84                       55.00587 : SURFACE LATITUDE
SLON.WGS84                      -116.8901 : SURFACE LONGITUDE
~Curve Information -----------------------------------------
DEPT.F    0   1   0  0 : 1 MEASURED DEPTH
SPR .MV   07 010 01 00 : SPONTANEOUS POTENTIAL FROM RESISTIVITY LOG
ILD .OHMM 07 120 46 00 : INDUCTION DEEP RESISTIVITY
ILM .OHMM 07 120 44 00 : INDUCTION MEDIUM RESISTIVITY
SFL .OHMM 07 220 06 00 : SPHERICALLY FOCUSED LOG
CILD.MMHO 07 110 46 00 : INDUCTION DEEP CONDUCTIVITY
GRS .GAPI 60 310 01 00 : GAMMA RAY FROM SONIC LOG
DT  .US/F 60 500 00 00 : DELTA-T (INTERVAL TRANSIT TIME)
CALS.IN   60 280 50 00 : CALIPER FROM SONIC LOG
~Params ----------------------------------------------------
PD  .                     GL : PERMANENT DATUM
EPD .FT               2315.7 : ELEVATION PERMANENT DATUM
LMF .                     KB : LOG MEASURED FROM
DAPD.FT                 15.4 : FEET ABOVE PERMANENT DATUM
DMF .                     KB : DRILLING MEASURED FROM
EKB .FT               2331.1 : KELLY BUSHING
EGL .FT               2315.7 : GROUND LEVEL
DATE.               12/18/71 : RUN DATE
RUN .                      1 : RUN NUMBER
DD  .FT                 9106 : DEPTH DRILLER
DL  .FT                 9087 : DEPTH LOGGER
BLI .FT                 9085 : BOTTOM LOG INTERVAL
TLI .FT                  935 : TOP LOG INTERVAL
CS  .IN                8.625 : CASING SIZE
CBD .FT                  930 : CASING BOTTOM DRILLER
CBL .FT                  935 : CASING BOTTOM LOGGER
BS  .IN                7.875 : BIT SIZE
BSD .FT                 9106 : BIT SIZE AT DEPTH
DFT .                MUD GEL : DRILLING FLUID TYPE
DFD .                    9.2 : DRILLING FLUID DENSITY
DFV .                    135 : DRILLING FLUID VISCOSITY
DFPH.                    9.5 : DRILLING FLUID PH
DFL .                    7.6 : DRILLING FLUID LOSS
MSS .                   CIRC : MUD SAMPLE SOURCE
RMS .OHMM                  2 : RESISTIVITY MUD SAMPLE
MST .DEGF                 60 : MUD SAMPLE TEMPERATURE
RMF .OHMM                1.9 : RESISTIVITY MUD FILTRATE SAMPLE
MFST.DEGF                 61 : MUD FILTRATE SAMPLE TEMPERATURE
RMC .OHMM                2.7 : RESISTIVITY MUD CAKE
MCST.DEGF                 61 : MUD CAKE SAMPLE TEMPERATURE
MFSS.                   MEAS : MUD FILTRATE SAMPLE SOURCE
MCSS.                   MEAS : MUD CAKE SAMPLE SOURCE
RMB .OHMM               0.63 : RESISTIVITY MUD AT BHT
TCS .HRS                 3.5 : TIME CIRCULATED STOPPED
LUN .                   6091 : LOGGING UNIT NUMBER
LUL .                     VV : LOGGING UNIT LOCATION
ENGI.          CLARK GISTERN : RECORDING ENGINEER
WITN.                 MACKEY : WITNESSED BY
CLNT.                A2DTECH : CLIENT CODE
ORIG.            2" 5" PRINT : ORIGIN OF DATA
UWI .       100113006919W500 : UNIQUE WELL ID
DICO. A2D Technologies, Inc. : DIGITIZING COMPANY
~Other -----------------------------------------------------
~ASCII -----------------------------------------------------
# ...
 4900.00000  -27.50530    2.75390    3.48170    6.34430    -999.25  107.62020   76.72480    9.93780
 4950.00000 -110.08370   13.08420   19.16560   20.44720    -999.25   22.21160   82.53380    8.22150
 5000.00000  -66.61350    4.22990    7.34600   25.50980    -999.25   37.60670   65.36270    8.34990
 5050.00000 -119.50460    7.58610   13.35990   42.23970    -999.25   51.94210   57.04690    8.40940
 5100.00000 -115.68890   24.13500   41.69260   84.31250    -999.25   33.10820   53.91560    7.84660
 5150.00000 -145.88910    6.95500   14.01610   62.82310    -999.25   24.65620   52.96240    8.41210
 5200.00000  -98.34970   25.91070   49.43200   86.91610    -999.25   32.13340   52.52820    8.33710
 5250.00000 -130.37660   58.97430  109.82900  206.04530    -999.25   23.48920   50.59240    8.12620
 5300.00000  -77.78920   16.09540   24.19590   39.89160    -999.25   89.74450   61.39510    9.14230
 5350.00000  -67.99590   23.54970   29.01050   36.45600    -999.25   65.84470   59.21340    9.15670
 5400.00000  -56.50170   11.45920   13.60940   20.79480    -999.25   83.17090   63.09170    9.11590
 5450.00000  -97.71950    8.14000    9.81150   11.00740    -999.25   41.60110   56.77470    9.02670
 5500.00000 -131.11050    2.50880    3.04950   11.33330    -999.25   30.49380   54.03080    8.80230
 5550.00000  -86.46540   17.59800   22.67510   37.88880    -999.25   58.72180   55.04600    9.03770
 5600.00000  -64.85630    5.50400    6.57020   15.36360    -999.25   95.05400   69.40260    9.21370
 5650.00000 -155.43650    4.73850    7.91740   44.87250    -999.25   21.71220   58.96690    8.47060
 5700.00000 -163.75380    8.29820   14.42650   44.17560    -999.25   20.32360   53.19560    8.30180
 5750.00000 -142.71190    8.61780   16.57500  104.66750    -999.25   17.91150   53.52720    8.19960
 5800.00000  -87.99240    8.53770   14.39960   43.38110    -999.25   27.19100   54.40640    8.77760
 5850.00000  -80.92090    2.27080    2.85100    4.31100    -999.25   80.70270   67.90910    9.04490
 5900.00000  -64.01410    4.35080    5.64340    8.47080    -999.25   89.55790   67.44420    8.88590
 5950.00000  -40.69410    4.96580    6.39980    8.99480    -999.25   91.08640   83.61160   11.11040
 6000.00000  -29.75090    9.88520   12.20260   20.35770    -999.25   66.50710   67.68800    9.84560
 6050.00000  -49.90880   57.05140   68.69480   74.27180    -999.25   44.76160   51.88540    8.95250
 6100.00000  -45.78790   28.58210   39.37770   57.16930    -999.25   58.01000   54.83310    8.83860
 6150.00000  -24.01090   22.36830   29.84520   35.50960    -999.25   50.56020   55.88490    8.76680
 6200.00000  -55.26030   19.98600   27.42460   32.32540    -999.25   48.99110   56.87120    8.63380
 6250.00000  -74.27610   47.60270   63.45620   81.28220    -999.25   30.70400   52.55530    8.33200
 6300.00000  -56.57280   16.86180   21.35700   29.54330    -999.25   54.80380   60.97060    8.16840
 6350.00000  -58.81140   47.35960   65.39040   91.49580    -999.25   35.94950   53.00940    8.17990
 6400.00000  -61.89760   13.08450   16.85120   23.21670    -999.25   77.09140   64.13450    8.96240
 6450.00000  -45.64800    5.61950    6.93410   10.98230    -999.25  178.22740   90.39250   10.10640
 6500.00000  -13.69540   62.49850   94.22610  105.34230    -999.25  238.11320  122.02620    9.49730
 6550.00000  -37.75640  145.14490  200.78170  267.19970    -999.25   18.01070   49.04390    7.97030
 6600.00000    -999.25  130.41620  148.99310  169.89380    -999.25   34.50690   50.23210    8.95840
 6650.00000    -999.25   86.41460  120.05960  221.65590    -999.25   30.88060   51.13880    8.96360
 6700.00000  -49.35570   93.85970  111.20500  155.70830    -999.25   24.80790   51.12070    9.38670
 6750.00000  -44.63220  116.57970  160.33140  296.61070    -999.25   17.51350   50.32090    8.88870
 6800.00000  -69.31570   15.95640   30.00670  110.02010    -999.25   17.72290   53.90250    8.37430
 6850.00000  -83.97350   13.63670   22.31080   95.30180    -999.25   20.50430   53.64390    8.92140
 6900.00000  -76.53610   21.67420   33.70630   43.77840    -999.25   14.93080   51.97640    8.65140
 6950.00000 -125.05700  123.46720  150.86990  307.87880    -999.25   12.12080   51.12350    8.41370
 7000.00000 -158.00080   59.77950   78.52570  143.55590    -999.25   10.30030   50.67480    8.08190
 7050.00000 -163.95720  121.53220  148.65010  176.98030    -999.25   15.37450   47.48130    7.52020
 7100.00000 -164.79080  144.77340  172.75430  295.61130    -999.25   13.36320   47.67670    7.78590
 7150.00000 -159.81750  138.27370  143.44020  196.79370    -999.25   22.30660   46.68320    8.18240
 7200.00000 -146.46860   19.64630   35.03900  133.77100    -999.25   33.26000   47.40940    7.93080
 7250.00000 -136.17830   88.57060  107.99190  153.18830    -999.25   28.99250   45.96370    8.83660
 7300.00000  -91.65790   78.50650  109.96020  181.51720    -999.25   26.74710   45.92300    9.02450
 7350.00000 -112.05480   25.26560   28.11630   38.17270    -999.25   47.37260   50.66390    8.73790
 7400.00000 -144.87930  127.96160  173.06440  326.86720    -999.25   23.74690   46.32360    8.38730
 7450.00000  -99.99300   11.54580   20.61320   54.07790    -999.25   37.17380   48.29760    8.62860
 7500.00000  -57.19810   48.20570   67.60290   83.22720    -999.25   34.79180   51.32060    8.38750
 7550.00000  -56.43910    7.96690    8.52210   14.22550    -999.25   76.31900   62.94250    8.49710
 7600.00000  -92.90830   23.96700   30.86540   40.22640    -999.25   51.26040   54.35980    8.34980
 7650.00000 -109.38500    8.97100   11.28690   17.07600    -999.25   77.88310   64.34800    9.38760
 7700.00000 -156.78500    9.77000   14.77150   31.47300    -999.25   92.11660   63.75990   10.97110
 7750.00000 -127.04250    2.67550    3.27220    5.18540    -999.25  105.39520   84.31040   12.90270
 7800.00000  -76.65760    3.15520    3.81710    5.03060    -999.25  104.15280  100.69370   12.91310
 7850.00000  -81.15740    4.17630    5.31600    5.77010    -999.25   91.11050   78.33800   13.16610
 7900.00000 -119.21730    3.56490    4.36660    5.33560    -999.25  105.08600   80.40190   14.47700
 7950.00000  -83.61130    3.66630    4.48600    5.60120    -999.25  104.50690   79.73530   14.19410
 8000.00000 -102.37520    3.01670    3.75500    5.05840    -999.25  108.82240   82.81100   12.70050
 8050.00000 -110.39850    2.86490    3.55430    4.89300    -999.25  107.48750   83.21310   12.73960
 8100.00000  -91.60520    3.00130    3.78050    5.42810    -999.25   94.57480   80.45300   11.62680
 8150.00000 -112.50970    9.57840   12.96580   17.06590    -999.25   69.17540   65.20440    8.40740
 8200.00000  -92.49990   12.42780   16.36440   21.00930    -999.25   62.15240   64.69120    7.94100
 8250.00000  -78.90010    8.89970   11.63660   15.79980    -999.25   72.75350   65.71560    7.79160
 8300.00000 -112.89480    6.97420    9.28250   12.56470    -999.25   81.27400   71.93790    7.58580
 8350.00000  -82.62240    6.66820   10.46390   17.26040    -999.25   96.49470   75.35190    8.49070
 8400.00000 -104.42870    4.06820    5.92360    9.23900    -999.25   89.74650   72.88450    9.29790
 8450.00000 -108.30900    3.11290    4.53720    7.31700    -999.25  124.85000   78.58360    9.08370
 8500.00000  -73.91910    4.85960    7.02330   10.76170    -999.25   99.51140   78.59750    8.56550
 8550.00000  -67.40960    3.95460    5.82410    8.34860    -999.25  144.40980   84.57430    9.15650
 8600.00000  -58.83890   20.28740   35.56960  118.78990    -999.25  167.74530   88.58900    8.75790
 8650.00000  -45.13890   25.38440   45.55310  169.96810    -999.25  119.48860   78.98610    8.52030
 8700.00000  -35.78270  140.88670  318.88670  282.51760    -999.25   22.67860   48.27090    8.34480
 8750.00000  -69.20850  234.85830  371.85960  409.88500    -999.25   24.76410   48.43080    8.23040
 8800.00000  -71.04450   62.30640   71.81020  123.23380    -999.25   22.03910   48.07450    8.41200
 8850.00000 -139.93100    7.14760   12.55110   51.50150    -999.25   17.95630   53.82240    8.13930
