~Version ---------------------------------------------------
VERS.      2.0 : CWLS log ASCII Standard -VERSION 2.0
WRAP.       NO : One line per depth step
CREA. 12/14/17 : LAS Creation Date
~Well ------------------------------------------------------
STRT.FT                         1000.0 : START DEPTH
STOP.FT                         9400.0 : STOP DEPTH
STEP.FT                       50.00000 : STEP LENGTH
NULL.                          -999.25 : NULL VALUE
COMP.          QUINTANA EXPLORATION CO : COMPANY
WELL. QUINTANA ET AL STURLS 3-21-69-21 : WELL
FLD .                                  : FIELD
LOC .                                  : LOCATION
CTRY.                           CANADA : COUNTRY
SRVC.                    Dresser Atlas : SERVICE COMPANY
DATE.                      14-Jul-1971 : LOGDATE
PROV.                          Alberta : PROVINCE
UWI .                 100032106921W500 : UNIQUE WELL ID
SLAT.WGS84                    54.98342 : SURFACE LATITUDE
SLON.WGS84                   -117.1428 : SURFACE LONGITUDE
~Curve Information -----------------------------------------
DEPT  .FT    : Depth Curve
ASNED .OHMM  : AMPLIFIED SHORT NORMAL FROM RESISTIVITY LOG
CONDWS.MMHO  : CONDUCTIVITY [1000/DRESWS]
DRESWS.OHMM  : DEEP RESISTIVITY [LNED]
GRNED .GAPI  : GAMMA RAY FROM GRN LOG
GRWS  .GAPI  : GAMMA RAY [GRNED]
LATED .OHMM  : LATERAL FROM RESISTIVITY LOG
LNED  .OHMM  : LONG NORMAL FROM RESISTIVITY LOG
NEUTED.NAPI  : NEUTRON FROM GRN LOG
NEUTWS.NAPI  : NEUTRON [NEUTED]
SPRED .MV    : SPONTANEOUS POTENTIAL FROM RESISTIVITY LOG
SPWS  .MV    : SPONTANEOUS POTENTIAL [BASELINE 0 MV,SPRED]
SRESWS.OHMM  : SHALLOW RESISTIVITY [ASNED]
~Params ----------------------------------------------------
PD  .                     GL : PERMANENT DATUM
EPD .FT                 2131 : ELEVATION PERMANENT DATUM
LMF .                     KB : LOG MEASURED FROM
DAPD.FT                   15 : FEET ABOVE PERMANENT DATUM
DMF .                     KB : DRILLING MEASURED FROM
EKB .FT                 2146 : KELLY BUSHING
EGL .FT                 2131 : GROUND LEVEL
DATE.               07/14/71 : RUN DATE
RUN .                      1 : RUN NUMBER
DD  .FT                 9420 : DEPTH DRILLER
DL  .FT                 9421 : DEPTH LOGGER
BLI .FT                 9421 : BOTTOM LOG INTERVAL
TLI .FT                 2355 : TOP LOG INTERVAL
CS  .IN                8.625 : CASING SIZE
CBD .FT                  988 : CASING BOTTOM DRILLER
BS  .IN                7.875 : BIT SIZE
BSD .FT                 9420 : BIT SIZE AT DEPTH
DFT .                MUD GEL : DRILLING FLUID TYPE
DFD .                    9.2 : DRILLING FLUID DENSITY
DFV .                    300 : DRILLING FLUID VISCOSITY
DFPH.                    9.5 : DRILLING FLUID PH
DFL .                    8.2 : DRILLING FLUID LOSS
MSS .                   CIRC : MUD SAMPLE SOURCE
RMS .OHMM                2.5 : RESISTIVITY MUD SAMPLE
MST .DEGF                 65 : MUD SAMPLE TEMPERATURE
RMF .OHMM                1.9 : RESISTIVITY MUD FILTRATE SAMPLE
MFST.DEGF                 70 : MUD FILTRATE SAMPLE TEMPERATURE
RMC .OHMM                2.7 : RESISTIVITY MUD CAKE
MCST.DEGF                 70 : MUD CAKE SAMPLE TEMPERATURE
MFSS.                   MEAS : MUD FILTRATE SAMPLE SOURCE
MCSS.                   MEAS : MUD CAKE SAMPLE SOURCE
RMB .OHMM               0.97 : RESISTIVITY MUD AT BHT
TCS .HRS                  21 : TIME CIRCULATED STOPPED
LUN .                   6091 : LOGGING UNIT NUMBER
LUL .                    V.V : LOGGING UNIT LOCATION
ENGI.                 MILLER : RECORDING ENGINEER
WITN.                  KENNY : WITNESSED BY
CLNT.                A2DTECH : CLIENT CODE
ORIG.            2" 5" PRINT : ORIGIN OF DATA
UWI .       100032106921W500 : UNIQUE WELL ID
DICO. A2D Technologies, Inc. : DIGITIZING COMPANY
~Other -----------------------------------------------------
EL-GRN LOG RUN
ALL DATA FROM TOP TO 2998' FROM 2"SCALE SECTION
~ASCII -----------------------------------------------------
# ...
 6600.00000   52.57590   12.49130   80.05560   42.31190   42.31190   74.39470   80.05560  910.20390  910.20390  -60.77080  -22.88220   52.57590
 6650.00000   43.40080   15.84790   63.10000   40.27690   40.27690   63.50320   63.10000  809.31220  809.31220  -59.04480  -20.63700   43.40080
 6700.00000   78.07730    6.00210  166.60760   29.63350   29.63350   91.48900  166.60760  818.35610  818.35610  -67.71010  -28.77970   78.07730
 6750.00000   33.58630   26.11380   38.29400   97.77390   97.77390   44.75030   38.29400  508.64010  508.64010  -70.71840  -31.26880   33.58630
 6800.00000   12.17930   38.61510   25.89660  167.30680  167.30680   19.30430   25.89660  372.02430  372.02430  -78.62900  -38.66030   12.17930
 6850.00000  188.57210    2.00000  500.00000   16.28960   16.28960  500.00000  500.00000 1187.91990 1187.91990 -126.57720  -86.08590  188.57210
 6900.00000  132.57540    2.33940  427.45350   10.17300   10.17300  495.31980  427.45350 1208.62120 1208.62120 -136.15620  -95.14570  132.57540
 6950.00000  105.08400    2.75630  362.79980   19.03360   19.03360  500.00000  362.79980 1366.93160 1366.93160 -103.06550  -61.53250  105.08400
 7000.00000  136.48240    2.00000  500.00000   21.77770   21.77770  500.00000  500.00000 1521.96450 1521.96450 -145.83240 -103.78020  136.48240
 7050.00000  150.87860    2.19280  456.04750    9.87840    9.87840  394.87430  456.04750 1789.77580 1789.77580 -130.22240  -87.65100  150.87860
 7100.00000   79.84600    4.69430  213.02630   14.46360   14.46360  500.00000  213.02630 1579.61780 1579.61780 -160.53430 -117.44030   79.84600
 7150.00000  123.76520    3.89280  256.88450   11.31110   11.31110  421.23100  256.88450 1958.71960 1958.71960 -147.72940 -104.11630  123.76520
 7200.00000   80.20440    6.29370  158.88920    8.34370    8.34370  108.69850  158.88920 1475.15610 1475.15610 -143.64940  -99.51370   80.20440
 7250.00000  149.12040    2.00000  500.00000   19.80140   19.80140  500.00000  500.00000 1550.00330 1550.00330 -132.60090  -87.94600  149.12040
 7300.00000  100.49890    3.44590  290.20410   10.92650   10.92650  361.86970  290.20410 1288.86440 1288.86440 -129.36180  -84.18780  100.49890
 7350.00000  188.96860    2.00000  500.00000   11.28420   11.28420  500.00000  500.00000 1303.23190 1303.23190 -112.58990  -66.89330  188.96860
 7400.00000  242.61150    2.00000  500.00000   19.00440   19.00440  500.00000  500.00000 1379.93350 1379.93350 -118.99940  -72.78360  242.61150
 7450.00000  182.42750    2.00000  500.00000   10.79930   10.79930  500.00000  500.00000 1727.00420 1727.00420 -129.15960  -82.42120  182.42750
 7500.00000   84.26020    6.02940  165.85290   13.11900   13.11900   43.15660  165.85290 1287.53660 1287.53660 -149.61180 -102.35430   84.26020
 7550.00000   59.95800   10.93690   91.43350   14.07170   14.07170   48.72280   91.43350 1310.56570 1310.56570 -169.49110 -121.71440   59.95800
 7600.00000   25.13050   24.31160   41.13270   32.62730   32.62730  238.99970   41.13270 1081.51060 1081.51060 -132.99000  -84.69070   25.13050
 7650.00000   24.44570   35.84560   27.89740   35.96250   35.96250   12.87470   27.89740  787.22580  787.22580 -190.33360 -141.51520   24.44570
 7700.00000   77.77730    5.17990  193.05530   23.39690   23.39690  174.62570  193.05530 1289.77310 1289.77310 -130.25310  -80.91210   77.77730
 7750.00000  105.94370    3.70500  269.90780   15.48400   15.48400  312.74870  269.90780 1476.08330 1476.08330  -73.45180  -23.59160  105.94370
 7800.00000   61.57790    9.69360  103.16130   31.83420   31.83420  229.05450  103.16130 1573.78110 1573.78110  -57.67570   -7.29640   61.57790
 7850.00000   91.77790    4.46930  223.74760   10.59840   10.59840   48.79170  223.74760 1709.71060 1709.71060  -92.35200  -42.98080   91.77790
 7900.00000   43.71980   12.86370   77.73790   20.74260   20.74260  206.02620   77.73790 1337.72140 1337.72140  -80.92790  -32.59920   43.71980
 7950.00000   22.65110   39.56790   25.27300   49.04840   49.04840   26.89530   25.27300  901.64440  901.64440  -65.45050  -18.17100   22.65110
 8000.00000   15.05110   56.94370   17.56120   45.01090   45.01090   11.91820   17.56120  627.39760  627.39760  -71.46510  -25.22810   15.05110
 8050.00000    6.41070  122.15530    8.18630   72.20590   72.20590    7.73140    8.18630  384.74400  384.74400  -73.70510  -28.51050    6.41070
 8100.00000    5.23600  141.66510    7.05890   73.06440   73.06440    6.67250    7.05890  269.71880  269.71880  -76.76430  -32.61890    5.23600
 8150.00000    6.78860  114.36410    8.74400   64.91320   64.91320    2.85390    8.74400  293.52490  293.52490  -79.49930  -36.39640    6.78860
 8200.00000    5.50890  136.45730    7.32830   51.44240   51.44240    6.67220    7.32830  271.20480  271.20480  -82.37740  -40.32370    5.50890
 8250.00000    4.88700  155.61300    6.42620   71.36690   71.36690    5.73470    6.42620  292.28250  292.28250  -79.70720  -38.69600    4.88700
 8300.00000    5.00090  144.86670    6.90290   77.17090   77.17090    7.74690    6.90290  322.46410  322.46410  -83.76050  -43.79170    5.00090
 8350.00000    5.56550  141.08550    7.08790   77.03560   77.03560    6.05000    7.08790  388.68840  388.68840  -77.11150  -38.19200    5.56550
 8400.00000    6.01700  132.25940    7.56090   74.06270   74.06270    5.52640    7.56090  367.70810  367.70810  -66.52060  -28.64350    6.01700
 8450.00000   23.21660   40.40570   24.74900   88.59730   88.59730    5.09990   24.74900  819.04610  819.04610  -50.21330  -13.38540   23.21660
 8500.00000   15.02050   62.12070   16.09770   69.34810   69.34810   11.64060   16.09770  771.21190  771.21190  -53.93000  -18.14460   15.02050
 8550.00000   12.97500   76.94560   12.99620   65.35130   65.35130   10.59700   12.99620  735.82560  735.82560  -59.99680  -25.25380   12.97500
 8600.00000   12.37320   86.14600   11.60820   84.78450   84.78450   11.26820   11.60820  673.30200  673.30200  -61.59720  -27.90350   12.37320
 8650.00000   13.67040   80.87930   12.36410   66.79480   66.79480   11.38560   12.36410  690.22150  690.22150  -52.22640  -19.57510   13.67040
 8700.00000   13.00860   77.26240   12.94290   58.64490   58.64490   10.04070   12.94290  720.88330  720.88330  -45.45290  -13.85080   13.00860
 8750.00000   10.03280   98.81330   10.12010  100.68080  100.68080    6.47020   10.12010  606.84910  606.84910  -54.92430  -24.36470   10.03280
 8800.00000    9.22610  102.48320    9.75770   87.81930   87.81930    7.12640    9.75770  558.97030  558.97030  -62.47270  -32.95550    9.22610
 8850.00000   14.49590   39.26470   25.46820   92.81220   92.81220    5.80790   25.46820  636.65180  636.65180  -42.66850  -14.20060   14.49590
 8900.00000   83.69870    9.40380  106.34000   94.91000   94.91000  201.86150  106.34000  737.91070  737.91070  -64.49730  -37.47050   83.69870
 8950.00000   68.07450    5.10000  196.07820    9.28080    9.28080  158.77430  196.07820 1462.09690 1462.09690 -165.47020 -142.26520   68.07450
 9000.00000   76.11090    5.12030  195.29940   13.05850   13.05850  500.00000  195.29940 1450.31950 1450.31950 -163.61070 -144.20260   76.11090
 9050.00000   70.55580    5.09850  196.13660   22.09940   22.09940  344.34520  196.13660 1231.62610 1231.62610  -79.83590  -64.22480   70.55580
 9100.00000  215.35590    2.00000  500.00000   12.26380   12.26380  500.00000  500.00000 1415.84380 1415.84380 -123.40480 -111.61550  215.35590
 9150.00000   93.95900    5.69750  175.51650   23.28060   23.28060  367.21600  175.51650 1237.71620 1237.71620  -38.46780  -30.47550   93.95900
 9200.00000   33.30520   21.55270   46.39780   75.59630   75.59630   39.37470   46.39780  817.77440  817.77440  -26.09560  -21.92510   33.30520
 9250.00000   59.26420    7.35650  135.93420   53.97740   53.97740   45.72370  135.93420  743.36640  743.36640   -7.07970   -6.70620   59.26420
 9300.00000  209.71630    2.00000  500.00000   12.49110   12.49110  500.00000  500.00000 1106.73780 1106.73780  -61.11710  -61.54290  209.71630
 9350.00000    3.23180 1427.14430    0.70070  238.38170  238.38170    1.96440    0.70070  771.50590  771.50590 -145.67860 -146.10440    3.23180
