~Version ---------------------------------------------------
VERS.      2.0 : CWLS log ASCII Standard -VERSION 2.0
WRAP.       NO : One line per depth step
CREA. 01/03/18 : LAS Creation Date
~Well ------------------------------------------------------
STRT.FT                 1000.0 : START DEPTH
STOP.FT                12750.0 : STOP DEPTH
STEP.FT               50.00000 : STEP LENGTH
NULL.                  -999.25 : NULL VALUE
COMP.      TALISMAN ENERGY INC : COMPANY
WELL. TALISMAN EDSON 6-8-52-17 : WELL
FLD .                          : FIELD
LOC .                          : LOCATION
CTRY.                   CANADA : COUNTRY
SRVC.   Schlumberger of Canada : SERVICE COMPANY
DATE.              06-May-1978 : LOGDATE
PROV.                  Alberta : PROVINCE
UWI .         100060805217W500 : UNIQUE WELL ID
SLAT.WGS84            53.47276 : SURFACE LATITUDE
SLON.WGS84           -116.4739 : SURFACE LONGITUDE
~Curve Information -----------------------------------------
DEPT    .FT    : Depth Curve
CALDED  .IN    : CALIPER FROM DENSITY LOG [ADJ. TO RESISTIVITY LOG]
CALSED  .IN    : CALIPER FROM SONIC LOG
CALWS   .IN    : CALIPER [CALSED]
CILDED  .MMHO  : DEEP CONDUCTIVITY FROM RESISTIVITY LOG
CONDWS  .MMHO  : CONDUCTIVITY [1000/DRESWS]
DCORED  .G/C3  : DENSITY CORRECTION FROM DENSITY LOG
DCORWS  .G/C3  : DENSITY CORRECTION [DCORED]
DENWS   .G/C3  : FORMATION BULK DENSITY [CALC. FROM DPOLSWS , M=2.71 F=1.00]
DPHILSED.V/V   : DENSITY POROSITY LIMESTONE [M=2.71 F=1.00] FROM DENSITY LOG [ADJ. TO RESISTIVITY LOG]
DPHISSED.V/V   : DENSITY POROSITY SANDSTONE [M=2.71 F=1.00] FROM DENSITY LOG [ADJ. TO RESISTIVITY LOG]
DPOLSWS .V/V   : DENSITY POROSITY LIMESTONE [DPHISSED MATRIX CONVERSION FOR LIMESTONE , M=2.71 F=1.00 & SPL TO DPHILSED @ 9209']
DRESWS  .OHMM  : DEEP RESISTIVITY [1000/CILDED IF ILDED<1, ILDED & SPL. TO ILDED 6256']
DTED    .US/F  : DELTA TIME FROM SONIC LOG
DTWS    .US/F  : COMPRESSIONAL SONIC [DTED]
GRDED   .GAPI  : GAMMA RAY FROM DENSITY LOG [ADJ. TO RESISTIVITY LOG]
GRSED   .GAPI  : GAMMA RAY FROM SONIC LOG
GRWS    .GAPI  : GAMMA RAY [GRSED]
ILDED   .OHMM  : DEEP INDUCTION RESISTIVITY FROM RESISTIVITY LOG
ILMED   .OHMM  : MEDIUM INDUCTION RESISTIVITY FROM RESISTIVITY LOG
LL8ED   .OHMM  : LATEROLOG 8 RESISTIVITY FROM RESISTIVITY LOG
MRESWS  .OHMM  : MEDIUM RESISTIVITY [ILMED]
NPHILSED.V/V   : NEUTRON POROSITY LIMESTONE FROM DENSITY LOG [ADJ. TO RESISTIVITY LOG]
NPHISSED.V/V   : NEUTRON POROSITY  SANDSTONE FROM DENSITY LOG [ADJ. TO RESISTIVITY LOG]
NPOLSWS .V/V   : NEUTRON POROSITY LIMESTONE [NPHISSED MATRIX CONVERSION FOR LIMESTONE & SPL. TO NPHILSED @ 9198']
RHOBED  .G/C3  : FORMATION BULK DENSITY  FROM DENSITY LOG[ADJ. TO RESISTIVITY LOG]
SPRED   .MV    : SPONTANEOUS POTENTIAL FROM RESISTIVITY LOG
SPWS    .MV    : SPONTANEOUS POTENTIAL [BASELINE 0 MV. SPRED]
SRESWS  .OHMM  : SHALLOW RESISTIVITY [LL8ED]
~Params ----------------------------------------------------
PD  .                     GL : PERMANENT DATUM
EPD .FT               3147.2 : ELEVATION PERMANENT DATUM
LMF .                     KB : LOG MEASURED FROM
DAPD.FT                 22.3 : FEET ABOVE PERMANENT DATUM
EKB .FT               3169.5 : KELLY BUSHING
EGL .FT               3147.2 : GROUND LEVEL
DATE.               05/31/78 : RUN DATE
RUN .                      2 : RUN NUMBER
DD  .FT                12769 : DEPTH DRILLER
DL  .FT                12757 : DEPTH LOGGER
BLI .FT                12751 : BOTTOM LOG INTERVAL
TLI .FT                 9616 : TOP LOG INTERVAL
CBD .FT                 9625 : CASING BOTTOM DRILLER
BS  .IN                  8.5 : BIT SIZE
BSD .FT                12769 : BIT SIZE AT DEPTH
DFT .                    GEL : DRILLING FLUID TYPE
DFD .                    9.1 : DRILLING FLUID DENSITY
DFV .                     51 : DRILLING FLUID VISCOSITY
DFPH.                     10 : DRILLING FLUID PH
DFL .                     22 : DRILLING FLUID LOSS
MSS .               FLOWLINE : MUD SAMPLE SOURCE
RMF .OHMM              0.809 : RESISTIVITY MUD FILTRATE SAMPLE
MFST.DEGF                 63 : MUD FILTRATE SAMPLE TEMPERATURE
TCS .HRS                  12 : TIME CIRCULATED STOPPED
LUN .                   7800 : LOGGING UNIT NUMBER
LUL .                    EDM : LOGGING UNIT LOCATION
ENGI.               BERNISKY : RECORDING ENGINEER
WITN.               BRINKMAN : WITNESSED BY
CLNT.                A2DTECH : CLIENT CODE
ORIG.            2" 5" PRINT : ORIGIN OF DATA
UWI .       100060805217W500 : UNIQUE WELL ID
DICO. A2D Technologies, Inc. : DIGITIZING COMPANY
~Other -----------------------------------------------------
~ASCII -----------------------------------------------------
# ...
 3500.00000    -999.25   12.99080   12.99080  165.60320  159.16470    -999.25    -999.25    -999.25    -999.25    -999.25    -999.25    6.28280   85.81480   85.81480    -999.25   96.85590   96.85590    6.28280    -999.25    5.99990    -999.25    -999.25    -999.25    -999.25    -999.25 -295.80930   -6.95900    5.99990
 3550.00000    -999.25   13.87600   13.87600  162.55070  166.88550    -999.25    -999.25    -999.25    -999.25    -999.25    -999.25    6.06000   91.74050   91.74050    -999.25  110.48550  110.48550    6.06000    -999.25    2.92390    -999.25    -999.25    -999.25    -999.25    -999.25 -298.28880   -4.52540    2.92390
 3600.00000    -999.25   13.47330   13.47330  130.51560  116.69290    -999.25    -999.25    -999.25    -999.25    -999.25    -999.25    8.56950   82.19700   82.19700    -999.25  106.25520  106.25520    8.56950    -999.25    4.85800    -999.25    -999.25    -999.25    -999.25    -999.25 -297.04460   -5.81580    4.85800
 3650.00000    -999.25   13.33980   13.33980  145.32090  148.02530    -999.25    -999.25    -999.25    -999.25    -999.25    -999.25    6.75560   80.97070   80.97070    -999.25   99.79720   99.79720    6.75560    -999.25    5.19750    -999.25    -999.25    -999.25    -999.25    -999.25 -299.43820   -3.46810    5.19750
 3700.00000    -999.25   12.82320   12.82320   40.17040   35.10560    -999.25    -999.25    -999.25    -999.25    -999.25    -999.25   28.48550   70.61130   70.61130    -999.25   58.94520   58.94520   28.48550    -999.25   19.02290    -999.25    -999.25    -999.25    -999.25    -999.25 -291.96560  -10.98690   19.02290
 3750.00000    -999.25   13.17610   13.17610  292.64540   28.16030    -999.25    -999.25    -999.25    -999.25    -999.25    -999.25   35.51100   74.51270   74.51270    -999.25   91.66290   91.66290   35.51100    -999.25    4.67350    -999.25    -999.25    -999.25    -999.25    -999.25 -295.03210   -7.96630    4.67350
 3800.00000    -999.25   12.79130   12.79130   83.13890   80.38690    -999.25    -999.25    -999.25    -999.25    -999.25    -999.25   12.45580   75.86770   75.86770    -999.25   58.89290   58.89290   12.45580    -999.25   10.10280    -999.25    -999.25    -999.25    -999.25    -999.25 -287.45570  -15.58860   10.10280
 3850.00000    -999.25   13.39110   13.39110   99.86360  100.50960    -999.25    -999.25    -999.25    -999.25    -999.25    -999.25    9.94930   75.32980   75.32980    -999.25  106.46430  106.46430    9.94930    -999.25    7.13040    -999.25    -999.25    -999.25    -999.25    -999.25 -298.82060   -4.26980    7.13040
 3900.00000    -999.25   15.16050   15.16050  335.45540  297.46850    -999.25    -999.25    -999.25    -999.25    -999.25    -999.25    3.36170   97.33900   97.33900    -999.25  124.94370  124.94370    3.36170    -999.25    2.91830    -999.25    -999.25    -999.25    -999.25    -999.25 -298.20690   -4.92940    2.91830
 3950.00000    -999.25   12.97100   12.97100  128.10250  119.30900    -999.25    -999.25    -999.25    -999.25    -999.25    -999.25    8.38160   80.89990   80.89990    -999.25  104.56620  104.56620    8.38160    -999.25    7.82700    -999.25    -999.25    -999.25    -999.25    -999.25 -296.10150   -7.08100    7.82700
 4000.00000    -999.25   13.23310   13.23310  106.35070    5.42300    -999.25    -999.25    -999.25    -999.25    -999.25    -999.25  184.40060   70.02900   70.02900    -999.25   91.46510   91.46510  184.40060    -999.25    6.96870    -999.25    -999.25    -999.25    -999.25    -999.25 -294.82990   -8.39850    6.96870
 4050.00000    -999.25   13.58050   13.58050   84.30870   81.72220    -999.25    -999.25    -999.25    -999.25    -999.25    -999.25   12.23660   83.59650   83.59650    -999.25  102.58110  102.58110   12.23660    -999.25   10.58650    -999.25    -999.25    -999.25    -999.25    -999.25 -298.38720   -4.88710   10.58650
 4100.00000    -999.25   13.11610   13.11610   82.71050   86.96790    -999.25    -999.25    -999.25    -999.25    -999.25    -999.25   11.49850   73.47480   73.47480    -999.25   63.19300   63.19300   11.49850    -999.25   12.45800    -999.25    -999.25    -999.25    -999.25    -999.25 -291.63620  -11.68430   12.45800
 4150.00000    -999.25   13.17310   13.17310  165.51380  104.30250    -999.25    -999.25    -999.25    -999.25    -999.25    -999.25    9.58750   75.24040   75.24040    -999.25   94.64300   94.64300    9.58750    -999.25    6.84530    -999.25    -999.25    -999.25    -999.25    -999.25 -296.09040   -7.27600    6.84530
 4200.00000    -999.25   13.57710   13.57710   15.30740   29.96860    -999.25    -999.25    -999.25    -999.25    -999.25    -999.25   33.36830   68.58250   68.58250    -999.25   83.51520   83.51520   33.36830    -999.25    7.77650    -999.25    -999.25    -999.25    -999.25    -999.25 -291.92770  -11.48490    7.77650
 4250.00000    -999.25   14.03890   14.03890   91.73780   89.81260    -999.25    -999.25    -999.25    -999.25    -999.25    -999.25   11.13430   73.83940   73.83940    -999.25  105.49930  105.49930   11.13430    -999.25    9.27390    -999.25    -999.25    -999.25    -999.25    -999.25 -292.87380  -10.58470    9.27390
 4300.00000    -999.25   12.54750   12.54750    1.67400   12.69030    -999.25    -999.25    -999.25    -999.25    -999.25    -999.25  171.14750   69.94580   69.94580    -999.25   65.54530   65.54530  171.14750    -999.25   16.95490    -999.25    -999.25    -999.25    -999.25    -999.25 -292.13610  -11.36830   16.95490
 4350.00000    -999.25   13.18140   13.18140   88.83120   89.61380    -999.25    -999.25    -999.25    -999.25    -999.25    -999.25   11.15900   62.75650   62.75650    -999.25   80.95320   80.95320   11.15900    -999.25   12.73170    -999.25    -999.25    -999.25    -999.25    -999.25 -293.52960  -10.02090   12.73170
 4400.00000    -999.25   12.78780   12.78780   55.42140   41.84070    -999.25    -999.25    -999.25    -999.25    -999.25    -999.25   23.90020   72.16590   72.16590    -999.25   90.82510   90.82510   23.90020    -999.25   16.63310    -999.25    -999.25    -999.25    -999.25    -999.25 -291.57490  -12.02150   16.63310
 4450.00000    -999.25   13.89430   13.89430  126.86940  126.80380    -999.25    -999.25    -999.25    -999.25    -999.25    -999.25    7.88620   75.23910   75.23910    -999.25   86.63060   86.63060    7.88620    -999.25    8.84660    -999.25    -999.25    -999.25    -999.25    -999.25 -295.85310   -7.78950    8.84660
 4500.00000    -999.25   11.78380   11.78380   26.47220   32.74400    -999.25    -999.25    -999.25    -999.25    -999.25    -999.25   30.53990   70.40950   70.40950    -999.25   47.76050   47.76050   30.53990    -999.25   21.27170    -999.25    -999.25    -999.25    -999.25    -999.25 -273.09280  -30.59570   21.27170
 4550.00000    -999.25   12.41110   12.41110   11.66350    4.93090    -999.25    -999.25    -999.25    -999.25    -999.25    -999.25  216.18170   71.89700   71.89700    -999.25   51.69580   51.69580  216.18170    -999.25   31.83810    -999.25    -999.25    -999.25    -999.25    -999.25 -275.48460  -28.24980   31.83810
 4600.00000    -999.25   12.40000   12.40000   19.80840    8.05270    -999.25    -999.25    -999.25    -999.25    -999.25    -999.25  124.18260   55.30190   55.30190    -999.25   62.44950   62.44950  124.18260    -999.25   39.81220    -999.25    -999.25    -999.25    -999.25    -999.25 -282.93910  -20.84150   39.81220
 4650.00000    -999.25   13.85960   13.85960  136.48070  128.89920    -999.25    -999.25    -999.25    -999.25    -999.25    -999.25    7.75800   83.78950   83.78950    -999.25   91.60790   91.60790    7.75800    -999.25    6.02480    -999.25    -999.25    -999.25    -999.25    -999.25 -295.44810   -8.37840    6.02480
 4700.00000    -999.25   12.66370   12.66370   26.79440   23.50260    -999.25    -999.25    -999.25    -999.25    -999.25    -999.25   42.54840   67.36180   67.36180    -999.25   61.22480   61.22480   42.54840    -999.25   27.78770    -999.25    -999.25    -999.25    -999.25    -999.25 -289.24310  -14.62960   27.78770
