~Version ---------------------------------------------------
VERS. 2.0 : CWLS log ASCII Standard -VERSION 2.0
WRAP.  NO : ONE LINE PER DEPTH STEP
~Well ------------------------------------------------------
STRT.M                         300.0 : START DEPTH
STOP.M                        2300.0 : STOP DEPTH
STEP.M                      50.00000 : STEP LENGTH
NULL.                        -999.25 : NULL VALUE
COMP.            PRODECO OIL AND GAS : COMPANY
WELL. PRODECO ET AL ETHEL 12-14-67-8 : WELL
FLD .                                : FIELD
LOC .                                : LOCATION
CTRY.                         CANADA : COUNTRY
SRVC.                     Computalog : SERVICE COMPANY
DATE.                    10-Dec-1984 : LOGDATE
PROV.                        Alberta : PROVINCE
UWI .               100121406708W500 : UNIQUE WELL ID
SLAT.WGS84                  54.80167 : SURFACE LATITUDE
SLON.WGS84                 -115.1135 : SURFACE LONGITUDE
~Curve Information -----------------------------------------
DEPT  .M    0   1   0  0 : 1 MEASURED DEPTH
SPR   .MV   07 010 01 00 : SPONTANEOUS POTENTIAL FROM RESISTIVITY LOG
RILD  .OHMM 07 120 46 00 : INDUCTION DEEP RESISTIVITY
RILM  .OHMM 07 120 44 00 : INDUCTION MEDIUM RESISTIVITY
RLL   .OHMM 07 220 04 00 : RAW LATEROLOG COUNT RATE
GRS   .GAPI 60 310 01 00 : GAMMA RAY FROM SONIC LOG
CALXS .MM   60 280 13 00 : CALIPER FROM X AXIS OF X-Y CALIPER(S) FROM SONIC LOG
DT    .US/M 60 500 00 00 : DELTA-T (INTERVAL TRANSIT TIME)
GRD   .GAPI 45 310 01 00 : GAMMA RAY FROM DENSITY LOG
CNS_LS.DEC  42 890 01 00 : COMPENSATED NEUTRON POROSITY
CALYD .MM   45 280 24 00 : CALIPER FROM X AXIS OF X-Y CALIPER(S) FROM DENSITY LOG
CDL_LS.DEC  45 890 10 00 : COMPENSATED DENSITY POROSITY LIMESTONE
CALXD .MM   45 280 13 00 : CALIPER FROM X AXIS OF X-Y CALIPER(S) FROM DENSITY LOG
CDL_SS.DEC  45 890 12 00 : COMPENSATED DENSITY POROSITY SANDSTONE
CNS_SS.DEC  42 890 03 00 : COMPENSATED NEUTRON POROSITY
DRHO  .K/M3 45 356 01 00 : BULK DENSITY CORRECTION
RHOB  .K/M3 45 350 01 00 : BULK DENSITY
~Params ----------------------------------------------------
PD  .                         GL : PERMANENT DATUM
EPD .M                    921.39 : ELEVATION PERMANENT DATUM
LMF .                         KB : LOG MEASURED FROM
DAPD.M                      7.08 : FEET ABOVE PERMANENT DATUM
EKB .M                    928.47 : KELLY BUSHING
EGL .M                    921.39 : GROUND LEVEL
DATE.                   12/10/84 : RUN DATE
RUN .                          1 : RUN NUMBER
DD  .M                      2345 : DEPTH DRILLER
DL  .M                    2368.5 : DEPTH LOGGER
BLI .M                    2343.5 : BOTTOM LOG INTERVAL
TLI .M                       275 : TOP LOG INTERVAL
CS  .MM                    219.1 : CASING SIZE
CBD .M                       275 : CASING BOTTOM DRILLER
CBL .M                       275 : CASING BOTTOM LOGGER
BS  .MM                      200 : BIT SIZE
BSD .M                      2345 : BIT SIZE AT DEPTH
DFT .                   GEL CHEM : DRILLING FLUID TYPE
DFD .                       1110 : DRILLING FLUID DENSITY
DFV .                         55 : DRILLING FLUID VISCOSITY
DFPH.                       10.5 : DRILLING FLUID PH
DFL .                         11 : DRILLING FLUID LOSS
RMS .OHMM                    1.4 : RESISTIVITY MUD SAMPLE
MST .DEGC                     18 : MUD SAMPLE TEMPERATURE
RMF .OHMM                   0.85 : RESISTIVITY MUD FILTRATE SAMPLE
MFST.DEGC                     18 : MUD FILTRATE SAMPLE TEMPERATURE
RMC .OHMM                    1.4 : RESISTIVITY MUD CAKE
MCST.DEGC                     20 : MUD CAKE SAMPLE TEMPERATURE
RMB .OHMM                    0.6 : RESISTIVITY MUD AT BHT
TCS .HRS                       4 : TIME CIRCULATED STOPPED
LUN .                        316 : LOGGING UNIT NUMBER
LUL .                   EDMONTON : LOGGING UNIT LOCATION
ENGI.                        ARD : RECORDING ENGINEER
WITN.                     SAHOTA : WITNESSED BY
CLNT.                    A2DTECH : CLIENT CODE
ORIG. 6.5"/100M 16.5"/100M PRINT : ORIGIN OF DATA
UWI .           100121406708W500 : UNIQUE WELL ID
DICO.     A2D Technologies, Inc. : DIGITIZING COMPANY
~Other -----------------------------------------------------
~ASCII -----------------------------------------------------
  300.00000 -119.84570    4.53560    4.31480    3.96110   60.49340  274.79310  426.72970   60.83440    0.36160  358.05500    0.48000  348.89210    -999.25    -999.25   79.91590 1898.20120
  350.00000 -119.71300   10.13010    8.79330    7.68000   55.94740  213.56190  386.08720   53.97420    0.42080  215.29010    0.37790  196.49670    -999.25    -999.25   88.62080 2072.09910
  400.00000 -112.22400    4.71810    4.33220    4.12090   55.59020  269.74370  363.39650   53.46470    0.36140  256.45250    0.35000  242.82350    -999.25    -999.25  143.18960 2036.87980
  450.00000 -120.53880    8.57420    7.46870    6.51880   46.20180  248.71820  372.43530   52.50820    0.32690  244.40290    0.31230  227.87080    -999.25    -999.25  122.39290 2184.68410
  500.00000 -118.45630    9.07810   10.10750    8.91450   44.85050  193.38350  351.53010   43.01040    0.31000  198.72880    0.28490  178.90290    -999.25    -999.25   12.08630 2205.02690
  550.00000 -110.32350    3.95730    3.76870    3.59160   62.58240  297.01090  373.72120   60.80990    0.40820  275.84230    0.55110  259.66120    -999.25    -999.25  160.81280 1764.79030
  600.00000 -110.05150    4.97290    4.58860    4.00790   67.10470  362.88180  387.39700   72.17740    0.38620  369.29270    0.49740  355.50830    -999.25    -999.25  137.48750 1850.40770
  650.00000 -106.34980    5.66890    5.28130    4.80770   94.20780  363.78040  431.98830  107.62310    0.40040  392.58710    0.65380  387.89950    -999.25    -999.25  124.08490 1607.84520
  700.00000 -110.87670    6.14760    5.55960    4.78220   79.56380  369.46500  364.78130   74.44490    0.37680  425.99970    0.80270  395.97120    -999.25    -999.25   33.55310 1380.21580
  750.00000 -109.03330    6.15540    5.35250    5.10120   74.53410  362.14950  448.09910   81.42930    0.43850  258.94830    0.65350  230.23510    -999.25    -999.25   83.82170 1772.91480
  800.00000 -103.21930    4.93220    4.83180    4.62540   93.76920  294.02600  382.80800  100.63360    0.40770  321.03030    0.60600  288.11290    -999.25    -999.25  134.05580 1664.14280
  850.00000  -99.47180    3.85510    3.64630    3.39140   88.43430  316.69340  359.32680   91.68430    0.40560  303.23250    0.37430  296.05250    -999.25    -999.25  174.49070 2068.53930
  900.00000  -96.09560    3.86860    3.74130    3.60710  100.24070  325.39980  351.48250   92.83710    0.35040  284.28580    0.41490  278.56590    -999.25    -999.25  169.27910 2017.29740
  950.00000  -89.05110    2.03930    2.20540    2.43450   82.41050  317.64260  351.92430   90.52000    0.39880  300.17510    0.34890  294.64970    -999.25    -999.25  175.12070 2115.32320
 1000.00000  -91.14650    3.46030    3.77970    6.81360   42.73120  213.99110  278.92640   36.73990    0.24080  199.35690    0.37530  200.20930    -999.25    -999.25   75.74380 1888.58720
 1050.00000 -133.43240    2.29030    3.95860    6.34580   58.52920  206.87400  326.42380   56.90570    0.32190  189.38390    0.28460  181.95850    -999.25    -999.25  141.11520 2223.03270
 1100.00000 -105.58810    2.88200    3.78860    5.62740   74.46030  210.94590  315.98340   74.38850    0.35250  201.29120    0.23120  197.96250    -999.25    -999.25  145.20680 2313.58350
 1150.00000  -92.41930    2.79210    3.43160    3.67490   76.31100  210.53270  297.38020   70.06880    0.34030  215.83710    0.19180  209.75040    -999.25    -999.25  124.15840 2400.26660
 1200.00000  -81.08300    3.43250    3.58820    3.99630   77.09970  339.59810  281.56050   72.02030    0.32030  311.83290    0.23260  299.70560    -999.25    -999.25  234.12600 2317.29350
 1250.00000  -94.97130    4.91920    5.37730    5.55370   81.86430  327.28770  302.48590   88.11950    0.28210  257.71740    0.21910  256.58510    -999.25    -999.25   88.62140 2329.92190
 1300.00000  -95.47380   17.84960   20.71110   44.28680   19.47830  279.30760  186.07260   24.37200    0.06980  278.27430    0.04350  275.30390    -999.25    -999.25   47.65320 2641.21070
 1350.00000  -90.92110    2.84880    2.53940    3.23340   73.94290  369.78560  306.93200   84.79380    0.32410  441.47370    0.68010  413.30240    -999.25    -999.25  117.90810 1539.96440
 1400.00000  -72.68590    7.45880    8.08480    9.07300   58.84000  276.06630  223.35790   66.02830    0.14740  284.44930    0.06760  287.63590    -999.25    -999.25   41.91790 2592.40140
 1450.00000  -89.99940   17.17580   18.79110   22.38830   26.58280  266.91330  191.89030   27.55650    0.08400  256.34480    0.01500  265.01710    -999.25    -999.25   21.98560 2686.45610
 1500.00000 -141.69840    7.44120   15.07160   59.22920   19.66680  217.26520  179.48910   13.55820    0.10180  208.56470    0.03700  218.02140    -999.25    -999.25   29.79470 2644.24220
 1550.00000 -148.93400   11.03450   22.08820   62.71310    8.47720  200.61250  188.14550   10.17410    0.10380  188.76140    0.08240  197.02730    -999.25    -999.25  113.19220 2571.44340
 1600.00000 -108.60860   35.55640   44.92550   73.48600   14.93930  249.87960  170.43550   14.64670    0.02500  250.41410    0.02030  248.19140    -999.25    -999.25   24.96860 2667.42020
 1650.00000 -131.08870   13.90740   28.21030  103.05720   12.62990  210.06290  172.19920   12.26470    0.02460  205.98580    0.04610  196.53230    -999.25    -999.25   31.38760 2649.60790
 1700.00000 -116.49890   10.59070   17.76550   48.12620   21.81690  206.08040  176.43010   22.54660    0.10380  203.04890    0.03320  199.19290    -999.25    -999.25  120.09530 2650.04050
 1750.00000  -69.51200    4.83150    5.26920    6.55890   57.48340  346.17690  252.67840   69.05470    0.24430  325.97950    0.28540  315.10010    -999.25    -999.25  198.88320 2217.75460
 1800.00000  -51.99480    7.31450    6.63020    9.34330   50.20490  228.91180  217.42840   51.90720    0.15700  224.25130    0.02960  226.36870    -999.25    -999.25   31.69130 2653.53100
 1850.00000  -79.72690    2.67320    2.27660    2.77590   70.59940  366.66500  313.58390   70.58470    0.35180  422.15800    0.36300  412.28580    -999.25    -999.25  122.69740 2142.99580
 1900.00000  -49.01350    2.82200    2.96750    3.30740   73.86040  361.48340  283.00850   75.44910    0.34560  352.56040    0.16470  360.46970    -999.25    -999.25   90.42420 2429.91360
 1950.00000  -55.03370    2.98950    2.74910    3.28160   81.68770  305.91040  267.47990   79.85660    0.38430  328.82850    0.42300  356.70320    -999.25    -999.25   88.09110 1971.13790
 2000.00000  -37.02890    4.86580    5.61440    7.96970   44.96290  300.98280  223.88860   49.13530    0.14930  259.56500    0.20150  265.59740    -999.25    -999.25  253.31300 2363.93970
 2050.00000  -22.75140    9.59280   10.94790   12.32070   44.13150  218.88260  207.63020   46.29740    0.12590  231.59010    0.01990  228.79100    -999.25    -999.25   35.39150 2679.51590
 2100.00000  -43.02640    2.49500    2.58830    3.16030   80.83540  366.44270  288.70610   77.45320    0.32080  390.78200    0.17810  393.38890    -999.25    -999.25  141.93350 2402.95900
 2150.00000  -28.91050    5.91030    6.11000    8.03680   67.42100  279.65090  275.81560   71.85860    0.25190  285.84270    0.39020  254.57760    -999.25    -999.25  250.81000 2049.92820
 2200.00000   -9.28620   16.56470   21.16710   25.49420   33.12510  224.84320  192.06500   35.59620    0.08460  227.00890    0.03220  225.35810    -999.25    -999.25    1.85800 2652.81100
 2250.00000   -0.78960   13.35310   15.13420   17.79530   40.12000  219.24960  199.17990   40.07610    0.10100  229.69390    0.01600  227.34310    -999.25    -999.25    9.54550 2683.47310
 2300.00000  -14.65720  478.04690  417.98110  529.82750   13.50400  202.22930  178.60890   15.69600    0.02970  207.14140    0.04080  205.57180   -0.01850    0.06700   10.97480 2635.99760
