~Version ---------------------------------------------------
VERS.      2.0 : CWLS log ASCII Standard -VERSION 2.0
WRAP.       NO : One line per depth step
CREA. 10/01/14 : LAS Creation Date
~Well ------------------------------------------------------
STRT.FT                                  935.9 : START DEPTH
STOP.FT                                 9375.9 : STOP DEPTH
STEP.FT                                0.50000 : STEP LENGTH
NULL.                                  -999.25 : NULL VALUE
COMP. THE BRITISH AMERICAN OIL COMPANY LIMITED : COMPANY
WELL.        B.A. EAST GOOSE RIVER 10-22-66-15 : WELL
FLD .                                          : FIELD
LOC .                                          : LOCATION
CTRY.                                   CANADA : COUNTRY
SRVC.                   Schlumberger of Canada : SERVICE COMPANY
DATE.                              16-Mar-1960 : LOGDATE
PROV.                                  Alberta : PROVINCE
UWI .                         100102206615W500 : UNIQUE WELL ID
SLAT.WGS84                            54.72873 : SURFACE LATITUDE
SLON.WGS84                           -116.1771 : SURFACE LONGITUDE
~Curve Information -----------------------------------------
DEPT.FT      : DEPTH FEET
CILD.MMHO    : CONDUCTIVITY FROM RESISTIVITY LOG
DT  .US/F    : DELTA-T FROM SONIC LOG
GRS .MG/TON  : GAMMA RAY FROM SONIC LOG
ILD .OHMM    : DEEP INDUCTION FROM RESISTIVITY LOG
MCAL.IN      : MLT CALIPER FROM MICRO LOG
SN  .OHMM    : SHORT NORMAL FROM RESISTIVITY LOG
SPR .MV      : SPONTANEOUS POTENTIAL FROM RESISTIVITY LOG
~Params ----------------------------------------------------
LMF .                     KB : LOG MEASURED FROM
DMF .                     KB : DRILLING MEASURED FROM
EKB .FT                 3222 : KELLY BUSHING
EGL .FT                 3205 : GROUND LEVEL
DATE.               03/16/60 : RUN DATE
RUN .                      2 : RUN NUMBER
DD  .FT                 9370 : DEPTH DRILLER
DL  .FT                 9378 : DEPTH LOGGER
BLI .FT                 9373 : BOTTOM LOG INTERVAL
TLI .FT                 5000 : TOP LOG INTERVAL
CBD .FT                  975 : CASING BOTTOM DRILLER
BS  .IN                    9 : BIT SIZE
BSD .FT                 9370 : BIT SIZE AT DEPTH
DFT .                    GEL : DRILLING FLUID TYPE
DFD .                     10 : DRILLING FLUID DENSITY
DFV .                    120 : DRILLING FLUID VISCOSITY
DFPH.                     10 : DRILLING FLUID PH
DFL .                    6.2 : DRILLING FLUID LOSS
RMS .OHMM                2.8 : RESISTIVITY MUD SAMPLE
MST .DEGF                 59 : MUD SAMPLE TEMPERATURE
RMF .OHMM               1.41 : RESISTIVITY MUD FILTRATE SAMPLE
MFST.DEGF                 68 : MUD FILTRATE SAMPLE TEMPERATURE
RMC .OHMM               2.56 : RESISTIVITY MUD CAKE
MCST.DEGF                 67 : MUD CAKE SAMPLE TEMPERATURE
RMB .OHMM               0.94 : RESISTIVITY MUD AT BHT
TCS .HRS                 4.5 : TIME CIRCULATED STOPPED
LUN .                  1573C : LOGGING UNIT NUMBER
LUL .                     WC : LOGGING UNIT LOCATION
ENGI.              HAUSEGGER : RECORDING ENGINEER
WITN.                   COTE : WITNESSED BY
CLNT.                A2DTECH : CLIENT CODE
ORIG.            2" 5" PRINT : ORIGIN OF DATA
UWI .       100102206615W500 : UNIQUE WELL ID
DICO. A2D Technologies, Inc. : DIGITIZING COMPANY
~Other -----------------------------------------------------
~ASCII -----------------------------------------------------
# ...
 9350.90000  508.01440   76.27070    4.56880    0.65670    8.23540    2.09850 -181.64720
 9351.40000  507.97130   75.34970    4.41550    0.71650    8.21770    2.71390 -180.19670
 9351.90000  507.93130   73.56140    4.67520    0.71140    8.20270    3.35620 -178.44380
 9352.40000  507.78840   71.95460    4.87840    0.75360    8.19570    3.58050 -176.63240
 9352.90000  507.62220   71.54720    4.85400    0.81150    8.18860    3.73190 -174.47240
 9353.40000  507.62600   72.64100    4.39810    0.83290    8.17510    3.86280 -170.80530
 9353.90000  507.64270   73.52050    4.51000    0.82830    8.20210    4.02710 -165.80130
 9354.40000  507.63670   73.50160    4.62290    0.84290    8.20840    4.05570 -162.13680
 9354.90000  507.62540   74.16510    4.94960    0.89210    8.22170    4.07020 -148.14500
 9355.40000  507.39140   74.71850    5.15680    0.92020    8.23780    4.05270 -141.90170
 9355.90000  507.43760   74.55270    5.77760    0.97590    8.33370    4.00670 -122.08560
 9356.40000  507.39220   73.77770    6.00470    0.98500    8.31340    4.11130 -118.17390
 9356.90000  507.30510   70.56560    7.21250    1.03650    8.40510    4.67020 -107.20300
 9357.40000  507.30230   71.05990    7.90410    1.06250    8.57160    4.97390 -103.60830
 9357.90000  507.20090   71.35600    9.44950    1.16150    8.40710    5.91140  -97.03470
 9358.40000  507.20270   70.78130    9.84950    1.18580    8.31810    6.00790 -100.00810
 9358.90000  507.22620   69.18830   11.00280    1.26310    8.24360    6.29130 -110.29060
 9359.40000  507.22420   69.39790   10.77560    1.28700    8.23960    6.48350 -113.33510
 9359.90000  506.82860   69.13760    8.05620    1.35410    8.19890    7.51560 -122.76110
 9360.40000  500.00160   68.81730    7.45460    1.40880    8.17600    7.96730 -123.99200
 9360.90000  454.55990   67.82370    6.85660    1.69840    8.21590    8.56840 -120.37780
 9361.40000  415.94500   66.70300    7.01390    2.11310    8.34110    7.69550 -109.17360
 9361.90000  377.33000   65.64170    6.47150    2.77420    8.58590    6.84290  -94.97190
 9362.40000  338.71520   66.47830    4.97040    3.60070    8.93190    6.08340  -81.78590
 9362.90000  300.10020   68.78120    4.28690    3.97760    8.96170    5.70930  -72.42780
 9363.40000  261.48540   69.40340    4.42280    4.73730    8.96290    5.71150  -66.42530
 9363.90000  222.99380   67.31140    5.22060    5.10720    8.96500    6.06360  -61.47220
 9364.40000  222.49790   65.95670    6.03470    5.58960    8.98370    6.41630  -57.47480
 9364.90000  198.40900   66.49090    5.95360    5.84840    8.98110    6.61130  -56.46760
 9365.40000  183.40960   65.68410    5.77140    6.62980    8.98590    7.39710  -53.89230
 9365.90000  169.33880   64.60880    5.91720    6.89110    8.99250    7.69260  -54.22660
 9366.40000  156.77830   62.69680    6.53330    7.67510    9.00170    8.79630  -55.32550
 9366.90000  150.49470   63.16640    6.38980    7.98870    8.99620    9.30350  -53.17030
 9367.40000  132.39060   63.20670    5.48660    9.32570    8.99710   10.82500  -42.26750
 9367.90000  125.30270   62.13990    5.68300    9.86090    9.00340   11.40020  -38.81900
 9368.40000  101.50480   62.11200    6.96060   11.95430    9.01930   13.18790  -32.79490
 9368.90000   95.50770   62.49600    7.20020   12.72420    9.02240   13.71980  -30.83850
 9369.40000   83.14000   62.87350    8.82100   15.03390    9.03350   15.15710  -24.68920
 9369.90000   81.60070   62.73070   10.82420   15.36900    9.03560   15.60980  -23.38510
 9370.40000   78.23500    -999.25    -999.25   15.71510    8.97700   16.31350  -20.89520
 9370.90000   77.91470    -999.25    -999.25   15.52130    8.98270   16.15800  -20.60540
 9371.40000   77.75010    -999.25    -999.25   14.93970    9.00590   15.60360  -20.28570
 9371.90000    -999.25    -999.25    -999.25   14.55210    8.97570   15.20490  -20.29400
 9372.40000    -999.25    -999.25    -999.25   14.16440    8.92670   14.80610  -20.22720
 9372.90000    -999.25    -999.25    -999.25   14.04200    8.78070   14.69050  -19.42710
 9373.40000    -999.25    -999.25    -999.25    -999.25    8.49470    -999.25    -999.25
 9373.90000    -999.25    -999.25    -999.25    -999.25    8.27320    -999.25    -999.25
 9374.40000    -999.25    -999.25    -999.25    -999.25    7.95130    -999.25    -999.25
 9374.90000    -999.25    -999.25    -999.25    -999.25    7.40780    -999.25    -999.25
 9375.40000    -999.25    -999.25    -999.25    -999.25    7.22490    -999.25    -999.25
 9375.90000    -999.25    -999.25    -999.25    -999.25    6.96080    -999.25    -999.25
