~Version ---------------------------------------------------
VERS.      2.0 : CWLS log ASCII Standard -VERSION 2.0
WRAP.       NO : One line per depth step
CREA. 11/03/17 : LAS Creation Date
~Well ------------------------------------------------------
STRT.FT                            1500.0 : START DEPTH
STOP.FT                           10400.0 : STOP DEPTH
STEP.FT                          50.00000 : STEP LENGTH
NULL.                             -999.25 : NULL VALUE
COMP.                CHEVRON STANDARD LTD : COMPANY
WELL. CHEVRON ET AL HEAVYSOUND 3-25-61-17 : WELL
FLD .                                     : FIELD
LOC .                                     : LOCATION
CTRY.                              CANADA : COUNTRY
SRVC.                        Schlumberger : SERVICE COMPANY
DATE.                         27-Nov-1977 : LOGDATE
PROV.                             Alberta : PROVINCE
UWI .                    100032506117W500 : UNIQUE WELL ID
SLAT.WGS84                       54.30091 : SURFACE LATITUDE
SLON.WGS84                       -116.419 : SURFACE LONGITUDE
~Curve Information -----------------------------------------
DEPT    .FT    : Depth Curve
CALDED  .IN    : CALIPER FROM DENSITY LOG [ADJ. TO RESISTIVITY LOG]
CALSED  .IN    : CALIPER FROM SONIC LOG [ADJ. TO RESISTIVITY LOG]
CALWS   .IN    : CALIPER [CALSED SPL. TO CALDED @ 9702']
CONDWS  .MMHO  : CONDUCTIVITY [1000/DRESWS]
DCORWS  .G/C3  : DENSITY CORRECTION [DRHOED]
DENWS   .G/C3  : FORMATION BULK DENSITY [RHOBED]
DPHILSED.V/V   : DENSITY POROSITY LIMESTONE [M=2.71, F=1.00] FROM DENSITY LOG [ADJ. TO RESISTIVITY LOG]
DPHISSED.V/V   : DENSITY POROSITY SANDSTONE [M=2.65, F=1.00] FROM DENSITY LOG [ADJ. TO RESISTIVITY LOG]
DPOLSWS .V/V   : DENSITY POROSITY LIMESTONE [CALC FROM DENWS,M=2.71, F=1.00]
DRESWS  .OHMM  : DEEP RESISTIVITY [ILDED]
DRHOED  .G/C3  : BULK DENSITY CORRECTION FROM DENSITY LOG [ADJ. TO RESISTIVITY LOG]
DTED    .US/F  : DELTA-T FROM SONIC LOG [ADJ. TO RESISTIVITY LOG]
DTWS    .US/F  : COMPRESSIONAL SONIC [DTED]
GRDED   .GAPI  : GAMMA RAY FROM DENSITY LOG [ADJ. TO RESISTIVITY LOG]
GRNED   .GAPI  : GAMMA RAY FROM GRN LOG [ADJ. TO RESISTIVITY LOG]
GRSED   .GAPI  : GAMMA RAY FROM SONIC LOG [ADJ. TO RESISTIVITY LOG]
GRWS    .GAPI  : GAMMA RAY [GRSED]
ILDED   .OHMM  : DEEP  INDUCTION RESISTIVITY FROM RESISTIVITY LOG
ILMED   .OHMM  : MEDIUM INDUCTION RESISTIVITY FROM RESISTIVITY LOG
LL8ED   .OHMM  : LATEROLOG 8 RESISTIVITY FROM RESISTIVITY LOG
MRESWS  .OHMM  : MEDIUM RESISTIVITY [ILMED]
NEUTED  .NAPI  : NEUTRON FROM GRN LOG [ADJ. TO RESISTIVITY LOG]
NEUTWS  .NAPI  : NEUTRON [NEUTED]
NPHILSED.V/V   : NEUTRON POROSITY LIMESTONE FROM DENSITY LOG [ADJ. TO RESISTIVITY LOG]
NPHISSED.V/V   : NEUTRON POROSITY SANDSTONE FROM DENSITY LOG [ADJ. TO RESISTIVITY LOG]
NPOLSWS .V/V   : NEUTRON POROSITY LIMESTONE [NPHISSED MATRIX  CONVERSION FOR LIMESTONE & SPL. TO NPHILSED @ 9702']
RHOBED  .G/C3  : BULK DENSITY FROM DENSITY LOG [ADJ. TO RESISTIVITY LOG]
SPRED   .MV    : SPONTANEOUS POTENTIAL FROM RESISTIVITY LOG
SPWS    .MV    : SPONTANEOUS POTENTIAL [BASELINE 0 MV,SPRED]
SRESWS  .OHMM  : SHALLOW RESISTIVITY [LL8ED]
TENDED  .LBF   : TENSION FROM DENSITY LOG [ADJ. TO RESISTIVITY LOG]
TENSED  .LBF   : TENSION FROM SONIC LOG [ADJ. TO RESISTIVITY LOG]
~Params ----------------------------------------------------
PD  .                     GL : PERMANENT DATUM
EPD .FT                 3014 : ELEVATION PERMANENT DATUM
LMF .                     KB : LOG MEASURED FROM
DAPD.FT                   19 : FEET ABOVE PERMANENT DATUM
EKB .FT                 3033 : KELLY BUSHING
EGL .FT                 3014 : GROUND LEVEL
DATE.               11/27/77 : RUN DATE
RUN .                      1 : RUN NUMBER
DD  .FT                10428 : DEPTH DRILLER
DL  .FT                10435 : DEPTH LOGGER
BLI .FT                10429 : BOTTOM LOG INTERVAL
TLI .FT                 1501 : TOP LOG INTERVAL
CS  .IN                9.625 : CASING SIZE
CBD .FT                 1500 : CASING BOTTOM DRILLER
CBL .FT                 1501 : CASING BOTTOM LOGGER
DFT .                GEL OIL : DRILLING FLUID TYPE
DFD .                    9.1 : DRILLING FLUID DENSITY
DFV .                     83 : DRILLING FLUID VISCOSITY
MSS .               FLOWLINE : MUD SAMPLE SOURCE
RMS .OHMM               1.69 : RESISTIVITY MUD SAMPLE
MST .DEGF                 60 : MUD SAMPLE TEMPERATURE
RMF .OHMM               1.11 : RESISTIVITY MUD FILTRATE SAMPLE
MFST.DEGF                 54 : MUD FILTRATE SAMPLE TEMPERATURE
TCS .HRS                   4 : TIME CIRCULATED STOPPED
LUN .                   7670 : LOGGING UNIT NUMBER
LUL .                    EDM : LOGGING UNIT LOCATION
ENGI.                   DALY : RECORDING ENGINEER
WITN.     RICHARDSON SPRAGUE : WITNESSED BY
CLNT.                A2DTECH : CLIENT CODE
ORIG.            2" 5" PRINT : ORIGIN OF DATA
UWI .       100032506117W500 : UNIQUE WELL ID
DICO. A2D Technologies, Inc. : DIGITIZING COMPANY
~Other -----------------------------------------------------
DIL-CNFD-BHC-GRN LOG RUN
~ASCII -----------------------------------------------------
# ...
 3700.00000    -999.25   10.63110   10.63110  159.87980    -999.25    -999.25    -999.25    -999.25    -999.25    6.25470    -999.25   97.33770   97.33770    -999.25    -999.25   97.94910   97.94910    6.25470    6.97460    7.69330    6.97460    -999.25    -999.25    -999.25    -999.25    -999.25    -999.25 -161.52190   -1.96500    7.69330    -999.25 1794.71110
 3750.00000    -999.25    9.99540    9.99540  126.61270    -999.25    -999.25    -999.25    -999.25    -999.25    7.89810    -999.25   96.73160   96.73160    -999.25    -999.25  150.30350  150.30350    7.89810    8.21510   10.58740    8.21510    -999.25    -999.25    -999.25    -999.25    -999.25    -999.25 -160.45430   -0.98400   10.58740    -999.25 1940.67660
 3800.00000    -999.25   10.03240   10.03240  121.64040    -999.25    -999.25    -999.25    -999.25    -999.25    8.22150    -999.25   88.23980   88.23980    -999.25    -999.25  109.71940  109.71940    8.22150    8.56120   10.37610    8.56120    -999.25    -999.25    -999.25    -999.25    -999.25    -999.25 -160.60170   -1.34160   10.37610    -999.25 1953.13950
 3850.00000    -999.25   10.12270   10.12270  149.59980    -999.25    -999.25    -999.25    -999.25    -999.25    6.68450    -999.25   92.78150   92.78150    -999.25    -999.25  111.53670  111.53670    6.68450    7.15980    8.01600    7.15980    -999.25    -999.25    -999.25    -999.25    -999.25    -999.25 -160.88270   -1.83480    8.01600    -999.25 1923.07760
 3900.00000    -999.25   10.76110   10.76110  170.52620    -999.25    -999.25    -999.25    -999.25    -999.25    5.86420    -999.25   94.42220   94.42220    -999.25    -999.25  111.10710  111.10710    5.86420    6.26640    6.93400    6.26640    -999.25    -999.25    -999.25    -999.25    -999.25    -999.25 -161.75870   -2.92200    6.93400    -999.25 1732.43680
 3950.00000    -999.25   10.41440   10.41440  151.05970    -999.25    -999.25    -999.25    -999.25    -999.25    6.61990    -999.25   90.71460   90.71460    -999.25    -999.25  114.44600  114.44600    6.61990    6.87590    7.58120    6.87590    -999.25    -999.25    -999.25    -999.25    -999.25    -999.25 -161.81070   -3.18520    7.58120    -999.25 1762.10760
 4000.00000    -999.25   10.54190   10.54190  138.94680    -999.25    -999.25    -999.25    -999.25    -999.25    7.19700    -999.25   91.35350   91.35350    -999.25    -999.25  105.85370  105.85370    7.19700    7.42060    8.30740    7.42060    -999.25    -999.25    -999.25    -999.25    -999.25    -999.25 -160.92820   -2.51390    8.30740    -999.25 1736.44900
 4050.00000    -999.25   10.60170   10.60170  135.10130    -999.25    -999.25    -999.25    -999.25    -999.25    7.40210    -999.25   87.36060   87.36060    -999.25    -999.25  106.93360  106.93360    7.40210    7.79380    8.13560    7.79380    -999.25    -999.25    -999.25    -999.25    -999.25    -999.25 -160.63530   -2.43100    8.13560    -999.25 1788.35250
 4100.00000    -999.25   10.48210   10.48210  144.18160    -999.25    -999.25    -999.25    -999.25    -999.25    6.93570    -999.25   93.64140   93.64140    -999.25    -999.25  115.14190  115.14190    6.93570    7.19210    8.24870    7.19210    -999.25    -999.25    -999.25    -999.25    -999.25    -999.25 -159.81300   -1.82100    8.24870    -999.25 1867.78030
 4150.00000    -999.25   11.29060   11.29060  169.58350    -999.25    -999.25    -999.25    -999.25    -999.25    5.89680    -999.25   91.42870   91.42870    -999.25    -999.25  111.28160  111.28160    5.89680    6.24230    6.78690    6.24230    -999.25    -999.25    -999.25    -999.25    -999.25    -999.25 -160.23350   -2.45270    6.78690    -999.25 1882.70610
 4200.00000    -999.25   10.99110   10.99110  148.79850    -999.25    -999.25    -999.25    -999.25    -999.25    6.72050    -999.25   92.15160   92.15160    -999.25    -999.25  109.75840  109.75840    6.72050    7.32450    7.64990    7.32450    -999.25    -999.25    -999.25    -999.25    -999.25    -999.25 -158.98460   -1.41500    7.64990    -999.25 1887.85450
 4250.00000    -999.25   10.59470   10.59470  148.80730    -999.25    -999.25    -999.25    -999.25    -999.25    6.72010    -999.25   88.25330   88.25330    -999.25    -999.25  115.65590  115.65590    6.72010    7.18640    8.07700    7.18640    -999.25    -999.25    -999.25    -999.25    -999.25    -999.25 -158.60900   -1.25060    8.07700    -999.25 1952.54060
 4300.00000    -999.25    9.95200    9.95200   97.89260    -999.25    -999.25    -999.25    -999.25    -999.25   10.21670    -999.25   80.92290   80.92290    -999.25    -999.25   90.21940   90.21940   10.21670   11.17590   13.25100   11.17590    -999.25    -999.25    -999.25    -999.25    -999.25    -999.25 -162.02700   -5.09010   13.25100    -999.25 2019.72860
 4350.00000    -999.25   10.54600   10.54600  145.67070    -999.25    -999.25    -999.25    -999.25    -999.25    6.86480    -999.25   87.17950   87.17950    -999.25    -999.25  120.08870  120.08870    6.86480    7.13540    7.62430    7.13540    -999.25    -999.25    -999.25    -999.25    -999.25    -999.25 -158.30350   -2.05650    7.62430    -999.25 2058.41760
 4400.00000    -999.25   10.27370   10.27370  146.97020    -999.25    -999.25    -999.25    -999.25    -999.25    6.80410    -999.25   90.78520   90.78520    -999.25    -999.25  118.54790  118.54790    6.80410    7.23370    7.35780    7.23370    -999.25    -999.25    -999.25    -999.25    -999.25    -999.25 -157.73560   -2.17500    7.35780    -999.25 1808.55070
 4450.00000    -999.25   10.38730   10.38730  143.99680    -999.25    -999.25    -999.25    -999.25    -999.25    6.94460    -999.25   86.92100   86.92100    -999.25    -999.25  117.12020  117.12020    6.94460    7.89050    8.20180    7.89050    -999.25    -999.25    -999.25    -999.25    -999.25    -999.25 -157.85810   -2.98380    8.20180    -999.25 1802.78620
 4500.00000    -999.25   10.68490   10.68490  162.19020    -999.25    -999.25    -999.25    -999.25    -999.25    6.16560    -999.25   93.36880   93.36880    -999.25    -999.25  122.33300  122.33300    6.16560    7.00730    7.26390    7.00730    -999.25    -999.25    -999.25    -999.25    -999.25    -999.25 -156.87230   -2.68440    7.26390    -999.25 1829.12650
 4550.00000    -999.25   10.57950   10.57950  153.24460    -999.25    -999.25    -999.25    -999.25    -999.25    6.52590    -999.25   92.93780   92.93780    -999.25    -999.25  126.14160  126.14160    6.52590    6.85360    8.44500    6.85360    -999.25    -999.25    -999.25    -999.25    -999.25    -999.25 -155.24640   -1.74140    8.44500    -999.25 1854.57670
 4600.00000    -999.25   10.22490   10.22490  129.42970    -999.25    -999.25    -999.25    -999.25    -999.25    7.72620    -999.25   94.67020   94.67020    -999.25    -999.25  126.99340  126.99340    7.72620    8.10870    9.80790    8.10870    -999.25    -999.25    -999.25    -999.25    -999.25    -999.25 -155.54870   -2.73350    9.80790    -999.25 1921.04150
 4650.00000    -999.25   11.42700   11.42700  134.70730    -999.25    -999.25    -999.25    -999.25    -999.25    7.42350    -999.25   94.05570   94.05570    -999.25    -999.25  121.47680  121.47680    7.42350    7.93460    9.15640    7.93460    -999.25    -999.25    -999.25    -999.25    -999.25    -999.25 -155.16450   -3.03570    9.15640    -999.25 1916.80530
 4700.00000    -999.25    9.96910    9.96910  111.41690    -999.25    -999.25    -999.25    -999.25    -999.25    8.97530    -999.25   93.76460   93.76460    -999.25    -999.25  143.17990  143.17990    8.97530    9.56700   13.59680    9.56700    -999.25    -999.25    -999.25    -999.25    -999.25    -999.25 -154.44100   -2.99860   13.59680    -999.25 1929.37320
 4750.00000    -999.25    9.91080    9.91080  106.77370    -999.25    -999.25    -999.25    -999.25    -999.25    9.36560    -999.25   96.15340   96.15340    -999.25    -999.25  140.83620  140.83620    9.36560    9.71410   13.08050    9.71410    -999.25    -999.25    -999.25    -999.25    -999.25    -999.25 -153.64660   -2.86290   13.08050    -999.25 2031.41850
