~Version ---------------------------------------------------
VERS. 2.0 : CWLS log ASCII Standard -VERSION 2.0
WRAP.  NO : ONE LINE PER DEPTH STEP
~Well ------------------------------------------------------
STRT.F                         650.0 : START DEPTH
STOP.F                        4200.0 : STOP DEPTH
STEP.F                      50.00000 : STEP LENGTH
NULL.                        -999.25 : NULL VALUE
COMP. CANADIAN OIL COMPANIES LIMITED : COMPANY
WELL.    WHITE ROSE RADWAY 4-7-59-20 : WELL
FLD .                                : FIELD
LOC .                                : LOCATION
CTRY.                         CANADA : COUNTRY
SRVC.         Schlumberger of Canada : SERVICE COMPANY
DATE.                    19-Jun-1960 : LOGDATE
PROV.                        Alberta : PROVINCE
UWI .               100040705920W400 : UNIQUE WELL ID
SLAT.WGS84                  54.08042 : SURFACE LATITUDE
SLON.WGS84                 -112.9972 : SURFACE LONGITUDE
~Curve Information -----------------------------------------
DEPT.F    0   1   0  0 : 1 MEASURED DEPTH
CILD.MMHO 05 110 46 00 : INDUCTION DEEP CONDUCTIVITY
ILD .OHMM 05 120 46 00 : INDUCTION DEEP RESISTIVITY
SN  .OHMM 05 040 16 00 : SHORT NORMAL RESISTIVITY
SPR .MV   05 010 01 00 : SPONTANEOUS POTENTIAL FROM RESISTIVITY LOG
MCAL.IN   15 280 01 00 : MLT (MICROLOG) CALIPER
~Params ----------------------------------------------------
LMF .                     KB : LOG MEASURED FROM
DMF .                     KB : DRILLING MEASURED FROM
EKB .FT                 2094 : KELLY BUSHING
EGL .FT               2083.5 : GROUND LEVEL
DATE.               06/19/60 : RUN DATE
RUN .                      1 : RUN NUMBER
DD  .FT                 4200 : DEPTH DRILLER
DL  .FT                 4202 : DEPTH LOGGER
BLI .FT                 4196 : BOTTOM LOG INTERVAL
TLI .FT                  631 : TOP LOG INTERVAL
CBD .FT                  631 : CASING BOTTOM DRILLER
CBL .FT                  631 : CASING BOTTOM LOGGER
BS  .IN                7.875 : BIT SIZE
BSD .FT                 4200 : BIT SIZE AT DEPTH
DFT .                    GEL : DRILLING FLUID TYPE
DFD .                   10.2 : DRILLING FLUID DENSITY
DFV .                     60 : DRILLING FLUID VISCOSITY
DFPH.                    9.5 : DRILLING FLUID PH
DFL .                    7.8 : DRILLING FLUID LOSS
RMF .OHMM               1.56 : RESISTIVITY MUD FILTRATE SAMPLE
MFST.DEGF                 72 : MUD FILTRATE SAMPLE TEMPERATURE
RMC .OHMM               2.66 : RESISTIVITY MUD CAKE
MCST.DEGF                 73 : MUD CAKE SAMPLE TEMPERATURE
TCS .HRS                 1.5 : TIME CIRCULATED STOPPED
LUN .                   1574 : LOGGING UNIT NUMBER
LUL .                    SKW : LOGGING UNIT LOCATION
ENGI.               WILLIAMS : RECORDING ENGINEER
WITN.                  LIKES : WITNESSED BY
CLNT.                A2DTECH : CLIENT CODE
ORIG.            2" 5" PRINT : ORIGIN OF DATA
UWI .       100040705920W400 : UNIQUE WELL ID
DICO. A2D Technologies, Inc. : DIGITIZING COMPANY
~Other -----------------------------------------------------
~ASCII -----------------------------------------------------
  650.00000  343.88960    2.94240    4.17920  -99.41000    -999.25
  700.00000  261.13930    3.93990    4.48420 -101.11860    -999.25
  750.00000  252.95790    4.06660    4.84960 -104.36560    -999.25
  800.00000  198.60450    5.13080    6.16110 -111.06820    -999.25
  850.00000  215.49020    4.61280    5.32730 -107.55740    -999.25
  900.00000  209.63360    4.91640    5.59730 -108.05250    -999.25
  950.00000  206.53100    4.88930    5.65500 -119.26510    -999.25
 1000.00000  232.56220    4.39950    5.18810 -119.46390    -999.25
 1050.00000  235.60360    4.32190    5.29610 -118.67130    -999.25
 1100.00000  239.05630    4.29800    5.50950 -114.51570    -999.25
 1150.00000  236.22410    4.32370    5.59770 -118.84190    -999.25
 1200.00000  223.36680    4.53110    5.87760 -114.75680    -999.25
 1250.00000  208.34320    4.85820    6.05810 -118.85820    -999.25
 1300.00000  190.35710    5.16130    5.64400 -120.33060    -999.25
 1350.00000  227.16110    4.49920    5.64800 -115.86870    -999.25
 1400.00000  180.11430    5.55370    6.46520 -121.28320    -999.25
 1450.00000  209.85080    4.83640    5.66160 -117.17380    -999.25
 1500.00000  251.59670    4.10950    5.00450 -110.71110    9.36130
 1550.00000  206.81000    5.04660    6.30310 -101.51370    8.95360
 1600.00000  215.09890    4.79940    6.27780 -102.20120    8.76250
 1650.00000  250.33820    4.11250    5.63690 -114.75820    8.78480
 1700.00000  227.56980    4.56330    5.92640 -101.07830    9.55350
 1750.00000  333.38000    3.02930    3.70330  -98.35740    9.53290
 1800.00000  372.46310    2.68930    3.33140  -97.27810    9.74220
 1850.00000  447.16520    2.20200    2.77190  -97.97460   10.43560
 1900.00000  385.64470    2.61720    3.32310  -98.17100   10.17670
 1950.00000  298.30320    3.41660    4.08890  -99.21080   10.34620
 2000.00000  455.95890    2.19290    2.59910  -96.33610   12.00690
 2050.00000  569.78980    1.74940    2.19540  -91.71360   12.37810
 2100.00000  280.82890    3.62380    4.08240 -100.32940    8.93390
 2150.00000  239.98590    4.12820    5.32790  -93.53950    8.62330
 2200.00000  306.10570    3.29550    4.23370 -100.21100    8.55270
 2250.00000  357.62940    2.80300    6.57940 -128.53110    7.70830
 2300.00000   79.82790   14.35910   23.49270 -120.58910    8.14810
 2350.00000  114.53030   11.91330   15.61050  -88.96260    8.14360
 2400.00000   76.90760   15.52560   32.34150 -100.57220    8.10190
 2450.00000  232.37870    4.29840    8.83070 -120.96480    7.87030
 2500.00000  374.61560    2.68210    3.27240 -111.82880    8.78540
 2550.00000  288.08640    3.47370    7.67030 -122.30380    8.10990
 2600.00000  477.86850    1.98550    7.38900 -164.30270    7.46020
 2650.00000  373.86010    2.65310    5.07560 -111.23810    8.11250
 2700.00000  362.18380    2.72310   16.38520 -196.58250    7.55440
 2750.00000  171.82700    6.21880   24.07370 -186.95240    7.51140
 2800.00000  162.37480    6.31590    7.51180 -116.70460    8.07870
 2850.00000  100.48390   10.96610   41.32500 -182.87380    7.53050
 2900.00000   80.08710   14.39410   56.48360 -189.23820    7.61950
 2950.00000  102.00910   10.58240   33.57040 -185.83630    7.44040
 3000.00000   89.99020   13.51250   20.17780 -108.87580    7.91360
 3050.00000   84.36270   15.99920   22.80250  -91.23240    8.01640
 3100.00000  144.49590    7.00120   10.25300 -115.30160    8.07540
 3150.00000   99.40540   12.03730   20.08670  -95.93320    7.98420
 3200.00000  319.26000    3.06430    3.94980 -122.04310    9.14920
 3250.00000  267.61560    3.72390    4.49580  -97.63900    8.49720
 3300.00000   62.87660   18.35610   21.56910  -97.31050    7.93360
 3350.00000  217.02810    4.63550    5.84220  -88.56580    8.18520
 3400.00000   60.65550   19.83990   22.55450 -107.80070    7.78990
 3450.00000   58.16260   22.05290   22.99050 -108.47820    7.77890
 3500.00000  104.32260   10.67220   13.56220  -91.27630    7.94860
 3550.00000  171.01240    5.97540    7.74860  -88.40330    8.01120
 3600.00000  220.69650    4.69840    6.70630  -91.36790    8.07040
 3650.00000   49.25870   27.00450   32.57930  -88.25890    7.78070
 3700.00000  178.63370    5.68520    7.51370  -79.23610    8.09760
 3750.00000  273.72710    4.18280    7.32550  -98.38140    8.74920
 3800.00000   82.10320   13.80600   21.56750  -78.77770    7.81440
 3850.00000  115.18490    9.94980   14.21820  -76.45340    7.84530
 3900.00000  155.53490    6.60720   43.15380 -171.41650    7.36020
 3950.00000  150.01460    7.26000   19.76690 -140.18140    7.65160
 4000.00000  449.91190    2.16160   13.54830 -184.98060    7.34850
 4050.00000   97.62570   11.79170   36.78040 -155.96370    7.45960
 4100.00000   86.22160   13.42070   16.80680  -81.96250    7.75470
 4150.00000  120.87930    9.90620   14.30320  -74.22520    7.83130
 4200.00000    -999.25    -999.25    -999.25    -999.25    5.96860
