~Version ---------------------------------------------------
VERS. 2.0 : CWLS log ASCII Standard -VERSION 2.0
WRAP.  NO : ONE LINE PER DEPTH STEP
~Well ------------------------------------------------------
STRT.F                           1500.0 : START DEPTH
STOP.F                          11900.0 : STOP DEPTH
STEP.F                         50.00000 : STEP LENGTH
NULL.                           -999.25 : NULL VALUE
COMP.  AMOCO CANADA PETROLEUM CO., LTD. : COMPANY
WELL. AMOCO HB FINA FIR S-I  7-26-59-20 : WELL
FLD .                                   : FIELD
LOC .                                   : LOCATION
CTRY.                            CANADA : COUNTRY
SRVC.            Schlumberger of Canada : SERVICE COMPANY
DATE.                       07-Jan-1978 : LOGDATE
PROV.                           Alberta : PROVINCE
UWI .                  100072605920W500 : UNIQUE WELL ID
SLAT.WGS84                     54.12779 : SURFACE LATITUDE
SLON.WGS84                    -116.8825 : SURFACE LONGITUDE
~Curve Information -----------------------------------------
DEPT   .F                 : 
GRS    .GAPI 60 310 01 01 : GAMMA RAY FROM SONIC LOG
CALS   .IN   60 280 50 00 : CALIPER FROM SONIC LOG
DT     .US/F 60 520 00 00 : DELTA TIME FROM SONIC LOG
GRD    .GAPI 45 310 01 01 : GAMMA RAY FROM DENSITY LOG
RHOB   .G/C3 45 350 01 00 : BULK DENSITY
CALD   .IN   45 280 60 00 : CALIPER FROM DENSITY LOG
DCOR   .G/C3 45 356 01 00 : DENSITY CORRECTION
NPHI_SS.DEC  42 890 03 00 : NEUTRON POROSITY SANDSTONE
DPHI_SS.DEC  45 890 12 00 : DENSITY POROSITY SANDSTONE
DPHI_LS.DEC  45 890 10 00 : DENSITY POROSITY
NPHI_LS.DEC  42 890 01 00 : NEUTRON POROSITY LIMESTONE
ILD    .OHMM 06 121 12 00 : INDUCTION LOG RESISTIVITY
ILM    .OHMM 07 120 44 00 : INDUCTION LOG MEDIUM RESISTIVITY
LL8    .OHMM 07 220 01 00 : DIGITAL FOCUSED LATEROLOG
SPR    .MV   07 010 01 01 : SELF POTENTIAL
~Params ----------------------------------------------------
PD  .                     GL : PERMANENT DATUM
EPD .FT              3289.04 : ELEVATION PERMANENT DATUM
LMF .                     KB : LOG MEASURED FROM
DAPD.FT                 21.2 : FEET ABOVE PERMANENT DATUM
EKB .FT              3310.24 : KELLY BUSHING
EGL .FT              3289.04 : GROUND LEVEL
DATE.               01/07/78 : RUN DATE
RUN .                      1 : RUN NUMBER
DD  .FT                11910 : DEPTH DRILLER
DL  .FT                11919 : DEPTH LOGGER
BLI .FT                11913 : BOTTOM LOG INTERVAL
TLI .FT                 1534 : TOP LOG INTERVAL
CBD .FT                 1534 : CASING BOTTOM DRILLER
CBL .FT                 1534 : CASING BOTTOM LOGGER
BS  .IN                 8.75 : BIT SIZE
BSD .FT                11910 : BIT SIZE AT DEPTH
DFT .                    GEL : DRILLING FLUID TYPE
DFD .                    9.5 : DRILLING FLUID DENSITY
DFV .                    105 : DRILLING FLUID VISCOSITY
DFPH.                    9.5 : DRILLING FLUID PH
DFL .                    9.0 : DRILLING FLUID LOSS
MSS .               FLOWLINE : MUD SAMPLE SOURCE
RMS .OHMM               1.78 : RESISTIVITY MUD SAMPLE
MST .DEGF                 85 : MUD SAMPLE TEMPERATURE
RMF .OHMM               1.74 : RESISTIVITY MUD FILTRATE SAMPLE
MFST.DEGF                 54 : MUD FILTRATE SAMPLE TEMPERATURE
TCS .HRS                   5 : TIME CIRCULATED STOPPED
LUN .                   7730 : LOGGING UNIT NUMBER
LUL .                    EDM : LOGGING UNIT LOCATION
ENGI.   ACKERMAN STEENBERGEN : RECORDING ENGINEER
CLNT.                A2DTECH : CLIENT CODE
ORIG.            2" 5" PRINT : ORIGIN OF DATA
UWI .       100072605920W500 : UNIQUE WELL ID
DICO. A2D Technologies, Inc. : DIGITIZING COMPANY
~Other -----------------------------------------------------
~ASCII -----------------------------------------------------
# ...
 3800.00000   96.20210   11.07340   95.95700   63.22320    2.23470   11.70180    0.13050    0.42950    0.23770    -999.25    -999.25    5.10100    4.89130    5.53120 -117.46920
 3850.00000   67.13220   11.81060   85.09190   70.85780    2.23900   10.58030    0.16620    0.46640    0.22020    -999.25    -999.25   11.25480   10.14410    9.19200 -118.84710
 3900.00000   87.67550   11.02770   89.95780   65.36300    2.42970   10.29510    0.04220    0.39170    0.12880    -999.25    -999.25    6.42130    6.12300    5.72660 -116.16680
 3950.00000   89.23660   10.84200   88.63430   72.96410    2.36470   10.26460    0.12670    0.40350    0.14870    -999.25    -999.25    5.41430    5.25350    5.04650 -117.51970
 4000.00000  102.22170   10.65030  103.47650   53.99680    2.41540    9.58120    0.05130    0.36360    0.13330    -999.25    -999.25    8.82300    8.47900    7.84440 -117.16530
 4050.00000   72.88750    9.89690   92.59190   70.02600    2.19910   10.22070    0.20160    0.39940    0.30540    -999.25    -999.25    5.56740    5.73850    6.44840 -115.65360
 4100.00000   42.27150    8.85170   77.44160   72.04370    2.42420    9.25430    0.14430    0.42960    0.13780    -999.25    -999.25    5.56280    6.49760    7.20490 -114.29960
 4150.00000   86.28560    9.57920   86.36700   76.23390    2.38730    9.02670    0.07160    0.49530    0.20720    -999.25    -999.25    5.35870    5.69680    4.67900 -116.40950
 4200.00000   77.79550    9.62660   85.72480   70.33190    2.44530    9.28360    0.07010    0.38670    0.10700    -999.25    -999.25    6.10030    6.39280    6.95330 -117.04730
 4250.00000   72.68240    9.65060   75.77140   41.56070    2.44370    8.76270    0.06240    0.25540    0.13540    -999.25    -999.25   34.12950   36.50190   34.37270 -127.66570
 4300.00000   97.86860    9.62460  102.10430   70.78830    2.41270   10.22500    0.20510    0.31990    0.13400    -999.25    -999.25    8.34910    9.07730    9.62890 -117.09000
 4350.00000   81.14340    9.77310   76.45270   72.78120    2.46220    8.92720    0.21430    0.39280    0.09680    -999.25    -999.25    7.51950    7.96990    7.53250 -115.99630
 4400.00000   81.70660    9.28630   81.73330   46.06810    2.52880    8.68700    0.04510    0.28980    0.10130    -999.25    -999.25   15.23250   18.63750   25.66060 -118.51010
 4450.00000   33.19350    8.91490   75.08610   27.62000    2.44220    8.46730    0.06110    0.23780    0.12140    -999.25    -999.25   19.41140   22.97550   25.94750 -150.25000
 4500.00000   86.98730    9.80470   79.63910   80.11070    2.48070    9.83120    0.07960    0.36030    0.08900    -999.25    -999.25    8.04690    8.47080    8.86560 -114.27210
 4550.00000   65.93240   10.02370   75.53960   54.64980    2.57420    9.91600    0.06540    0.27200    0.06040    -999.25    -999.25   18.50140   20.08500   24.08440 -119.99530
 4600.00000   85.14610   10.71590   74.72950   84.52030    2.52020   11.33500    0.03600    0.31210    0.06100    -999.25    -999.25    7.27810    7.72450    9.18340 -114.98100
 4650.00000  130.35890   10.30580   82.45160   98.60550    2.56340   11.27200    0.08940    0.33490    0.06150    -999.25    -999.25    8.18930    8.54460    9.45200 -116.64730
 4700.00000  132.68240   10.74180   80.80650   96.71650    2.58870   11.32210    0.05830    0.27980    0.02480    -999.25    -999.25    9.25410    9.55630   10.20020 -116.21470
 4750.00000  135.67820   10.22090   82.50130  103.41480    2.62670   11.69940    0.08920    0.30600   -0.00130    -999.25    -999.25    9.45040    9.88260   10.68660 -115.74640
 4800.00000  141.45730   10.50300   86.80370  116.19640    2.63940   11.02300    0.10490    0.33080    0.01510    -999.25    -999.25    8.17030    8.77280    9.73480 -114.46190
 4850.00000  125.96600   10.18620   76.69350   99.47970    2.62430   10.35010    0.10210    0.25040    0.02330    -999.25    -999.25   15.49550   16.24000   18.90140 -111.99310
 4900.00000  134.95690   10.63050   81.09860   95.78560    2.60740   10.38300    0.09260    0.28890    0.03840    -999.25    -999.25   11.73470   12.27670   14.68470 -110.75110
 4950.00000  147.13100   10.65050   82.66950  109.32730    2.55240   10.32490    0.03570    0.31350    0.06320    -999.25    -999.25    9.08440    9.48950   10.88760 -111.22500
 5000.00000  139.94910   10.48390   85.51750  108.05190    2.50220   10.25560    0.07160    0.35340    0.03380    -999.25    -999.25    6.85750    7.23920    8.43450 -109.75740
 5050.00000  143.96060   10.21100   81.85860  105.08650    2.54020    9.57660    0.05420    0.35290    0.05390    -999.25    -999.25    7.77360    8.24970    8.84460 -110.85770
 5100.00000  126.81610   10.19980   81.13380   94.86340    2.59900    9.05650    0.07430    0.29380    0.06840    -999.25    -999.25    9.02750    9.37390    9.99340 -114.38700
 5150.00000  122.18720   10.15510   77.31580   98.70720    2.57580    9.05860    0.05220    0.29050   -0.00310    -999.25    -999.25   10.29620   10.73600   11.37010 -113.45780
 5200.00000  135.38880   10.20640   80.97280   96.61440    2.58870    9.63270    0.05470    0.28290    0.04670    -999.25    -999.25    8.51040    8.94640    9.56300 -109.36050
 5250.00000  132.76210   10.50290   79.57090  120.21620    2.54360    9.68090    0.04920    0.33560    0.05840    -999.25    -999.25    8.98720    9.45230   10.69940 -108.75650
 5300.00000  144.55190   10.78230   83.16370  110.76330    2.55260   10.00250    0.09260    0.37360    0.02960    -999.25    -999.25    6.11900    6.44840    7.14390 -108.95920
 5350.00000  131.69730   10.48310   78.00090  104.96760    2.62390   10.27470    0.07020    0.27070    0.03970    -999.25    -999.25    9.16070    9.70360   10.72040 -109.38610
 5400.00000  139.56850    9.83480   78.54830  106.58900    2.57430    9.46020    0.08580    0.34390    0.04790    -999.25    -999.25    8.76400    9.50890   10.37610 -117.52870
 5450.00000  114.83230   10.07970   71.77530   90.07160    2.64190    9.35050    0.02440    0.21520    0.03430    -999.25    -999.25   15.31290   16.32750   17.36340 -114.64470
 5500.00000  142.53360   10.61570   77.02430  109.89290    2.59840    9.69770    0.13120    0.30790    0.03440    -999.25    -999.25    9.86010   10.44430   11.22710 -113.64790
 5550.00000  133.89570   10.24770   77.62850  109.16920    2.55000   10.12890    0.08940    0.27870    0.01830    -999.25    -999.25    9.99670   10.65010   11.98840 -113.09750
 5600.00000  130.51520   10.05170   77.23790  107.83670    2.54980   10.75710    0.11330    0.25220    0.08140    -999.25    -999.25    9.89700   10.30460   10.97140 -112.81660
 5650.00000  143.64290   10.14540   81.86750  105.14380    2.58400   11.35760    0.11000    0.28660    0.06970    -999.25    -999.25    9.05850    9.96600   10.11530 -110.45950
 5700.00000  136.32840   10.20810   82.83750  115.57510    2.53640   11.75010    0.09120    0.28920    0.09900    -999.25    -999.25    9.00920    9.49470   11.07130 -109.37540
 5750.00000  144.08830   10.14290   79.33430  110.04310    2.40640   11.79630    0.21370    0.31880    0.13020    -999.25    -999.25    9.21990    9.98430   12.32270 -111.63640
 5800.00000  149.98780   10.13610   87.59330  113.88950    2.47460   10.93040    0.21000    0.33650    0.11410    -999.25    -999.25    8.73020    9.36540   11.20010 -112.10850
 5850.00000   93.88560    9.64930   63.22960  121.74240    2.52250   10.50300    0.24520    0.33960    0.07660    -999.25    -999.25   16.22700   17.26640   19.04840 -110.93970
 5900.00000  145.89190    9.83760   86.69120  115.42550    2.44030   10.98560    0.14640    0.32400    0.14550    -999.25    -999.25   10.49280   11.46280   14.13220 -110.63920
 5950.00000  142.83320    9.81510   86.47750  123.27650    2.49150    9.84850    0.15420    0.34160    0.09380    -999.25    -999.25   17.57760   18.88970   24.54570 -106.52750
 6000.00000  146.53320    9.91040   85.12150  125.61590    2.36770   10.63850    0.21160    0.36340    0.14550    -999.25    -999.25   12.91250   14.03050   17.81460 -105.98510
 6050.00000  171.47940    9.68270   89.57200  114.82320    2.59290    9.40080    0.01970    0.35640    0.05400    -999.25    -999.25   16.57060   17.81770   25.70570 -106.10940
