~Version ---------------------------------------------------
VERS.      2.0 : CWLS log ASCII Standard -VERSION 2.0
WRAP.       NO : One line per depth step
CREA. 11/17/17 : LAS Creation Date
~Well ------------------------------------------------------
STRT.FT                  950.0 : START DEPTH
STOP.FT                 9500.0 : STOP DEPTH
STEP.FT               50.00000 : STEP LENGTH
NULL.                  -999.25 : NULL VALUE
COMP.    CANADIAN FINA OIL LTD : COMPANY
WELL. FINA GOOSE R 11-16-68-19 : WELL
FLD .                          : FIELD
LOC .                          : LOCATION
CTRY.                   CANADA : COUNTRY
SRVC.                  Unknown : SERVICE COMPANY
DATE.              04-Mar-1970 : LOGDATE
PROV.                  Alberta : PROVINCE
UWI .         100111606819W500 : UNIQUE WELL ID
SLAT.WGS84            54.88958 : SURFACE LATITUDE
SLON.WGS84           -116.8394 : SURFACE LONGITUDE
~Curve Information -----------------------------------------
DEPT   .FT    : Depth Curve
CALDED .IN    : CALIPER FROM DENSITY LOG
CALSED .IN    : CALIPER FROM SONIC LOG
CALWS  .IN    : CALIPER [SPIL. CALSED TO CALDED @ 5005']
CONDWS .MMHO  : CONDUCTIVITY [1000/DRESWS]
DCORWS .G/C3  : DENSITY CORRECTION [DRHOED]
DENWS  .G/C3  : FORMATION BULK DENSITY [RHOBED]
DPOLSWS.V/V   : DENSITY POROSITY LIMESTONE [CALC. FROM DENWS, M=2.71, F=1.00]
DRESWS .OHMM  : DEEP RESISTIVITY [ILDED]
DRHOED .G/C3  : DENSITY CORRECTION FROM DENSITY LOG
DTED   .US/F  : DELTA TIME FROM SONIC LOG
DTWS   .US/F  : COMPRESSIONAL SONIC [DTED]
GRDED  .GAPI  : GAMMA RAY FROM DENSITY LOG
GRWS   .GAPI  : GAMMA RAY [GRDED]
ILDED  .OHMM  : DEEP  INDUCTION RESISTIVITY FROM RESISTIVITY LOG
ILMED  .OHMM  : MEDIUM INDUCTION RESISTIVITY FROM RESISTIVITY LOG
LL8ED  .OHMM  : 8 INCH LATEROLOG RESISTIVITY FROM RESISTIVITY LOG
MRESWS .OHMM  : MEDIUM RESISTIVITY [ILMED]
RHOBED .G/C3  : BULK DENSITY FROM DENSITY LOG
SPRED  .MV    : SPONTANEOUS POTENTIAL FROM RESISTIVITY LOG
SPWS   .MV    : SPONTANEOUS POTENTIAL [BASELINE 0 MV, SPRED]
SRESWS .OHMM  : SHALLOW RESISTIVITY [LL8ED]
~Params ----------------------------------------------------
PD  .                     GL : PERMANENT DATUM
EPD .FT                 2553 : ELEVATION PERMANENT DATUM
LMF .                     KB : LOG MEASURED FROM
DAPD.FT                   13 : FEET ABOVE PERMANENT DATUM
EKB .FT                 2566 : KELLY BUSHING
EGL .FT                 2553 : GROUND LEVEL
DATE.               03/04/70 : RUN DATE
RUN .                      1 : RUN NUMBER
DD  .FT                 9523 : DEPTH DRILLER
DL  .FT                 9520 : DEPTH LOGGER
BLI .FT                 9514 : BOTTOM LOG INTERVAL
TLI .FT                  972 : TOP LOG INTERVAL
CBD .FT                  972 : CASING BOTTOM DRILLER
CBL .FT                  972 : CASING BOTTOM LOGGER
BS  .IN                7.875 : BIT SIZE
BSD .FT                 9523 : BIT SIZE AT DEPTH
DFT .               GEL CHEM : DRILLING FLUID TYPE
DFD .                    9.3 : DRILLING FLUID DENSITY
DFV .                    100 : DRILLING FLUID VISCOSITY
DFPH.                    9.5 : DRILLING FLUID PH
DFL .                    6.4 : DRILLING FLUID LOSS
RMS .OHMM               1.46 : RESISTIVITY MUD SAMPLE
MST .DEGF                 82 : MUD SAMPLE TEMPERATURE
RMF .OHMM               1.39 : RESISTIVITY MUD FILTRATE SAMPLE
MFST.DEGF                 65 : MUD FILTRATE SAMPLE TEMPERATURE
RMB .OHMM               0.59 : RESISTIVITY MUD AT BHT
TCS .HRS                   3 : TIME CIRCULATED STOPPED
LUN .                   7003 : LOGGING UNIT NUMBER
LUL .                     RD : LOGGING UNIT LOCATION
ENGI.               ROBINSON : RECORDING ENGINEER
WITN.               MCINTYRE : WITNESSED BY
CLNT.                A2DTECH : CLIENT CODE
ORIG.            2" 5" PRINT : ORIGIN OF DATA
UWI .       100111606819W500 : UNIQUE WELL ID
DICO. A2D Technologies, Inc. : DIGITIZING COMPANY
~Other -----------------------------------------------------
~ASCII -----------------------------------------------------
  950.00000    -999.25    -999.25    -999.25    -999.25    -999.25    -999.25    -999.25    -999.25    -999.25    -999.25    -999.25   54.37990   54.37990    -999.25    -999.25    -999.25    -999.25    -999.25    -999.25    -999.25    -999.25
 1000.00000    -999.25    9.20000    9.20000  244.67820    -999.25    -999.25    -999.25    4.08700    -999.25  133.45500  133.45500   58.46830   58.46830    4.08700    3.94970    3.71250    3.94970    -999.25    8.37690   -4.26250    3.71250
 1050.00000    -999.25   10.60770   10.60770  237.73600    -999.25    -999.25    -999.25    4.22210    -999.25  123.58340  123.58340   61.64560   61.64560    4.22210    3.60640    3.05010    3.60640    -999.25   11.96210   -6.31020    3.05010
 1100.00000    -999.25    8.76480    8.76480   56.53970    -999.25    -999.25    -999.25   17.68670    -999.25  107.34270  107.34270   44.73760   44.73760   17.68670   15.14140   18.09850   15.14140    -999.25   12.39730  -11.46730   18.09850
 1150.00000    -999.25    8.88220    8.88220  239.51520    -999.25    -999.25    -999.25    4.17510    -999.25  113.34100  113.34100   53.93270   53.93270    4.17510    3.03810    2.86710    3.03810    -999.25   25.79770   -3.35390    2.86710
 1200.00000    -999.25    8.66010    8.66010  138.67890    -999.25    -999.25    -999.25    7.21090    -999.25  110.08180  110.08180   53.62950   53.62950    7.21090    5.65270    4.87240    5.65270    -999.25   22.60340   -8.38380    4.87240
 1250.00000    -999.25    8.62250    8.62250   86.09480    -999.25    -999.25    -999.25   11.61510    -999.25  110.40300  110.40300   44.51860   44.51860   11.61510    9.76490    9.96460    9.76490    -999.25   14.04570  -17.85970    9.96460
 1300.00000    -999.25    9.53900    9.53900  284.98310    -999.25    -999.25    -999.25    3.50900    -999.25  134.45550  134.45550   44.60060   44.60060    3.50900    2.82060    3.66740    2.82060    -999.25   26.03770   -6.78130    3.66740
 1350.00000    -999.25   14.75570   14.75570  293.50470    -999.25    -999.25    -999.25    3.40710    -999.25  169.98900  169.98900   47.20060   47.20060    3.40710    3.05420    3.05690    3.05420    -999.25   31.44720   -2.20410    3.05690
 1400.00000    -999.25   13.11520   13.11520  189.72090    -999.25    -999.25    -999.25    5.27090    -999.25  145.09740  145.09740   49.49520   49.49520    5.27090    5.10710    4.96230    5.10710    -999.25   26.36780   -7.18860    4.96230
 1450.00000    -999.25   12.82640   12.82640  202.32680    -999.25    -999.25    -999.25    4.94250    -999.25  125.82440  125.82440   50.80480   50.80480    4.94250    5.02320    4.36590    5.02320    -999.25   22.52520  -11.16490    4.36590
 1500.00000    -999.25    9.76480    9.76480  243.56980    -999.25    -999.25    -999.25    4.10560    -999.25  113.92280  113.92280   46.57360   46.57360    4.10560    3.89090    3.54790    3.89090    -999.25   25.13150   -8.69240    3.54790
 1550.00000    -999.25    9.80200    9.80200  241.81560    -999.25    -999.25    -999.25    4.13640    -999.25  119.57740  119.57740   54.41180   54.41180    4.13640    3.66990    3.47230    3.66990    -999.25   28.59730   -5.35960    3.47230
 1600.00000    -999.25    9.22460    9.22460  175.48790    -999.25    -999.25    -999.25    5.69840    -999.25  112.29790  112.29790   55.72070   55.72070    5.69840    5.44730    5.21780    5.44730    -999.25   26.96620   -7.12510    5.21780
 1650.00000    -999.25   10.81310   10.81310  237.33800    -999.25    -999.25    -999.25    4.21340    -999.25  122.14620  122.14620   58.86060   58.86060    4.21340    3.77260    3.61740    3.77260    -999.25   27.70240   -6.52260    3.61740
 1700.00000    -999.25   10.29900   10.29900  244.15250    -999.25    -999.25    -999.25    4.09580    -999.25  138.94570  138.94570   54.98000   54.98000    4.09580    3.51380    4.34420    3.51380    -999.25   32.00810   -2.35060    4.34420
 1750.00000    -999.25   10.01270   10.01270  258.37790    -999.25    -999.25    -999.25    3.87030    -999.25  124.94280  124.94280   60.25680   60.25680    3.87030    3.31690    3.61140    3.31690    -999.25   34.78760   -1.61130    3.61140
 1800.00000    -999.25    9.71900    9.71900  252.57630    -999.25    -999.25    -999.25    3.95920    -999.25  112.75120  112.75120   58.74410   58.74410    3.95920    3.46670    3.58270    3.46670    -999.25   36.19290   -2.29710    3.58270
 1850.00000    -999.25    8.86150    8.86150  124.33940    -999.25    -999.25    -999.25    8.04250    -999.25  101.99230  101.99230   37.83980   37.83980    8.04250    7.70320    7.23320    7.70320    -999.25   27.60610  -11.78380    7.23320
 1900.00000    -999.25    8.83470    8.83470  108.08820    -999.25    -999.25    -999.25    9.25170    -999.25  107.31360  107.31360   37.03980   37.03980    9.25170    7.73770   11.19910    7.73770    -999.25   34.57930   -4.94770   11.19910
 1950.00000    -999.25    8.78350    8.78350  228.63410    -999.25    -999.25    -999.25    4.37380    -999.25  111.50300  111.50300   52.70370   52.70370    4.37380    4.26290    4.07270    4.26290    -999.25   35.64080   -4.02330    4.07270
 2000.00000    -999.25    9.57090    9.57090  249.28950    -999.25    -999.25    -999.25    4.01140    -999.25  110.54890  110.54890   61.39940   61.39940    4.01140    3.77580    4.60320    3.77580    -999.25   35.90990   -3.89120    4.60320
 2050.00000    -999.25    9.49820    9.49820  213.81180    -999.25    -999.25    -999.25    4.67720    -999.25  108.07660  108.07660   64.59210   64.59210    4.67720    4.00220    4.45130    4.00220    -999.25   34.94610   -4.99140    4.45130
 2100.00000    -999.25   10.69040   10.69040  194.68890    -999.25    -999.25    -999.25    5.13640    -999.25  109.32900  109.32900   80.66660   80.66660    5.13640    4.41620    4.78020    4.41620    -999.25   33.14850   -6.92680    4.78020
 2150.00000    -999.25   10.57000   10.57000  134.32920    -999.25    -999.25    -999.25    7.44440    -999.25  137.90180  137.90180   67.48850   67.48850    7.44440    6.83640    6.52950    6.83640    -999.25   33.49110   -6.72130    6.52950
 2200.00000    -999.25   12.43550   12.43550  164.05280    -999.25    -999.25    -999.25    6.09560    -999.25  108.55480  108.55480   92.59930   92.59930    6.09560    5.07990    5.84080    5.07990    -999.25   35.39070   -4.95880    5.84080
 2250.00000    -999.25   11.47320   11.47320  149.08910    -999.25    -999.25    -999.25    6.70740    -999.25  114.32060  114.32060  118.81160  118.81160    6.70740    5.53350    6.19860    5.53350    -999.25   38.47000   -1.77510    6.19860
 2300.00000    -999.25   10.52320   10.52320  149.05820    -999.25    -999.25    -999.25    6.70890    -999.25  109.70030  109.70030   89.69860   89.69860    6.70890    6.05570    6.91630    6.05570    -999.25   37.99950   -1.19990    6.91630
 2350.00000    -999.25   10.70670   10.70670  172.72650    -999.25    -999.25    -999.25    5.78950    -999.25  115.05620  115.05620   91.77280   91.77280    5.78950    4.84170    5.60660    4.84170    -999.25   34.14530   -4.06150    5.60660
 2400.00000    -999.25   12.11290   12.11290  137.18930    -999.25    -999.25    -999.25    7.28920    -999.25  110.37870  110.37870   68.62180   68.62180    7.28920    5.75180    5.82800    5.75180    -999.25   29.70560   -7.51350    5.82800
 2450.00000    -999.25   11.16430   11.16430   83.91940    -999.25    -999.25    -999.25   11.91620    -999.25  119.37240  119.37240   61.69730   61.69730   11.91620   10.46240   10.42090   10.46240    -999.25   27.36230   -8.86910   10.42090
 2500.00000    -999.25   11.43060   11.43060  127.61780    -999.25    -999.25    -999.25    7.83590    -999.25  114.55860  114.55860   73.68780   73.68780    7.83590    7.21640    6.61620    7.21640    -999.25   32.37620   -3.66700    6.61620
 2550.00000    -999.25   11.78560   11.78560  147.37130    -999.25    -999.25    -999.25    6.78560    -999.25  114.24110  114.24110   79.75070   79.75070    6.78560    5.83470    5.49150    5.83470    -999.25   31.36540   -4.77000    5.49150
