~Version ---------------------------------------------------
VERS.      2.0 : CWLS log ASCII Standard -VERSION 2.0
WRAP.       NO : One line per depth step
CREA. 07/27/17 : LAS Creation Date
~Well ------------------------------------------------------
STRT.FT                        1000.0 : START DEPTH
STOP.FT                       10600.0 : STOP DEPTH
STEP.FT                      50.00000 : STEP LENGTH
NULL.                         -999.25 : NULL VALUE
COMP.      THE CALIFORNIA STANDARD CO : COMPANY
WELL. CALSTAN EAST MEEKWAP 10-1-65-18 : WELL
FLD .                                 : FIELD
LOC .                                 : LOCATION
CTRY.                          CANADA : COUNTRY
SRVC.          Schlumberger of Canada : SERVICE COMPANY
DATE.                     17-Feb-1961 : LOGDATE
PROV.                         Alberta : PROVINCE
UWI .                100100106518W500 : UNIQUE WELL ID
SLAT.WGS84                   54.59797 : SURFACE LATITUDE
SLON.WGS84                  -116.5799 : SURFACE LONGITUDE
~Curve Information -----------------------------------------
DEPT  .FT         : Depth Curve
CALWS .IN         : CALIPER [MCALED]
CILDED.MMHO       : CONDUCTIVITY FROM RESISTIVITY LOG
CONDWS.MMHO       : CONDUCTIVITY [1000/DRESWS]
DRESWS.OHMM       : DEEP RESISTIVITY [1000/CILDED IF ILDED <1, ILDED]
DTED  .US/F       : DELTA-T FROM SONIC LOG
DTWS  .US/F       : COMPRESSIONAL SONIC [DTED]
GRSED .UgRa-Eq/T  : GAMMA RAY FROM SONIC LOG
GRWS  .GAPI       : GAMMA RAY [GRSED*16.5, CONVERTED TO GAPI]
ILDED .OHMM       : DEEP INDUCTION FROM RESISTIVITY LOG
MCALED.IN         : CALIPER FROM MICROLOG
SNED  .OHMM       : SHORT NORMAL FROM RESISTIVITY LOG
SPRED .MV         : SPONTANEOUS POTENTIAL FROM RESISTIVITY LOG
SPWS  .MV         : SPONTANEOUS POTENTIAL [BASELINE 0 MV, SPRED]
SRESWS.OHMM       : SHALLOW RESISTIVITY [SNED]
~Params ----------------------------------------------------
LMF .                     KB : LOG MEASURED FROM
DMF .                     KB : DRILLING MEASURED FROM
EKB .FT                 2634 : KELLY BUSHING
EGL .FT                 2620 : GROUND LEVEL
DATE.               02/17/61 : RUN DATE
RUN .                      2 : RUN NUMBER
DD  .FT                10617 : DEPTH DRILLER
DL  .FT                10607 : DEPTH LOGGER
BLI .FT                10606 : BOTTOM LOG INTERVAL
TLI .FT                 5200 : TOP LOG INTERVAL
CBD .FT                 1008 : CASING BOTTOM DRILLER
CBL .FT                 1009 : CASING BOTTOM LOGGER
BS  .IN                    9 : BIT SIZE
BSD .FT                10617 : BIT SIZE AT DEPTH
DFT .                    GEL : DRILLING FLUID TYPE
DFD .                   10.6 : DRILLING FLUID DENSITY
DFV .                     90 : DRILLING FLUID VISCOSITY
DFPH.                    9.5 : DRILLING FLUID PH
DFL .                    8.8 : DRILLING FLUID LOSS
RMS .OHMM               4.45 : RESISTIVITY MUD SAMPLE
MST .DEGF                 66 : MUD SAMPLE TEMPERATURE
RMF .OHMM                3.6 : RESISTIVITY MUD FILTRATE SAMPLE
MFST.DEGF                 67 : MUD FILTRATE SAMPLE TEMPERATURE
RMC .OHMM                2.3 : RESISTIVITY MUD CAKE
MCST.DEGF                 81 : MUD CAKE SAMPLE TEMPERATURE
RMB .OHMM               2.13 : RESISTIVITY MUD AT BHT
TCS .HRS                 5.5 : TIME CIRCULATED STOPPED
LUN .                   2549 : LOGGING UNIT NUMBER
LUL .                     SH : LOGGING UNIT LOCATION
ENGI.             ARMBRUSTER : RECORDING ENGINEER
WITN.                 MCDADE : WITNESSED BY
CLNT.                A2DTECH : CLIENT CODE
ORIG.            2" 5" PRINT : ORIGIN OF DATA
UWI .       100100106518W500 : UNIQUE WELL ID
DICO. A2D Technologies, Inc. : DIGITIZING COMPANY
~Other -----------------------------------------------------
~ASCII -----------------------------------------------------
 1000.00000    -999.25    -999.25    -999.25    -999.25    -999.25    -999.25    3.09390   51.04940    -999.25    -999.25    -999.25    -999.25    -999.25    -999.25
 1050.00000   10.47210  195.59590  236.20560    4.23360  121.76820  121.76820    4.23290   69.84280    4.23360   10.47210    4.87800 -405.00270   -2.06610    4.87800
 1100.00000   10.94650  244.81460  282.78940    3.53620  124.17690  124.17690    4.74500   78.29250    3.53620   10.94650    4.05820 -403.66490   -1.25640    4.05820
 1150.00000   10.52170  174.24250  191.40970    5.22440  130.89680  130.89680    4.46010   73.59170    5.22440   10.52170    4.87220 -403.98540   -2.10150    4.87220
 1200.00000   12.55080  192.86330  198.63730    5.03430  109.11390  109.11390    4.53750   74.86870    5.03430   12.55080    4.47780 -403.99970   -2.64380    4.47780
 1250.00000   10.75630  163.78720  185.69070    5.38530  126.44560  126.44560    4.76040   78.54660    5.38530   10.75630    4.83420 -403.67510   -2.84380    4.83420
 1300.00000    9.33660  139.11530  145.85700    6.85660  108.69440  108.69440    4.07850   67.29520    6.85660    9.33660    5.84620 -402.63640   -2.32970    5.84620
 1350.00000    8.54590   85.34590   86.39830   11.57430   96.61120   96.61120    4.90110   80.86810   11.57430    8.54590   10.10890 -404.99060   -5.29880   10.10890
 1400.00000   10.84860  254.57770  312.73190    3.19820  125.11360  125.11360    3.90270   64.39450    3.19820   10.84860    3.59150 -401.88650   -3.06440    3.59150
 1450.00000   12.39330  211.26280  267.88820    3.73290  111.76350  111.76350    3.68620   60.82230    3.73290   12.39330    4.34210 -402.12440   -3.39140    4.34210
 1500.00000    8.64870   74.05350   76.61540   13.05220  108.96040  108.96040    3.45580   57.02070   13.05220    8.64870   11.28620 -418.40300  -19.75840   11.28620
 1550.00000   10.53100  203.28250  238.36480    4.19580  124.64810  124.64810    4.34390   71.67430    4.19580   10.53100    4.84370 -401.94050   -3.38440    4.84370
 1600.00000    8.87260  122.42470  133.52560    7.48920  117.65530  117.65530    4.63530   76.48250    7.48920    8.87260    7.38440 -405.96820   -7.50110    7.38440
 1650.00000   10.00630  116.82840  114.61260    8.75690   91.57230   91.57230    3.08380   50.88270    8.75690   10.00630    8.64470 -402.27910   -3.90050    8.64470
 1700.00000   10.43930  321.80690  376.88920    2.65330  136.24770  136.24770    3.82530   63.11740    2.65330   10.43930    4.13830 -400.13210   -1.84260    4.13830
 1750.00000    8.73860   80.06050   83.40350   11.98990  100.94590  100.94590    3.55780   58.70370   11.98990    8.73860   10.71420 -407.52360   -9.32250   10.71420
 1800.00000    8.59310  151.32340  179.90770    5.59300  116.54980  116.54980    3.83620   63.29730    5.59300    8.59310    7.17320 -408.23470  -10.12210    7.17320
 1850.00000    9.14070  202.24850  228.84340    4.36980  100.72950  100.72950    3.43300   56.64450    4.36980    9.14070    4.84500 -400.51720   -2.49360    4.84500
 1900.00000   10.23490  214.84220  250.82370    3.98730  117.48410  117.48410    3.68430   60.79090    3.98730   10.23490    4.58930 -400.77180   -2.83670    4.58930
 1950.00000   10.53600  197.68300  242.75380    4.11940  123.97000  123.97000    3.26180   53.81970    4.11940   10.53600    4.89040 -399.66370   -1.81770    4.89040
 2000.00000    9.54180  208.28380  253.38910    3.94650  115.86200  115.86200    3.65800   60.35700    3.94650    9.54180    4.80830 -399.83100   -2.07340    4.80830
 2050.00000    9.11620  131.56480  158.16010    6.34730  106.90440  106.90440    4.34980   71.77170    6.34730    9.11620    7.55410 -406.24050   -8.57140    7.55410
 2100.00000    9.19400  139.24670  134.39230    7.44090  103.62540  103.62540    3.15130   51.99650    7.44090    9.19400    7.16360 -400.28330   -2.70320    7.16360
 2150.00000    9.52640  179.18310  206.40750    4.84480  118.04110  118.04110    3.56720   58.85880    4.84480    9.52640    5.29750 -399.54160   -2.05000    5.29750
 2200.00000   10.47140  225.06980  271.62100    3.68160   95.37090   95.37090    3.41570   56.35910    3.68160   10.47140    4.78330 -399.50270   -2.10020    4.78330
 2250.00000    9.79960  219.21580  258.01120    3.87580  113.80520  113.80520    3.65090   60.23990    3.87580    9.79960    4.78200 -399.20210   -1.88800    4.78200
 2300.00000    9.32960  149.46050  173.24710    5.77220  104.86890  104.86890    3.80890   62.84680    5.77220    9.32960    6.08590 -398.95970   -1.73410    6.08590
 2350.00000   10.00790  138.85500  146.46010    6.82780   92.54670   92.54670    3.39740   56.05710    6.82780   10.00790    7.31840 -400.57050   -3.43390    7.31840
 2400.00000   10.46590  226.25440  265.13650    3.77170  118.24360  118.24360    4.19670   69.24550    3.77170   10.46590    4.76750 -399.06210   -2.01400    4.76750
 2450.00000    8.44460   60.48210   58.80100   17.00650   83.90960   83.90960    3.16550   52.23080   17.00650    8.44460   19.58730 -424.11240  -27.15340   19.58730
 2500.00000    9.47450  134.67090  140.78360    7.10310   96.90990   96.90990    4.38640   72.37560    7.10310    9.47450    6.80300 -399.56370   -2.95920    6.80300
 2550.00000   10.30850  191.02210  203.36660    4.91830  103.39170  103.39170    4.35670   71.88550    4.91830   10.30850    5.64490 -397.80620   -1.87640    5.64490
 2600.00000   10.78090  185.37800  211.96770    4.71770   99.64710   99.64710    4.74390   78.27430    4.71770   10.78090    5.69540 -396.71180   -1.46110    5.69540
 2650.00000   11.07630  178.76600  200.05820    4.99950  100.82240  100.82240    4.46500   73.67250    4.99950   11.07630    5.98980 -395.69890   -1.26730    5.98980
 2700.00000   11.45960  121.70260  129.46660    7.72400   99.02870   99.02870    5.57500   91.98750    7.72400   11.45960    8.37450 -399.92820   -6.23490    8.37450
 2750.00000   11.63340  120.84890  131.03410    7.63160   90.26250   90.26250    5.58310   92.12120    7.63160   11.63340    8.38630 -400.46820   -7.39290    8.38630
 2800.00000   11.13040  153.35640  165.78410    6.03250  101.99230  101.99230    6.43310  106.14610    6.03250   11.13040    7.59080 -398.45810   -6.00080    7.59080
 2850.00000   11.66820  102.02240  107.95290    9.26330   94.79550   94.79550    5.59370   92.29610    9.26330   11.66820   12.16480 -396.61420   -4.77890   12.16480
 2900.00000   11.58700  117.20570  122.59630    8.15700  103.87560  103.87560    6.42180  105.95970    8.15700   11.58700    9.56020 -395.63360   -4.41630    9.56020
 2950.00000   11.60680  108.62750  115.88290    8.62940  112.64770  112.64770    6.14810  101.44370    8.62940   11.60680    9.86500 -399.17070   -8.57550    9.86500
 3000.00000   11.12710  139.10630  150.56610    6.64160   96.43380   96.43380    5.80110   95.71810    6.64160   11.12710    7.49810 -398.23020   -8.25300    7.49810
 3050.00000    9.91210  116.71720  123.55520    8.09400  104.98560  104.98560    5.82140   96.05310    8.09400    9.91210    8.66030 -395.26630   -5.90710    8.66030
 3100.00000   10.95590  130.40330  136.88690    7.30530  101.78160  101.78160    6.05270   99.86950    7.30530   10.95590    8.79300 -391.76970   -3.03250    8.79300
 3150.00000   11.62050  136.11010  145.47860    6.87420   92.94320   92.94320    6.25480  103.20420    6.87420   11.62050    7.92410 -394.71800   -6.59880    7.92410
 3200.00000   11.64830  125.58950  135.38940    7.38610  104.32590  104.32590    6.75520  111.46080    7.38610   11.64830    8.46910 -394.97200   -7.47490    8.46910
 3250.00000   11.01590  112.99410  117.36120    8.52070   96.03410   96.03410    6.32990  104.44340    8.52070   11.01590    9.52550 -394.90930   -6.50590    9.52550
 3300.00000   10.35650  135.32700  146.21940    6.83920  101.25760  101.25760    6.48590  107.01730    6.83920   10.35650    7.94660 -406.69030   -5.52640    7.94660
 3350.00000   10.54510  107.18970  112.92540    8.85540   90.73140   90.73140    6.14360  101.36940    8.85540   10.54510   10.07730 -405.13470   -5.26700   10.07730
 3400.00000   11.96580  114.19290  121.09310    8.25840   95.60430   95.60430    6.41230  105.80300    8.25840   11.96580    9.07200 -405.24780   -6.66770    9.07200
