~Version ---------------------------------------------------
VERS.      2.0 : CWLS log ASCII Standard -VERSION 2.0
WRAP.       NO : One line per depth step
CREA. 12/12/17 : LAS Creation Date
~Well ------------------------------------------------------
STRT.FT                        650.0 : START DEPTH
STOP.FT                      10550.0 : STOP DEPTH
STEP.FT                     50.00000 : STEP LENGTH
NULL.                        -999.25 : NULL VALUE
COMP.    STANOLIND OIL & GAS COMPANY : COMPANY
WELL. STANOLIND TONY CREEK CROWN A-1 : WELL
FLD .                                : FIELD
LOC .                                : LOCATION
CTRY.                         CANADA : COUNTRY
SRVC.                          Welex : SERVICE COMPANY
DATE.                    12-Jun-1983 : LOGDATE
PROV.                        Alberta : PROVINCE
UWI .               100103206321W500 : UNIQUE WELL ID
SLAT.WGS84                  54.49604 : SURFACE LATITUDE
SLON.WGS84                 -117.1351 : SURFACE LONGITUDE
~Curve Information -----------------------------------------
DEPT    .FT     : Depth Curve
CALDED  .IN     : CALIPER FROM CND LOG
CALWS   .IN     : CALIPER [MCALED]
CILDED  .MMHO   : CONDUCTIVITY FROM RESISTIVITY LOG
CONDWS  .MMHO   : CONDUCTIVITY [1000/DRESWS]
CORRED  .G/C3   : DENSITY CORRECTION FROM CND LOG
DCORWS  .G/C3   : DENSITY CORRECTION [CORRED]
DENWS   .G/C3   : FORMATION DENSITY [RHOBED]
DPHIDMED.V/V    : DENSITY POROSITY DOLOMITE [ASSUMED MD=2.83,FD=1.00] FROM CND LOG
DPHISSED.V/V    : DENSITY POROSITY SANDSTONE[ASSUMED M=2.65, F=1.00] FROM CND LOG
DPOLSWS .V/V    : DENSITY POROSITY 9LIMESTONE [CALCULATED FROM DENWS, M=2.71, F=1.00]
DRESWS  .OHMM   : DEEP RESISTIVITY [ILDED SPLICED TO LNED AT 6680' AND 4040']
GRDED   .GAPI   : GAMMA RAY FROM DENSITY LOG
GRED    .UR/HR  : CASED HOLE GAMMA RAY FROM GR LOG [DSH TO SPRED]
GRNED   .UR/HR  : CASED HOLE GAMMA RAY FROM GRN LOG [DSH TO SPRED]
GRWS    .GAPI   : GAMMA RAY [GRDED SPLICED TO GRED*10.4 AT 6023' & 4760', GRNED*10.4 (GRNED*10.4 RESCALED FROM 0-120 TO 0-200)AT 3400']
ILDED   .OHMM   : INDUCTION LOG DEEP RESISTIVITY FROM IEL/GUARD LOG
ILMED   .OHMM   : INDUCTION LOG MEDIUM RESISTIVITY FROM IEL/GUARD LOG
LNED    .OHMM   : 64 INCH LONG NORMAL RESISTIVITY FROM EL
LT18ED  .OHMM   : LATERAL 18'8" FROM EL
MCALED  .IN     : MLT [MICROLOG] CALIPER FROM MICROLOG
MRESWS  .OHMM   : MEDIUM RESISTIVITY [ILMED]
NEUTED  .CU     : NEUTRON FROM NEUTRON LOG [DSH TO SPRED]
NEUTWS  .CU     : NEUTRON [NEUTED]
NPHIDMED.V/V    : NEUTRON POROSITY DOLOMITE FROM CND LOG
NPHISSED.V/V    : NEUTRON POROSITY SANDSTONE FROM CND LOG
NPOLSWS .V/V    : NEUTRON POROSITY LIMESTONE [NPHISSED CONVERTED TO LIMESTONE]
RHOBED  .G/C3   : FORMATION DENSITY FROM CND LOG
SGUARDED.OHMM   : SHORT RESISTIVITY GUARD FROM IEL/GUARD LOG
SNED    .OHMM   : 16 INCH SHORT NORMAL RESISTIVITY FROM EL
SPR1ED  .MV     : SPONTANEOUS POTENTIAL FROM IEL/GUARD LOG
SPRED   .MV     : SPONTANEOUS POTENTIAL FROM ES LOG
SPWS    .MV     : SPONTANEOUS POTENTIAL [BASELINE 0 MV] [SPRED]
SRESWS  .OHMM   : SHALLOW RESISTIVITY [SNED SPLICED TO SNED AT 2036 M AND 4030']
TENDED  .LBF    : TENSION FROM CND LOG
TENRED  .LBF    : TENSION FROM IEL/GUARD LOG
~Params ----------------------------------------------------
PD  .                         GL : PERMANENT DATUM
LMF .                         KB : LOG MEASURED FROM
DAPD.M                       5.2 : FEET ABOVE PERMANENT DATUM
DMF .                         KB : DRILLING MEASURED FROM
EKB .M                    770.53 : KELLY BUSHING
EGL .M                    765.33 : GROUND LEVEL
DATE.                   06/12/83 : RUN DATE
RUN .                          1 : RUN NUMBER
DD  .M                      2060 : DEPTH DRILLER
DL  .M                    2039.2 : DEPTH LOGGER
BLI .M                    2038.6 : BOTTOM LOG INTERVAL
TLI .M                    1227.3 : TOP LOG INTERVAL
CS  .MM                      178 : CASING SIZE
CBD .M                    1226.5 : CASING BOTTOM DRILLER
CBL .M                    1227.3 : CASING BOTTOM LOGGER
BS  .MM                      159 : BIT SIZE
BSD .M                      2060 : BIT SIZE AT DEPTH
DFT .              WATER AND OIL : DRILLING FLUID TYPE
DFD .                       1065 : DRILLING FLUID DENSITY
DFV .                        115 : DRILLING FLUID VISCOSITY
DFPH.                         12 : DRILLING FLUID PH
DFL .                         19 : DRILLING FLUID LOSS
MSS .                       CIRC : MUD SAMPLE SOURCE
RMS .OHMM                   1.72 : RESISTIVITY MUD SAMPLE
MST .DEGC                     24 : MUD SAMPLE TEMPERATURE
RMF .OHMM                    1.6 : RESISTIVITY MUD FILTRATE SAMPLE
MFST.DEGC                     23 : MUD FILTRATE SAMPLE TEMPERATURE
RMC .OHMM                    1.9 : RESISTIVITY MUD CAKE
MCST.DEGC                     23 : MUD CAKE SAMPLE TEMPERATURE
MFSS.                       MEAS : MUD FILTRATE SAMPLE SOURCE
MCSS.                       MEAS : MUD CAKE SAMPLE SOURCE
RMB .OHMM                    1.4 : RESISTIVITY MUD AT BHT
TCS .HRS                       4 : TIME CIRCULATED STOPPED
ENGI.                   PETERSON : RECORDING ENGINEER
WITN.                     NUGENT : WITNESSED BY
CLNT.                    A2DTECH : CLIENT CODE
ORIG. 6.5"/100M 16.5"/100M PRINT : ORIGIN OF DATA
UWI .           100103206321W500 : UNIQUE WELL ID
DICO.     A2D Technologies, Inc. : DIGITIZING COMPANY
~Other -----------------------------------------------------
LNED, SNED, LT18ED ARE FROM THE LINEAR SCALE OF 2" & 5" LOG
~ASCII -----------------------------------------------------
# ...
 5900.00000   10.63780   11.05390   97.57560   89.22910    -999.25    -999.25    -999.25    -999.25    -999.25    -999.25   11.20710    -999.25    4.79000    -999.25   49.81600   11.20710    -999.25   13.82660   11.50860   11.05390    -999.25    -999.25    -999.25    -999.25    -999.25    -999.25    -999.25   13.41730   15.46230  -36.03600  -71.37310  -33.49940   13.41730 6916.35880    -999.25
 5950.00000   10.01060   10.30090   69.16290   66.64890    -999.25    -999.25    -999.25    -999.25    -999.25    -999.25   15.00400    -999.25    8.84560    -999.25   91.99420   15.00400    -999.25   17.25480   15.70630   10.30090    -999.25    -999.25    -999.25    -999.25    -999.25    -999.25    -999.25   17.87850   21.51210  -33.64280  -47.52730  -10.21860   17.87850 7129.96400    -999.25
 6000.00000    9.64380   10.57320    -999.25   57.88010    -999.25    -999.25    -999.25    -999.25    -999.25    -999.25   17.27710    -999.25    5.68700    -999.25   59.14480   17.27710   20.21660   18.47400   15.60280   10.57320   20.21660    -999.25    -999.25    -999.25    -999.25    -999.25    -999.25   20.19780   31.32720  -36.59490  -45.88360   -9.14000   20.19780 7092.48190 6439.18090
 6050.00000    8.18190   11.44550    -999.25  106.71900    0.22390    0.22390    2.36240    0.50900    0.30640    0.20330    9.37040   60.47330    5.52090    -999.25   60.47330    9.37040    8.56080   17.51220    7.93080   11.44550    8.56080    -999.25    -999.25    0.18340    0.48500    0.42110    2.36240    9.26710   19.12840  -41.80530  -57.93460  -21.75600    9.26710 7300.18030 6518.62000
 6100.00000    8.05460   10.05660    -999.25   28.86880    0.25000    0.25000    2.34130    0.15530    0.29570    0.21560   34.63950   73.12970    8.11280    -999.25   73.12970   34.63950   43.10050   77.09910   10.51700   10.05660   43.10050    -999.25    -999.25    0.08480    0.40000    0.33320    2.34130   67.54580   62.56190  -30.15650  -50.74440  -15.13090   67.54580 7126.70690 6535.41870
 6150.00000    8.38280   10.62040    -999.25   51.80540    0.21740    0.21740    2.26300    0.27170    0.27120    0.26140   19.30300   89.78240    7.42450    -999.25   89.78240   19.30300   24.14400   47.31110    8.92870   10.62040   24.14400    -999.25    -999.25    0.15990    0.46300    0.39790    2.26300   32.25400   38.76830  -30.60990  -53.46980  -18.42130   32.25400 7136.04360 6534.77210
 6200.00000    6.54220   10.65550    -999.25   55.97760    0.19940    0.19940    2.30010    0.27440    0.35440    0.23970   17.86430   93.95660    8.26420    -999.25   93.95660   17.86430   22.35750   24.11250   14.01110   10.65550   22.35750    -999.25    -999.25    0.13500    0.43000    0.36370    2.30010   40.59760   24.20990  -27.97720  -58.11510  -23.63170   40.59760 7134.50040 6539.57330
 6250.00000    6.52620   12.26700    -999.25   90.49770    0.13040    0.13040    2.23700    0.42450    0.42180    0.27660   11.05000   82.68820    9.84330    -999.25   82.68820   11.05000   12.19110   12.70360   12.96230   12.26700   12.19110    -999.25    -999.25    0.22670    0.50550    0.44300    2.23700   12.18350   14.56650  -18.56390  -55.96380  -22.04540   12.18350 7218.21690 6569.67040
 6300.00000    6.52580   10.17240    -999.25   44.66900    0.07700    0.07700    2.09030    0.42270    0.49660    0.36240   22.38690   38.58690    4.21120    -999.25   38.58690   22.38690   29.50440   15.09400   49.31870   10.17240   29.50440    -999.25    -999.25    0.15040    0.44180    0.37580    2.09030   41.39780   31.21430  -37.13130  -93.99600  -60.64270   41.39780 7361.42550 6543.79300
 6350.00000    7.29060   12.95530    -999.25  247.81920   -0.01350   -0.01350    1.63550    0.66990    0.76430    0.62840    4.03520   92.84830   10.81110    -999.25   92.84830    4.03520    3.48170    4.19590    4.71710   12.95530    3.48170    -999.25    -999.25    0.95820    0.85140    0.82930    1.63550    4.76650    5.67050  -31.99190  -55.90330  -23.11500    4.76650 7314.19170 6625.23830
 6400.00000    6.70790   14.97950    -999.25  228.76490    0.11720    0.11720    2.34270    0.41680    -999.25    0.21480    4.37130   82.20830    -999.25    -999.25   82.20830    4.37130    4.11910    6.71470    8.81850   14.97950    4.11910    -999.25    -999.25    0.41420    -999.25    -999.25    2.34270    5.39160    6.36470  -31.16700  -43.64110  -11.41790    5.39160 7336.19270 6566.11980
 6450.00000    6.61250   12.65180    -999.25  102.48630    0.19340    0.19340    2.04180    0.37990    -999.25    0.39080    9.75740  115.48110    -999.25    -999.25  115.48110    9.75740    8.48860   36.46720    7.55080   12.65180    8.48860    -999.25    -999.25    0.55010    -999.25    -999.25    2.04180   10.70600   29.06960  -31.00860  -40.00760   -8.34940   10.70600 7341.00300 6607.60090
 6500.00000    6.49540    9.75180    -999.25    9.69490    0.07220    0.07220    2.49210    0.50830    0.23340    0.12740  103.14750  128.11380    -999.25    -999.25  128.11380  103.14750  155.39000  302.07320  349.87310    9.75180  155.39000    -999.25    -999.25    0.21300    0.50020    0.43730    2.49210  144.41150  112.14850  -41.55510  -35.60430   -4.51120  144.41150 7330.01010 6738.07530
 6550.00000    8.55620    9.50200    -999.25    2.94600    0.04580    0.04580    2.43700    0.24390    0.29800    0.15960  339.44660  366.83610    -999.25    -999.25  366.83610  339.44660    -999.25    -999.25 1791.48600    9.50200 1976.81260    -999.25    -999.25    0.23450    0.50380    0.44120    2.43700 2001.98790  179.02110  -55.81190  -89.38930  -58.86120 2001.98790 7272.87540 6739.44600
 6600.00000    8.60870    9.50300    -999.25   76.20210    0.12560    0.12560    2.67180    0.17630    0.13940    0.02230   13.12300   68.94800    -999.25    -999.25   68.94800   13.12300   14.23210   25.23310   31.78680    9.50300   14.23210    -999.25    -999.25    0.04650    0.34720    0.28110    2.67180   18.02530   21.65990  -40.19460  -73.39990  -43.43690   18.02530 7309.24320 6856.86560
 6650.00000    9.22470   10.16480    -999.25   64.55030    0.01290    0.01290    2.64600    0.08350    0.15230    0.03740   15.49180   88.85980    -999.25    -999.25   88.85980   15.49180   17.83780   23.32630   29.96130   10.16480   17.83780    -999.25    -999.25    0.05530    0.35890    0.29250    2.64600   21.95270   20.68870  -34.25420  -46.86390  -17.46590   21.95270 7356.99220 6712.46380
 6700.00000    -999.25   10.18990    -999.25   36.06570    -999.25    -999.25    -999.25    -999.25    -999.25    -999.25   27.72720    -999.25    -999.25    -999.25    -999.25    -999.25    -999.25   27.72720   27.85960   10.18990    -999.25    -999.25    -999.25    -999.25    -999.25    -999.25    -999.25    -999.25   23.59300    -999.25  -40.29570  -11.46280   23.59300    -999.25    -999.25
 6750.00000    -999.25   10.14030    -999.25   29.27070    -999.25    -999.25    -999.25    -999.25    -999.25    -999.25   34.16380    -999.25    -999.25    -999.25    -999.25    -999.25    -999.25   34.16380   45.79690   10.14030    -999.25    -999.25    -999.25    -999.25    -999.25    -999.25    -999.25    -999.25   25.56600    -999.25  -42.76090  -14.49300   25.56600    -999.25    -999.25
 6800.00000    -999.25    9.54640    -999.25   13.64220    -999.25    -999.25    -999.25    -999.25    -999.25    -999.25   73.30180    -999.25    -999.25    -999.25    -999.25    -999.25    -999.25   73.30180   96.84220    9.54640    -999.25    -999.25    -999.25    -999.25    -999.25    -999.25    -999.25    -999.25   43.62780    -999.25  -43.50440  -15.80160   43.62780    -999.25    -999.25
 6850.00000    -999.25    9.88970    -999.25   13.62040    -999.25    -999.25    -999.25    -999.25    -999.25    -999.25   73.41930    -999.25    -999.25    -999.25    -999.25    -999.25    -999.25   73.41930   92.61340    9.88970    -999.25    -999.25    -999.25    -999.25    -999.25    -999.25    -999.25    -999.25   42.59600    -999.25  -37.82230  -10.68450   42.59600    -999.25    -999.25
 6900.00000    -999.25    8.89640    -999.25    4.26520    -999.25    -999.25    -999.25    -999.25    -999.25    -999.25  234.45740    -999.25    -999.25    -999.25    -999.25    -999.25    -999.25  234.45740  381.82320    8.89640    -999.25    -999.25    -999.25    -999.25    -999.25    -999.25    -999.25    -999.25  100.11660    -999.25 -153.81890 -127.24620  100.11660    -999.25    -999.25
