~Version ---------------------------------------------------
VERS. 2.0 : CWLS log ASCII Standard -VERSION 2.0
WRAP. YES : Multiple lines per depth step
~Well ------------------------------------------------------
STRT.m                        450.0 : START DEPTH
STOP.m                       3400.0 : STOP DEPTH
STEP.m                     50.00000 : STEP LENGTH
NULL.                       -999.25 : NULL VALUE
COMP. AMOCO CANADA PETROLEUM CO LTD : COMPANY
WELL.    AMOCO HB PEMBINA 7-1-48-10 : WELL
FLD .                               : FIELD
LOC .                               : LOCATION
CTRY.                        CANADA : COUNTRY
SRVC.                       Unknown : SERVICE COMPANY
DATE.                   18-Dec-1980 : LOGDATE
PROV.                       Alberta : PROVINCE
UWI .              100070104810W500 : UNIQUE WELL ID
SLAT.WGS84                 53.11174 : SURFACE LATITUDE
SLON.WGS84                -115.3255 : SURFACE LONGITUDE
~Curve Information -----------------------------------------
DEPT    .m      : Depth Curve
CALDED  .MM     : CALIPER  CNLD (ADJ TO RES.)
CALSED  .MM     : CALIPER  SONIC (ADJ TO RES.)
CALWS   .MM     : CALIPER (CALDED)
CONDWS  .MMHO   : CONDUCTIVITY (1000/DRESWS)
DCORWS  .KG/M3  : DENSITY CORRECTION (DRHOED)
DENWS   .KG/M3  : BULK DENSITY  (RHOBED)
DPHILSED.V/V    : DENSITY POROSITY LIMESTONE  (ADJ TO RES.)
DPHISSED.V/V    : DENSITY POROSITY SANDSTONE  (ADJ TO RES.)
DPOLSWS .V/V    : DENSITY POROSITY (M=2710 F=1000 FROM DENWS)
DRESWS  .OHMM   : DEEP RESISTIVITY (ILDED)
DRHOED  .KG/M3  : DENSITY CORRECTION (ADJ TO RES.) (FILLED MISSING)
DTED    .US/M   : DELTA TIME  (ADJ TO RES.)
DTWS    .US/M   : DELTA TIME  (DTED)
GRDED   .GAPI   : GAMMA RAY  CNLD (ADJ TO RES.)
GRSED   .GAPI   : GAMMA RAY  SONIC (ADJ TO RES.)
GRWS    .GAPI   : GAMMA RAY (GRDED)
ILDED   .OHMM   : DEEP INDUCTION RESISTIVITY  (FILLED MISSING)
ILMED   .OHMM   : MEDIUM INDUCTION RESISTIVITY (FILLED MISSING)
MRESWS  .OHMM   : MEDIUM RESISTIVITY (ILMED)
NPHILSED.V/V    : NEUTRON POROSITY LIMESTONE (ADJ TO RES.)
NPHISSED.V/V    : NEUTRON POROSITY SANDSTONE (ADJ TO RES.)
NPOLSWS .V/V    : NEUTRON POROSITY LIMESTONE (NPHISS CONVERTED TO LS/NPHILSED)
RHOBED  .KG/M3  : BULK DENSITY (ADJ TO RES.)
SFLED   .OHMM   : SPHERICALLY FOCUSED RESISTIVITY
SPRED   .MV     : Spontaneous Potential  DIL
SPWS    .MV     : SPONTANEOUS POTENTIAL (SPRED) BASELINE 0 MV
SRESWS  .OHMM   : SHALLOW RESISTIVITY (SFLED)
~Params ----------------------------------------------------
PD  .                                 GL : PERMANENT DATUM
EPD .M                            904.78 : ELEVATION PERMANENT DATUM
LMF .                                 KB : LOG MEASURED FROM
DAPD.M                              7.57 : FEET ABOVE PERMANENT DATUM
DMF .                                 KB : DRILLING MEASURED FROM
EKB .M                            912.35 : KELLY BUSHING
EGL .M                            904.78 : GROUND LEVEL
DATE.                           12/18/80 : RUN DATE
RUN .                                  2 : RUN NUMBER
DD  .M                              3430 : DEPTH DRILLER
DL  .M                              3432 : DEPTH LOGGER
BLI .M                              3431 : BOTTOM LOG INTERVAL
TLI .M                              2758 : TOP LOG INTERVAL
CS  .MM                              244 : CASING SIZE
CBD .M                              2760 : CASING BOTTOM DRILLER
CBL .M                              2758 : CASING BOTTOM LOGGER
BS  .MM                              216 : BIT SIZE
BSD .M                              3430 : BIT SIZE AT DEPTH
DFT .                          GEL BENEX : DRILLING FLUID TYPE
DFD .                               1100 : DRILLING FLUID DENSITY
DFV .                                 74 : DRILLING FLUID VISCOSITY
DFPH.                                 10 : DRILLING FLUID PH
DFL .                                 10 : DRILLING FLUID LOSS
MSS .                           FLOWLINE : MUD SAMPLE SOURCE
RMS .OHMM                           1.49 : RESISTIVITY MUD SAMPLE
MST .DEGC                           23.3 : MUD SAMPLE TEMPERATURE
RMF .OHMM                           1.26 : RESISTIVITY MUD FILTRATE SAMPLE
MFST.DEGC                           22.2 : MUD FILTRATE SAMPLE TEMPERATURE
RMC .OHMM                            1.2 : RESISTIVITY MUD CAKE
MCST.DEGC                           22.2 : MUD CAKE SAMPLE TEMPERATURE
MFSS.                              PRESS : MUD FILTRATE SAMPLE SOURCE
RMB .OHMM                           0.64 : RESISTIVITY MUD AT BHT
TCS .HRS                             800 : TIME CIRCULATED STOPPED
TLAB.HRS                            2000 : TIME LOGGER AT BOTTOM
LUN .                               8112 : LOGGING UNIT NUMBER
LUL .                              EDSON : LOGGING UNIT LOCATION
ENGI.                              LLOYD : RECORDING ENGINEER
CLNT.                            A2DTECH : CLIENT CODE
ORIG. 5"/100M 6.5"/100M 16.5"/100M PRINT : ORIGIN OF DATA
UWI .                   100070104810W500 : UNIQUE WELL ID
DICO.             A2D Technologies, Inc. : DIGITIZING COMPANY
~Other -----------------------------------------------------
~ASCII -----------------------------------------------------
# ...
 1750.00000  339.12390  311.89060  339.12390   89.17820   70.47840 2588.69630    -999.25    0.03790    0.07090   11.21350   70.47840  253.08440  253.08440   95.17210   94.82560   95.17210   11.21350   10.01870   10.01870    -999.25    0.26430    0.32610 2588.69630   10.73330  -92.64140  -12.18220   10.73330
 1800.00000  327.59130  305.30770  327.59130  101.72940   60.17360 2572.11740    -999.25    0.04660    0.08060    9.83000   60.17360  262.22520  262.22520   98.96770   93.73660   98.96770    9.83000    8.98120    8.98120    -999.25    0.29510    0.35100 2572.11740    9.44980  -92.40410  -10.94760    9.44980
 1850.00000  348.43340  315.57980  348.43340   83.13730  142.57920 2579.69750    -999.25    0.04140    0.07620   12.02830  142.57920  278.43130  278.43130  103.27220  108.69370  103.27220   12.02830   10.90510   10.90510    -999.25    0.36240    0.40260 2579.69750   12.31790  -92.00440  -11.24050   12.31790
 1900.00000  387.56840  323.01860  387.56840   82.73970  197.36940 2417.14550    -999.25    0.14260    0.17130   12.08610  197.36940  294.70770  294.70770  102.79630   96.21350  102.79630   12.08610   10.41800   10.41800    -999.25    0.36530    0.40470 2417.14550   14.94290  -91.33290  -11.79510   14.94290
 1950.00000  358.66910  325.46670  358.66910  107.34220   67.66140 2555.20610    -999.25    0.05690    0.09050    9.31600   67.66140  270.26150  270.26150   94.63510  100.94930   94.63510    9.31600    8.41000    8.41000    -999.25    0.30700    0.36040 2555.20610    9.82780  -89.95610  -11.64440    9.82780
 2000.00000  369.16340  320.53230  369.16340  253.75560  105.63010 2339.78740    -999.25    0.18620    0.21650    3.94080  105.63010  298.33970  298.33970   89.83020   88.49450   89.83020    3.94080    3.63840    3.63840    -999.25    0.43790    0.45670 2339.78740    3.97450  -88.03430  -10.94880    3.97450
 2050.00000  329.22590  319.64810  329.22590  117.89670   57.22150 2602.54390    -999.25    0.02840    0.06280    8.48200   57.22150  242.59550  242.59550   76.05950   75.38960   76.05950    8.48200    8.33070    8.33070    -999.25    0.25160    0.31550 2602.54390    9.14450  -90.41760  -14.55820    9.14450
 2100.00000  332.92440  312.65700  332.92440   72.85180   22.94280 2572.91060    -999.25    0.04710    0.08020   13.72650   22.94280  231.15120  231.15120   64.23970   68.85310   64.23970   13.72650   13.19700   13.19700    -999.25    0.23720    0.30340 2572.91060   14.11960  -96.68110  -22.04780   14.11960
 2150.00000  369.73290  340.51180  369.73290   39.31810   30.44810 1798.97680    -999.25    0.50050    0.53280   25.43360   30.44810  335.45180  335.45180   79.96430   72.34980   79.96430   25.43360   13.21210   13.21210    -999.25    0.52530    0.54030 1798.97680   99.03510  -86.67260  -13.26550   99.03510
 2200.00000  328.06670  312.53690  328.06670   58.61870    1.56370 2611.59860    -999.25    0.02370    0.05750   17.05940    1.56370  231.46010  231.46010   78.63310   79.41700   78.63310   17.05940   15.70400   15.70400    -999.25    0.23010    0.29740 2611.59860   19.32550  -87.53850  -15.35750   19.32550
 2250.00000  337.02220  315.83710  337.02220   26.88920   49.55640 2563.28170    0.06780    0.05340    0.08580   37.18960   49.55640  206.30220  206.30220   27.84540   28.51920   27.84540   37.18960   33.66450   33.66450    0.04590    0.09260    0.04590 2563.28170   74.40650  -97.01470  -26.05980   74.40650
 2300.00000  319.47820  308.42560  319.47820    1.87580   61.95480 2572.86010    0.08900    0.04770    0.08020  533.11540   61.95480  168.71530  168.71530    9.80930    9.93410    9.80930  533.11540   94.93190   94.93190    0.05660    0.10950    0.05660 2572.86010  216.23180  -99.18920  -29.46050  216.23180
 2350.00000  313.48420  306.42900  313.48420   31.80880   84.33730 2657.26880    0.06220   -0.01600    0.03080   31.43780   84.33730  165.05060  165.05060   11.76800   10.79690   11.76800   31.43780   41.26620   41.26620    0.02620    0.05280    0.02620 2657.26880  289.39330 -134.76960  -66.26700  289.39330
 2400.00000  323.77820  308.84890  323.77820   12.85770   -2.71490 2680.14400    0.01420    -999.25    0.01750   77.77440   -2.71490  182.59860  182.59860   52.99700   59.15100   52.99700   77.77440   46.47400   46.47400    0.17350    -999.25    0.17350 2680.14400   81.57470  -75.01040   -7.73390   81.57470
 2450.00000  334.85740  311.58790  334.85740    2.41110   13.67210 2711.27610   -0.00120    -999.25   -0.00070  414.75250   13.67210  169.00910  169.00910   17.55610   19.51450   17.55610  414.75250   83.57710   83.57710    0.05290    -999.25    0.05290 2711.27610  308.29970  -94.87410  -28.82380  308.29970
 2500.00000  320.58140  310.70050  320.58140    0.55210    6.42340 2686.32030    0.01290    -999.25    0.01380 1811.18850    6.42340  170.32210  170.32210   19.93260   21.60600   19.93260 1811.18850  150.14120  150.14120    0.10880    -999.25    0.10880 2686.32030  284.16160  -95.37790  -30.55370  284.16160
 2550.00000  315.80440  334.16160  315.80440   50.54280   28.16300 2754.07740   -0.01330    -999.25   -0.02580   19.78520   28.16300  174.66140  174.66140   19.56880   20.82080   19.56880   19.78520   21.37960   21.37960    0.03450    -999.25    0.03450 2754.07740  161.02810 -144.04630  -80.44820  161.02810
 2600.00000  300.15030  312.78890  300.15030  196.69940  136.74470 2603.21070    0.05500    -999.25    0.06240    5.08390  136.74470  175.86150  175.86150    6.34350    7.34980    6.34350    5.08390    7.31370    7.31370    0.15300    -999.25    0.15300 2603.21070   19.11320 -172.48770 -110.11580   19.11320
 2650.00000  312.25130  329.31840  312.25130   19.61480   34.77770 2702.51830    0.00930    -999.25    0.00440   50.98180   34.77770  167.65270  167.65270    6.81380    6.64950    6.81380   50.98180   37.62050   37.62050    0.08920    -999.25    0.08920 2702.51830   86.81720 -135.24680  -74.10100   86.81720
 2700.00000  310.05930  362.57590  310.05930   61.23400   27.82240 2624.80710    0.01740    -999.25    0.04980   16.33080   27.82240  177.35810  177.35810    9.69930   10.03980    9.69930   16.33080   17.91120   17.91120    0.10170    -999.25    0.10170 2624.80710   39.76170 -135.23030  -75.31060   39.76170
 2750.00000  316.32520  308.59150  316.32520    0.50000   -5.97540 2889.68310   -0.10230    -999.25   -0.10510 2000.00000   -5.97540  162.80580  162.80580    8.58200    9.87210    8.58200 2000.00000  170.17470  170.17470    0.00740    -999.25    0.00740 2889.68310 1948.74220  -75.99150  -17.29800 1948.74220
 2800.00000  282.48770  219.07510  282.48770   30.14390  246.77060 2567.81980    0.08150    -999.25    0.08310   33.17420  246.77060  172.65010  172.65010   36.75350   38.87780   36.75350   33.17420   27.23530   27.23530    0.14410    -999.25    0.14410 2567.81980   35.43550 -255.06420 -216.67640   35.43550
 2850.00000  262.65700  219.04190  262.65700    0.86890  137.29700 2725.37380    0.00390    -999.25   -0.00900 1150.92000  137.29700  164.28700  164.28700   30.17030   29.46740   30.17030 1150.92000  122.84130  122.84130    0.00810    -999.25    0.00810 2725.37380  701.08910 -247.57390 -232.09350  701.08910
 2900.00000  278.03270  223.32360  278.03270  129.91230  248.59690 2435.89310    0.16130    -999.25    0.16030    7.69750  248.59690  230.81850  230.81850   99.54070   82.18940   99.54070    7.69750    8.06730    8.06730    0.18620    -999.25    0.18620 2435.89310    9.52370  -65.45450  -72.88160    9.52370
 2950.00000  286.68710  220.00520  286.68710  127.85600  207.90880 2311.13500    0.21060    -999.25    0.23330    7.82130  207.90880  227.29380  227.29380   86.30520   88.92910   86.30520    7.82130    8.10830    8.10830    0.21160    -999.25    0.21160 2311.13500    9.17080 -146.32020 -160.11560    9.17080
 3000.00000  341.45680  235.47640  341.45680  176.70650  141.07230 2169.06470    0.31050    -999.25    0.31630    5.65910  141.07230  244.02070  244.02070   77.65730   82.93190   77.65730    5.65910    5.47030    5.47030    0.28050    -999.25    0.28050 2169.06470    6.39150  -97.72720 -111.52260    6.39150
