~Version ---------------------------------------------------
VERS.      2.0 : CWLS log ASCII Standard -VERSION 2.0
WRAP.       NO : One line per depth step
CREA. 11/20/17 : LAS Creation Date
~Well ------------------------------------------------------
STRT.FT                         1450.0 : START DEPTH
STOP.FT                        13550.0 : STOP DEPTH
STEP.FT                       50.00000 : STEP LENGTH
NULL.                          -999.25 : NULL VALUE
COMP. AMOCO CANADA PETROLEUM CO., LTD. : COMPANY
WELL.            AMOCO TONY 7-16-62-24 : WELL
FLD .                                  : FIELD
LOC .                                  : LOCATION
CTRY.                           CANADA : COUNTRY
SRVC.                     Schlumberger : SERVICE COMPANY
DATE.                      27-Nov-1977 : LOGDATE
PROV.                          Alberta : PROVINCE
UWI .                 100071606224W500 : UNIQUE WELL ID
SLAT.WGS84                    54.36239 : SURFACE LATITUDE
SLON.WGS84                   -117.5361 : SURFACE LONGITUDE
~Curve Information -----------------------------------------
DEPT    .FT    : Depth Curve
CALDED  .IN    : CALIPER FROM DENSITY LOG [ADJ. TO RESISTIVITY LOG]
CALSED  .IN    : CALIPER FROM  SONIC LOG [ADJ. TO RESISTIVITY LOG]
CALWS   .IN    : CALIPER [CALDED]
CONDWS  .MMHO  : CONDUCTIVITY [1000/DRESWS]
DCORWS  .IN    : DENSITY CORRECTION [DRHOED]
DENWS   .IN    : FORMATION BULK DENSITY [CALC. FROM DPOLSWS M=2.71, F=1.00]
DPHILSED.V/V   : DENSITY POROSITY LIMESTONE [M=2.71, F=1.00] FROM DENSITY LOG [ADJ. TO RESISTIVITY LOG]
DPHISSED.V/V   : DENSITY POROSITY SANDSTONE [M=2.65, F=1.00] FROM DENSITY LOG [ADJ. TO RESISTIVITY LOG]
DPOLSWS .V/V   : DENSITY POROSITY LIMESTONE [DPHISSED MATRIX CONVERSION FOR LS, SPL. TO DPHILSED @8451' & SPL. TO CALC. FROM RHOBED M=2.71, F=1.00]
DRESWS  .OHMM  : DEEP RESISTIVITITY [ILDED]
DRHOED  .IN    : DENSITY CORRECTION FROM DENSITY LOG [ADJ. TO RESISTIVITY LOG]
DTED    .US/F  : DELTA TIME FROM SONIC LOG [ADJ. TO RESISTIVITY LOG]
DTWS    .US/F  : COMPRESSIONAL SONIC [DTED]
GRDED   .GAPI  : GAMMA RAY FROM DENSITY LOG [ADJ. TO RESISTIVITY LOG]
GRSED   .GAPI  : GAMMA RAY FROM SONIC LOG [ADJ. TO RESISTIVITY LOG]
GRWS    .GAPI  : GAMMA RAY [GRSED]
ILDED   .OHMM  : DEEP INDUCTION FROM RESISTIVITY LOG
ILMED   .OHMM  : MEDIUM INDUCTION FROM RESISTIVITY LOG
LL8ED   .OHMM  : 8 INCH LATEROLOG RESISTIVITY FROM RESISTIVITY LOG
MRESWS  .OHMM  : MEDIUM RESISTIVITY [ILMED]
NPHILSED.V/V   : NEUTRON POROSITY LIMESTONE FROM DENSITY LOG [ADJ. TO RESISTIVITY LOG]
NPHISSED.V/V   : NEUTRON POROSITY SANDSTONE FROM DENSITY LOG [ADJ. TO RESISTIVITY LOG]
NPOLSWS .V/V   : NEUTRON POROSITY LIMESTONE [NPHISSED MATRIX CONVERSION FOR LIMESTONE, SPL. TO NPHILSED @ 8424']
RHOBED  .IN    : BULK DENSITY FROM DENSITY LOG [ADJ. TO RESISTIVITY LOG]
SPRED   .MV    : SPONTANEOUS POTENTIAL FROM RESISTIVITY LOG
SPWS    .MV    : SPONTANEOUS POTENTIAL [BASELINE 0 MV,SPRED]
SRESWS  .OHMM  : SHALLOW RESISTIVITY [LL8ED]
~Params ----------------------------------------------------
PD  .                     GL : PERMANENT DATUM
EPD .FT                 5402 : ELEVATION PERMANENT DATUM
LMF .                     KB : LOG MEASURED FROM
DAPD.FT                   17 : FEET ABOVE PERMANENT DATUM
DATE.               11/27/77 : RUN DATE
RUN .                      2 : RUN NUMBER
DD  .FT                13685 : DEPTH DRILLER
DL  .FT                13579 : DEPTH LOGGER
BLI .FT                13573 : BOTTOM LOG INTERVAL
TLI .FT                 8448 : TOP LOG INTERVAL
CBD .FT                 8448 : CASING BOTTOM DRILLER
CBL .FT                 8448 : CASING BOTTOM LOGGER
BSD .FT                13685 : BIT SIZE AT DEPTH
DFT .                    8.6 : DRILLING FLUID TYPE
DFD .                     86 : DRILLING FLUID DENSITY
CLNT.                A2DTECH : CLIENT CODE
ORIG.          1" 2.5" PRINT : ORIGIN OF DATA
UWI .       100071606224W500 : UNIQUE WELL ID
DICO. A2D Technologies, Inc. : DIGITIZING COMPANY
~Other -----------------------------------------------------
DIL-BHC-CNL-FDC LOG RUN
RHOB & DRHO FROM 2" SCALE
~ASCII -----------------------------------------------------
# ...
 9250.00000    9.90180   10.13410    9.90180    7.09820    0.15910    2.54140    0.09860    -999.25    0.09860  140.88160    0.15910   51.55840   51.55840   29.78090   28.62860   27.54470  140.88160  199.63350  669.44930  199.63350    0.01710    -999.25    0.01710    2.58440  -63.57200  -61.72980  669.44930
 9300.00000   10.81630   10.11520   10.81630   27.78700    0.24990    2.58230    0.07470    -999.25    0.07470   35.98800    0.24990   54.03530   54.03530   69.66180   64.66000   75.38870   35.98800   38.97350   53.80230   38.97350    0.07300    -999.25    0.07300    2.57750  -21.99620  -20.95950   53.80230
 9350.00000   10.34440    9.77610   10.34440   11.47630    0.25040    2.64030    0.04080    -999.25    0.04080   87.42850    0.25040   51.66270   51.66270   31.85270   30.66500   30.66500   87.42850  162.44080  277.44000  162.44080    0.04800    -999.25    0.04800    2.63460  -79.78730  -79.56090  277.44000
 9400.00000   12.03650   10.12770   12.03650   20.94760    0.18680    2.37330    0.19690    -999.25    0.19690   47.73820    0.18680   51.36770   51.36770   35.02420   36.03130   36.03130   47.73820   81.12040   74.49000   81.12040    0.07930    -999.25    0.07930    2.37440  -76.27500  -76.85250   74.49000
 9450.00000   11.61080   10.17730   11.61080   56.48710    0.22990    2.44200    0.15670    -999.25    0.15670   17.71690    0.22990   54.62730   54.62730   36.30060   32.01200   32.01200   17.71690   19.05470   43.64470   19.05470    0.14050    -999.25    0.14050    2.45590  -55.08600  -56.47390   43.64470
 9500.00000    9.55440   10.01840    9.55440   16.68410    0.08940    2.66710    0.02510    -999.25    0.02510   59.93730    0.08940   57.90490   57.90490   69.99740   80.50640   80.50640   59.93730   63.32220  160.76620   63.32220    0.10680    -999.25    0.10680    2.64270  -36.12690  -38.32030  160.76620
 9550.00000   10.31960   10.54950   10.31960    0.61410    0.15000    2.73380   -0.01390    -999.25   -0.01390 1628.32460    0.15000   49.34980   49.34980   14.39710   12.03560   12.03560 1628.32460 1774.46350  846.83910 1774.46350    0.02220    -999.25    0.02220    2.73260  -64.96970  -67.96860  846.83910
 9600.00000    9.45780    9.74240    9.45780   41.88130    0.10340    2.53920    0.09990    -999.25    0.09990   23.97570    0.10340   48.19450   48.19450   15.61160   14.47940   14.47940   23.97570   63.39330  125.24370   63.39330    0.05290    -999.25    0.05290    2.58570 -101.50280 -105.31210  125.24370
 9650.00000   10.23100   10.06830   10.23100   12.96360    0.00270    2.62020    0.05250    -999.25    0.05250   77.13890    0.00270   49.51310   49.51310   14.21210   13.14230   13.14230   77.13890   93.92530  132.99280   93.92530    0.03760    -999.25    0.03760    2.63800  -84.66440  -89.27760  132.99280
 9700.00000   11.26480   10.41290   11.26480   43.40280    0.19210    2.51490    0.11410    -999.25    0.11410   23.07870    0.19210   59.58750   59.58750   77.40780   94.28190   94.28190   23.07870   25.91120   25.74910   25.91120    0.13030    -999.25    0.13030    2.49770   -4.81670  -10.24020   25.74910
 9750.00000    9.63580    9.93150    9.63580   56.08240    0.00630    2.73410   -0.01410    -999.25   -0.01410   17.83090    0.00630   57.21070   57.21070   60.94880   63.64480   63.64480   17.83090   22.66110   58.30990   22.66110    0.10700    -999.25    0.10700    2.74570  -13.22990  -19.45900   58.30990
 9800.00000   10.79660    9.93450   10.79660   64.26740    0.19300    2.47980    0.13460    -999.25    0.13460   15.56000    0.19300   60.17260   60.17260   85.06260   94.57720   94.57720   15.56000   16.71680   20.42160   16.71680    0.15850    -999.25    0.15850    2.44080  -11.12370  -18.15830   20.42160
 9850.00000   12.18380   10.66170   12.18380   73.64190    0.25060    2.50950    0.11720    -999.25    0.11720   13.57940    0.25060   62.98440   62.98440   72.17880   74.37220   74.37220   13.57940   12.20500   19.04610   12.20500    0.15810    -999.25    0.15810    2.51880    5.06520   -2.77970   19.04610
 9900.00000   10.91440   10.45480   10.91440   41.43360    0.19590    2.55630    0.08990    -999.25    0.08990   24.13500    0.19590   51.27700   51.27700   39.17880   43.75940   43.75940   24.13500   38.25050   89.69600   38.25050    0.04170    -999.25    0.04170    2.53430  -15.98190  -24.05610   89.69600
 9950.00000    9.23600    9.58340    9.23600    7.57140    0.00400    2.70360    0.00370    -999.25    0.00370  132.08780    0.00400   52.91430   52.91430   34.73210   34.27670   34.27670  132.08780  290.50570  247.71990  290.50570    0.03510    -999.25    0.03510    2.70570  -19.74640  -27.82060  247.71990
 10000.00000   10.87010   10.22860   10.87010  104.98580    0.25050    2.59010    0.07010    -999.25    0.07010    9.52510    0.25050   61.35130   61.35130   29.24000   29.93100   29.93100    9.52510   11.05690    9.60820   11.05690    0.08730    -999.25    0.08730    2.57910    0.04990   -8.02430    9.60820
 10050.00000   12.50650   10.25870   12.50650    4.17010    0.18260    2.40000    0.18130    -999.25    0.18130  239.80280    0.18260   52.25050   52.25050   20.02190   18.45060   18.45060  239.80280 1452.65440  199.57980 1452.65440    0.01500    -999.25    0.01500    2.41240  -37.63310  -45.70730  199.57980
 10100.00000    9.19840    9.62780    9.19840   11.37340    0.00300    2.71030   -0.00010    -999.25   -0.00010   87.94140    0.00300   54.01850   54.01850   40.05320   37.92120   37.92120   87.94140   99.52430  111.67250   99.52430    0.02950    -999.25    0.02950    2.69960   -6.85230  -14.92650  111.67250
 10150.00000    9.43330    9.78010    9.43330   32.76290    0.01430    2.64380    0.03870    -999.25    0.03870   30.52230    0.01430   58.04510   58.04510   63.32670   67.19150   67.19150   30.52230   33.71990   40.00240   33.71990    0.07180    -999.25    0.07180    2.64570  -12.61470  -20.68890   40.00240
 10200.00000    9.16530    9.60750    9.16530   12.21040   -0.00100    2.73270   -0.01330    -999.25   -0.01330   81.90130   -0.00100   55.95910   55.95910   50.14310   51.60300   51.60300   81.90130   90.02590  107.52500   90.02590    0.04390    -999.25    0.04390    2.72330  -12.56000  -20.63420  107.52500
 10250.00000    9.01270    9.62340    9.01270   14.82690    0.00180    2.69290    0.01000    -999.25    0.01000   67.44520    0.00180   55.41160   55.41160   52.16210   55.62040   55.62040   67.44520   77.69820   84.15060   77.69820    0.05250    -999.25    0.05250    2.69910  -10.47120  -18.54950   84.15060
 10300.00000    9.34890    9.86310    9.34890   12.96770    0.01370    2.65320    0.03320    -999.25    0.03320   77.11450    0.01370   66.68270   66.68270  110.01950  119.51360  119.51360   77.11450   83.34550  124.27230   83.34550    0.14660    -999.25    0.14660    2.66560  -14.83220  -23.25020  124.27230
 10350.00000    9.80510    9.94330    9.80510   37.33260    0.17540    2.23620    0.27710    -999.25    0.27710   26.83070    0.17540   76.66470   76.66470  270.78260  280.62660  280.62660   26.83070   45.75070 1027.28880   45.75070    0.25370    -999.25    0.25370    2.22960  -30.60290  -39.36270 1027.28880
 10400.00000   11.48460   10.43030   11.48460    0.62390    0.17630    2.41660    0.17160    -999.25    0.17160 1602.77510    0.17630   48.20880   48.20880   17.66820   17.43650   17.37550 1602.77510 1657.57750  140.56000 1657.57750    0.02110    -999.25    0.02110    2.43430  -68.77800  -77.87690  140.56000
 10450.00000   11.14050   10.15740   11.14050    0.67270    0.21340    2.50120    0.12210    -999.25    0.12210 1486.73840    0.21340   49.52140   49.52140   17.01670   17.21710   17.65630 1486.73840 1584.77940 1505.18540 1584.77940    0.01260    -999.25    0.01260    2.49680  -73.53270  -82.97340 1505.18540
 10500.00000   11.64710   10.17610   11.64710    0.64410    0.25000    2.25410    0.26660    -999.25    0.26660 1552.58040    0.25000   48.48490   48.48490   16.27490   15.21230   15.53640 1552.58040 1600.11130  223.63160 1600.11130    0.01120    -999.25    0.01120    2.26210  -83.06660  -92.84700  223.63160
