~Version ---------------------------------------------------
VERS.      2.0 : CWLS log ASCII Standard -VERSION 2.0
WRAP.       NO : One line per depth step
CREA. 11/22/17 : LAS Creation Date
~Well ------------------------------------------------------
STRT.FT                              300.0 : START DEPTH
STOP.FT                            16950.0 : STOP DEPTH
STEP.FT                           50.00000 : STEP LENGTH
NULL.                              -999.25 : NULL VALUE
COMP.                        BANFF OIL LTD : COMPANY
WELL. BANFF AQUIT SIEBENS RAMR 14-21-37-11 : WELL
FLD .                                      : FIELD
LOC .                                      : LOCATION
CTRY.                               CANADA : COUNTRY
SRVC.                         Schlumberger : SERVICE COMPANY
DATE.                          21-Oct-1970 : LOGDATE
PROV.                              Alberta : PROVINCE
UWI .                     100142103711W500 : UNIQUE WELL ID
SLAT.WGS84                        52.19912 : SURFACE LATITUDE
SLON.WGS84                       -115.5164 : SURFACE LONGITUDE
~Curve Information -----------------------------------------
DEPT    .FT    : Depth Curve
CALDED  .IN    : CALIPER FROM DENSITY LOG [DEP. ADJ. TO ILMED]
CALNED  .IN    : CALIPER FROM NEUTRON LOG [DEP. ADJ. TO ILMED]
CALSED  .IN    : CALIPER FROM SONIC LOG [DEP. ADJ. TO ILMED]
CALWS   .IN    : CALIPER 148' CALSED 13012' CALNED 13190' CALDED 14980' CALSED 15315' CALDED 16246' CALSED]
CONDWS  .MMHO  : DEEP CONDUCTIVITY [1000/DRESWS]
DCORWS  .G/C3  : DENSITY CORRECTION [DRHOED]
DENWS   .G/C3  : BULK DENSITY [M=2.71, F=1.00] [RHOBED]
DPHILSED.V/V   : DENSITY POROSITY [M=2.71, F=1.00] FROM DENSITY LOG [DEP. ADJ. TO ILMED]
DPOLSWS .V/V   : DENSITY POROSITY [M=2.71, F=1.00] [CAL. FROM DENWS]
DRESWS  .OHMM  : DEEP RESISTIVITY [ILDED]
DRHOED  .G/C3  : DENSITY CORRECTION FROM DENSITY LOG [DEP. ADJ. TO ILMED]
DTED    .US/F  : DELTA TIME FROM SONIC LOG [DEP. ADJ. TO ILMED]
DTWS    .US/F  : DELTA TIME [DTED]
GRDED   .GAPI  : GAMMA RAY FROM DENSITY LOG [DEP. ADJ. TO ILMED]
GRNED   .GAPI  : GAMMA RAY FROM NEUTRON LOG [DEP. ADJ. TO ILMED]
GRSED   .GAPI  : GAMMA RAY FROM SONIC LOG [DEP. ADJ. TO ILMED]
GRWS    .GAPI  : GAMMA RAY [GRSED]
ILDED   .OHMM  : INDUCTION LOG DEEP RESISTIVITY
ILMED   .OHMM  : INDUCTION LOG MEDIUM RESISTIVITY
LL8ED   .OHMM  : 8 INCH LATEROLOG RESISTIVITY
MRESWS  .OHMM  : MEDIUM RESISTIVITY [ILMED]
NPOLSWS .V/V   : NEUTRON POROSITY LIMESTONE [SNPLSED]
RHOBED  .G/C3  : BULK DENSITY FROM DENSITY LOG [DEP. ADJ. TO ILMED]
SNPLSED .V/V   : SIDEWALL NEUTRON POROSITY [LIMESTONE] [DEP. ADJ. TO ILMED]
SPRED   .MV    : SPONTANEOUS POTENTIAL FROM RESIST. LOG [DIVIDED BY 2 BELOW 13778'], SHIFTS REMOVED, PATCHED]
SPWS    .MV    : SPONTANEOUS POTENTIAL [BASELINE 0 MV] [SPRED][PL. USE W/ RESERVATION]
SRESWS  .OHMM  : SHALLOW RESISTIVITY [LL8ED]
~Params ----------------------------------------------------
PD  .                     GL : PERMANENT DATUM
EPD .FT                 4914 : ELEVATION PERMANENT DATUM
LMF .                     KB : LOG MEASURED FROM
DAPD.FT                 18.7 : FEET ABOVE PERMANENT DATUM
EKB .FT               4932.7 : KELLY BUSHING
EGL .FT                 4914 : GROUND LEVEL
DATE.               10/21/70 : RUN DATE
RUN .                      4 : RUN NUMBER
DD  .FT                16960 : DEPTH DRILLER
DL  .FT                16960 : DEPTH LOGGER
BLI .FT                16954 : BOTTOM LOG INTERVAL
TLI .FT                16000 : TOP LOG INTERVAL
BS  .IN                8.375 : BIT SIZE
BSD .FT                16960 : BIT SIZE AT DEPTH
DFT .                    GEL : DRILLING FLUID TYPE
DFD .                   10.1 : DRILLING FLUID DENSITY
DFV .                     61 : DRILLING FLUID VISCOSITY
DFPH.                     10 : DRILLING FLUID PH
DFL .                    8.4 : DRILLING FLUID LOSS
MSS .               FLOWLINE : MUD SAMPLE SOURCE
RMS .OHMM               1.51 : RESISTIVITY MUD SAMPLE
MST .DEGF                 66 : MUD SAMPLE TEMPERATURE
RMF .OHMM               1.11 : RESISTIVITY MUD FILTRATE SAMPLE
MFST.DEGF                 70 : MUD FILTRATE SAMPLE TEMPERATURE
TCS .HRS                   4 : TIME CIRCULATED STOPPED
LUN .                   7002 : LOGGING UNIT NUMBER
LUL .                     RD : LOGGING UNIT LOCATION
ENGI.                 TALBOT : RECORDING ENGINEER
WITN.          LEMEE BRINKER : WITNESSED BY
CLNT.                A2DTECH : CLIENT CODE
ORIG.            2" 5" PRINT : ORIGIN OF DATA
UWI .       100142103711W500 : UNIQUE WELL ID
DICO. A2D Technologies, Inc. : DIGITIZING COMPANY
~Other -----------------------------------------------------
~ASCII -----------------------------------------------------
# ...
 6800.00000    -999.25    -999.25   15.13110   15.13110   90.53210    -999.25    -999.25    -999.25    -999.25   11.04580    -999.25   89.32370   89.32370    -999.25    -999.25   60.19140   60.19140   11.04580   10.17030    8.69410   10.17030    -999.25    -999.25    -999.25   62.35450  -17.83690    8.69410
 6850.00000    -999.25    -999.25   15.13380   15.13380   83.52960    -999.25    -999.25    -999.25    -999.25   11.97180    -999.25   99.22460   99.22460    -999.25    -999.25   64.07710   64.07710   11.97180    8.74490   11.11040    8.74490    -999.25    -999.25    -999.25   62.44950  -17.82110   11.11040
 6900.00000    -999.25    -999.25   15.17660   15.17660  105.83350    -999.25    -999.25    -999.25    -999.25    9.44880    -999.25   82.39430   82.39430    -999.25    -999.25   60.98890   60.98890    9.44880    8.90440   11.09930    8.90440    -999.25    -999.25    -999.25   60.11390  -20.23600   11.09930
 6950.00000    -999.25    -999.25   14.58810   14.58810   41.28670    -999.25    -999.25    -999.25    -999.25   24.22090    -999.25   76.81160   76.81160    -999.25    -999.25   53.18130   53.18130   24.22090   19.27680   23.94110   19.27680    -999.25    -999.25    -999.25   57.47780  -22.95130   23.94110
 7000.00000    -999.25    -999.25   14.34090   14.34090   67.47770    -999.25    -999.25    -999.25    -999.25   14.81970    -999.25   69.62010   69.62010    -999.25    -999.25   61.09320   61.09320   14.81970   14.34100   18.61570   14.34100    -999.25    -999.25    -999.25   56.41050  -24.09790   18.61570
 7050.00000    -999.25    -999.25   14.39690   14.39690   34.42120    -999.25    -999.25    -999.25    -999.25   29.05190    -999.25   71.23990   71.23990    -999.25    -999.25   34.93770   34.93770   29.05190   30.51220   27.02710   30.51220    -999.25    -999.25    -999.25   50.79220  -29.79540   27.02710
 7100.00000    -999.25    -999.25   14.61210   14.61210   33.52120    -999.25    -999.25    -999.25    -999.25   29.83190    -999.25   65.12260   65.12260    -999.25    -999.25   42.95520   42.95520   29.83190   33.43800   35.83880   33.43800    -999.25    -999.25    -999.25   52.61280  -28.05410   35.83880
 7150.00000    -999.25    -999.25   15.05750   15.05750   65.04190    -999.25    -999.25    -999.25    -999.25   15.37470    -999.25   89.45790   89.45790    -999.25    -999.25   60.00150   60.00150   15.37470   14.45580   13.28320   14.45580    -999.25    -999.25    -999.25   60.56390  -20.18220   13.28320
 7200.00000    -999.25    -999.25   15.09130   15.09130   93.20190    -999.25    -999.25    -999.25    -999.25   10.72940    -999.25   91.45320   91.45320    -999.25    -999.25   59.15960   59.15960   10.72940    9.88640    9.68250    9.88640    -999.25    -999.25    -999.25   64.89180  -15.93360    9.68250
 7250.00000    -999.25    -999.25   15.06210   15.06210   51.48160    -999.25    -999.25    -999.25    -999.25   19.42440    -999.25  115.64210  115.64210    -999.25    -999.25   56.50630   56.50630   19.42440   13.25790   14.42360   13.25790    -999.25    -999.25    -999.25   68.66080  -12.24380   14.42360
 7300.00000    -999.25    -999.25   15.04370   15.04370   72.71510    -999.25    -999.25    -999.25    -999.25   13.75230    -999.25  107.62510  107.62510    -999.25    -999.25   56.15820   56.15820   13.75230   11.96660   12.69280   11.96660    -999.25    -999.25    -999.25   65.18610  -15.79780   12.69280
 7350.00000    -999.25    -999.25   15.00420   15.00420   95.39350    -999.25    -999.25    -999.25    -999.25   10.48290    -999.25  100.05420  100.05420    -999.25    -999.25   65.13360   65.13360   10.48290   10.10660    9.99560   10.10660    -999.25    -999.25    -999.25   61.71340  -19.34980    9.99560
 7400.00000    -999.25    -999.25   14.68680   14.68680   84.29360    -999.25    -999.25    -999.25    -999.25   11.86330    -999.25  135.70540  135.70540    -999.25    -999.25   72.21040   72.21040   11.86330   10.18630    9.94980   10.18630    -999.25    -999.25    -999.25   58.32710  -22.81530    9.94980
 7450.00000    -999.25    -999.25   14.99010   14.99010   77.89860    -999.25    -999.25    -999.25    -999.25   12.83720    -999.25   81.26570   81.26570    -999.25    -999.25   63.18300   63.18300   12.83720   10.48670    9.49290   10.48670    -999.25    -999.25    -999.25   59.30550  -21.91620    9.49290
 7500.00000    -999.25    -999.25   14.01170   14.01170   80.79890    -999.25    -999.25    -999.25    -999.25   12.37640    -999.25   96.17210   96.17210    -999.25    -999.25   58.17420   58.17420   12.37640   10.51390    8.95250   10.51390    -999.25    -999.25    -999.25   58.40750  -22.89340    8.95250
 7550.00000    -999.25    -999.25   13.92080   13.92080  125.82730    -999.25    -999.25    -999.25    -999.25    7.94740    -999.25  134.34010  134.34010    -999.25    -999.25   86.92600   86.92600    7.94740    6.90360    5.54650    6.90360    -999.25    -999.25    -999.25   59.05160  -22.32860    5.54650
 7600.00000    -999.25    -999.25   12.48250   12.48250   54.99610    -999.25    -999.25    -999.25    -999.25   18.18310    -999.25  132.76890  132.76890    -999.25    -999.25   55.54530   55.54530   18.18310   17.27110   16.03370   17.27110    -999.25    -999.25    -999.25   61.21910  -20.24030   16.03370
 7650.00000    -999.25    -999.25   12.29030   12.29030   49.60370    -999.25    -999.25    -999.25    -999.25   20.15980    -999.25  115.46750  115.46750    -999.25    -999.25   56.32690   56.32690   20.15980   20.88640   18.75390   20.88640    -999.25    -999.25    -999.25   62.83770  -18.70100   18.75390
 7700.00000    -999.25    -999.25   14.44310   14.44310   55.83410    -999.25    -999.25    -999.25    -999.25   17.91020    -999.25  121.75050  121.75050    -999.25    -999.25   55.45460   55.45460   17.91020   17.22140   14.02930   17.22140    -999.25    -999.25    -999.25   64.29560  -17.32230   14.02930
 7750.00000    -999.25    -999.25   14.94610   14.94610   53.12820    -999.25    -999.25    -999.25    -999.25   18.82240    -999.25  100.40190  100.40190    -999.25    -999.25   52.87930   52.87930   18.82240   13.47850   11.10390   13.47850    -999.25    -999.25    -999.25   66.49890  -15.19830   11.10390
 7800.00000    -999.25    -999.25   14.72320   14.72320   61.24710    -999.25    -999.25    -999.25    -999.25   16.32730    -999.25  105.11360  105.11360    -999.25    -999.25   52.50650   52.50650   16.32730   14.42960   14.95410   14.42960    -999.25    -999.25    -999.25   66.36290  -15.41350   14.95410
 7850.00000    -999.25    -999.25   14.26710   14.26710   55.59600    -999.25    -999.25    -999.25    -999.25   17.98690    -999.25   72.31050   72.31050    -999.25    -999.25   66.67320   66.67320   17.98690   16.16210   18.04690   16.16210    -999.25    -999.25    -999.25   64.92260  -16.93310   18.04690
 7900.00000    -999.25    -999.25   14.29520   14.29520   87.23720    -999.25    -999.25    -999.25    -999.25   11.46300    -999.25   83.39340   83.39340    -999.25    -999.25   66.50040   66.50040   11.46300   10.77400    8.35200   10.77400    -999.25    -999.25    -999.25   66.47260  -15.46230    8.35200
 7950.00000    -999.25    -999.25   14.34950   14.34950   80.54710    -999.25    -999.25    -999.25    -999.25   12.41510    -999.25   77.09040   77.09040    -999.25    -999.25   59.05730   59.05730   12.41510   10.78230   24.17590   10.78230    -999.25    -999.25    -999.25   67.90840  -14.10580   24.17590
 8000.00000    -999.25    -999.25   14.06880   14.06880   90.03900    -999.25    -999.25    -999.25    -999.25   11.10630    -999.25   77.66240   77.66240    -999.25    -999.25   63.24650   63.24650   11.10630    9.76110   10.96270    9.76110    -999.25    -999.25    -999.25   71.47730  -10.61620   10.96270
 8050.00000    -999.25    -999.25   13.73100   13.73100   44.43020    -999.25    -999.25    -999.25    -999.25   22.50720    -999.25   70.22710   70.22710    -999.25    -999.25   52.21170   52.21170   22.50720   20.53780   24.24770   20.53780    -999.25    -999.25    -999.25   65.43600  -16.73670   24.24770
