~Version ---------------------------------------------------
VERS. 2.0 : CWLS log ASCII Standard -VERSION 2.0
WRAP.  NO : One line per depth step
~Well ------------------------------------------------------
STRT.M                             300.0 : START DEPTH
STOP.M                            1800.0 : STOP DEPTH
STEP.M                          50.00000 : STEP LENGTH
NULL.                            -999.25 : NULL VALUE
COMP. CANADIAN NATURAL RESOURCES LIMITED : COMPANY
WELL.       MLC PANCON NIPISI 10-16-81-8 : WELL
FLD .                             NIPISI : FIELD
LOC .                                    : LOCATION
CTRY.                             CANADA : COUNTRY
SRVC.                              Welex : SERVICE COMPANY
DATE.                        22-Mar-1988 : LOGDATE
PROV.                            Alberta : PROVINCE
UWI .                   100101608108W500 : UNIQUE WELL ID
SLAT.WGS84                 56.0230803916 : SURFACE LATITUDE
SLON.WGS84                -115.184948888 : SURFACE LONGITUDE
~Curve Information -----------------------------------------
DEPT    .M      : 
CALYED  .MM     : CALIPER Y FROM DENSITY LOG
CALWS   .MM     : CALIPER [CALYED]
CONDWS  .MMHO   : CONDUCTIVITY [1000/DRESWS]
CORRED  .KG/M3  : DENSITY CORRECTION FROM DENSITY LOG
DCORWS  .KG/M3  : DENSITY CORRECTION FROM DENSITY LOG
DENWS   .KG/M3  : BULK DENSITY [M=2710 F=1000] [CALCULATED FROM DPOWS]
DPORLSED.V/V    : DENSITY POROSITY [M=2710 F=1000] FROM DENSITY LOG
DPOLSWS .V/V    : DENSITY POROSITY [M=2710 F=1000] [DPORLSED]
DRESWS  .OHMM   : DEEP RESISTIVITY [ILDED]
GRDED   .GAPI   : GAMMA RAY FROM DENSITY LOG
GRWS    .GAPI   : GAMMA RAY [GRDED] CSG @ 207M
GUARDED .OHMM   : GUARD LOG RESISTIVITY
ILDED   .OHMM   : INDUCTION LOG DEEP RESISTIVITY
ILMED   .OHMM   : INDUCTION LOG MEDIUM RESISTIVITY
MRESWS  .OHMM   : MEDIUM RESISTIVITY [ILMED]
NPORLSED.V/V    : NEUTRON POROSITY LIMESTONE FROM DENSITY LOG
NPOLSWS .V/V    : NEUTRON POROSITY LIMESTONE [NPORLSED] CSG @ 207M
PEED    .B/E    : PHOTOELECTRIC FACTOR FROM DENSITY LOG
PEFWS   .B/E    : PHOTOELECTRIC FACTOR [PEFED]
RHOBED  .KG/M3  : BULK DENSITY FROM DENSITY LOG
SPRED   .MV     : SPONTANEOUS POTENTIAL FROM RESISTIVITY LOG
SPWS    .MV     : SPONTANEOUS POTENTIAL [BASELINE 0 MV] [SPRED]
SRESWS  .OHMM   : SHALLOW RESISTIVITY [GUARDED]
~Params ----------------------------------------------------
PD  .                         GL : PERMANENT DATUM
EPD .M                     658.4 : ELEVATION PERMANENT DATUM
LMF .                         KB : LOG MEASURED FROM
DAPD.M                       5.5 : FEET ABOVE PERMANENT DATUM
DMF .                         KB : DRILLING MEASURED FROM
EKB .M                     663.9 : KELLY BUSHING
EGL .M                     658.4 : GROUND LEVEL
DATE.                  3-22-1988 : RUN DATE
RUN .                          1 : RUN NUMBER
DD  .M                      1810 : DEPTH DRILLER
DL  .M                    1807.7 : DEPTH LOGGER
BLI .M                    1807.2 : BOTTOM LOG INTERVAL
TLI .M                       207 : TOP LOG INTERVAL
CS  .MM                      219 : CASING SIZE
CBD .M                       208 : CASING BOTTOM DRILLER
CBL .M                       207 : CASING BOTTOM LOGGER
BS  .MM                      200 : BIT SIZE
BSD .M                      1810 : BIT SIZE AT DEPTH
DFT .                   GEL CHEM : DRILLING FLUID TYPE
DFD .                       1120 : DRILLING FLUID DENSITY
DFV .                         76 : DRILLING FLUID VISCOSITY
DFPH.                          9 : DRILLING FLUID PH
DFL .                         11 : DRILLING FLUID LOSS
MSS .                   FLOWLINE : MUD SAMPLE SOURCE
RMS .OHMM                   0.78 : RESISTIVITY MUD SAMPLE
MST .DEGC                     27 : MUD SAMPLE TEMPERATURE
RMF .OHMM                   0.75 : RESISTIVITY MUD FILTRATE SAMPLE
MFST.DEGC                     11 : MUD FILTRATE SAMPLE TEMPERATURE
RMC .OHMM                    0.8 : RESISTIVITY MUD CAKE
MCST.DEGC                     14 : MUD CAKE SAMPLE TEMPERATURE
MFSS.                       MEAS : MUD FILTRATE SAMPLE SOURCE
MCSS.                       MEAS : MUD CAKE SAMPLE SOURCE
RMB .OHMM                   0.54 : RESISTIVITY MUD AT BHT
TCS .HRS                     100 : TIME CIRCULATED STOPPED
TLAB.HRS                     650 : TIME LOGGER AT BOTTOM
LUN .                     516521 : LOGGING UNIT NUMBER
LUL .                       4100 : LOGGING UNIT LOCATION
ENGI.                   GHAZOULY : RECORDING ENGINEER
WITN.                    BENNETT : WITNESSED BY
CLNT.                    A2DTECH : CLIENT CODE
ORIG. 6.5"/100M 16.5"/100M PRINT : ORIGIN OF DATA
UWI .           100101608108W500 : UNIQUE WELL ID
DICO.     A2D Technologies, Inc. : DIGITIZING COMPANY
~Other -----------------------------------------------------
~ASCII -----------------------------------------------------
  300.00000  276.94090  276.94090  290.47810   51.32640   51.32640 2190.33110    0.30390    0.30390    3.44260   93.90770   93.90770    3.54010    3.44260    3.08980    3.08980    0.46790    0.46790    3.16110    3.16110 2181.32320  -27.26410   -8.66370    3.54010
  350.00000  196.32100  196.32100  145.54980   43.01370   43.01370 2211.02200    0.29180    0.29180    6.87050   62.23280   62.23280    7.87000    6.87050    7.03560    7.03560    0.36800    0.36800    2.88680    2.88680 2223.08910  -45.07240  -25.46230    7.87000
  400.00000  332.45250  332.45250  493.33990   43.33510   43.33510 1259.57800    0.84820    0.84820    2.02700   61.09980   61.09980    2.36060    2.02700    1.79410    1.79410    0.66640    0.66640    0.79980    0.79980 1276.09380  -20.19070   -0.89240    2.36060
  450.00000  238.15520  238.15520  164.40880   51.95020   51.95020 2181.61010    0.30900    0.30900    6.08240   54.89590   54.89590    8.23790    6.08240    5.86160    5.86160    0.38680    0.38680    2.80600    2.80600 2187.53370  -49.37430  -18.85910    8.23790
  500.00000  249.37920  249.37920  250.90950   61.65480   61.65480 2243.51200    0.27280    0.27280    3.98550   66.18330   66.18330    4.44430    3.98550    3.78270    3.78270    0.43550    0.43550    3.37860    3.37860 2240.28220  -42.29720  -10.41290    4.44430
  550.00000  291.28930  291.28930  187.93810  206.16640  206.16640 2080.03590    0.36840    0.36840    5.32090   65.56780   65.56780    5.03990    5.32090    4.63630    4.63630    0.52900    0.52900    3.48440    3.48440 2116.48460  -42.61190   -9.12160    5.03990
  600.00000  221.89770  221.89770   44.62430   22.86150   22.86150 2668.44700    0.02430    0.02430   22.40930   14.12420   14.12420   36.64410   22.40930   21.40010   21.40010    0.06640    0.06640    4.68430    4.68430 2665.00120  -66.25450  -31.15830   36.64410
  650.00000  222.19820  222.19820   56.02370    7.82840    7.82840 2642.45510    0.03950    0.03950   17.84960   18.18750   18.18750   21.97710   17.84960   16.23330   16.23330    0.11060    0.11060    5.01680    5.01680 2643.31840  -68.39150  -31.68930   21.97710
  700.00000  223.77500  223.77500   73.74140   18.85590   18.85590 2593.37790    0.06820    0.06820   13.56090   15.22410   15.22410   13.98070   13.56090   12.65060   12.65060    0.14610    0.14610    4.86850    4.86850 2595.10570  -69.39820  -31.09000   13.98070
  750.00000  209.99530  209.99530   56.57550   23.02020   23.02020 2635.44410    0.04360    0.04360   17.67550   21.93300   21.93300   21.12210   17.67550   16.69580   16.69580    0.10640    0.10640    4.56500    4.56500 2636.71290  -61.75240  -21.83830   21.12210
  800.00000  225.20330  225.20330   26.81250    8.31400    8.31400 2629.97190    0.04680    0.04680   37.29600   12.85450   12.85450   51.05600   37.29600   32.31270   32.31270    0.08890    0.08890    4.85520    4.85520 2630.32760 -106.86710  -58.07530   51.05600
  850.00000  208.29530  208.29530    7.53600   30.42340   30.42340 2645.19090    0.03790    0.03790  132.69600   17.57520   17.57520  149.10450  132.69600  118.29140  118.29140    0.06910    0.06910    4.82450    4.82450 2643.61380 -118.74750  -70.02950  149.10450
  900.00000  216.51690  216.51690   19.54900    7.42790    7.42790 2630.65600    0.04640    0.04640   51.15360    6.42970    6.42970  112.51250   51.15360   51.56450   51.56450    0.07200    0.07200    4.86150    4.86150 2625.88130 -115.89590  -67.25170  112.51250
  950.00000  213.87560  213.87560   32.86400   36.55720   36.55720 2626.03910    0.04910    0.04910   30.42840    9.58050    9.58050   73.59550   30.42840   31.05600   31.05600    0.09730    0.09730    4.70240    4.70240 2627.84350 -120.91650  -72.34610   73.59550
 1000.00000  205.00240  205.00240    2.31970    4.62010    4.62010 2693.24190    0.00980    0.00980  431.08290   10.15840   10.15840  206.32990  431.08290  153.94420  153.94420    0.02640    0.02640    4.82190    4.82190 2690.52270 -133.28910  -84.79250  206.32990
 1050.00000  205.25290  205.25290   39.65560   44.75800   44.75800 2688.79590    0.01240    0.01240   25.21710    9.34140    9.34140  110.70820   25.21710   30.95890   30.95890    0.15040    0.15040    3.52350    3.52350 2689.56570 -104.99930  -56.57650  110.70820
 1100.00000  209.43690  209.43690   41.82390   27.95310   27.95310 2682.63990    0.01600    0.01600   23.90980   24.06660   24.06660   49.37450   23.90980   27.63960   27.63960    0.17890    0.17890    3.16770    3.16770 2687.36300  -82.45850  -36.21370   49.37450
 1150.00000  198.46900  198.46900   24.39490   49.96460   49.96460 2738.04390   -0.01640   -0.01640   40.99220   13.12020   13.12020  165.52910   40.99220   58.95380   58.95380    0.14200    0.14200    3.11760    3.11760 2720.03520 -121.50070  -78.31980  165.52910
 1200.00000  205.29280  205.29280   53.91160   11.22010   11.22010 2671.69600    0.02240    0.02240   18.54890   25.00320   25.00320   22.85080   18.54890   19.98730   19.98730    0.08300    0.08300    4.82790    4.82790 2663.24270  -51.32940  -11.21240   22.85080
 1250.00000  241.13430  241.13430  374.58800  228.46250  228.46250 2309.86010    0.23400    0.23400    2.66960   78.44050   78.44050    3.35380    2.66960    2.58440    2.58440    0.35660    0.35660    3.51260    3.51260 2232.27340  -52.49610  -15.44300    3.35380
 1300.00000  271.33540  271.33540  468.99910  221.09110  221.09110 2028.90700    0.39830    0.39830    2.13220   83.89060   83.89060    2.46250    2.13220    2.05820    2.05820    0.44880    0.44880    3.63720    3.63720 2023.77530  -51.39740  -17.40820    2.46250
 1350.00000  199.86710  199.86710   47.48470   17.77620   17.77620 2674.94510    0.02050    0.02050   21.05940   19.27210   19.27210   21.85760   21.05940   20.30830   20.30830    0.07640    0.07640    4.81400    4.81400 2672.49760  -71.26450  -39.23370   21.85760
 1400.00000  201.30910  201.30910  148.69230   56.01540   56.01540 2646.38790    0.03720    0.03720    6.72530   62.44270   62.44270    8.12270    6.72530    6.99480    6.99480    0.18710    0.18710    4.21020    4.21020 2647.49630  -39.91560   -7.49400    8.12270
 1450.00000  264.67670  264.67670  260.04420   97.15400   97.15400 2541.39400    0.09860    0.09860    3.84550   74.82780   74.82780    4.82710    3.84550    4.09310    4.09310    0.27560    0.27560    3.78780    3.78780 2542.06350  -41.44410   -8.63160    4.82710
 1500.00000  201.28240  201.28240   74.55730   18.55210   18.55210 2634.07590    0.04440    0.04440   13.41250   40.72100   40.72100   20.83300   13.41250   18.30320   18.30320    0.14320    0.14320    4.43380    4.43380 2630.19820  -42.38000   -9.17670   20.83300
 1550.00000  225.67490  225.67490  126.53580   26.75100   26.75100 2628.94600    0.04740    0.04740    7.90290   52.98700   52.98700    8.47560    7.90290    8.11640    8.11640    0.18200    0.18200    4.28100    4.28100 2629.96140  -46.49480  -12.90070    8.47560
 1600.00000  211.19890  211.19890  124.25140   10.22840   10.22840 2678.87790    0.01820    0.01820    8.04820   55.88210   55.88210    9.99880    8.04820    8.38790    8.38790    0.16270    0.16270    4.28450    4.28450 2674.85210  -37.65040   -3.66540    9.99880
 1650.00000  188.85830  188.85830  253.39550   25.56730   25.56730 2535.75100    0.10190    0.10190    3.94640   13.50090   13.50090   14.13410    3.94640    4.45810    4.45810    0.13620    0.13620    4.70150    4.70150 2538.90230  -93.39110  -55.83330   14.13410
 1700.00000  198.60400  198.60400   10.41890   39.77280   39.77280 2974.02390   -0.15440   -0.15440   95.97920   16.92680   16.92680  739.77660   95.97920  125.40350  125.40350    0.03790    0.03790    4.80510    4.80510 2970.82400 -107.51330  -59.88040  739.77660
 1750.00000  197.31760  197.31760  373.38510   97.51450   97.51450 2631.16890    0.04610    0.04610    2.67820  149.25610  149.25610    5.90060    2.67820    2.82800    2.82800    0.22790    0.22790    3.71030    3.71030 2670.26340  -64.32910   -6.62120    5.90060
 1800.00000   44.14530   44.14530  499.77510   88.87260   88.87260 2531.81810    0.10420    0.10420    2.00090    -999.25    -999.25    2.40650    2.00090    2.10250    2.10250    0.27450    0.27450    4.52340    4.52340 2535.61840  -70.14540   -2.36240    2.40650
