~Version ---------------------------------------------------
VERS.      2.0 : CWLS log ASCII Standard -VERSION 2.0
WRAP.       NO : One line per depth step
CREA. 10/26/17 : LAS Creation Date
~Well ------------------------------------------------------
STRT.FT                              850.0 : START DEPTH
STOP.FT                             9300.0 : STOP DEPTH
STEP.FT                           50.00000 : STEP LENGTH
NULL.                              -999.25 : NULL VALUE
COMP.        CANADIAN EXPORT OIL & GAS LTD : COMPANY
WELL. CEGO CAN OXY CAEL SUNSET 12-25-69-19 : WELL
FLD .                                      : FIELD
LOC .                                      : LOCATION
CTRY.                               CANADA : COUNTRY
SRVC.                         Schlumberger : SERVICE COMPANY
DATE.                          23-Mar-1973 : LOGDATE
PROV.                              Alberta : PROVINCE
UWI .                     100122506919W500 : UNIQUE WELL ID
SLAT.WGS84                        55.00549 : SURFACE LATITUDE
SLON.WGS84                       -116.7667 : SURFACE LONGITUDE
~Curve Information -----------------------------------------
DEPT  .FT    : Depth Curve
CALSED.IN    : CALIPER FROM SONIC LOG
CALWS .IN    : CALIPER [CALSED]
CILDED.MMHO  : CONDUCTIVITY FROM RESISTIVITY LOG
CONDWS.MMHO  : CONDUCTIVITY [1000/DRESWS]
DRESWS.OHMM  : DEEP RESISTIVITY [1000/CILDED IF ILDED <=4.5, ILDED]
DTED  .US/F  : DELTA-T FROM SONIC LOG
DTWS  .US/F  : COMPRESSIONAL SONIC [DTED]
GRSED .GAPI  : GAMMA RAY FROM SONIC LOG
GRWS  .GAPI  : GAMMA RAY [GRSED]
ILDED .OHMM  : DEEP INDUCTION RESISTIVITY FROM RESISTIVITY LOG
SNED  .OHMM  : 16 INCH SHORT NORMAL FROM RESISTIVITY LOG
SPRED .MV    : SPONTANEOUS POTENTIAL FROM RESISTIVITY LOG
SPWS  .MV    : SPONTANEOUS POTENTIAL [BASELINE 0 MV, SPRED]
SRESWS.OHMM  : SHALLOW RESISTIVITY [SNED]
~Params ----------------------------------------------------
PD  .                     GL : PERMANENT DATUM
EPD .FT                 2705 : ELEVATION PERMANENT DATUM
LMF .                     KB : LOG MEASURED FROM
DAPD.FT                   14 : FEET ABOVE PERMANENT DATUM
EKB .FT                 2719 : KELLY BUSHING
EGL .FT                 2705 : GROUND LEVEL
DATE.               03/23/73 : RUN DATE
RUN .                      1 : RUN NUMBER
DD  .FT                 9320 : DEPTH DRILLER
DL  .FT                 9318 : DEPTH LOGGER
BLI .FT                 9317 : BOTTOM LOG INTERVAL
TLI .FT                  940 : TOP LOG INTERVAL
CS  .IN                8.625 : CASING SIZE
CBD .FT                  940 : CASING BOTTOM DRILLER
BS  .IN                7.875 : BIT SIZE
BSD .FT                 9320 : BIT SIZE AT DEPTH
DFT .              GEL BENEX : DRILLING FLUID TYPE
DFD .                    9.3 : DRILLING FLUID DENSITY
DFV .                     85 : DRILLING FLUID VISCOSITY
DFPH.                     10 : DRILLING FLUID PH
DFL .                      8 : DRILLING FLUID LOSS
RMS .OHMM               1.99 : RESISTIVITY MUD SAMPLE
MST .DEGF                 71 : MUD SAMPLE TEMPERATURE
RMF .OHMM               1.58 : RESISTIVITY MUD FILTRATE SAMPLE
MFST.DEGF                 71 : MUD FILTRATE SAMPLE TEMPERATURE
RMB .OHMM               0.85 : RESISTIVITY MUD AT BHT
TCS .HRS                 3.5 : TIME CIRCULATED STOPPED
LUN .                   7635 : LOGGING UNIT NUMBER
ENGI.                 GORDON : RECORDING ENGINEER
WITN.                  BAHAN : WITNESSED BY
CLNT.                A2DTECH : CLIENT CODE
ORIG.            2" 5" PRINT : ORIGIN OF DATA
UWI .       100122506919W500 : UNIQUE WELL ID
DICO. A2D Technologies, Inc. : DIGITIZING COMPANY
~Other -----------------------------------------------------
IEL-BCS LOG RUN
DATA FROM TOP-4500' FROM 2" LOG
~ASCII -----------------------------------------------------
# ...
 5750.00000    8.81140    8.81140  137.23610  137.41360    7.27730   66.50800   66.50800   77.89900   77.89900    7.27730   13.71970   22.81460 -113.94880   13.71970
 5800.00000    7.86460    7.86460  200.85130  218.14060    4.58420   61.02050   61.02050   13.42260   13.42260    4.58420   54.17100 -203.42650 -334.48440   54.17100
 5850.00000    8.27280    8.27280  187.04860  197.67920    5.05870   58.63650   58.63650   22.27880   22.27880    5.05870   43.36440 -151.46440 -276.77920   43.36440
 5900.00000    8.44710    8.44710   42.90420   41.67690   23.99410   52.79100   52.79100   15.77310   15.77310   23.99410   53.81410  -85.95040 -205.55970   53.81410
 5950.00000    8.18780    8.18780   41.38240   43.21800   23.13850   54.95070   54.95070   14.75120   14.75120   23.13850   89.45080 -163.45770 -277.32400   89.45080
 6000.00000    8.93690    8.93690  432.15950  432.15210    2.31400   71.76710   71.76710   68.21250   68.21250    2.08290    2.72630 -137.57790 -245.73870    2.72630
 6050.00000    8.80620    8.80620  295.89400  295.89300    3.37960   65.34110   65.34110   63.61480   63.61480    3.09750    7.18010 -154.65930 -257.11460    7.18010
 6100.00000    8.68510    8.68510  147.37710  147.87650    6.76240   67.18880   67.18880   53.77670   53.77670    6.76240   10.58880 -114.71800 -211.43020   10.58880
 6150.00000    8.40100    8.40100   43.47660   45.05480   22.19520   53.48550   53.48550   11.62820   11.62820   22.19520   62.23610  -96.31600 -187.32270   62.23610
 6200.00000    8.57830    8.57830   33.52000   34.75030   28.77670   53.28380   53.28380   29.62080   29.62080   28.77670   44.67380  -93.41090 -178.67460   44.67380
 6250.00000    8.23640    8.23640   26.04940   27.54870   36.29940   52.74560   52.74560   27.04320   27.04320   36.29940   49.65000  -70.55380 -150.11200   49.65000
 6300.00000    8.08330    8.08330   24.83860   25.19550   39.68970   54.24100   54.24100   29.08350   29.08350   39.68970   47.15350    4.46790  -69.38480   47.15350
 6350.00000    8.10500    8.10500   32.81350   33.01540   30.28890   55.99750   55.99750   31.64720   31.64720   30.28890   38.40950   46.06200  -21.81430   38.40950
 6400.00000    8.34670    8.34670   47.47150   47.92030   20.86800   57.93670   57.93670   41.02160   41.02160   20.86800   26.75900  -28.22740  -89.71310   26.75900
 6450.00000    8.24830    8.24830   31.79270   32.16310   31.09150   56.64800   56.64800   41.17260   41.17260   31.09150   39.31280   10.11530  -44.93780   39.31280
 6500.00000    8.59600    8.59600   81.51970   82.31540   12.14840   64.65330   64.65330   55.07370   55.07370   12.14840   17.00020    0.43010  -48.23250   17.00020
 6550.00000    8.51890    8.51890   73.57340   73.52940   13.60000   63.42800   63.42800   61.50390   61.50390   13.60000   18.60740   22.51220  -19.75990   18.60740
 6600.00000    8.28010    8.28010   50.75870   51.22140   19.52310   59.30850   59.30850   47.28490   47.28490   19.52310   30.19990  -18.28040  -54.11990   30.19990
 6650.00000    8.96670    8.96670  112.33300  113.51250    8.80960   62.49530   62.49530   82.71200   82.71200    8.80960   11.50190  -18.33350  -47.78240   11.50190
 6700.00000    8.22730    8.22730    7.74310    8.67120  115.32390   49.85130   49.85130   24.88890   24.88890  115.32390  121.36010    4.14120  -18.87510  121.36010
 6750.00000    8.31950    8.31950   16.39150   15.18680   65.84650   51.40980   51.40980   15.52320   15.52320   65.84650   96.83700  -98.15990 -119.16960   96.83700
 6800.00000    8.29060    8.29060    7.22510    6.08290  164.39420   49.66030   49.66030   18.72980   18.72980  164.39420  134.19990  -76.83580  -96.08240  134.19990
 6850.00000    8.56500    8.56500   37.18290   37.65070   26.55990   54.20750   54.20750   10.98200   10.98200   26.55990   82.14100 -143.82090 -161.29270   82.14100
 6900.00000    8.43810    8.43810    0.10000    4.89380  204.34030   48.53060   48.53060   14.93360   14.93360  204.34030  174.52240  -90.56230 -106.27100  174.52240
 6950.00000    8.57700    8.57700    2.69390    4.37530  228.55440   47.80530   47.80530   11.97050   11.97050  228.55440  227.87840  -89.19400 -103.12800  227.87840
 7000.00000    8.15700    8.15700   29.16470   28.61380   34.94820   51.84590   51.84590   11.46620   11.46620   34.94820  111.77430 -148.01260 -160.18350  111.77430
 7050.00000    8.40300    8.40300   19.22200   17.15490   58.29250   50.32140   50.32140    8.93530    8.93530   58.29250  106.73640 -173.10850 -183.51630  106.73640
 7100.00000    8.36990    8.36990   15.48360   15.70440   63.67660   50.44150   50.44150    9.26760    9.26760   63.67660  112.73030 -118.12850 -126.76160  112.73030
 7150.00000    8.48670    8.48670    0.53550    4.70340  212.61230   48.64130   48.64130   10.89520   10.89520  212.61230  206.71790 -129.04670 -135.91670  206.71790
 7200.00000    8.30770    8.30770    0.10000    3.48490  286.95340   48.12400   48.12400   11.26110   11.26110  286.95340  289.03630 -119.37710 -124.47230  289.03630
 7250.00000    8.43450    8.43450    0.01480    2.63560  379.42030   48.14370   48.14370   13.74880   13.74880  379.42030  312.67090 -126.90790 -130.24000  312.67090
 7300.00000    8.34590    8.34590    0.16150    2.85420  350.36140   47.68080   47.68080   12.85250   12.85250  350.36140  305.76050 -136.10520 -137.67420  305.76050
 7350.00000    8.23640    8.23640   18.03900   17.84970   56.02330   49.57400   49.57400   12.56610   12.56610   56.02330  125.21920 -171.05490 -170.84920  125.21920
 7400.00000    8.14570    8.14570   54.21530   54.56340   18.32730   50.48810   50.48810    8.79630    8.79630   18.32730   71.23710 -220.77270 -218.80390   71.23710
 7450.00000    8.19230    8.19230  247.45620  224.36620    4.45700   53.42200   53.42200   35.57170   35.57170    4.44050   14.65260 -100.41890  -96.67540   14.65260
 7500.00000    7.86460    7.86460  382.22350  382.21920    2.61630   57.80590   57.80590   38.72130   38.72130    2.43350   25.80560 -191.35820 -185.85160   25.80560
 7550.00000    8.20570    8.20570   28.71480   30.49760   32.78950   46.96030   46.96030   20.46350   20.46350   32.78950   77.09290 -143.63460 -136.36480   77.09290
 7600.00000    8.16320    8.16320   46.09500   47.01460   21.27000   47.79480   47.79480   27.50270   27.50270   21.27000   33.15040 -126.95460 -117.91010   33.15040
 7650.00000    8.17490    8.17490   19.52950   16.81040   59.48710   49.99090   49.99090   25.14220   25.14220   59.48710   62.62640 -132.54440 -121.73680   62.62640
 7700.00000    9.20620    9.20620   91.65910   91.33170   10.94910   62.75020   62.75020   79.28220   79.28220   10.94910   14.97590 -108.76550  -96.18320   14.97590
 7750.00000    8.15880    8.15880    7.03100    6.74270  148.30750   50.05200   50.05200   14.19050   14.19050  148.30750  120.11130  -82.05080  -67.70540  120.11130
 7800.00000    8.27870    8.27870   38.90510   37.02700   27.00730   53.73670   53.73670   39.17040   39.17040   27.00730   33.72260  -66.19120  -50.08270   33.72260
 7850.00000   10.15770   10.15770  162.34170  166.97560    5.98890   70.40300   70.40300   65.24640   65.24640    5.98890   10.33830  -44.94850  -27.06530   10.33830
 7900.00000   12.10060   12.10060  190.29680  200.59380    4.98520   74.81100   74.81100   85.88560   85.88560    4.98520    6.57270  -27.41910   -8.19730    6.57270
 7950.00000   13.95390   13.95390  289.36470  289.36020    3.45590   81.58170   81.58170  103.80040  103.80040    3.10960    3.72490  -43.54420  -23.81250    3.72490
 8000.00000   14.18790   14.18790  306.43150  306.42890    3.26340   82.10200   82.10200   92.45770   92.45770    2.96180    1.58540  -73.23440  -52.99620    1.58540
 8050.00000   14.15520   14.15520  231.54780  231.54580    4.31880   75.33380   75.33380   76.60070   76.60070    3.95440    2.54690  -64.82420  -44.07950    2.54690
 8100.00000   14.49300   14.49300  294.68100  294.68100    3.39350   82.23050   82.23050   84.30550   84.30550    3.11680    1.90350  -79.23170  -57.97710    1.90350
 8150.00000   14.13980   14.13980  284.94660  284.94900    3.50940   80.95620   80.95620   91.54180   91.54180    3.19970    1.37580  -48.12220  -26.36110    1.37580
