~Version ---------------------------------------------------
VERS.      2.0 : CWLS log ASCII Standard -VERSION 2.0
WRAP.       NO : One line per depth step
CREA. 11/16/17 : LAS Creation Date
~Well ------------------------------------------------------
STRT.FT                       1100.0 : START DEPTH
STOP.FT                      10650.0 : STOP DEPTH
STEP.FT                     50.00000 : STEP LENGTH
NULL.                        -999.25 : NULL VALUE
COMP.           PETROFINA CANADA LTD : COMPANY
WELL. FINA AMOCO HB PASSCK 10-6-61-1 : WELL
FLD .                             WC : FIELD
LOC .                                : LOCATION
CTRY.                         CANADA : COUNTRY
SRVC.                   Schlumberger : SERVICE COMPANY
DATE.                    16-Nov-1976 : LOGDATE
PROV.                        Alberta : PROVINCE
UWI .               100100606117W500 : UNIQUE WELL ID
SLAT.WGS84                  54.24964 : SURFACE LATITUDE
SLON.WGS84                 -116.5333 : SURFACE LONGITUDE
~Curve Information -----------------------------------------
DEPT    .FT    : Depth Curve
CALDED  .IN    : CALIPER FROM DENSITY LOG
CALSED  .IN    : CALIPER FROM SONIC LOG [ADJ. TO GRDED]
CALWS   .IN    : CALIPER [CALSED SPL. TO CALDED @ 2270']
CILDED  .MMHO  : CONDUCTIVITY FROM RESISTIVITY LOG
CONDWS  .MMHO  : CONDUCTIVITY [1000/DRESWS]
DCORED  .G/C3  : DENSITY CORRECTION FROM DENSITY LOG
DCORWS  .G/C3  : DENSITY CORRECTION [DCORED]
DENWS   .G/C3  : FORMATION BULK DENSITY [RHOBED]
DPHILSED.V/V   : DENSITY POROSITY LIMESTONE [M=2.71, F=1.00] FROM DENSITY LOG [ADJ. TO RHOBED]
DPHISSED.V/V   : DENSITY POROSITY SANDSTONE [M=2.65, F=1.00] FROM DENSITY LOG [ADJ. TO RHOBED]
DPOLSWS .V/V   : DENSITY POROSITY LIMESTONE [CALC FROM DENWS, M=2.71, F=1.00]
DRESWS  .OHMM  : DEEP RESISTIVITY [1000/CILDED IF ILDED<=1.9, ILDED & SPL. TO ILDED @ 2250']
DTED    .US/F  : DELTA TIME FROM SONIC LOG [ADJ. TO GRDED]
DTWS    .US/F  : COMPRESSIONAL SONIC [DTED]
GRDED   .GAPI  : GAMMA RAY FROM DENSITY LOG
GRSED   .GAPI  : GAMMA RAY FROM SONIC LOG [ADJ. TO GRDED]
GRWS    .GAPI  : GAMMA RAY [GRSED SPL. TO GRDED @ 2276']
ILDED   .OHMM  : DEEP INDUCTION RESISTIVITY FROM RESISTIVITY LOG
ILMED   .OHMM  : MEDIUM INDUCTION RESISTIVITY FROM RESISTIVITY LOG
LL8ED   .OHMM  : 8 INCH LATEROLOG RESISTIVITY FROM RESISTIVITY LOG
MRESWS  .OHMM  : MEDIUM RESISTIVITY [ILMED]
NPHILSED.V/V   : NEUTRON POROSITY LIMESTONE FROM DENSITY LOG [ADJ. TO RHOBED]
NPHISSED.V/V   : NEUTRON POROSITY SANDSTONE FROM DENSITY LOG [ADJ. TO RHOBED]
NPOLSWS .V/V   : NEUTRON POROSITY LIMESTONE [SS CONVERTED TO  LS & SPL. TO NPHILSED @ 6854.5']
RHOBED  .G/C3  : BULK DENSITY FROM DENSITY LOG
SPRED   .MV    : SPONTANEOUS POTENTIAL FROM RESISTIVITY LOG
SPWS    .MV    : SPONTANEOUS POTENTIAL [BASELINE 0 MV, SPRED]
SRESWS  .OHMM  : SHALLOW RESISTIVITY [LL8ED]
~Params ----------------------------------------------------
PD  .                     GL : PERMANENT DATUM
EPD .FT                 3080 : ELEVATION PERMANENT DATUM
LMF .                     KB : LOG MEASURED FROM
DAPD.FT                   16 : FEET ABOVE PERMANENT DATUM
EKB .FT                 3096 : KELLY BUSHING
EGL .FT                 3080 : GROUND LEVEL
DATE.               11/16/76 : RUN DATE
RUN .                      2 : RUN NUMBER
DD  .FT                10680 : DEPTH DRILLER
DL  .FT                10679 : DEPTH LOGGER
BLI .FT                10673 : BOTTOM LOG INTERVAL
TLI .FT                 7468 : TOP LOG INTERVAL
CBD .FT                 1102 : CASING BOTTOM DRILLER
CBL .FT                 1102 : CASING BOTTOM LOGGER
BS  .IN                 8.75 : BIT SIZE
BSD .FT                10680 : BIT SIZE AT DEPTH
DFT .                    GEL : DRILLING FLUID TYPE
DFD .                    9.2 : DRILLING FLUID DENSITY
DFV .                     94 : DRILLING FLUID VISCOSITY
DFPH.                     10 : DRILLING FLUID PH
DFL .                    8.2 : DRILLING FLUID LOSS
MSS .               FLOWLINE : MUD SAMPLE SOURCE
RMS .OHMM               1.57 : RESISTIVITY MUD SAMPLE
MST .DEGF                 65 : MUD SAMPLE TEMPERATURE
RMF .OHMM               1.76 : RESISTIVITY MUD FILTRATE SAMPLE
MFST.DEGF                 68 : MUD FILTRATE SAMPLE TEMPERATURE
TCS .HRS                 2.5 : TIME CIRCULATED STOPPED
LUN .                   7800 : LOGGING UNIT NUMBER
LUL .                    EDM : LOGGING UNIT LOCATION
ENGI.     ROBELLI LEDUG BIGG : RECORDING ENGINEER
WITN.                CHARLES : WITNESSED BY
CLNT.                A2DTECH : CLIENT CODE
ORIG.            2" 5" PRINT : ORIGIN OF DATA
UWI .       100100606117W500 : UNIQUE WELL ID
DICO. A2D Technologies, Inc. : DIGITIZING COMPANY
~Other -----------------------------------------------------
~ASCII -----------------------------------------------------
# ...
 9850.00000   10.78080    9.90420   10.78080    -999.25  108.54700    0.04040    0.04040    2.65550    0.03310    -999.25    0.03190    9.21260   69.52810   69.52810   86.22020   79.22110   86.22020    9.21260    8.37010   12.27520    8.37010    0.17590    -999.25    0.17590    2.65550   -1.70190   -5.64840   12.27520
 9900.00000   10.98190    9.95190   10.98190    -999.25  129.19390    0.06710    0.06710    2.62580    0.04780    -999.25    0.04930    7.74040   71.10460   71.10460   75.75020   77.74770   75.75020    7.74040    6.87420   10.40410    6.87420    0.16410    -999.25    0.16410    2.62580   -5.53350   -9.48000   10.40410
 9950.00000   10.67500    9.85030   10.67500    -999.25  138.24950    0.08150    0.08150    2.68500   -0.01580    -999.25    0.01460    7.23330   74.79630   74.79630   99.32750  103.66660   99.32750    7.23330    6.23820    8.45320    6.23820    0.19510    -999.25    0.19510    2.68500   -3.37880   -7.32530    8.45320
 10000.00000    9.48400    9.25340    9.48400    -999.25   87.07980   -0.00310   -0.00310    2.59690    0.06260    -999.25    0.06610   11.48950   71.67150   71.67150  106.91570  116.02650  106.91570   11.48950   10.67960   15.61040   10.67960    0.17750    -999.25    0.17750    2.59690    1.19700   -2.74940   15.61040
 10050.00000    9.41800    9.07240    9.41800    -999.25    0.65030    0.00010    0.00010    2.47470    0.14300    -999.25    0.13760 1537.63150   76.08370   76.08370  200.76010  205.64090  200.76010 1537.63150 1590.61410 1484.80890 1590.61410    0.15790    -999.25    0.15790    2.47470  -18.86580  -31.92390 1484.80890
 10100.00000    9.39140    9.05020    9.39140    -999.25    0.62760    0.01110    0.01110    2.52040    0.12830    -999.25    0.11090 1593.39760   80.19420   80.19420  143.83480  145.08430  143.83480 1593.39760 1679.25900 1491.10560 1679.25900    0.18740    -999.25    0.18740    2.52040  -13.40150  -37.52380 1491.10560
 10150.00000    9.54450    9.23370    9.54450    -999.25    4.44390   -0.00300   -0.00300    2.54570    0.09860    -999.25    0.09600  230.19980   78.56960   78.56960  131.07120  116.22950  131.07120  230.19980  106.96690  339.70400  106.96690    0.20980    -999.25    0.20980    2.54570   27.72800   -5.93980  339.70400
 10200.00000    9.38690    9.16130    9.38690    -999.25    9.52890   -0.00760   -0.00760    2.66290    0.02570    -999.25    0.02750  104.94410   56.73540   56.73540   55.12730   56.04400   55.12730  104.94410   94.20430  126.98070   94.20430    0.05370    -999.25    0.05370    2.66290   27.59350   -6.00210  126.98070
 10250.00000    9.48520    9.13470    9.48520    -999.25    0.66660   -0.00720   -0.00720    2.68360    0.01610    -999.25    0.01540 1500.45160   50.71480   50.71480   10.28130   10.77460   10.28130 1500.45160  999.71980 1464.66920  999.71980    0.00320    -999.25    0.00320    2.68360  -48.40010  -81.08060 1464.66920
 10300.00000    9.46110    9.16130    9.46110    -999.25    1.43630    0.00040    0.00040    2.70110    0.00430    -999.25    0.00520  697.28720   43.91660   43.91660    8.25200    9.86300    8.25200  697.28720  290.03960  390.60180  290.03960    0.00520    -999.25    0.00520    2.70110  -58.70360  -90.46890  390.60180
 10350.00000    9.18010    9.12130    9.18010    -999.25    0.70370   -0.00350   -0.00350    2.71580    0.00500    -999.25   -0.00340 1420.97810   49.45990   49.45990    9.05560    8.39060    9.05560 1420.97810  692.82320 1526.86770  692.82320    0.00230    -999.25    0.00230    2.71580  -63.98680  -94.83100 1526.86770
 10400.00000    9.14690    8.97330    9.14690    -999.25    5.18020   -0.00480   -0.00480    2.70970   -0.00050    -999.25    0.00020  203.19390   48.13620   48.13620    8.05560    7.96270    8.05560  203.19390  124.79720  349.23170  124.79720    0.03600    -999.25    0.03600    2.70970  -71.70860 -101.63770  349.23170
 10450.00000    8.78710    8.32910    8.78710    -999.25   74.31850    0.10370    0.10370    2.55200    0.09680    -999.25    0.09240   13.45560   53.72560   53.72560    9.79140   12.77080    9.79140   13.45560    8.19160   35.85940    8.19160    0.17800    -999.25    0.17800    2.55200  -78.59320 -107.60120   35.85940
 10500.00000   10.59600    9.18000   10.59600    -999.25    4.53950    0.21720    0.21720    2.46800    0.14310    -999.25    0.14150  221.79850   49.46160   49.46160   20.69000   19.42490   20.69000  221.79850  164.16840  278.33380  164.16840    0.05880    -999.25    0.05880    2.46800  -95.12890 -123.22180  278.33380
 10550.00000   11.10780    9.79950   11.10780    -999.25    0.75480    0.26460    0.26460    2.42020    0.17160    -999.25    0.16950 1326.47240   50.00910   50.00910   11.00200   13.16860   11.00200 1326.47240 1551.25710 1491.75170 1551.25710    0.00580    -999.25    0.00580    2.42020  -69.55360  -96.73140 1491.75170
 10600.00000    9.34200    9.16340    9.34200    -999.25    2.95010   -0.01910   -0.01910    2.72130   -0.00610    -999.25   -0.00660  338.97330   61.67150   61.67150   54.98430   59.07390   54.98430  338.97330  203.00670  938.32690  203.00670    0.02580    -999.25    0.02580    2.72130  -10.77330  -37.03000  938.32690
 10650.00000    8.97640    8.55190    8.97640    -999.25  475.67910    0.06340    0.06340    2.50680    0.11830    -999.25    0.11890    2.10290   64.05460   64.05460   86.32200    -999.25   86.32200    2.10290    1.68840   10.85540    1.68840    0.04230    -999.25    0.04230    2.50680  -88.50630  -98.96970   10.85540
