~Version ---------------------------------------------------
VERS. 2.0 : CWLS log ASCII Standard -VERSION 2.0
WRAP.  NO : ONE LINE PER DEPTH STEP
~Well ------------------------------------------------------
STRT.F                                   347.3 : START DEPTH
STOP.F                                  9458.8 : STOP DEPTH
STEP.F                                 0.50000 : STEP LENGTH
NULL.                                  -999.25 : NULL VALUE
COMP. THE BRITISH AMERICAN OIL COMPANY LIMITED : COMPANY
WELL.              B.A. GOOSE RIVER 4-32-66-18 : WELL
FLD .                                          : FIELD
LOC .                                          : LOCATION
CTRY.                                   CANADA : COUNTRY
SRVC.                             Schlumberger : SERVICE COMPANY
DATE.                              02-Dec-1964 : LOGDATE
PROV.                                  Alberta : PROVINCE
UWI .                         100043206618W500 : UNIQUE WELL ID
SLAT.WGS84                            54.75185 : SURFACE LATITUDE
SLON.WGS84                           -116.6939 : SURFACE LONGITUDE
~Curve Information -----------------------------------------
DEPT.F    0   1   0  0 : 1 MEASURED DEPTH
GRN .GAPI 35 310 01 00 : GAMMA RAY FROM GRN LOG
NEUT.NAPI 35 330 01 00 : NEUTRON
GR  .GAPI 30 310 00 00 : GAMMA RAY
CILD.MMHO 05 110 46 00 : INDUCTION DEEP CONDUCTIVITY
ILD .OHMM 05 120 46 00 : INDUCTION DEEP RESISTIVITY
SN  .OHMM 05 040 16 00 : SHORT NORMAL RESISTIVITY
SPR .MV   05 010 01 00 : SPONTANEOUS POTENTIAL FROM RESISTIVITY LOG
GRS .GAPI 60 310 01 00 : GAMMA RAY FROM SONIC LOG
DT  .US/F 60 500 00 00 : DELTA-T (INTERVAL TRANSIT TIME)
CALS.IN   60 280 50 00 : CALIPER FROM SONIC LOG
DT_1.US/F 60 500 31 00 : DELTA-T (INTERVAL TRANSIT TIME)
~Params ----------------------------------------------------
PD  .                     GL : PERMANENT DATUM
EPD .FT                 2485 : ELEVATION PERMANENT DATUM
LMF .                     KB : LOG MEASURED FROM
DAPD.FT                   15 : FEET ABOVE PERMANENT DATUM
EKB .FT                 2500 : KELLY BUSHING
EGL .FT                 2485 : GROUND LEVEL
DATE.               12/02/64 : RUN DATE
RUN .                      1 : RUN NUMBER
DD  .FT                 9461 : DEPTH DRILLER
DL  .FT                 9460 : DEPTH LOGGER
BLI .FT                 9459 : BOTTOM LOG INTERVAL
TLI .FT                  781 : TOP LOG INTERVAL
CBD .FT                  784 : CASING BOTTOM DRILLER
CBL .FT                  781 : CASING BOTTOM LOGGER
BS  .IN                7.625 : BIT SIZE
BSD .FT                 9461 : BIT SIZE AT DEPTH
DFT .               GEL CHEM : DRILLING FLUID TYPE
DFD .                    9.8 : DRILLING FLUID DENSITY
DFV .                     95 : DRILLING FLUID VISCOSITY
DFPH.                    9.5 : DRILLING FLUID PH
DFL .                    7.4 : DRILLING FLUID LOSS
RMS .OHMM               2.38 : RESISTIVITY MUD SAMPLE
MST .DEGF                 64 : MUD SAMPLE TEMPERATURE
RMF .OHMM                2.1 : RESISTIVITY MUD FILTRATE SAMPLE
MFST.DEGF                 66 : MUD FILTRATE SAMPLE TEMPERATURE
RMC .OHMM               2.32 : RESISTIVITY MUD CAKE
MCST.DEGF                 66 : MUD CAKE SAMPLE TEMPERATURE
RMB .OHMM               0.84 : RESISTIVITY MUD AT BHT
TCS .HRS                   6 : TIME CIRCULATED STOPPED
LUN .                   3534 : LOGGING UNIT NUMBER
LUL .                    V V : LOGGING UNIT LOCATION
ENGI.               CHENOSKY : RECORDING ENGINEER
WITN.                  WEISS : WITNESSED BY
CLNT.                A2DTECH : CLIENT CODE
ORIG.            2" 5" PRINT : ORIGIN OF DATA
UWI .       100043206618W500 : UNIQUE WELL ID
DICO. A2D Technologies, Inc. : DIGITIZING COMPANY
~Other -----------------------------------------------------
~ASCII -----------------------------------------------------
# ...
 1933.30000    -999.25    -999.25    -999.25  224.58800    3.94660    4.20720  -40.81620   57.92620  118.72790   10.61730    -999.25
 1933.80000    -999.25    -999.25    -999.25  242.44460    3.72100    4.01900  -41.12360   54.00170  113.88510   10.76920    -999.25
 1934.30000    -999.25    -999.25    -999.25  257.92510    3.49540    3.83080  -41.20980   54.73090  120.05540   10.41260    -999.25
 1934.80000    -999.25    -999.25    -999.25  271.35690    3.32630    3.66600  -41.22580   56.26920  120.44580    9.41710    -999.25
 1935.30000    -999.25    -999.25    -999.25  277.99900    3.32440    3.66400  -41.27510   57.82950  114.05840    9.52620    -999.25
 1935.80000    -999.25    -999.25    -999.25  275.78170    3.33800    3.66200  -41.39290   59.86740  102.13650    9.78460    -999.25
 1936.30000    -999.25    -999.25    -999.25  263.60120    3.42830    3.77850  -41.31340   60.61130  109.13580    9.92210    -999.25
 1936.80000    -999.25    -999.25    -999.25  246.31810    3.84740    3.95170  -41.22030   59.80890  115.59050    9.83000    -999.25
 1937.30000    -999.25    -999.25    -999.25  222.82870    4.53630    4.34150  -41.20560   58.85450  121.51840    9.73300    -999.25
 1937.80000    -999.25    -999.25    -999.25  197.78360    5.22530    4.73130  -41.20140   62.41930  130.39570   10.11080    -999.25
 1938.30000    -999.25    -999.25    -999.25  171.70390    6.09280    5.21260  -41.22700   60.57770  129.90550   10.83410    -999.25
 1938.80000    -999.25    -999.25    -999.25  146.24690    7.37560    5.78430  -41.33740   57.73060  127.04750   11.27550    -999.25
 1939.30000    -999.25    -999.25    -999.25  123.84900    8.65840    6.35600  -41.22140   61.12610  124.86280   10.69440    -999.25
 1939.80000    -999.25    -999.25    -999.25  102.77180    9.94120    7.01850  -41.20260   59.61500  123.64040   11.41420    -999.25
 1940.30000    -999.25    -999.25    -999.25   94.14100   10.46740    7.46740  -41.20110   60.08190  118.81280   11.31180    -999.25
 1940.80000    -999.25    -999.25    -999.25   94.30470   10.37420    7.67430  -41.19960   60.89610  109.73490   11.01330    -999.25
 1941.30000    -999.25    -999.25    -999.25  104.15120    9.38200    7.68590  -41.19810   59.48690  102.24190   10.86350    -999.25
 1941.80000    -999.25    -999.25    -999.25  121.12530    8.11410    7.17180  -41.19240   56.67480   99.00940    9.73680    -999.25
 1942.30000    -999.25    -999.25    -999.25  141.58710    6.84620    6.45690  -41.04710   54.79590   93.21640    8.92520    -999.25
 1942.80000    -999.25    -999.25    -999.25  161.75910    5.96630    5.74200  -41.00770   54.43570   88.52670    8.67470    -999.25
 1943.30000    -999.25    -999.25    -999.25  179.82230    5.46200    5.04440  -41.00310   53.80080   86.81860    8.66090    -999.25
 1943.80000    -999.25    -999.25    -999.25  199.17900    4.95770    4.65680  -40.99860   50.41960   87.89690    8.64630    -999.25
 1944.30000    -999.25    -999.25    -999.25  221.92990    4.53740    4.26920  -40.99670   51.96890   91.73560    8.62930    -999.25
 1944.80000    -999.25    -999.25    -999.25  242.83440    4.24920    3.91630  -40.99670   49.15780   94.16580    8.61940    -999.25
 1945.30000    -999.25    -999.25    -999.25  258.42620    4.03080    3.75460  -40.99670   49.92180  101.70690    8.60910    -999.25
 1945.80000    -999.25    -999.25    -999.25  260.84570    3.96860    3.64080  -41.12920   56.00670  111.06750    8.59480    -999.25
 1946.30000    -999.25    -999.25    -999.25  259.44320    3.90650    3.64030  -41.17350   59.51690  124.78390    8.92600    -999.25
 1946.80000    -999.25    -999.25    -999.25  253.83600    3.94030    3.65890  -41.14310   63.14050  131.34040    9.71580    -999.25
 1947.30000    -999.25    -999.25    -999.25  248.29780    3.98690    3.70180  -41.09400   64.42910  132.53340   10.28400    -999.25
 1947.80000    -999.25    -999.25    -999.25  244.88030    4.03360    3.74480  -41.14120   62.03570  132.37030   10.35500    -999.25
 1948.30000    -999.25    -999.25    -999.25  242.84020    4.08020    3.78770  -41.21420   63.15390  128.65000   10.31120    -999.25
 1948.80000    -999.25    -999.25    -999.25  241.81670    4.12680    3.83060  -41.27630   64.93280  122.35820   10.14370    -999.25
 1949.30000    -999.25    -999.25    -999.25  238.50940    4.17350    3.87360  -41.27500   62.96850  118.38600   10.04430    -999.25
 1949.80000    -999.25    -999.25    -999.25  232.13430    4.22010    3.91650  -41.12120   59.01840  121.13060   10.72080    -999.25
 1950.30000    -999.25    -999.25    -999.25  225.46110    4.26670    3.95940  -40.87970   56.30270  119.00140   10.61510    -999.25
 1950.80000    -999.25    -999.25    -999.25  219.72830    4.31340    4.00230  -41.10870   58.76410  114.12310    9.85630    -999.25
 1951.30000    -999.25    -999.25    -999.25  215.18210    4.36000    4.04530  -41.19180   63.62050  108.73320    9.50290    -999.25
 1951.80000    -999.25    -999.25    -999.25  210.24070    4.40710    4.13310  -41.18910   62.89320  108.12220   11.88320    -999.25
 1952.30000    -999.25    -999.25    -999.25  203.25690    4.54050    4.30980  -41.18630   63.38200  104.63740   11.83940    -999.25
 1952.80000    -999.25    -999.25    -999.25  191.82630    4.67400    4.48640  -41.14900   60.75440  103.02170   10.24990    -999.25
 1953.30000    -999.25    -999.25    -999.25  179.05020    5.17850    4.69530  -41.04260   55.90160  103.91150    8.93760    -999.25
 1953.80000    -999.25    -999.25    -999.25  164.92760    5.77300    4.94980  -41.17200   57.01380  104.92950    9.89580    -999.25
 1954.30000    -999.25    -999.25    -999.25  152.03730    6.36750    5.20430  -41.19300   60.61150  112.51860   10.88520    -999.25
 1954.80000    -999.25    -999.25    -999.25  143.10400    6.74640    5.45870  -41.19300   59.54450  117.44040   11.19350    -999.25
 1955.30000    -999.25    -999.25    -999.25  140.03080    6.83880    5.64250  -41.19300   56.40590  113.67680   10.52060    -999.25
 1955.80000    -999.25    -999.25    -999.25  144.60140    6.42440    5.68950  -41.30760   54.21560  107.22480   10.23920    -999.25
 1956.30000    -999.25    -999.25    -999.25  158.74170    5.94950    5.46520  -41.53380   59.41280  102.81860   10.38630    -999.25
 1956.80000    -999.25    -999.25    -999.25  175.20690    5.47470    5.12780  -41.74710   61.35940   96.60120   10.13000    -999.25
 1957.30000    -999.25    -999.25    -999.25  190.21530    4.99990    4.79040  -42.07330   63.08320   94.47480    9.23550    -999.25
 1957.80000    -999.25    -999.25    -999.25  204.95950    4.58820    4.45300  -41.53500   62.98970   92.29000    8.79920    -999.25
 1958.30000    -999.25    -999.25    -999.25  220.00300    4.31120    4.11570  -41.34640   62.68080   94.38070    8.71220    -999.25
 1958.80000    -999.25    -999.25    -999.25  235.97230    4.03420    3.77830  -41.27510   63.43290   98.81130    8.70460    -999.25
 1959.30000    -999.25    -999.25    -999.25  252.80090    3.75730    3.48120  -41.20380   60.17600  104.16080    8.70510    -999.25
 1959.80000    -999.25    -999.25    -999.25  265.92030    3.58860    3.33280  -41.16020   55.76900  111.95270    8.70890    -999.25
 1960.30000    -999.25    -999.25    -999.25  274.08260    3.52580    3.18430  -41.14830   53.36030  116.63060    8.70990    -999.25
 1960.80000    -999.25    -999.25    -999.25  277.92740    3.47190    3.14230  -41.06670   49.52180  125.57470    8.79890    -999.25
 1961.30000    -999.25    -999.25    -999.25  276.83540    3.50010    3.15200  -40.98630   47.86680  128.85280    9.68940    -999.25
 1961.80000    -999.25    -999.25    -999.25  272.50770    3.52830    3.16170  -40.76580   50.32290  132.45220   10.78920    -999.25
 1962.30000    -999.25    -999.25    -999.25  268.74980    3.55650    3.17140  -40.71300   55.02540  134.80920   10.70190    -999.25
 1962.80000    -999.25    -999.25    -999.25  267.74310    3.58470    3.18110  -40.77610   60.84660  128.76010   10.67280    -999.25
 1963.30000    -999.25    -999.25    -999.25  269.85190    3.61290    3.19080  -40.98890   66.22120  127.80140   10.90370    -999.25
