~Version ---------------------------------------------------
VERS.      2.0 : CWLS log ASCII Standard -VERSION 2.0
WRAP.       NO : One line per depth step
CREA. 12/21/17 : LAS Creation Date
~Well ------------------------------------------------------
STRT.FT                           300.0 : START DEPTH
STOP.FT                         10850.0 : STOP DEPTH
STEP.FT                        50.00000 : STEP LENGTH
NULL.                           -999.25 : NULL VALUE
COMP. HUDSONS BAY OIL & GAS COMPANY LTD : COMPANY
WELL.    H.B. UNION KAYBOB S 7-14-62-20 : WELL
FLD .                                   : FIELD
LOC .                                   : LOCATION
CTRY.                            CANADA : COUNTRY
SRVC.            Schlumberger of Canada : SERVICE COMPANY
DATE.                       27-Mar-1965 : LOGDATE
PROV.                           Alberta : PROVINCE
UWI .                  100071406220W500 : UNIQUE WELL ID
SLAT.WGS84                      54.3613 : SURFACE LATITUDE
SLON.WGS84                    -116.8845 : SURFACE LONGITUDE
~Curve Information -----------------------------------------
DEPT   .FT        : Depth Curve
CALSED .IN        : CALIPER FROM SONIC LOG
CALWS  .IN        : CALIPER [TOP MCALED 6870' CALSED TD]
CILDED .MMHO      : CONDUCTIVITY FROM IEL LOG
CONDWS .MMHO      : CONDUCTIVITY [1000/DRESWS]
DRESWS .OHMM      : DEEP RESISTIVITY [1000/CILDED IF ILDED<5, ILDED]
DTED   .US/F      : SHEAR SONIC FROM SONIC LOG
DTWS   .US/F      : COMPRESSIONAL  SONIC [DTED]
GRED   .GAPI      : GAMMA RAY FROM CBL LOG
GRSED  .GAPI      : GAMMA RAY FROM SONIC LOG
GRWS   .GAPI      : GAMMA RAY [GRED SPL. TO GRSED @ 7000']
ILDED  .OHMM      : DEEP INDUCTION FROM IEL LOG
MCALED .IN        : CALIPER FROM MICROLOG
RATIOED.UNITLESS  : RATIO FROM TDT LOG
SIGMAED.CU        : CAPTURE CROSS SECTION FROM TDT LOG
SNED   .OHMM      : 16 INCH SHORT NORMAL RESISTIVITY FROM IEL LOG
SPRED  .MV        : SPONTANEOUS POTENTIAL FROM IEL LOG
SPWS   .MV        : SPONTANEOUS POTENTIAL [BASELINE 0 MV, SPRED]
SRESWS .OHMM      : SHALLOW RESISTIVITY [SNED]
TENED  .LBF       : TENSION FROM CBL LOG
~Params ----------------------------------------------------
PD  .                     GL : PERMANENT DATUM
EPD .FT                 2833 : ELEVATION PERMANENT DATUM
LMF .                     KB : LOG MEASURED FROM
DAPD.FT                   16 : FEET ABOVE PERMANENT DATUM
EKB .FT                 2849 : KELLY BUSHING
EGL .FT                 2833 : GROUND LEVEL
DATE.               03/27/65 : RUN DATE
RUN .                      2 : RUN NUMBER
TCS .HRS                 3.5 : TIME CIRCULATED STOPPED
LUN .                   1576 : LOGGING UNIT NUMBER
LUL .                    WCT : LOGGING UNIT LOCATION
ENGI.              DEMETRICK : RECORDING ENGINEER
WITN.               HAMILTON : WITNESSED BY
CLNT.                A2DTECH : CLIENT CODE
ORIG.            2" 5" PRINT : ORIGIN OF DATA
UWI .       100071406220W500 : UNIQUE WELL ID
DICO. A2D Technologies, Inc. : DIGITIZING COMPANY
~Other -----------------------------------------------------
CALIPER-CBL-GR-IEL-ML-TDT-SONIC LOG RAN
EL: ALL CURVES HAVE BEEN VERIFIED FROM 1" SECTION @TOP-1146',3454'-4150',4398'-5498'.
MCAL HAS BEEN VERIFIED FROM 1" SECTION @TOP-1940',3450'-4140',4400'-5500'
~ASCII -----------------------------------------------------
# ...
 7700.00000    9.72290    9.72290  115.27680  115.42150    8.66390   91.42190   91.42190    -999.25   86.83270   86.83270    8.66390    -999.25    -999.25    -999.25   15.80860  -89.21890  -38.06930   15.80860    -999.25
 7750.00000    9.57890    9.57890  190.62520  190.62520    5.24590   91.97950   91.97950    -999.25   66.61550   66.61550    4.49580    -999.25    -999.25    -999.25   19.07180  -94.41170  -44.28280   19.07180    -999.25
 7800.00000   10.20600   10.20600   36.09210   36.09210   27.70690   89.71310   89.71310    -999.25   79.35610   79.35610   30.11070    -999.25    -999.25    -999.25   31.65450  -66.99190  -19.49990   31.65450    -999.25
 7850.00000    9.69220    9.69220    6.26170    6.26170  159.70100   73.39040   73.39040    -999.25   35.68340   35.68340  222.37140    -999.25    -999.25    -999.25  113.47740  -92.46780  -47.62720  113.47740    -999.25
 7900.00000    9.57830    9.57830    7.59340    7.59340  131.69330   75.55960   75.55960    -999.25   39.79280   39.79280  202.06370    -999.25    -999.25    -999.25   76.97900  -75.97980  -33.77600   76.97900    -999.25
 7950.00000    9.20570    9.20570    7.72670    7.72670  129.42140   76.58540   76.58540    -999.25   39.57840   39.57840  194.50650    -999.25    -999.25    -999.25  103.04910  -69.47240  -29.92000  103.04910    -999.25
 8000.00000    9.44140    9.44140    2.81910    2.81910  354.72310   73.92140   73.92140    -999.25   38.78730   38.78730  453.55110    -999.25    -999.25    -999.25  151.39470  -63.73510  -26.81950  151.39470    -999.25
 8050.00000    9.51620    9.51620   12.25100   12.25100   81.62600   76.76970   76.76970    -999.25   55.19560   55.19560   98.88380    -999.25    -999.25    -999.25   77.35670  -52.44610  -18.16740   77.35670    -999.25
 8100.00000    9.33170    9.33170    6.05200    6.05200  165.23460   78.42870   78.42870    -999.25   58.98570   58.98570  345.57800    -999.25    -999.25    -999.25  145.95950  -43.70770  -12.08030  145.95950    -999.25
 8150.00000    9.28540    9.28540   12.30960   12.30960   81.23740   89.33770   89.33770    -999.25   75.43520   75.43520  104.58500    -999.25    -999.25    -999.25   87.17590  -33.17610   -4.18560   87.17590    -999.25
 8200.00000    9.46010    9.46010    1.54340    1.54340  647.92020   93.98930   93.98930    -999.25   87.51490   87.51490  476.27770    -999.25    -999.25    -999.25  127.55900  -30.54550   -4.05830  127.55900    -999.25
 8250.00000    9.64190    9.64190   52.47140   52.47140   19.05800  105.51370  105.51370    -999.25  219.34320  219.34320   19.70820    -999.25    -999.25    -999.25   35.43630  -30.28440   -2.75540   35.43630    -999.25
 8300.00000    9.55700    9.55700    5.74010    5.74010  174.21300   76.70220   76.70220    -999.25   29.76180   29.76180  530.79330    -999.25    -999.25    -999.25  183.40310  -76.79960  -47.98370  183.40310    -999.25
 8350.00000    9.79340    9.79340    3.91880    3.91880  255.18020   83.71400   83.71400    -999.25   26.86660   26.86660  533.94130    -999.25    -999.25    -999.25  159.57970  -99.16130  -69.05100  159.57970    -999.25
 8400.00000    9.39220    9.39220    1.93710    1.93710  516.23560   66.83630   66.83630    -999.25   30.13910   30.13910  527.26050    -999.25    -999.25    -999.25  171.79960 -105.68280  -74.28560  171.79960    -999.25
 8450.00000    9.88140    9.88140    4.49160    4.49160  222.63780   72.94830   72.94830    -999.25   25.78240   25.78240  531.07430    -999.25    -999.25    -999.25  143.30770 -130.90730  -98.21560  143.30770    -999.25
 8500.00000    9.51700    9.51700    6.99480    6.99480  142.96330   81.16320   81.16320    -999.25   21.09130   21.09130  273.41090    -999.25    -999.25    -999.25  112.48370 -129.52310  -95.54450  112.48370    -999.25
 8550.00000    9.92510    9.92510    4.20240    4.20240  237.95930   78.03970   78.03970    -999.25   25.88560   25.88560  531.95650    -999.25    -999.25    -999.25  183.36720 -133.61940  -98.35380  183.36720    -999.25
 8600.00000   10.09400   10.09400    3.63460    3.63460  275.13340   71.98300   71.98300    -999.25   23.24610   23.24610  487.23330    -999.25    -999.25    -999.25  111.02340 -139.59370 -103.03370  111.02340    -999.25
 8650.00000   10.18040   10.18040    3.36310    3.36310  297.34470   80.07150   80.07150    -999.25   22.97900   22.97900  532.19630    -999.25    -999.25    -999.25  144.94740 -138.59320 -100.74630  144.94740    -999.25
 8700.00000   10.05500   10.05500    3.05690    3.05690  327.12880   80.90800   80.90800    -999.25   26.57690   26.57690  531.43440    -999.25    -999.25    -999.25  133.85180 -140.03680 -100.89550  133.85180    -999.25
 8750.00000   10.01900   10.01900    7.05150    7.05150  141.81380   74.74390   74.74390    -999.25   24.09110   24.09110  278.80930    -999.25    -999.25    -999.25  100.45470 -144.66730 -104.23910  100.45470    -999.25
 8800.00000   10.55660   10.55660    6.00620    6.00620  166.49460   80.42600   80.42600    -999.25   21.88320   21.88320  530.22010    -999.25    -999.25    -999.25  118.06530 -136.97800  -95.26290  118.06530    -999.25
 8850.00000   10.16220   10.16220    9.71300    9.71300  102.95480   84.20090   84.20090    -999.25   27.11300   27.11300  234.80420    -999.25    -999.25    -999.25   83.22310 -134.54300  -91.53340   83.22310    -999.25
 8900.00000   11.29220   11.29220   10.51920   10.51920   95.06430   81.69950   81.69950    -999.25   19.98230   19.98230  206.32680    -999.25    -999.25    -999.25   70.09370 -130.44780  -86.15130   70.09370    -999.25
 8950.00000    9.46250    9.46250   15.60660   15.60660   64.07550   93.06950   93.06950    -999.25   26.79920   26.79920  102.54340    -999.25    -999.25    -999.25   58.63150 -130.04770  -84.45680   58.63150    -999.25
 9000.00000    9.33690    9.33690   20.04050   20.04050   49.89900   69.02470   69.02470    -999.25   23.23950   23.23950   66.44190    -999.25    -999.25    -999.25   50.00000 -119.54560  -72.66770   50.00000    -999.25
 9050.00000    9.09880    9.09880   12.20840   12.20840   81.91080   64.94170   64.94170    -999.25   30.83450   30.83450  229.54520    -999.25    -999.25    -999.25  116.21410 -128.52310  -80.35830  116.21410    -999.25
 9100.00000    9.19440    9.19440   21.47210   21.47210   46.57210   88.55400   88.55400    -999.25   25.91690   25.91690   62.62150    -999.25    -999.25    -999.25   62.89200 -139.46980  -90.01060   62.89200    -999.25
 9150.00000    9.79310    9.79310   23.49960   23.49960   42.55390   96.40290   96.40290    -999.25   33.42120   33.42120   49.61000    -999.25    -999.25    -999.25   38.37940 -126.65740  -75.91130   38.37940    -999.25
 9200.00000    9.93420    9.93420   17.34440   17.34440   57.65550   78.85150   78.85150    -999.25   39.31470   39.31470   73.30190    -999.25    -999.25    -999.25   47.04650 -114.75420  -62.71360   47.04650    -999.25
 9250.00000    9.07360    9.07360    7.20680    7.20680  138.75780   65.92600   65.92600    -999.25   39.98130   39.98130  299.21700    -999.25    -999.25    -999.25  143.54860  -63.36320  -10.03570  143.54860    -999.25
 9300.00000    9.34750    9.34750    7.55740    7.55740  132.32060   72.30380   72.30380    -999.25   40.23910   40.23910  281.56020    -999.25    -999.25    -999.25  114.56950  -56.93020   -2.31570  114.56950    -999.25
 9350.00000    9.49700    9.49700   21.52530   21.52530   46.45700   80.66190   80.66190    -999.25   52.08410   52.08410   60.20630    -999.25    -999.25    -999.25   58.36230  -66.16780  -13.59150   58.36230    -999.25
 9400.00000    9.45110    9.45110   14.62590   14.62590   68.37190   75.82020   75.82020    -999.25   58.15110   58.15110   88.96840    -999.25    -999.25    -999.25   73.79800  -69.19880  -19.44470   73.79800    -999.25
 9450.00000    9.60280    9.60280   27.11180   27.11180   36.88430   85.78050   85.78050    -999.25   52.70220   52.70220   39.38190    -999.25    -999.25    -999.25   46.21550  -61.54730  -14.63500   46.21550    -999.25
 9500.00000    9.78120    9.78120   42.45350   42.45350   23.55520   84.54100   84.54100    -999.25   58.50000   58.50000   24.75070    -999.25    -999.25    -999.25   32.90370  -59.59700  -15.50700   32.90370    -999.25
