~Version ---------------------------------------------------
VERS.      2.0 : CWLS log ASCII Standard -VERSION 2.0
WRAP.       NO : One line per depth step
CREA. 08/30/13 : LAS Creation Date
~Well ------------------------------------------------------
STRT.M                             300.0 : START DEPTH
STOP.M                            3350.0 : STOP DEPTH
STEP.M                          50.00000 : STEP LENGTH
NULL.                            -999.25 : NULL VALUE
COMP.        BP RESOURCES CANADA LIMITED : COMPANY
WELL. BP ET AL WILLESDEN GREEN 6-10-38-5 : WELL
FLD .                                    : FIELD
LOC .                                    : LOCATION
CTRY.                             CANADA : COUNTRY
SRVC.                       Schlumberger : SERVICE COMPANY
DATE.                        26-Apr-1989 : LOGDATE
PROV.                            Alberta : PROVINCE
UWI .                   102061003805W500 : UNIQUE WELL ID
SLAT.WGS84                      52.25281 : SURFACE LATITUDE
SLON.WGS84                     -114.6323 : SURFACE LONGITUDE
~Curve Information -----------------------------------------
DEPT    .M      : Depth Curve
C1ED    .MM     : CALIPER FROM DENSITY LOG [ADJ. TO RESISTIVITY LOG]
C2ED    .MM     : CALIPER FROM DENSITY LOG [ADJ. TO RESISTIVITY LOG]
CALWS   .MM     : CALIPER [C1ED]
CONDWS  .MMHO   : CONDUCTIVITY [1000/DRESWS]
DCORWS  .KG/M3  : DENSITY CORRECTION [DRHOED]
DENWS   .KG/M3  : FORMATION BULK DENSITY [RHOBED]
DPHILSED.V/V    : DENSITY POROSITY LIMESTONE [M=2710,F=1000] FROM DENSITY LOG [ADJ. TO RESISTIVITY LOG]
DPHISSED.V/V    : DENSITY POROSITY SANDSTONE [M=2650,F=1000] FROM DENSITY LOG [ADJ. TO RESISTIVITY LOG]
DPOLSWS .V/V    : DENSITY POROSITY LIMESTONE [CALC FROM DENWS,M=2710,F=1000]
DRESWS  .OHMM   : DEEP RESISTIVITY [IDPHED]
DRHOED  .KG/M3  : DENSITY CORRECTION FROM DENSITY LOG [ADJ. TO RESISTIVITY LOG]
DTED    .US/M   : SONIC INTERVAL FROM SONIC LOG
DTWS    .US/M   : COMPRESSIONAL SONIC [DTED]
GRED    .GAPI   : GAMMA RAY (CASING & COLLARS) FROM CBL LOG [ADJ. TO RESISTIVITY LOG]
GRSED   .GAPI   : GAMMA RAY FROM SONIC LOG
GRWS    .GAPI   : GAMMA RAY [GRED SPL. GRSED @ 375.3M]
HDED    .MM     : CALIPER FROM SONIC LOG
IDPHED  .OHMM   : DEEP PHASOR INDUCTION FROM RESISTIVITY LOG
IMPHED  .OHMM   : MEDIUM PHASOR INDUCTION FROM RESISTIVITY LOG
MRESWS  .OHMM   : MEDIUM RESISTIVITY [IMPHED]
NPHILSED.V/V    : NEUTRON POROSITY LIMESTONE FROM DENSITY LOG [ADJ. TO RESISTIVITY LOG]
NPHISSED.V/V    : NEUTRON POROSITY SANDSTONE FROM DENSITY LOG [ADJ. TO RESISTIVITY LOG]
NPOLSWS .V/V    : NEUTRON POROSITY LIMESTONE [NPHISSED MATRIX CONVERSION FOR LIMESTONE, SPL.TO NPHILSED @ 2429.1M]
RHOBED  .KG/M3  : BULK DENSITY FROM DENSITY LOG [ADJ. TO RESISTIVITY LOG]
SFLUED  .OHMM   : SPHERICALLY FOCUSED  FROM RESISTIVITY LOG
SGRDDED .GAPI   : GAMMA RAY FROM DENSITY LOG [ADJ. TO RESISTIVITY LOG]
SPRED   .MV     : SPONTANEOUS POTENTIAL FROM RESISTIVITY LOG
SPWS    .MV     : SPONTANEOUS POTENTIAL [BASELINE 0 MV, SPRED]
SRESWS  .OHMM   : SHALLOW RESISTIVITY [SFLUED]
TENRED  .N      : TENSION FROM RESISTIVITY LOG
TENSED  .N      : TENSION FROM SONIC LOG
~Params ----------------------------------------------------
PD  .                         GL : PERMANENT DATUM
EPD .M                     993.2 : ELEVATION PERMANENT DATUM
LMF .                         KB : LOG MEASURED FROM
DAPD.M                       7.3 : FEET ABOVE PERMANENT DATUM
DMF .                         KB : DRILLING MEASURED FROM
EKB .M                    1000.6 : KELLY BUSHING
EDF .M                    1000.3 : DRILLING FLOOR
EGL .M                     993.2 : GROUND LEVEL
DATE.                   04/26/89 : RUN DATE
RUN .                          1 : RUN NUMBER
DD  .M                      3358 : DEPTH DRILLER
DL  .M                    3356.2 : DEPTH LOGGER
BLI .M                      3353 : BOTTOM LOG INTERVAL
TLI .M                       454 : TOP LOG INTERVAL
CS  .MM                      273 : CASING SIZE
CBD .M                       454 : CASING BOTTOM DRILLER
CBL .M                       454 : CASING BOTTOM LOGGER
BS  .MM                      222 : BIT SIZE
BSD .M                      3358 : BIT SIZE AT DEPTH
DFT .                     GYP ND : DRILLING FLUID TYPE
DFD .                       1115 : DRILLING FLUID DENSITY
DFV .                         74 : DRILLING FLUID VISCOSITY
DFL .                        8.7 : DRILLING FLUID LOSS
MSS .                   FLOWLINE : MUD SAMPLE SOURCE
RMS .OHMM                   1.49 : RESISTIVITY MUD SAMPLE
MST .DEGC                      5 : MUD SAMPLE TEMPERATURE
RMF .OHMM                    1.0 : RESISTIVITY MUD FILTRATE SAMPLE
MFST.DEGC                     10 : MUD FILTRATE SAMPLE TEMPERATURE
RMC .OHMM                    1.9 : RESISTIVITY MUD CAKE
MCST.DEGC                      5 : MUD CAKE SAMPLE TEMPERATURE
MFSS.                      PRESS : MUD FILTRATE SAMPLE SOURCE
MCSS.                      PRESS : MUD CAKE SAMPLE SOURCE
RMB .OHMM                   0.09 : RESISTIVITY MUD AT BHT
TCS .HRS                    2200 : TIME CIRCULATED STOPPED
TLAB.HRS                     118 : TIME LOGGER AT BOTTOM
LUN .                       8063 : LOGGING UNIT NUMBER
LUL .                       DEER : LOGGING UNIT LOCATION
ENGI.                      DUMBA : RECORDING ENGINEER
WITN.                     GOHMAN : WITNESSED BY
CLNT.                    A2DTECH : CLIENT CODE
ORIG. 6.5"/100M 16.5"/100M PRINT : ORIGIN OF DATA
UWI .           102061003805W500 : UNIQUE WELL ID
DICO.     A2D Technologies, Inc. : DIGITIZING COMPANY
~Other -----------------------------------------------------
PISFL-CND - CBL - BHC LOG RUN
SP PROBLEMATIC BELOW 2500M
BARITE ADDED TO MUD AT LEAST 200 SACS
5% OIL IN MUD
40 KHZ PHASOR EXPERIMENTAL REPEAT PERFORMED
NO CASING CHECK DUE TO CEMENT BONDING
CYCLE SKIPS IN SHALES NOT REPEATED
~ASCII -----------------------------------------------------
# ...
 1450.00000  272.81920  350.95820  272.81920  127.56240    -999.25    -999.25    -999.25    -999.25    -999.25    7.83930    -999.25  282.24450  282.24450   80.90460   65.76600   65.76600  296.98800    7.83930    6.55250    6.55250    -999.25    -999.25    -999.25    -999.25    5.91600    -999.25  -66.55220   -8.77400    5.91600 10322.21130 10200.65600
 1500.00000  374.77490  299.89700  374.77490  145.77470    -999.25    -999.25    -999.25    -999.25    -999.25    6.85990    -999.25  272.25640  272.25640   67.29540   60.44310   60.44310  313.09760    6.85990    5.60890    5.60890    -999.25    -999.25    -999.25    -999.25    5.23810    -999.25  -61.99790   -5.88930    5.23810 10530.47830 10544.00540
 1550.00000  327.32450  285.60350  327.32450  115.24190    -999.25    -999.25    -999.25    -999.25    -999.25    8.67740    -999.25  257.18120  257.18120   75.10340   58.61270   58.61270  306.21590    8.67740    8.24890    8.24890    -999.25    -999.25    -999.25    -999.25    8.75050    -999.25  -59.62080   -5.05730    8.75050 10790.04980 10778.74560
 1600.00000  425.95970  283.71580  425.95970   89.98310    -999.25    -999.25    -999.25    -999.25    -999.25   11.11320    -999.25  263.72790  263.72790  105.56360   86.29930   86.29930  330.93250   11.11320   10.39340   10.39340    -999.25    -999.25    -999.25    -999.25    9.83840    -999.25  -64.37760   -9.92730    9.83840 11035.50890 11088.37920
 1650.00000  292.48970  277.87220  292.48970   84.61310    -999.25    -999.25    -999.25    -999.25    -999.25   11.81850    -999.25  260.02000  260.02000   93.75630   92.92430   92.92430  303.44190   11.81850   11.20920   11.20920    -999.25    -999.25    -999.25    -999.25   10.37200    -999.25  -63.28620   -8.94900   10.37200 11207.79080 11199.74040
 1700.00000  312.61750  278.88780  312.61750   60.66640    -999.25    -999.25    -999.25    -999.25    -999.25   16.48360    -999.25  261.97520  261.97520  118.61400  102.87780  102.87780  289.51260   16.48360   15.80710   15.80710    -999.25    -999.25    -999.25    -999.25   17.36560    -999.25  -61.91960   -7.69560   17.36560 11512.18130 11561.50140
 1750.00000  326.87830  279.05520  326.87830   72.91710    -999.25    -999.25    -999.25    -999.25    -999.25   13.71420    -999.25  250.12230  250.12230  106.17960   95.22060   95.22060  298.49040   13.71420   13.89270   13.89270    -999.25    -999.25    -999.25    -999.25   13.94570    -999.25  -59.73830   -6.05080   13.94570 11593.84750 11548.86260
 1800.00000  518.33090  326.52000  518.33090  123.23920    -999.25    -999.25    -999.25    -999.25    -999.25    8.11430    -999.25  283.89820  283.89820   82.04500   85.46040   85.46040  350.81320    8.11430    7.14740    7.14740    -999.25    -999.25    -999.25    -999.25    7.52840    -999.25  -57.03990   -6.36550    7.52840 11811.03730 11823.72940
 1850.00000  410.14900  296.33950  410.14900   98.95310    -999.25    -999.25    -999.25    -999.25    -999.25   10.10580    -999.25  274.50170  274.50170   84.30160   85.78340   85.78340  331.07770   10.10580    9.17100    9.17100    -999.25    -999.25    -999.25    -999.25    9.39710    -999.25  -52.63200   -4.97060    9.39710 11911.37000 11921.43140
 1900.00000  386.98610  296.92980  386.98610  113.26700    2.94820 1418.47560    -999.25    0.74090    0.75000    8.82870    2.94820  287.80930  287.80930   67.40270   83.40180   83.40180  336.27720    8.82870    7.49530    7.49530    -999.25    0.46810    0.42250 1418.47560    7.88210   79.24720  -50.12040   -5.47200    7.88210 12118.82710 12143.50800
 1950.00000  324.85360  279.00490  324.85360   98.51440  152.78300 2304.70800    -999.25    0.22160    0.24890   10.15080  152.78300  253.15350  253.15350   89.94980   98.15560   98.15560  277.43500   10.15080    9.92580    9.92580    -999.25    0.29770    0.25200 2304.70800    9.52030   98.25800  -49.66520   -8.02980    9.52030 12440.48110 12432.37420
 2000.00000  406.03300  293.53320  406.03300  117.79810   71.79270 1755.63670    -999.25    0.55040    0.56620    8.48910   71.79270  286.46430  286.46430   97.70740   95.62310   95.62310  317.21890    8.48910    7.78720    7.78720    -999.25    0.40770    0.36550 1755.63670    8.02840  103.05160  -47.07380   -8.45150    8.02840 12726.05470 12543.48630
 2050.00000  340.99010  281.66430  340.99010   74.08450  185.05780 2007.97330    -999.25    0.40250    0.42350   13.49810  185.05780  277.33180  277.33180   98.07090  105.59430  105.59430  310.35280   13.49810   11.12520   11.12520    -999.25    0.37860    0.33620 2007.97330   14.21160  117.29340  -39.34870   -3.73940   14.21160 12719.34850 12646.54490
 2100.00000  248.46750  247.39470  248.46750   43.41900  111.23300 2569.68900    -999.25    0.05520    0.08840   23.03140  111.23300  252.41050  252.41050  104.55160  101.23090  101.23090  235.74080   23.03140   21.01910   21.01910    -999.25    0.28250    0.22310 2569.68900   30.75650  110.08270  -42.99830  -10.40200   30.75650 12875.67600 12749.73170
 2150.00000  324.23220  292.42940  324.23220   58.53090  193.35120 2105.48050    -999.25    0.33460    0.35790   17.08500  193.35120  325.03660  325.03660  181.65870  184.19820  184.19820  277.19730   17.08500   16.64630   16.64630    -999.25    0.44470    0.39920 2105.48050   20.85190  197.04840  -36.95240   -7.36910   20.85190 12580.51240 12801.72030
 2200.00000  323.65770  288.50940  323.65770  216.53460   98.18650 2165.78340    -999.25    0.29440    0.31920    4.61820   98.18650  274.65410  274.65410   87.85670   89.92860   89.92860  309.78540    4.61820    4.37670    4.37670    -999.25    0.44300    0.40110 2165.78340    5.56410   88.89060  -33.08730   -4.10980    5.56410 13142.90380 13329.29490
 2250.00000  367.27160  310.11930  367.27160  178.76940  159.83140 2044.91550    -999.25    0.36440    0.38670    5.59380  159.83140  273.72390  273.72390   85.18760   85.03810   85.03810  332.02240    5.59380    5.43990    5.43990    -999.25    0.39010    0.35200 2044.91550    5.84600   84.33980  -33.82350   -4.82730    5.84600 13421.66800 13335.38190
 2300.00000  301.38110  272.61170  301.38110  116.10760   54.01290 2395.92580    -999.25    0.16180    0.19120    8.61270   54.01290  249.86090  249.86090   82.05870   86.68430   86.68430  298.75590    8.61270    7.90410    7.90410    -999.25    0.30200    0.27350 2395.92580    7.48600   85.17570  -33.25000  -13.13590    7.48600 13587.92700 13621.12670
 2350.00000  283.84630  280.29350  283.84630   35.89770    2.32110 2540.93430    -999.25    0.06700    0.09970   27.85690    2.32110  233.39220  233.39220   40.72270   46.23260   46.23260  298.78980   27.85690   27.02470   27.02470    -999.25    0.22000    0.17650 2540.93430   25.92300   47.67970  -70.60610  -64.55690   25.92300 14109.26790 14181.01100
 2400.00000  250.16900  278.90170  250.16900   30.90380   59.38890 2549.72220    -999.25    0.06420    0.09700   32.35850   59.38890  239.11630  239.11630    -999.25   77.96680   77.96680  255.44360   32.35850   25.88160   25.88160    -999.25    0.30260    0.24470 2549.72220   31.27780   76.86930  -60.36730  -68.38300   31.27780 13800.06670 13997.73140
 2450.00000  237.36690  247.83660  237.36690    1.40500    5.80000 2627.45610    0.05280    -999.25    0.05280  711.72630    5.80000  185.65530  185.65530    -999.25   21.56590   21.56590  242.69320  711.72630 1873.75560 1873.75560    0.00600    -999.25    0.00600 2627.45610  506.93880   23.65710   -1.76000  -23.84060  506.93880 14366.14340 14408.27420
 2500.00000  255.42860  344.94640  255.42860    7.97170   20.45420 2736.72920    0.03900    -999.25    0.03900  125.44390   20.45420  180.25790  180.25790    -999.25   25.14160   25.14160  278.78100  125.44390  862.24330  862.24330    0.06400    -999.25    0.07300 2736.72920  115.84730   26.61480  -44.10490  -66.99630  115.84730 14135.91410 14287.05890
 2550.00000  224.76350  288.78490  224.76350    4.30640   69.43350 2679.16500    0.01790    -999.25    0.01790  232.21210   69.43350  186.02230  186.02230    -999.25   25.33880   25.33880  242.87170  232.21210   82.05320   82.05320    0.07910    -999.25    0.07890 2679.16500  211.96690   26.56630  -85.73720 -107.96660  211.96690 14338.54480 14275.23910
