~Version ---------------------------------------------------
VERS.      2.0 : CWLS log ASCII Standard -VERSION 2.0
WRAP.       NO : One line per depth step
CREA. 12/01/17 : LAS Creation Date
~Well ------------------------------------------------------
STRT.FT                        300.0 : START DEPTH
STOP.FT                      17800.0 : STOP DEPTH
STEP.FT                     50.00000 : STEP LENGTH
NULL.                        -999.25 : NULL VALUE
COMP.           BPOG OPERATIONS LTD. : COMPANY
WELL. BP MOBIL CREE ROUGH 4-21-38-12 : WELL
FLD .                                : FIELD
LOC .                                : LOCATION
CTRY.                         CANADA : COUNTRY
SRVC.                   Schlumberger : SERVICE COMPANY
DATE.                    26-Oct-1973 : LOGDATE
PROV.                        Alberta : PROVINCE
UWI .               100042103812W500 : UNIQUE WELL ID
SLAT.WGS84                  52.27739 : SURFACE LATITUDE
SLON.WGS84                 -115.6641 : SURFACE LONGITUDE
~Curve Information -----------------------------------------
DEPT  .FT    : Depth Curve
CALSED.IN    : CALIPER FROM SONIC LOG [ADJ. TO RESISTIVITY LOG]
CALWS .IN    : CALIPER [CALSED]
CILDED.MMHO  : CONDUCTIVITY FROM RESISTIVITY LOG
CONDWS.MMHO  : CONDUCTIVITY [1000/DRESWS]
DRESWS.OHMM  : DEEP RESISTIVITY [ILDED]
DTED  .US/F  : DELTA-T FROM SONIC LOG [ADJ. TO RESISTIVITY LOG]
DTWS  .US/F  : COMPRESSIONAL SONIC [DTED]
GRNED .CU    : GAMMA RAY FROM GRN LOG [ADJ. TO RESISTIVITY LOG]
GRSED .CU    : GAMMA RAY FROM SONIC LOG [ADJ. TO RESISTIVITY LOG]
GRWS  .GAPI  : GAMMA RAY [GRSED] GRWS IN CSG. @ 13195'-13297' @ 10API ADDED
ILDED .OHMM  : DEEP INDUCTION RESISTIVITY FROM RESISTIVITY LOG
ILMED .OHMM  : MEDIUM INDUCTION RESISTIVITY FROM RESISTIVITY LOG
LL8ED .OHMM  : LATEROLOG 8 FROM RESISTIVITY LOG
MRESWS.OHMM  : MEDIUM RESISTIVITY [ILMED]
NEUTED.CU    : NEUTRON FROM GRN LOG [ADJ. TO RESISTIVITY LOG]
NEUTWS.CU    : NEUTRON [NEUTED]
SNED  .OHMM  : SHORT NORMAL RESISTIVITY 16" FROM RESISTIVITY LOG
SPRED .MV    : SPONTANEOUS POTENTIAL FROM RESISTIVITY LOG
SPWS  .MV    : SPONTANEOUS POTENTIAL [BASELINE 0 MV,SPRED]
SRESWS.OHMM  : SHALLOW RESISTIVITY [LL8ED SPL. TO SNED @ 2008']
~Params ----------------------------------------------------
PD  .                     GL : PERMANENT DATUM
EPD .FT                 5371 : ELEVATION PERMANENT DATUM
LMF .                     KB : LOG MEASURED FROM
DAPD.FT                   24 : FEET ABOVE PERMANENT DATUM
EKB .FT                 5395 : KELLY BUSHING
EGL .FT                 5371 : GROUND LEVEL
DATE.               10/26/73 : RUN DATE
RUN .                      2 : RUN NUMBER
DD  .FT                17815 : DEPTH DRILLER
DL  .FT                17792 : DEPTH LOGGER
BLI .FT                17791 : BOTTOM LOG INTERVAL
TLI .FT                13299 : TOP LOG INTERVAL
CBD .FT                13265 : CASING BOTTOM DRILLER
CBL .FT                13299 : CASING BOTTOM LOGGER
BS  .IN                 8.25 : BIT SIZE
BSD .FT                17815 : BIT SIZE AT DEPTH
DFT .               GEL CHEM : DRILLING FLUID TYPE
DFD .                    8.9 : DRILLING FLUID DENSITY
DFV .                     41 : DRILLING FLUID VISCOSITY
DFPH.                    9.5 : DRILLING FLUID PH
DFL .                   11.9 : DRILLING FLUID LOSS
RMS .OHMM               1.05 : RESISTIVITY MUD SAMPLE
MST .DEGF                 72 : MUD SAMPLE TEMPERATURE
RMF .OHMM               0.76 : RESISTIVITY MUD FILTRATE SAMPLE
MFST.DEGF                 70 : MUD FILTRATE SAMPLE TEMPERATURE
RMB .OHMM               0.31 : RESISTIVITY MUD AT BHT
TCS .HRS                   5 : TIME CIRCULATED STOPPED
LUN .                   7640 : LOGGING UNIT NUMBER
LUL .                     RD : LOGGING UNIT LOCATION
ENGI.           NIXON KOVACS : RECORDING ENGINEER
WITN.      WILLIAMS COSTELLO : WITNESSED BY
CLNT.                A2DTECH : CLIENT CODE
ORIG.            2" 5" PRINT : ORIGIN OF DATA
UWI .       100042103812W500 : UNIQUE WELL ID
DICO. A2D Technologies, Inc. : DIGITIZING COMPANY
~Other -----------------------------------------------------
DIL-IEL-BHC-GRN LOG RUN.
SNED MISSING IN SEVERAL DEPTH AS PER PRINT.
~ASCII -----------------------------------------------------
  300.00000   14.84830   14.84830    -999.25   38.26180   26.13570   66.32020   66.32020    -999.25   35.79880   35.79880   26.13570   48.51600  110.11100   48.51600    -999.25    -999.25    -999.25  -90.27970  -11.76200  110.11100
  350.00000   14.85850   14.85850    -999.25   53.68320   18.62780   93.67910   93.67910    -999.25   54.43360   54.43360   18.62780   20.78460   39.03990   20.78460    -999.25    -999.25    -999.25  -82.71840   -6.44460   39.03990
  400.00000   14.86020   14.86020    -999.25   38.75460   25.80340   77.57020   77.57020    -999.25   44.25500   44.25500   25.80340   39.52620   74.35900   39.52620    -999.25    -999.25    -999.25  -80.68900   -6.65910   74.35900
  450.00000   14.84560   14.84560    -999.25   39.51020   25.30990   80.10110   80.10110    -999.25   22.27080   22.27080   25.30990   57.65530   90.54700   57.65530    -999.25    -999.25    -999.25  -85.40830  -13.63340   90.54700
  500.00000   14.85640   14.85640    -999.25   43.00480   23.25320   77.63000   77.63000    -999.25   55.18960   55.18960   23.25320   33.80540   47.92420   33.80540    -999.25    -999.25    -999.25  -71.82500   -2.28280   47.92420
  550.00000   14.78600   14.78600    -999.25   43.60450   22.93340   75.57200   75.57200    -999.25   67.55850   67.55850   22.93340   49.07750   76.52250   49.07750    -999.25    -999.25    -999.25  -79.57980   -9.63480   76.52250
  600.00000   11.66700   11.66700    -999.25   36.74080   27.21770   77.46380   77.46380    -999.25   19.79720   19.79720   27.21770   59.93440  188.67850   59.93440    -999.25    -999.25    -999.25  -96.17870  -25.80330  188.67850
  650.00000   12.02870   12.02870    -999.25   34.89350   28.65860   75.64790   75.64790    -999.25   26.76940   26.76940   28.65860   73.51250  317.81320   73.51250    -999.25    -999.25    -999.25  -91.08690  -24.34270  317.81320
  700.00000   13.32060   13.32060    -999.25   45.70910   21.87750   77.18500   77.18500    -999.25   56.51010   56.51010   21.87750   46.75040   96.23570   46.75040    -999.25    -999.25    -999.25  -82.81420  -19.71940   96.23570
  750.00000   13.47990   13.47990    -999.25   46.10310   21.69050   80.81130   80.81130    -999.25   54.73450   54.73450   21.69050   40.45580   74.63900   40.45580    -999.25    -999.25    -999.25  -82.74360  -23.26190   74.63900
  800.00000   14.11790   14.11790    -999.25   51.38610   19.46050   87.06620   87.06620    -999.25   98.08340   98.08340   19.46050   31.56790   61.62000   31.56790    -999.25    -999.25    -999.25  -71.51350  -15.66310   61.62000
  850.00000   14.83730   14.83730    -999.25   45.21650   22.11580   89.49320   89.49320    -999.25   81.15620   81.15620   22.11580   27.42560   42.16330   27.42560    -999.25    -999.25    -999.25  -65.82460  -13.60540   42.16330
  900.00000   11.91340   11.91340    -999.25   46.61940   21.45030   76.42540   76.42540    -999.25   30.83600   30.83600   21.45030   43.89010   94.92860   43.89010    -999.25    -999.25    -999.25  -64.42590  -15.83800   94.92860
  950.00000   12.25100   12.25100    -999.25   45.91910   21.78290  100.92230  100.92230    -999.25   86.10890   86.10890   21.78290   30.68510   56.79420   30.68510    -999.25    -999.25    -999.25  -50.09530   -3.65220   56.79420
 1000.00000   11.75680   11.75680    -999.25   27.01370   37.01820   57.30600   57.30600    -999.25   19.62930   19.62930   37.01820   86.78940  813.51550   86.78940    -999.25    -999.25    -999.25  -86.64030  -39.58230  813.51550
 1050.00000   11.71230   11.71230    -999.25   28.71290   34.82760   54.77940   54.77940    -999.25   10.82410   10.82410   34.82760   90.94860  806.68100   90.94860    -999.25    -999.25    -999.25  -80.70650  -33.03050  806.68100
 1100.00000   11.98740   11.98740    -999.25   54.45700   18.36310   55.72470   55.72470    -999.25   47.71170   47.71170   18.36310   36.80590  166.30350   36.80590    -999.25    -999.25    -999.25  -57.81060   -9.51670  166.30350
 1150.00000   11.26280   11.26280    -999.25   34.05810   29.36160   61.86730   61.86730    -999.25   10.82030   10.82030   29.36160   65.97660  242.87620   65.97660    -999.25    -999.25    -999.25  -76.77810  -28.12600  242.87620
 1200.00000   11.56460   11.56460    -999.25   35.51610   28.15630   54.58680   54.58680    -999.25   21.02290   21.02290   28.15630   68.70690  336.72620   68.70690    -999.25    -999.25    -999.25  -72.79050  -23.42800  336.72620
 1250.00000   11.25810   11.25810    -999.25   39.63660   25.22920   56.92430   56.92430    -999.25   13.86230   13.86230   25.22920   57.26290  228.62950   57.26290    -999.25    -999.25    -999.25  -74.51820  -24.45240  228.62950
 1300.00000   11.48840   11.48840    -999.25   28.16640   35.50330   47.04660   47.04660    -999.25   16.06100   16.06100   35.50330   88.20360 1000.04940   88.20360    -999.25    -999.25    -999.25  -76.07830  -25.30560 1000.04940
 1350.00000   11.69120   11.69120    -999.25   37.08900   26.96220   51.27130   51.27130    -999.25   15.70430   15.70430   26.96220   63.54340  664.39930   63.54340    -999.25    -999.25    -999.25  -77.60210  -26.12250  664.39930
 1400.00000   11.57390   11.57390    -999.25   42.85680   23.33350   70.46910   70.46910    -999.25   60.30350   60.30350   23.33350   44.95710  108.94940   44.95710    -999.25    -999.25    -999.25  -68.24880  -16.06240  108.94940
 1450.00000   11.63240   11.63240    -999.25   47.91750   20.86970   71.57730   71.57730    -999.25   46.43220   46.43220   20.86970   36.27940   70.75440   36.27940    -999.25    -999.25    -999.25  -56.53690   -3.64010   70.75440
 1500.00000   11.17330   11.17330    -999.25   38.16330   26.20320   59.13960   59.13960    -999.25   28.02270   28.02270   26.20320   55.62940  216.18250   55.62940    -999.25    -999.25    -999.25  -61.86790  -12.31580  216.18250
 1550.00000   11.54120   11.54120    -999.25   22.24230   44.95940   49.58090   49.58090    -999.25   17.76120   17.76120   44.95940  114.42490 1310.58590  114.42490    -999.25    -999.25    -999.25  -82.81920  -38.34580 1310.58590
 1600.00000   11.42240   11.42240    -999.25   27.91070   35.82850   52.03330   52.03330    -999.25    9.09020    9.09020   35.82850   96.19290 1280.53050   96.19290    -999.25    -999.25    -999.25  -74.72930  -35.33470 1280.53050
 1650.00000   11.50020   11.50020    -999.25   30.50490   32.78160   50.81400   50.81400    -999.25    9.19760    9.19760   32.78160   92.76280  931.68640   92.76280    -999.25    -999.25    -999.25  -78.48010  -44.16430  931.68640
 1700.00000   11.55090   11.55090    -999.25   32.67960   30.60020   53.07670   53.07670    -999.25   12.62590   12.62590   30.60020   84.37330  746.78280   84.37330    -999.25    -999.25    -999.25  -78.32370  -49.11200  746.78280
 1750.00000   11.10350   11.10350    -999.25   42.12280   23.74010   54.37150   54.37150    -999.25   11.98300   11.98300   23.74010   58.56870  191.99700   58.56870    -999.25    -999.25    -999.25  -63.29910  -39.14080  191.99700
 1800.00000   11.45850   11.45850    -999.25   31.95400   31.29500   50.32200   50.32200    -999.25   42.43800   42.43800   31.29500   88.44390  951.89240   88.44390    -999.25    -999.25    -999.25  -48.63900  -29.55950  951.89240
 1850.00000   11.46490   11.46490    -999.25   30.09850   33.22430   50.20410   50.20410    -999.25   23.45380   23.45380   33.22430   87.75870 1119.99910   87.75870    -999.25    -999.25    -999.25  -36.75990  -22.75920 1119.99910
 1900.00000   11.46380   11.46380    -999.25   32.22930   31.02770   50.91810   50.91810    -999.25   31.07350   31.07350   31.02770   96.12590 1277.57430   96.12590    -999.25    -999.25    -999.25  -35.75600  -26.83400 1277.57430
 1950.00000   11.46140   11.46140    -999.25   32.14600   31.10840   51.35080   51.35080    -999.25   15.85440   15.85440   31.10840   85.63950  936.98380   85.63950    -999.25    -999.25    -999.25  -21.54330  -16.57520  936.98380
 2000.00000   11.40910   11.40910    -999.25   37.63300   26.57240   56.74340   56.74340    -999.25   25.66480   25.66480   26.57240   60.39280  184.82220   60.39280    -999.25    -999.25    -999.25  -25.82010  -20.75580  184.82220
