~Version ---------------------------------------------------
VERS.      2.0 : CWLS log ASCII Standard -VERSION 2.0
WRAP.       NO : One line per depth step
CREA. 11/20/17 : LAS Creation Date
~Well ------------------------------------------------------
STRT.FT                  850.0 : START DEPTH
STOP.FT                 8000.0 : STOP DEPTH
STEP.FT               50.00000 : STEP LENGTH
NULL.                  -999.25 : NULL VALUE
COMP.     IMPERIAL OIL LIMITED : COMPANY
WELL. IMP IROQUOIS 10-21-75-19 : WELL
FLD .                          : FIELD
LOC .                          : LOCATION
CTRY.                   CANADA : COUNTRY
SRVC.             Schlumberger : SERVICE COMPANY
DATE.              06-Jan-1962 : LOGDATE
PROV.                  Alberta : PROVINCE
UWI .         100102107519W500 : UNIQUE WELL ID
SLAT.WGS84            55.51402 : SURFACE LATITUDE
SLON.WGS84           -116.8811 : SURFACE LONGITUDE
~Curve Information -----------------------------------------
DEPT  .FT         : Depth Curve
CALSED.IN         : CALIPER FROM SONIC LOG [ADJ. TO RESISTIVITY LOG]
CALWS .IN         : CALIPER [CALSED]
CILDED.MMHO       : CONDUCTIVITY FROM RESISTIVITY LOG
CONDWS.MMHO       : CONDUCTIVITY [1000/DRESWS]
DRESWS.OHMM       : DEEP RESISTIVITY [1000/CILDED IF ILDED <=2.5, ILDED]
DT1ED .US/F       : DELTA TIME SPACING 3' PICKUP SPAN 1'FROM SONIC LOG [ADJ. TO RESISTIVITY LOG]
DTED  .US/F       : DELTA TIME SPACING 3' PICKUP SPAN 3'FROM SONIC LOG [ADJ. TO RESISTIVITY LOG]
DTWS  .US/F       : COMPRESSIONAL SONIC [DTED]
GRSED .UgRa-Eq/T  : GAMMA RAY FROM SONIC LOG [ADJ. TO RESISTIVITY LOG]
GRWS  .GAPI       : GAMMA RAY [GRSED, CONVERTED TO GAPI UNIT *16.5]
ILDED .OHMM       : DEEP INDUCTION  RESISTIVITY FROM RESISTIVITY LOG
SNED  .OHMM       : SHORT NORMAL 16" RESISTIVITY FROM RESISTIVITY LOG
SPRED .MV         : SPONTANEOUS POTENTIAL FROM RESISTIVITY LOG
SPWS  .MV         : SPONTANEOUS POTENTIAL [BASELINE 0 MV, SPRED]
SRESWS.OHMM       : SHALLOW RESISTIVITY [SNED]
~Params ----------------------------------------------------
PD  .                     GL : PERMANENT DATUM
EPD .FT               2116.7 : ELEVATION PERMANENT DATUM
LMF .                     KB : LOG MEASURED FROM
DAPD.FT                 12.3 : FEET ABOVE PERMANENT DATUM
DMF .                     KB : DRILLING MEASURED FROM
EKB .FT                 2129 : KELLY BUSHING
EGL .FT               2116.7 : GROUND LEVEL
DATE.               01/06/62 : RUN DATE
RUN .                      1 : RUN NUMBER
DD  .FT                 8030 : DEPTH DRILLER
DL  .FT                 8036 : DEPTH LOGGER
BLI .FT                 8031 : BOTTOM LOG INTERVAL
TLI .FT                  854 : TOP LOG INTERVAL
CBD .FT                  856 : CASING BOTTOM DRILLER
CBL .FT                  854 : CASING BOTTOM LOGGER
BS  .IN                 8.75 : BIT SIZE
BSD .FT                 8030 : BIT SIZE AT DEPTH
DFT .                    GEL : DRILLING FLUID TYPE
DFD .                   10.1 : DRILLING FLUID DENSITY
DFV .                     66 : DRILLING FLUID VISCOSITY
DFPH.                     10 : DRILLING FLUID PH
DFL .                    9.6 : DRILLING FLUID LOSS
RMS .OHMM                  2 : RESISTIVITY MUD SAMPLE
MST .DEGF                 40 : MUD SAMPLE TEMPERATURE
RMF .OHMM                1.2 : RESISTIVITY MUD FILTRATE SAMPLE
MFST.DEGF                 60 : MUD FILTRATE SAMPLE TEMPERATURE
RMC .OHMM                3.1 : RESISTIVITY MUD CAKE
MCST.DEGF                 60 : MUD CAKE SAMPLE TEMPERATURE
TCS .HRS                   3 : TIME CIRCULATED STOPPED
LUN .                   1511 : LOGGING UNIT NUMBER
LUL .                     DC : LOGGING UNIT LOCATION
ENGI.                PRATHER : RECORDING ENGINEER
WITN.                RAE ROY : WITNESSED BY
CLNT.                A2DTECH : CLIENT CODE
ORIG.            2" 5" PRINT : ORIGIN OF DATA
UWI .       100102107519W500 : UNIQUE WELL ID
DICO. A2D Technologies, Inc. : DIGITIZING COMPANY
~Other -----------------------------------------------------
IEL-BHC TOOLS RUN
DATA FROM 2" LOG
~ASCII -----------------------------------------------------
# ...
 5450.00000    -999.25    -999.25  151.11230  148.01220    6.75620    -999.25   69.51170   69.51170    4.07970   67.31500    6.75620    9.42260  -36.86920  -13.85740    9.42260
 5500.00000   12.87240   12.87240  355.39950  355.39950    2.81370   97.19550  104.78290  104.78290    5.61140   92.58810    3.12130    4.59660  -48.55200  -23.09580    4.59660
 5550.00000    9.99220    9.99220   28.32480   26.32060   37.99300   56.17930   55.33220   55.33220    1.85130   30.54650   37.99300   42.44260  -37.73470   -3.14070   42.44260
 5600.00000    9.55190    9.55190   21.60980   16.70200   59.87290   56.30610   55.22460   55.22460    1.35780   22.40370   59.87290   54.90450  -95.18230  -60.81330   54.90450
 5650.00000   10.04010   10.04010    7.86250    4.81220  207.80400   53.10890   52.64200   52.64200    1.33890   22.09190  207.80400   78.50350  -70.08070  -35.93670   78.50350
 5700.00000    9.96870    9.96870    9.41840    6.50940  153.62370   53.26920   52.73670   52.73670    1.32120   21.79980  153.62370   71.65590  -87.45290  -53.53380   71.65590
 5750.00000    9.88770    9.88770    8.42760    4.15100  240.90690   51.06000   51.49250   51.49250    1.27900   21.10350  240.90690   80.10000  -87.43960  -53.74550   80.10000
 5800.00000    9.88490    9.88490    7.12200    2.66750  374.87610   50.85510   49.77150   49.77150    1.45010   23.92660  374.87610   89.62410 -101.30570  -67.83660   89.62410
 5850.00000   10.43870   10.43870   17.17560   12.75790   78.38270   56.54390   53.50530   53.50530    1.32890   21.92680   78.38270   65.53920 -134.56660 -101.32250   65.53920
 5900.00000    9.58570    9.58570   18.72150   14.68230   68.10900   52.87330   56.98980   56.98980    1.39410   23.00260   68.10900   60.81870 -111.33780  -78.31870   60.81870
 5950.00000    8.09130    8.09130   27.05870   25.41500   39.34680   53.08750   55.97680   55.97680    1.55080   25.58820   39.34680   64.66780 -133.71080 -100.91660   64.66780
 6000.00000    9.78420    9.78420    8.77400    4.55070  219.74530   49.59210   52.86760   52.86760    1.39340   22.99110  219.74530   98.68280 -106.62210  -74.05290   98.68280
 6050.00000    9.56500    9.56500   20.05880   14.60270   68.48050   49.63190   52.69920   52.69920    1.31730   21.73550   68.48050   64.93410 -106.66790  -74.32370   64.93410
 6100.00000    9.89870    9.89870   11.81570    9.21020  108.57580   50.36540   52.56250   52.56250    1.26370   20.85110  108.57580   68.41920 -103.15410  -71.03490   68.41920
 6150.00000    9.53640    9.53640    0.00000    2.00000  500.00000   48.37210   51.46520   51.46520    1.73530   28.63250  500.00000  123.26300  -98.68050  -66.78630  123.26300
 6200.00000    9.74200    9.74200    0.00000    2.00000  500.00000   47.66540   50.28450   50.28450    1.23600   20.39400  500.00000  206.78530 -110.64270  -78.97350  206.78530
 6250.00000    9.06940    9.06940    0.00000    2.00000  500.00000   47.23410   50.11020   50.11020    4.54820   75.04530  500.00000  141.08450 -114.19670  -82.75240  141.08450
 6300.00000    8.86320    8.86320   25.58610   23.08610   43.31610   51.30870   52.19650   52.19650    1.03220   17.03130   43.31610   69.69030 -191.88560 -160.66630   69.69030
 6350.00000    8.43010    8.43010   22.34380   14.01930   71.33020   53.03650   51.86170   51.86170    1.89470   31.26260   71.33020   67.59050 -127.90670  -96.91240   67.59050
 6400.00000    8.45920    8.45920   88.52490   66.43640   15.05200   52.89810   49.43490   49.43490    1.76300   29.08950   15.05200   42.28810 -112.77600  -82.00670   42.28810
 6450.00000    8.93110    8.93110    8.40080    4.12410  242.47660   48.44040   50.47470   50.47470    1.37170   22.63300  242.47660   95.22390 -108.41810  -77.87380   95.22390
 6500.00000    8.80510    8.80510   13.83750    6.90190  144.88770   49.98920   48.88180   48.88180    1.82740   30.15210  144.88770   66.00180  -84.51410  -54.19470   66.00180
 6550.00000    8.79990    8.79990   11.20840    8.17630  122.30420   53.76670   52.56640   52.56640    1.99530   32.92240  122.30420   59.14830  -51.03410  -20.93970   59.14830
 6600.00000    8.83760    8.83760    7.46300    2.58440  386.93840   52.20750   51.08370   51.08370    1.33950   22.10090  386.93840   76.95690  -70.38110  -43.31840   76.95690
 6650.00000    8.98430    8.98430   32.15370   32.27360   30.98510   53.28810   56.13740   56.13740    2.09580   34.58070   30.98510   30.78040  -26.90710   -4.52450   30.78040
 6700.00000    9.01440    9.01440  147.82830  148.53990    6.73220   81.56980   77.85230   77.85230    3.94810   65.14450    6.73220    9.91270  -31.37390  -10.70940    9.91270
 6750.00000   10.59000   10.59000  161.35760  162.42200    6.15680   80.59040   79.87520   79.87520    3.86830   63.82700    6.15680    9.14240  -33.83390  -12.99380    9.14240
 6800.00000    -999.25    -999.25  284.85590  284.85590    3.51050    -999.25   90.73830   90.73830    4.49670   74.19560    3.49330    5.61190  -44.81640  -23.80070    5.61190
 6850.00000    -999.25    -999.25  263.20240  251.85740    3.97050    -999.25   85.58500   85.58500    5.74090   94.72490    3.97050    5.45230  -37.99810  -16.80680    5.45230
 6900.00000    -999.25    -999.25  234.76710  228.48260    4.37670    -999.25   84.99790   84.99790    5.61810   92.69950    4.37670    5.78660  -42.32050  -20.95360    5.78660
 6950.00000    -999.25    -999.25  165.07320  164.78270    6.06860    -999.25   80.43910   80.43910    4.58610   75.67060    6.06860    7.37780  -40.82910  -19.28670    7.37780
 7000.00000    -999.25    -999.25  201.15900  199.47340    5.01320    -999.25   83.34570   83.34570    5.07800   83.78700    5.01320    6.66360  -44.87290  -23.15490    6.66360
 7050.00000    -999.25    -999.25  212.33380  204.26510    4.89560    -999.25   84.69070   84.69070    4.84610   79.95980    4.89560    6.62890  -49.39940  -27.50580    6.62890
 7100.00000    -999.25    -999.25  235.81470  230.62730    4.33600    -999.25   87.05130   87.05130    5.29880   87.43020    4.33600    6.07410  -52.08640  -30.01720    6.07410
 7150.00000    -999.25    -999.25  216.63490  209.23570    4.77930    -999.25   86.16570   86.16570    4.49290   74.13280    4.77930    6.59640  -45.93670  -23.69190    6.59640
 7200.00000    -999.25    -999.25  254.74650  251.99070    3.96840    -999.25   91.43780   91.43780    4.92220   81.21630    3.96840    5.95580  -44.12780  -21.70740    5.95580
 7250.00000    -999.25    -999.25  153.80620  151.36610    6.60650    -999.25   86.19830   86.19830    5.29960   87.44340    6.60650    9.89210  -37.81190  -15.21590    9.89210
 7300.00000    -999.25    -999.25   81.15720   79.19410   12.62720    -999.25   70.87350   70.87350    4.24670   70.07050   12.62720   17.54950  -29.61000   -6.83840   17.54950
 7350.00000    -999.25    -999.25   63.31150   63.87370   15.65590    -999.25   66.21830   66.21830    3.09590   51.08230   15.65590   20.66380  -26.02350   -2.88220   20.66380
 7400.00000    -999.25    -999.25   68.63250   66.89590   14.94860    -999.25   66.74990   66.74990    4.92290   81.22870   14.94860   19.74440  -28.04620   -3.43510   19.74440
 7450.00000    -999.25    -999.25  121.52560  122.47400    8.16500    -999.25   76.96420   76.96420    5.46280   90.13620    8.16500   10.86220  -43.06080  -16.97990   10.86220
 7500.00000    -999.25    -999.25  129.00210  132.34690    7.55590    -999.25   78.65910   78.65910    5.30540   87.53910    7.55590   10.78040  -47.22060  -19.66990   10.78040
 7550.00000    -999.25    -999.25   44.05200   43.06220   23.22220    -999.25   79.99210   79.99210    5.73800   94.67700   23.22220   32.09850  -32.47360   -3.61720   32.09850
 7600.00000    -999.25    -999.25  114.18220  105.51420    9.47740    -999.25   71.01860   71.01860    4.53030   74.75000    9.47740   14.92660  -43.21060  -14.14730   14.92660
 7650.00000    -999.25    -999.25   81.59430   73.51700   13.60230    -999.25   63.93180   63.93180    3.88220   64.05630   13.60230   22.22750  -34.63840   -5.36810   22.22750
 7700.00000    8.93000    8.93000   64.12700   62.72540   15.94250   60.65260   62.00900   62.00900    2.94150   48.53480   15.94250   20.49400  -31.84030   -2.36310   20.49400
