~Version ---------------------------------------------------
VERS.      2.0 : CWLS log ASCII Standard -VERSION 2.0
WRAP.       NO : One line per depth step
CREA. 01/03/18 : LAS Creation Date
~Well ------------------------------------------------------
STRT.FT                          300.0 : START DEPTH
STOP.FT                         7500.0 : STOP DEPTH
STEP.FT                       50.00000 : STEP LENGTH
NULL.                          -999.25 : NULL VALUE
COMP.             IMPERIAL OIL LIMITED : COMPANY
WELL.  IMP-BAYSEL RIVERDALE 1-27-60-26 : WELL
FLD .                                  : FIELD
LOC .                                  : LOCATION
CTRY.                           CANADA : COUNTRY
SRVC. Schlumberger Well Surveying Corp : SERVICE COMPANY
DATE.                      11-Feb-1956 : LOGDATE
PROV.                          Alberta : PROVINCE
UWI .                 100012706026W400 : UNIQUE WELL ID
SLAT.WGS84                    54.21217 : SURFACE LATITUDE
SLON.WGS84                   -113.8027 : SURFACE LONGITUDE
~Curve Information -----------------------------------------
DEPT  .FT     : Depth Curve
CALWS .IN     : CALIPER [MCALED]
CONDWS.MMHO   : CONDUCTIVITY [1000/DRESWS]
DRESWS.OHMM   : DEEP RESISTIVITY [MERGED LNED/LL7ED AT 5848']
GRNED .MR/HR  : GAMMA RAY FROM GRN LOG
GRWS  .GAPI   : GAMMA RAY [GRNED] CONVERTED SCALE *10.4API
LL7ED .OHMM   : LATEROLOG 7
LNED  .OHMM   : 64 INCH LONG NORMAL RESISTIVITY FROM IEL
LT18ED.OHMM   : 18 FOOT 8 INCH LATERAL RESISTIVITY FROM EL LOG
MCALED.IN     : MICROCALIPER
NEUTED.CU     : NEUTRON FROM NEUTRON LOG [DEPTH ADJ TO RESISTIVITY]
NEUTWS.CU     : NEUTRON [NEUTED]
SNED  .OHMM   : 16 INCH SHORT NORMAL RESISTIVITY FROM IEL
SPRED .MV     : SPONTANEOUS POTENTIAL FROM RESISTIVITY LOG
SPWS  .MV     : SPONTANEOUS POTENTIAL [BASELINE 0 MV] [SPRED]
SRESWS.OHMM   : SHALLOW RESISTIVITY [SNED]
~Params ----------------------------------------------------
LMF .                     KB : LOG MEASURED FROM
DMF .                     KB : DRILLING MEASURED FROM
EKB .FT               2132.6 : KELLY BUSHING
EGL .FT               2118.5 : GROUND LEVEL
DATE.               02/11/56 : RUN DATE
RUN .                      1 : RUN NUMBER
DD  .FT                 7518 : DEPTH DRILLER
DL  .FT                 7519 : DEPTH LOGGER
BLI .FT                 7516 : BOTTOM LOG INTERVAL
TLI .FT                 5700 : TOP LOG INTERVAL
CBD .FT                  616 : CASING BOTTOM DRILLER
CBL .FT                  614 : CASING BOTTOM LOGGER
BS  .IN                    9 : BIT SIZE
BSD .FT                 7518 : BIT SIZE AT DEPTH
DFT .               GYP BASE : DRILLING FLUID TYPE
DFD .                   10.2 : DRILLING FLUID DENSITY
DFV .                    108 : DRILLING FLUID VISCOSITY
DFL .                    4.2 : DRILLING FLUID LOSS
MSS .               FLOWLINE : MUD SAMPLE SOURCE
RMS .OHMM               0.14 : RESISTIVITY MUD SAMPLE
MST .DEGF                 51 : MUD SAMPLE TEMPERATURE
RMB .OHMM                0.5 : RESISTIVITY MUD AT BHT
TCS .HRS                  12 : TIME CIRCULATED STOPPED
LUN .                   2794 : LOGGING UNIT NUMBER
LUL .                    EDM : LOGGING UNIT LOCATION
ENGI.                  JAMES : RECORDING ENGINEER
WITN.                  BLAND : WITNESSED BY
CLNT.                A2DTECH : CLIENT CODE
ORIG.            2" 5" PRINT : ORIGIN OF DATA
UWI .       100012706026W400 : UNIQUE WELL ID
DICO. A2D Technologies, Inc. : DIGITIZING COMPANY
~Other -----------------------------------------------------
~ASCII -----------------------------------------------------
# ...
 2600.00000    -999.25  187.95230    5.32050    6.62370   68.88650    -999.25    5.32050    3.64500    -999.25  409.54210  409.54210    9.40780  -87.69860  -48.77070    9.40780
 2650.00000    -999.25  131.89310    7.58190    8.70240   90.50500    -999.25    7.58190   15.05490    -999.25  402.03300  402.03300   10.60470  -66.23650  -27.44130   10.60470
 2700.00000    -999.25  244.86330    4.08400    7.61240   79.16900    -999.25    4.08400    3.93540    -999.25  453.12060  453.12060    9.32520  -95.77580  -57.11400    9.32520
 2750.00000    -999.25  127.45840    7.84570    7.34050   76.34120    -999.25    7.84570    4.43440    -999.25  483.33830  483.33830   13.45290 -100.96250  -62.43270   13.45290
 2800.00000    -999.25  221.73930    4.50980    7.84110   81.54740    -999.25    4.50980    3.21970    -999.25  464.36420  464.36420    9.97530  -98.95530  -60.55810    9.97530
 2850.00000    -999.25  203.61620    4.91120   10.71320  111.41730    -999.25    4.91120    5.97360    -999.25  255.86200  255.86200    5.99970  -53.29580  -15.03130    5.99970
 2900.00000    -999.25  161.63440    6.18680    8.79010   91.41700    -999.25    6.18680    7.57930    -999.25  267.03510  267.03510    6.43360  -54.91380  -16.78200    6.43360
 2950.00000    -999.25  232.12110    4.30990    8.08140   84.04660    -999.25    4.30990    4.81260    -999.25  288.13910  288.13910    5.98060  -66.89120  -28.89270    5.98060
 3000.00000    9.86720  208.72030    4.79110    8.12240   84.47300    -999.25    4.79110    5.69390    9.86720  452.98360  452.98360    6.93970  -55.36840  -17.50190    6.93970
 3050.00000    8.72520  246.63950    4.05450    5.07450   52.77480    -999.25    4.05450    6.56220    8.72520  517.79200  517.79200    6.50040 -116.61950  -78.88570    6.50040
 3100.00000    9.25000  161.53780    6.19050    8.73520   90.84610    -999.25    6.19050    8.05860    9.25000  353.63280  353.63280    9.90160  -47.29640   -9.69530    9.90160
 3150.00000    8.62940  186.69600    5.35630    7.17100   74.57840    -999.25    5.35630    4.84570    8.62940  451.00720  451.00720   10.68150 -109.67260  -72.20420   10.68150
 3200.00000    9.02630  212.27240    4.71110    9.12880   94.93950    -999.25    4.71110    4.34820    9.02630  408.15510  408.15510    9.78570  -75.87050  -38.53540    9.78570
 3250.00000    8.51740  420.43300    2.37850    6.84110   71.14740    -999.25    2.37850    1.78320    8.51740  363.59420  363.59420    2.50230 -123.01300  -85.80990    2.50230
 3300.00000    8.60430   36.72870   27.22670    2.07520   21.58210    -999.25   27.22670   34.06180    8.60430  690.27240  690.27240   29.15240 -114.16880  -77.09840   29.15240
 3350.00000    8.54150   65.96350   15.15990    3.10790   32.32220    -999.25   15.15990    9.50120    8.54150  472.80080  472.80080   19.01970 -122.09440  -85.15670   19.01970
 3400.00000    -999.25  115.46680    8.66050    2.37070   24.65530    -999.25    8.66050    3.71920    -999.25  553.48590  553.48590   16.55180 -125.22040  -88.41540   16.55180
 3450.00000    -999.25   54.55100   18.33460    1.99870   20.78650    -999.25   18.33460    8.26850    -999.25  606.20340  606.20340   22.74820 -125.90580  -89.23410   22.74820
 3500.00000    -999.25   72.56310   13.78110    2.16840   22.55140    -999.25   13.78110   20.21580    -999.25  505.72970  505.72970   18.03400 -124.08340  -87.54370   18.03400
 3550.00000    -999.25  128.81290    7.76320    2.59210   26.95780    -999.25    7.76320    4.92150    -999.25  502.26830  502.26830   15.42300 -125.13960  -88.73260   15.42300
 3600.00000    -999.25   62.78210   15.92810    3.57330   37.16230    -999.25   15.92810    4.35380    -999.25  459.08980  459.08980   20.37820 -123.72050  -87.44620   20.37820
 3650.00000    -999.25   67.56990   14.79950    2.67700   27.84080    -999.25   14.79950    3.82740    -999.25  494.15550  494.15550   19.71450 -126.42650  -90.28480   19.71450
 3700.00000    -999.25   43.76470   22.86660    4.14980   43.15790    -999.25   22.86660    7.95640    -999.25  625.21320  625.21320   32.52040 -116.66930  -80.66100   32.52040
 3750.00000    -999.25   43.27070   23.11030    3.61540   37.60020    -999.25   23.11030    8.51130    -999.25  531.28740  531.28740   23.50580 -118.81020  -82.93390   23.50580
 3800.00000   12.11440  146.68780    6.81720    8.46950   88.08280    -999.25    6.81720   10.66330   12.11440  394.82650  394.82650    7.68070  -62.18800  -26.44440    7.68070
 3850.00000    8.46630  194.62070    5.13820    6.49070   67.50330    -999.25    5.13820    3.33710    8.46630  458.35840  458.35840   12.13000 -116.48070  -80.86970   12.13000
 3900.00000    8.96930  149.99030    6.66710    8.20500   85.33200    -999.25    6.66710    2.64040    8.96930  341.68230  341.68230    7.50870  -65.29660  -29.81830    7.50870
 3950.00000    -999.25   68.08770   14.68700    6.95650   72.34760    -999.25   14.68700   11.84270    -999.25  478.96270  478.96270   14.10320  -48.80990  -13.46500   14.10320
 4000.00000    -999.25   15.89900   62.89700    5.81840   60.51140    -999.25   62.89700   49.61830    -999.25  842.96270  842.96270   35.11530  -52.71270  -17.49980   35.11530
 4050.00000    -999.25   13.28520   75.27180    4.74160   49.31260    -999.25   75.27180   42.88500    -999.25 1051.86240 1051.86240   50.29980  -52.58570  -17.50540   50.29980
 4100.00000    -999.25   37.99770   26.31740    6.61320   68.77730    -999.25   26.31740   21.19580    -999.25  818.49020  818.49020   22.45940  -45.64930  -10.70170   22.45940
 4150.00000    -999.25   38.20600   26.17390    6.04440   62.86180    -999.25   26.17390   49.05390    -999.25  723.22930  723.22930   22.51020  -44.08720   -9.27230   22.51020
 4200.00000    -999.25  145.95470    6.85210   10.08720  104.90640    -999.25    6.85210    7.97840    -999.25  297.94020  297.94020    7.46490  -47.78370  -13.10220    7.46490
 4250.00000    -999.25  187.44850    5.33480    9.66880  100.55550    -999.25    5.33480    5.32700    -999.25  319.12050  319.12050    5.56950  -52.38320  -17.83360    5.56950
 4300.00000    -999.25   82.06210   12.18590    6.38150   66.36710    -999.25   12.18590    5.84380    -999.25  706.46560  706.46560   15.79120  -39.41800   -5.00110   15.79120
 4350.00000    -999.25   73.22090   13.65730    7.08880   73.72350    -999.25   13.65730   12.43340    -999.25  580.97610  580.97610   13.08310  -39.20370   -4.91950   13.08310
 4400.00000    -999.25  156.54350    6.38800    9.28900   96.60560    -999.25    6.38800    6.11660    -999.25  362.22020  362.22020    6.72810  -44.56700  -10.41550    6.72810
 4450.00000    -999.25   28.05350   35.69610    5.02400   52.24910    -999.25   35.69610   12.80730    -999.25 1007.44940 1007.44940   32.19650  -41.75670   -7.73860   32.19650
 4500.00000    -999.25   48.22880   20.73450    6.17910   64.26260    -999.25   20.73450    9.05030    -999.25  792.42500  792.42500   15.82860  -37.51110   -3.62490   15.82860
 4550.00000    -999.25   14.63100   68.34790    3.69710   38.44980    -999.25   68.34790  100.90710    -999.25 1006.39430 1006.39430   38.48600  -46.48600  -12.86770   38.48600
 4600.00000    -999.25   34.91430   28.64160    6.51930   67.80070    -999.25   28.64160   70.89810    -999.25  613.12920  613.12920   21.54330  -38.61340   -5.28490   21.54330
 4650.00000    -999.25   48.87160   20.46180    6.62480   68.89790    -999.25   20.46180   20.61630    -999.25  553.04100  553.04100   18.15010  -32.82500    0.21370   18.15010
 4700.00000    -999.25   39.09870   25.57630    8.67230   90.19190    -999.25   25.57630   16.92400    -999.25  466.18810  466.18810   14.62110  -45.10500  -12.35760   14.62110
 4750.00000    -999.25    7.67670  130.26420    3.87310   40.28020    -999.25  130.26420  146.02560    -999.25  994.57200  994.57200   67.71890  -45.85000  -13.39100   67.71890
 4800.00000    -999.25   23.78290   42.04700    3.75010   39.00100    -999.25   42.04700   34.84590    -999.25  880.82360  880.82360   34.90290  -39.19850   -7.02930   34.90290
 4850.00000    -999.25  102.38560    9.76700    9.22360   95.92540    -999.25    9.76700   18.89620    -999.25  253.98450  253.98450   10.79060  -38.53100   -6.65170   10.79060
