~Version ---------------------------------------------------
VERS.      2.0 : CWLS log ASCII Standard -VERSION 2.0
WRAP.       NO : One line per depth step
CREA. 12/11/17 : LAS Creation Date
~Well ------------------------------------------------------
STRT.FT                          1000.0 : START DEPTH
STOP.FT                         10450.0 : STOP DEPTH
STEP.FT                        50.00000 : STEP LENGTH
NULL.                           -999.25 : NULL VALUE
COMP.     CANADIAN SUPERIOR OIL COMPANY : COMPANY
WELL. CDN-SUP CEGO FOX CR 10-11SH-62-18 : WELL
FLD .                                   : FIELD
LOC .                                   : LOCATION
CTRY.                            CANADA : COUNTRY
SRVC.                      Schlumberger : SERVICE COMPANY
DATE.                       29-Mar-1977 : LOGDATE
PROV.                           Alberta : PROVINCE
UWI .                  102101106218W500 : UNIQUE WELL ID
SLAT.WGS84                     54.35151 : SURFACE LATITUDE
SLON.WGS84                    -116.5828 : SURFACE LONGITUDE
~Curve Information -----------------------------------------
DEPT    .FT    : Depth Curve
CALDED  .IN    : CALIPER) FROM DENSITY LOG [ADJ. TO RESISTIVITY LOG]
CALSED  .IN    : CALIPER) FROM SONIC LOG [ADJ. TO RESISTIVITY LOG]
CALWS   .IN    : CALIPER [CALDED]
CILDED  .MMHO  : CONDUCTIVITY FROM RESISTIVITY LOG
CONDWS  .MMHO  : CONDUCIVITY [1000/DRESWS]
DCORED  .G/C3  : DENSITY CORRECTION FROM DENSITY LOG [ADJ. TO RESISTIVITY LOG]
DCORWS  .G/C3  : DENSITY CORRECTION [DCORED]
DENWS   .G/C3  : FORMATION BULK DENSITY [RHOBED]
DPOLSWS .V/V   : DENSITY POROSITY LIMESTONE [CALC. FROM DENWS M=2.71, F=1.00]
DPORLSED.V/V   : DENSITY POROSITY LIMESTONE [M=2.71, F=1.00] FROM DENSITY LOG [ADJ. TO RESISTIVITY LOG]
DPORSSED.V/V   : DENSITY POROSITY SANDSTONE [M=2.65, F=1.00] FROM DENSITY LOG [ADJ. TO RESISTIVITY LOG]
DRESWS  .OHMM  : DEEP RESISTIVITY [ILDED]
DTED    .US/F  : DELTA-T FROM SONIC LOG [ADJ. TO RESISTIVITY LOG]
DTWS    .US/F  : COMPRESSIONAL SONIC [DTED]
GRDED   .GAPI  : GAMMA RAY FROM DENSITY LOG [ADJ. TO RESISTIVITY LOG]
GRSED   .GAPI  : GAMMA RAY FROM SONIC LOG [ADJ. TO RESISTIVITY LOG]
GRWS    .GAPI  : GAMMA RAY [GRSED SPL. TO GRDED @ 1070']
ILDED   .OHMM  : DEEP INDUCTION FROM RESISTIVITY LOG
ILMED   .OHMM  : MEDIUM INDUCTION FROM RESISTIVITY LOG
LL8ED   .OHMM  : LATEROLOG-8 FROM RESISTIVITY LOG
MRESWS  .OHMM  : MEDIUM RESISTIVITY [ILMED]
NPOLSWS .V/V   : NEUTRON POROSITY LIMESTONE [NPHISSED MATRIX CONVERSION FOR LIMESTONE, SPL. TO NPHILSED @ 6496']
NPORLSED.V/V   : NEUTRON POROSITY LIMESTONE FROM DENISTY LOG [ADJ. TO RESISTIVITY LOG]
NPORSSED.V/V   : NEUTRON POROSITY SANDSTONE FROM DENSITY LOG [ADJ. TO RESISTIVITY LOG]
RHOBED  .G/C3  : BULK DENSITY FROM DENSITY LOG [ADJ. TO RESISTIVITY LOG]
SPRED   .MV    : SPONTANEOUS POTENTIAL FROM RESISTIVITY LOG
SPWS    .MV    : SPONTANEOUS POTENTIAL [BASELINE 0 MV, SPRED]
SRESWS  .OHMM  : SHALLOW RESISTIVITY [LL8ED]
~Params ----------------------------------------------------
PD  .                     GL : PERMANENT DATUM
EPD .FT                 2963 : ELEVATION PERMANENT DATUM
LMF .                     KB : LOG MEASURED FROM
DAPD.FT                   13 : FEET ABOVE PERMANENT DATUM
EKB .FT                 2976 : KELLY BUSHING
EGL .FT                 2963 : GROUND LEVEL
DATE.               03/29/77 : RUN DATE
RUN .                      1 : RUN NUMBER
DD  .FT                10475 : DEPTH DRILLER
DL  .FT                10478 : DEPTH LOGGER
BLI .FT                10472 : BOTTOM LOG INTERVAL
TLI .FT                 1071 : TOP LOG INTERVAL
CBD .FT                 1070 : CASING BOTTOM DRILLER
CBL .FT                 1071 : CASING BOTTOM LOGGER
BS  .IN                 8.75 : BIT SIZE
BSD .FT                10475 : BIT SIZE AT DEPTH
DFT .               GEL CHEM : DRILLING FLUID TYPE
DFD .                    9.2 : DRILLING FLUID DENSITY
DFV .                     81 : DRILLING FLUID VISCOSITY
DFPH.                    9.5 : DRILLING FLUID PH
DFL .                      8 : DRILLING FLUID LOSS
MSS .             CIRCULATED : MUD SAMPLE SOURCE
RMS .OHMM                1.1 : RESISTIVITY MUD SAMPLE
MST .DEGF                 62 : MUD SAMPLE TEMPERATURE
RMF .OHMM               0.76 : RESISTIVITY MUD FILTRATE SAMPLE
MFST.DEGF                 62 : MUD FILTRATE SAMPLE TEMPERATURE
TCS .HRS                   4 : TIME CIRCULATED STOPPED
LUN .                   7690 : LOGGING UNIT NUMBER
LUL .                    EDM : LOGGING UNIT LOCATION
ENGI.                WOROWUK : RECORDING ENGINEER
WITN.                  KELLY : WITNESSED BY
CLNT.                A2DTECH : CLIENT CODE
ORIG.            2" 5" PRINT : ORIGIN OF DATA
UWI .       102101106218W500 : UNIQUE WELL ID
DICO. A2D Technologies, Inc. : DIGITIZING COMPANY
~Other -----------------------------------------------------
DIL-BHC-CNL-FDC LOG RUN
SCH(CNL-NPHI) USED FOR NEUTRON MATRIX CONVERSION
CILD DIG'ED FROM 2" LINEAR LOG
~ASCII -----------------------------------------------------
# ...
 9750.00000    9.04330    9.16140    9.04330    -999.25  106.40560    0.02370    0.02370    2.70260    0.00430   -0.00590    -999.25    9.39800   76.54600   76.54600   98.51440   65.27690   98.51440    9.39800    8.70660   11.83660    8.70660    0.23490    0.23490    -999.25    2.70260  -39.37880   -5.45760   11.83660
 9800.00000    8.98740    8.78080    8.98740    -999.25    2.91740    0.01430    0.01430    2.49810    0.12390    0.12150    -999.25  342.76790   74.42000   74.42000  111.45460   82.72280  111.45460  342.76790  258.15300  548.50230  258.15300    0.18410    0.18410    -999.25    2.49810  -83.49720  -50.60720  548.50230
 9850.00000    8.96820    8.79030    8.96820    -999.25    1.22160    0.04840    0.04840    2.50560    0.11950    0.12060    -999.25  818.61610   75.16260   75.16260  156.03790  107.41840  156.03790  818.61610  675.29590 1434.71960  675.29590    0.18560    0.18560    -999.25    2.50560  -80.41950  -48.56740 1434.71960
 9900.00000    8.96420    8.79290    8.96420    -999.25   12.82760    0.01140    0.01140    2.73120   -0.01240    0.00190    -999.25   77.95690   54.88920   54.88920   34.69860   24.58740   34.69860   77.95690   84.33270  154.20140   84.33270    0.06190    0.06190    -999.25    2.73120  -47.21200  -16.39100  154.20140
 9950.00000    9.29610    9.10020    9.29610    -999.25   35.14730    0.04630    0.04630    2.69340    0.00970    0.00570    -999.25   28.45170   61.96830   61.96830   62.40350   40.05110   62.40350   28.45170   29.16840   52.97870   29.16840    0.09090    0.09090    -999.25    2.69340  -34.01350   -4.14600   52.97870
 10000.00000    8.96900    8.81040    8.96900    -999.25    2.78250    0.03650    0.03650    2.65310    0.03330    0.03070    -999.25  359.39500   57.94780   57.94780   34.26370   23.94050   34.26370  359.39500  965.77440 1403.43480  965.77440    0.06950    0.06950    -999.25    2.65310  -52.80530  -23.25630 1403.43480
 10050.00000    9.14240    8.88900    9.14240    -999.25    5.53270    0.10720    0.10720    2.77270   -0.03670   -0.04860    -999.25  180.74400   49.71850   49.71850    7.08300    4.83330    7.08300  180.74400  194.05660  611.39430  194.05660    0.00800    0.00800    -999.25    2.77270 -100.25800  -71.02740  611.39430
 10100.00000    9.41150    8.99280    9.41150    -999.25    3.07980    0.06100    0.06100    2.69570    0.00840   -0.00070    -999.25  324.69440   48.35430   48.35430    7.72470    4.55550    7.72470  324.69440  385.05350  515.62950  385.05350    0.00270    0.00270    -999.25    2.69570 -109.26780  -80.35780  515.62950
 10150.00000    9.05760    8.88080    9.05760    -999.25   15.97230    0.04470    0.04470    2.72920   -0.01120   -0.01600    -999.25   62.60840   48.78890   48.78890    7.91810    4.81850    7.91810   62.60840   66.74340  198.31290   66.74340    0.00610    0.00610    -999.25    2.72920 -125.34610  -96.75460  198.31290
 10200.00000    9.24680    8.90830    9.24680    -999.25   20.26850    0.12280    0.12280    2.43840    0.15880    0.16480    -999.25   49.33770   50.40950   50.40950    8.22730    4.35980    8.22730   49.33770   54.74950  206.62530   54.74950    0.16380    0.16380    -999.25    2.43840 -143.74580 -115.47480  206.62530
 10250.00000    8.37730    7.75100    8.37730    -999.25  336.57570    0.20520    0.20520    2.61370    0.05630    0.03960    -999.25    2.97110   56.57330   56.57330   10.38280    5.72210   10.38280    2.97110    3.27950   10.42530    3.27950    0.20430    0.20430    -999.25    2.61370 -147.09550 -119.14300   10.42530
 10300.00000    8.84970    8.87320    8.84970    -999.25   32.09540    0.03180    0.03180    2.69260    0.01020    0.00640    -999.25   31.15710   49.77160   49.77160   11.79110    6.93470   11.79110   31.15710   28.87860   84.38730   28.87860    0.02180    0.02180    -999.25    2.69260 -123.29280  -95.65870   84.38730
 10350.00000    8.76410    8.78900    8.76410    -999.25    1.32810    0.05510    0.05510    2.69230    0.01030    0.01060    -999.25  752.93530   50.13820   50.13820   15.33570   10.16000   15.33570  752.93530 1390.19840 1422.74810 1390.19840    0.01100    0.01100    -999.25    2.69230 -149.89210 -122.57860 1422.74810
 10400.00000    8.65300    8.79320    8.65300    -999.25   23.59770    0.02590    0.02590    2.83920   -0.07550   -0.07720    -999.25   42.37710   55.98080   55.98080   63.94860   38.08170   63.94860   42.37710   63.41710  294.17290   63.41710    0.02520    0.02520    -999.25    2.83920  -35.04630   -8.05130  294.17290
 10450.00000    8.58630    8.55190    8.58630    -999.25   48.00280    0.05140    0.05140    2.66780    0.02470    0.02190    -999.25   20.83210   60.86720   60.86720  115.70640    4.01440  115.70640   20.83210   24.86200   55.33120   24.86200    0.13280    0.13280    -999.25    2.66780  -37.72880  -16.75890   55.33120
