~Version ---------------------------------------------------
VERS. 2.0 : CWLS log ASCII Standard -VERSION 2.0
WRAP.  NO : ONE LINE PER DEPTH STEP
~Well ------------------------------------------------------
STRT.M                             300.0 : START DEPTH
STOP.M                            2600.0 : STOP DEPTH
STEP.M                          50.00000 : STEP LENGTH
NULL.                            -999.25 : NULL VALUE
COMP.             TRI LINK RESOURCES LTD : COMPANY
WELL. TRI LINK ET AL CARSONN 10-28-62-12 : WELL
FLD .                                    : FIELD
LOC .                                    : LOCATION
CTRY.                             CANADA : COUNTRY
SRVC.                       Schlumberger : SERVICE COMPANY
DATE.                        24-Oct-1980 : LOGDATE
PROV.                            Alberta : PROVINCE
UWI .                   100102806212W500 : UNIQUE WELL ID
SLAT.WGS84                      54.39587 : SURFACE LATITUDE
SLON.WGS84                     -115.7323 : SURFACE LONGITUDE
~Curve Information -----------------------------------------
DEPT.M    0   1   0  0 : 1 MEASURED DEPTH
ILM .OHMM 07 120 44 00 : INDUCTION MEDIUM RESISTIVITY
SFL .OHMM 07 220 01 00 : SPHERICALLY FOCUSED LOG
SPR .MV   07 010 01 00 : SPONTANEOUS POTENTIAL FROM RESISTIVITY LOG
ILD .OHMM 07 120 46 00 : INDUCTION DEEP RESISTIVITY
GRS .GAPI 60 310 01 00 : GAMMA RAY FROM SONIC LOG
DT  .US/M 60 500 00 00 : DELTA-T (INTERVAL TRANSIT TIME)
CALS.MM   60 280 50 00 : CALIPER FROM SONIC LOG
~Params ----------------------------------------------------
PD  .                         GL : PERMANENT DATUM
EPD .M                     939.9 : ELEVATION PERMANENT DATUM
LMF .                         KB : LOG MEASURED FROM
DAPD.M                       5.2 : FEET ABOVE PERMANENT DATUM
DMF .                         KB : DRILLING MEASURED FROM
EKB .M                     945.1 : KELLY BUSHING
EGL .M                     939.9 : GROUND LEVEL
DATE.                   10/24/80 : RUN DATE
RUN .                          1 : RUN NUMBER
DD  .M                      2654 : DEPTH DRILLER
DL  .M                      2649 : DEPTH LOGGER
BLI .M                      2648 : BOTTOM LOG INTERVAL
TLI .M                       191 : TOP LOG INTERVAL
CS  .MM                      244 : CASING SIZE
CBD .M                       193 : CASING BOTTOM DRILLER
CBL .M                       191 : CASING BOTTOM LOGGER
BS  .MM                      216 : BIT SIZE
BSD .M                      2654 : BIT SIZE AT DEPTH
DFT .                        GEL : DRILLING FLUID TYPE
DFD .                       1150 : DRILLING FLUID DENSITY
DFV .                        160 : DRILLING FLUID VISCOSITY
DFPH.                          9 : DRILLING FLUID PH
DFL .                          8 : DRILLING FLUID LOSS
MSS .                CIRCULATION : MUD SAMPLE SOURCE
RMS .OHMM                   2.55 : RESISTIVITY MUD SAMPLE
MST .DEGC                   17.8 : MUD SAMPLE TEMPERATURE
RMF .OHMM                   2.24 : RESISTIVITY MUD FILTRATE SAMPLE
MFST.DEGC                   17.8 : MUD FILTRATE SAMPLE TEMPERATURE
MFSS.                      PRESS : MUD FILTRATE SAMPLE SOURCE
RMB .OHMM                    1.2 : RESISTIVITY MUD AT BHT
TCS .HRS                     915 : TIME CIRCULATED STOPPED
TLAB.HRS                     430 : TIME LOGGER AT BOTTOM
LUN .                       7809 : LOGGING UNIT NUMBER
LUL .                        EDM : LOGGING UNIT LOCATION
ENGI.               VERKAIK LOWE : RECORDING ENGINEER
WITN.                       ROSS : WITNESSED BY
CLNT.                    A2DTECH : CLIENT CODE
ORIG. 6.5"/100M 16.5"/100M PRINT : ORIGIN OF DATA
UWI .           100102806212W500 : UNIQUE WELL ID
DICO.     A2D Technologies, Inc. : DIGITIZING COMPANY
~Other -----------------------------------------------------
~ASCII -----------------------------------------------------
  300.00000    4.70980    3.78250 -142.49560    5.34620   82.15760  412.56440  281.18440
  350.00000    7.12110    6.95260 -142.66390    7.65540   68.80740  355.88790  222.91480
  400.00000    4.12140    4.64220 -136.21800    4.40850   89.57630  364.49690  240.26380
  450.00000    8.18300   13.31570 -142.19390    8.77100   78.00800  306.40270  220.07780
  500.00000    4.72560    4.55610 -135.87490    4.88390   82.04520  329.69670  228.45520
  550.00000    2.64610    2.87460 -136.57320    2.77560   84.40130  366.22380  241.61370
  600.00000    3.92310    4.27850 -135.40580    4.12670   70.31960  346.42970  229.76450
  650.00000    3.11390    3.11220 -134.85030    3.35900   64.29600  408.70950  294.87500
  700.00000    9.91270    9.93060 -154.00350   10.25480   49.73120  325.15950  210.59450
  750.00000    5.52290    5.75840 -137.65330    5.94220   71.59850  341.06490  230.96950
  800.00000    3.75740    3.88450 -133.99960    4.12090   67.45530  352.45040  260.28690
  850.00000    4.15020    3.85030 -133.77080    4.59370   64.37200  308.22460  237.01230
  900.00000    5.07720    5.53430 -135.29320    5.25640   78.41660  337.40240  271.02230
  950.00000    4.83750    5.18520 -139.23610    5.45220   98.61740  361.43020  290.20220
 1000.00000    6.62980    6.23940 -135.60720    6.85150  105.37550  311.90300  236.61880
 1050.00000    6.05470    6.43360 -137.17560    6.75320  103.70700  296.53230  240.02490
 1100.00000    5.31340    5.49050 -134.51360    6.29120  109.39490  340.16060  231.81630
 1150.00000    6.00910    6.21180 -130.14130    6.88920  106.80140  306.80580  245.22670
 1200.00000    6.63350    8.08330 -122.80170    6.95150  124.51490  327.80820  248.56740
 1250.00000    5.46310    6.10550 -122.90530    5.80270   94.61340  296.26870  256.02350
 1300.00000    5.52000    6.09890 -118.19200    5.81350  108.89560  305.88360  257.10640
 1350.00000    2.14810    2.52440 -112.60310    2.24940   82.35270  355.72090  315.83130
 1400.00000    8.77650    9.71850 -117.72210    9.19580   93.28070  270.21860  201.33280
 1450.00000   15.20250   26.42730 -163.67780   11.29980   57.04090  260.34390  198.95680
 1500.00000    7.54050    6.99510 -109.77340    7.23300   85.23080  283.39950  250.15130
 1550.00000    6.79090    7.55400 -117.09270    6.08070   70.30860  249.07030  227.71370
 1600.00000    9.08310   11.53510 -101.86130    8.74770   77.09470  237.48820  220.03240
 1650.00000    9.74130    9.66400 -104.69390    9.35270   91.89450  239.46500  228.46350
 1700.00000    9.51680   12.58530 -150.49580    7.84220   50.43930  195.70650  214.17220
 1750.00000   24.17230   80.61160 -126.09030   13.93630   48.22620  172.79620  220.92850
 1800.00000   54.39220  145.17970 -129.47290   57.76500   26.93100  180.98510  219.95030
 1850.00000   14.83970   24.10940 -134.18440   15.14990   31.78350  188.28930  209.91490
 1900.00000   11.88830   18.03430  -88.33030   12.45870   72.02230  210.13680  210.58240
 1950.00000   43.91300   64.93660 -113.27930   54.32360   28.77170  170.31240  210.06780
 2000.00000   84.43310  125.25040 -172.01360  114.66200   17.14560  161.65660  214.50810
 2050.00000  432.95610 1025.77220 -154.81590 2014.86170   18.43180  159.30560  214.70190
 2100.00000   98.21510  397.26680 -175.76910  119.62560   21.34690  171.11760  211.26560
 2150.00000   42.45080  290.07930 -190.08340   29.97620   23.57820  168.56380  206.23570
 2200.00000    8.29620   38.01130 -193.32110    6.35580   43.84120  183.20290  211.65920
 2250.00000   19.74570   22.54170  -57.87220   20.56590   59.27370  195.57840  235.48000
 2300.00000   10.90800   12.26430  -57.77840   10.51150   59.21120  206.72150  216.30390
 2350.00000   16.06920   17.97930  -53.76190   18.05760   45.12050  187.86470  211.92310
 2400.00000    4.54950    5.26340  -58.92610    4.71880   74.94740  259.64830  271.68280
 2450.00000   11.74240   14.13250  -44.90340   10.89510   61.50790  209.68150  213.98910
 2500.00000    5.37940    6.13580  -63.26310    5.69560   83.94990  252.05020  268.09560
 2550.00000   10.18660   13.10380  -31.38100    9.64460   76.89860  220.54830  212.42470
 2600.00000    6.47420    7.45580  -40.11550    6.43220  102.10370  248.78450  246.58150
