~Version ---------------------------------------------------
VERS.      2.0 : CWLS log ASCII Standard -VERSION 2.0
WRAP.       NO : One line per depth step
CREA. 09/22/17 : LAS Creation Date
~Well ------------------------------------------------------
STRT.FT                1200.0 : START DEPTH
STOP.FT               10800.0 : STOP DEPTH
STEP.FT              50.00000 : STEP LENGTH
NULL.                 -999.25 : NULL VALUE
COMP. SUN OIL COMPANY LIMITED : COMPANY
WELL. BEC ROSEVEAR 6-34-54-15 : WELL
FLD .                         : FIELD
LOC .                         : LOCATION
CTRY.                  CANADA : COUNTRY
SRVC.  Schlumberger of Canada : SERVICE COMPANY
DATE.             25-Mar-1971 : LOGDATE
PROV.                 Alberta : PROVINCE
UWI .        100063405415W500 : UNIQUE WELL ID
SLAT.WGS84           53.70553 : SURFACE LATITUDE
SLON.WGS84          -116.1304 : SURFACE LONGITUDE
~Curve Information -----------------------------------------
DEPT   .FT    : Depth Curve
CALIED .IN    : CALIPER FROM SNP LOG [ADJ. TO RESISTIVITY LOG]
CALSED .IN    : CALIPER FROM SONIC LOG [ADJ. TO RESISTIVITY LOG]
CALWS  .IN    : CALIPER [CALSED]
CILDED .MMHO  : CONDUCTIVITY FROM RESISTIVITY LOG
CONDWS .MMHO  : CONDUCTIVITY [1000/DRESWS]
DRESWS .OHMM  : DEEP RESISTIVITY [1000/CILDED IF ILDED<=5, ILDED]
DTED   .US/F  : DELTA T FROM SONIC LOG [ADJ. TO RESISTIVITY LOG]
DTWS   .US/F  : COMPRESSIONAL SONIC [DTED]
GRED   .GAPI  : GAMMA RAY FROM SNP LOG [ADJ. TO RESISTIVITY LOG]
GRNED  .GAPI  : GAMMA RAY NEUTRON FROM GRN LOG [ADJ. TO RESISTIVITY LOG]
GRSED  .GAPI  : GAMMA RAY FROM SONIC LOG [ADJ. TO RESISTIVITY LOG]
GRWS   .GAPI  : GAMMA RAY [GRSED SPL. TO GRNED @ 10735']
ILDED  .OHMM  : DEEP INDUCTION FROM RESISTIVITY LOG
ILMED  .OHMM  : MEDIUM INDUCTION FROM RESISTIVITY LOG
LL8ED  .OHMM  : LATEROLOG 8' FROM RESISTIVITY LOG
MRESWS .OHMM  : MEDIUM RESISTIVITY [ILMED]
NEUTED .NAPI  : NEUTRON FROM GRN LOG [ADJ. TO RESISTIVITY LOG]
NEUTWS .NAPI  : NEUTRON [NEUTED]
NPOLSWS.V/V   : NEUTRON POROSITY LIMESTONE [SNPLSED]
SNED   .OHMM  : SHORT NORMAL FROM RESISTIVITY LOG
SNPLSED.V/V   : SIDEWALL NEUTRON POROSITY LIMESTONE FROM SNP LOG [ADJ. TO RESISTIVITY LOG]
SPRED  .MV    : SPONTANEOUS POTENTIAL FROM RESISTIVITY LOG
SPWS   .MV    : SPONTANEOUS POTENTIAL [BASELINE 0 MV, SPRED]
SRESWS .OHMM  : SHALLOW RESISTIVITY [SNED SPL. TO LL8ED @ 4794']
~Params ----------------------------------------------------
PD  .                     GL : PERMANENT DATUM
EPD .FT               2803.5 : ELEVATION PERMANENT DATUM
LMF .                     KB : LOG MEASURED FROM
DAPD.FT                 15.5 : FEET ABOVE PERMANENT DATUM
EKB .FT                 2819 : KELLY BUSHING
EGL .FT               2803.5 : GROUND LEVEL
DATE.               03/25/71 : RUN DATE
RUN .                      1 : RUN NUMBER
DD  .FT                10590 : DEPTH DRILLER
DL  .FT                10587 : DEPTH LOGGER
BLI .FT                10581 : BOTTOM LOG INTERVAL
TLI .FT                 1243 : TOP LOG INTERVAL
CBD .FT                 1243 : CASING BOTTOM DRILLER
CBL .FT                 1243 : CASING BOTTOM LOGGER
BS  .IN                 8.75 : BIT SIZE
BSD .FT                10590 : BIT SIZE AT DEPTH
DFT .                    GEL : DRILLING FLUID TYPE
DFD .                   11.1 : DRILLING FLUID DENSITY
DFV .                    127 : DRILLING FLUID VISCOSITY
DFPH.                     10 : DRILLING FLUID PH
DFL .                      6 : DRILLING FLUID LOSS
MSS .                   CIRC : MUD SAMPLE SOURCE
RMS .OHMM               1.34 : RESISTIVITY MUD SAMPLE
MST .DEGF                 68 : MUD SAMPLE TEMPERATURE
RMF .OHMM               0.95 : RESISTIVITY MUD FILTRATE SAMPLE
MFST.DEGF                 50 : MUD FILTRATE SAMPLE TEMPERATURE
RMC .OHMM               1.98 : RESISTIVITY MUD CAKE
MCST.DEGF                 52 : MUD CAKE SAMPLE TEMPERATURE
RMB .OHMM               0.32 : RESISTIVITY MUD AT BHT
TCS .HRS                   4 : TIME CIRCULATED STOPPED
LUN .                   5628 : LOGGING UNIT NUMBER
ENGI.               PUOURSON : RECORDING ENGINEER
WITN.                 BAANUT : WITNESSED BY
CLNT.                A2DTECH : CLIENT CODE
ORIG.            2" 5" PRINT : ORIGIN OF DATA
UWI .       100063405415W500 : UNIQUE WELL ID
DICO. A2D Technologies, Inc. : DIGITIZING COMPANY
~Other -----------------------------------------------------
DIL-GRN-SNP-BCS LOG RAN.
~ASCII -----------------------------------------------------
# ...
 4100.00000    -999.25   10.48020   10.48020  143.85290  137.92340    7.25040   79.75700   79.75700    -999.25    -999.25   61.08260   61.08260    7.25040    -999.25    -999.25    -999.25    -999.25    -999.25    -999.25    7.83720    -999.25  -48.74140   -2.34800    7.83720
 4150.00000    -999.25   11.19870   11.19870  162.66170  162.68140    6.14700   86.81830   86.81830    -999.25    -999.25   64.77060   64.77060    6.14700    -999.25    -999.25    -999.25    -999.25    -999.25    -999.25    7.06760    -999.25  -51.87290   -5.26520    7.06760
 4200.00000    -999.25   10.43100   10.43100  110.28730  105.91870    9.44120   84.04800   84.04800    -999.25    -999.25   80.79420   80.79420    9.44120    -999.25    -999.25    -999.25    -999.25    -999.25    -999.25   10.38050    -999.25  -61.11700  -14.34290   10.38050
 4250.00000    -999.25   10.40990   10.40990  121.18860  117.07270    8.54170   81.85170   81.85170    -999.25    -999.25   82.77470   82.77470    8.54170    -999.25    -999.25    -999.25    -999.25    -999.25    -999.25    9.00520    -999.25  -61.62530  -14.68460    9.00520
 4300.00000    -999.25   10.60350   10.60350  115.98780  113.51420    8.80980   84.14500   84.14500    -999.25    -999.25   92.80070   92.80070    8.80980    -999.25    -999.25    -999.25    -999.25    -999.25    -999.25    9.32930    -999.25  -58.32340  -11.21980    9.32930
 4350.00000    -999.25   10.53440   10.53440  105.48090  103.26200    9.68410   83.03670   83.03670    -999.25    -999.25   94.94110   94.94110    9.68410    -999.25    -999.25    -999.25    -999.25    -999.25    -999.25   10.39720    -999.25  -51.44840   -4.17840   10.39720
 4400.00000    -999.25   10.64740   10.64740  104.69120  100.25720    9.97430   84.84530   84.84530    -999.25    -999.25   91.67180   91.67180    9.97430    -999.25    -999.25    -999.25    -999.25    -999.25    -999.25   10.71500    -999.25  -51.66280   -2.72200   10.71500
 4450.00000    -999.25   10.64040   10.64040   96.80840   92.05980   10.86250   83.54690   83.54690    -999.25    -999.25   93.17670   93.17670   10.86250    -999.25    -999.25    -999.25    -999.25    -999.25    -999.25   11.99140    -999.25  -52.89240   -4.47650   11.99140
 4500.00000    -999.25   10.36550   10.36550  110.63570  105.08620    9.51600   89.94660   89.94660    -999.25    -999.25  104.61860  104.61860    9.51600    -999.25    -999.25    -999.25    -999.25    -999.25    -999.25   11.38530    -999.25  -53.24900   -5.59350   11.38530
 4550.00000    -999.25   10.78050   10.78050   81.60790   76.60490   13.05550   82.21100   82.21100    -999.25    -999.25  100.92040  100.92040   13.05550    -999.25    -999.25    -999.25    -999.25    -999.25    -999.25   15.87690    -999.25  -57.07520  -10.17340   15.87690
 4600.00000    -999.25   10.87820   10.87820  117.37050  113.51640    8.80930   87.17310   87.17310    -999.25    -999.25   94.97840   94.97840    8.80930    -999.25    -999.25    -999.25    -999.25    -999.25    -999.25   10.03120    -999.25  -57.84120  -11.70270   10.03120
 4650.00000    -999.25   11.35350   11.35350  134.19350  131.91150    7.58110   81.90730   81.90730    -999.25    -999.25   92.42130   92.42130    7.58110    -999.25    -999.25    -999.25    -999.25    -999.25    -999.25    7.79150    -999.25  -54.15310   -8.76830    7.79150
 4700.00000    -999.25   11.12960   11.12960  131.83720  126.62400    7.89740   82.18530   82.18530    -999.25    -999.25   80.88920   80.88920    7.89740    -999.25    -999.25    -999.25    -999.25    -999.25    -999.25    8.19140    -999.25  -46.44460   -1.98930    8.19140
 4750.00000    -999.25   10.65310   10.65310  103.14870   98.17970   10.18540   76.56310   76.56310    -999.25    -999.25   82.44670   82.44670   10.18540    -999.25    -999.25    -999.25    -999.25    -999.25    -999.25   10.81490    -999.25  -48.03760   -3.16970   10.81490
 4800.00000   14.49400   10.61140   10.61140    -999.25  104.19320    9.59810   79.02790   79.02790   55.41640    -999.25   84.35410   84.35410    9.59810    9.90370   11.06540    9.90370    -999.25    -999.25    0.21880    -999.25    0.21880  -54.19470   -8.15150   11.06540
 4850.00000   15.38720   10.59990   10.59990    -999.25  123.90500    8.07070   82.17220   82.17220   56.37890    -999.25   96.08090   96.08090    8.07070    8.48250    8.67490    8.48250    -999.25    -999.25    0.24390    -999.25    0.24390  -53.47420   -6.27990    8.67490
 4900.00000   14.86950   10.57500   10.57500    -999.25  128.82370    7.76260   85.77720   85.77720   63.85290    -999.25  100.92610  100.92610    7.76260    8.11160    8.90930    8.11160    -999.25    -999.25    0.28900    -999.25    0.28900  -53.29440   -4.96100    8.90930
 4950.00000   14.84210   10.52630   10.52630    -999.25  129.77740    7.70550   81.02460   81.02460   63.34710    -999.25   93.77620   93.77620    7.70550    8.25190    8.93870    8.25190    -999.25    -999.25    0.23800    -999.25    0.23800  -54.05270   -4.56830    8.93870
 5000.00000   14.19520   10.61170   10.61170    -999.25  139.33590    7.17690   84.34740   84.34740   61.66260    -999.25   93.79080   93.79080    7.17690    7.53180    7.87540    7.53180    -999.25    -999.25    0.34600    -999.25    0.34600  -53.01250   -2.38240    7.87540
 5050.00000   13.21070   10.42580   10.42580    -999.25  106.83860    9.36080   79.87490   79.87490   51.53950    -999.25   77.73560   77.73560    9.36080    9.97420   10.58580    9.97420    -999.25    -999.25    0.34580    -999.25    0.34580  -53.33490   -2.38540   10.58580
 5100.00000   10.41020    9.73830    9.73830    -999.25   67.90020   14.72750   56.07640   56.07640   42.11510    -999.25   64.25310   64.25310   14.72750   17.27340   19.94270   17.27340    -999.25    -999.25    0.18340    -999.25    0.18340  -72.82750  -22.15660   19.94270
 5150.00000   12.18960   10.56030   10.56030    -999.25   81.65060   12.24740   75.93920   75.93920   54.01580    -999.25   86.62210   86.62210   12.24740   12.75630   12.74220   12.75630    -999.25    -999.25    0.31860    -999.25    0.31860  -51.84860   -2.61780   12.74220
 5200.00000   11.90440   10.55920   10.55920    -999.25  107.67160    9.28750   80.04260   80.04260   61.31610    -999.25   98.56650   98.56650    9.28750    9.77270    9.84540    9.77270    -999.25    -999.25    0.34780    -999.25    0.34780  -50.50070   -2.72370    9.84540
 5250.00000   12.08740   10.01450   10.01450    -999.25   89.41660   11.18360   77.23100   77.23100   53.16070    -999.25   85.77470   85.77470   11.18360   11.68830   12.00600   11.68830    -999.25    -999.25    0.31950    -999.25    0.31950  -49.61100   -3.28010   12.00600
 5300.00000   11.76160   10.13000   10.13000    -999.25  101.96240    9.80760   77.47170   77.47170   56.72150    -999.25   95.33080   95.33080    9.80760   10.32420   11.26540   10.32420    -999.25    -999.25    0.32490    -999.25    0.32490  -49.04910   -3.94050   11.26540
 5350.00000   11.30620   10.22870   10.22870    -999.25  118.36420    8.44850   81.28000   81.28000   59.58230    -999.25   94.46360   94.46360    8.44850    9.30940   10.17330    9.30940    -999.25    -999.25    0.39220    -999.25    0.39220  -47.52640   -3.62810   10.17330
 5400.00000   11.89380   10.14840   10.14840    -999.25  100.05090    9.99510   81.35800   81.35800   54.49150    -999.25   95.78620   95.78620    9.99510   10.79330   12.37510   10.79330    -999.25    -999.25    0.42400    -999.25    0.42400  -46.26530   -3.56530   12.37510
 5450.00000   11.77390    9.94060    9.94060    -999.25   81.67000   12.24440   84.98890   84.98890   66.71250    -999.25   97.99230   97.99230   12.24440   13.62440   14.78650   13.62440    -999.25    -999.25    0.32600    -999.25    0.32600  -45.09990   -3.61030   14.78650
 5500.00000   11.60790    9.74830    9.74830    -999.25   84.95530   11.77090   85.72020   85.72020   64.59360    -999.25  107.87210  107.87210   11.77090   13.11400   16.02710   13.11400    -999.25    -999.25    0.33080    -999.25    0.33080  -44.21560   -3.93030   16.02710
