~Version ---------------------------------------------------
VERS. 2.0 : CWLS log ASCII Standard -VERSION 2.0
WRAP.  NO : One line per depth step
~Well ------------------------------------------------------
STRT.M                       450.0 : START DEPTH
STOP.M                      3150.0 : STOP DEPTH
STEP.M                    50.00000 : STEP LENGTH
NULL.                      -999.25 : NULL VALUE
COMP.       CHEVRON CANADA LIMITED : COMPANY
WELL. CHEVRON ET AL GILBY 7-1-41-3 : WELL
FLD .                              : FIELD
LOC .                              : LOCATION
CTRY.                       CANADA : COUNTRY
SRVC.                      Unknown : SERVICE COMPANY
DATE.                  29-Dec-1986 : LOGDATE
PROV.                      Alberta : PROVINCE
UWI .             100070104103W500 : UNIQUE WELL ID
SLAT.WGS84                52.50131 : SURFACE LATITUDE
SLON.WGS84               -114.2957 : SURFACE LONGITUDE
~Curve Information -----------------------------------------
DEPT    .M      : 
C1ED    .MM     : CALIPER1 FROM DENSITY LOG [ADJ. TO RESISTIVITY LOG]
C2ED    .MM     : CALIPER2 FROM DENSITY LOG [ADJ. TO RESISTIVITY LOG]
CALSED  .MM     : CALIPER FROM SONIC LOG [ADJ. TO RESISTIVITY LOG]
CALWS   .MM     : CALIPER [CALSED]
CONDWS  .MMHO   : CONDUCTIVITY [1000/DRESWS]
DCORWS  .KG/M3  : DENSITY CORRECTION [DRHOED]
DENWS   .KG/M3  : FORMATION BULK DENSITY [RHOBED]
DPHILSED.V/V    : DENSITY POROSITY LIMESTONE [M=2710,F=1000, ADJ. TO RESISTIVITY LOG] FROM DENSITY LOG
DPHISSED.V/V    : DENSITY POROSITY SANDSTONE [M=2650,F=1000, ADJ. TO RESISTIVITY LOG] FROM DENSITY LOG
DPOLSWS .V/V    : DENSITY POROSITY LIMESTONE [CALC FROM DENWS, M=2710,F=1000]
DRESWS  .OHMM   : DEEP RESISTIVITY [ILDED]
DRHOED  .KG/M3  : DENSITY CORRECTION FROM DENSITY LOG [ADJ. TO RESISTIVITY LOG]
DTED    .US/M   : DELTA TIME FROM SONIC LOG [ADJ. TO RESISTIVITY LOG]
DTWS    .US/M   : COMPRESSIONAL  SONIC [DTED]
GRDED   .GAPI   : GAMMA RAY FROM DENSITY LOG [ADJ. TO RESISTIVITY LOG]
GRSED   .GAPI   : GAMMA RAY FROM SONIC LOG [ADJ. TO RESISTIVITY LOG]
GRWS    .GAPI   : GAMMA RAY [GRSED SPL. TO GRDED @ 2082.4-2092.4M & 2037.4-2044.3M]
ILDED   .OHMM   : DEEP INDUCTION FROM RESISTIVITY LOG
ILMED   .OHMM   : MEDIUM INDUCTION FROM RESISTIVITY LOG
MRESWS  .OHMM   : MEDIUM RESISTIVITY [ILMED]
NPHILSED.V/V    : NEUTRON POROSITY LIMESTONE FROM DENSITY LOG [ADJ. TO RESISTIVITY LOG]
NPHISSED.V/V    : NEUTRON POROSITY SANDSTONE FROM DENSITY LOG [ADJ. TO RESISTIVITY LOG]
NPOLSWS .V/V    : NEUTRON POROSITY LIMESTONE [NPHISSED MATRIX CONVERSION FOR LIMESTONE, SPL. TO NPHILSED @2060M]
PEFED   .B/E    : PHOTOELECTRIC FACTOR FROM DENSITY LOG [ADJ. TO RESISTIVITY LOG]
PEFWS   .B/E    : PHOTOELECTRIC FACTOR [PEFED]
RHOBED  .KG/M3  : BULK DENSITY FROM DENSITY LOG [ADJ. TO RESISTIVITY LOG]
SFLUED  .OHMM   : SPHERICALLY FOCUSED RESISTIVITY FROM RESISTIVITY LOG
SPRED   .MV     : SPONTANEOUS POTENTIAL FROM RESISTIVITY LOG
SRESWS  .OHMM   : SHALLOW RESISTIVITY [SFLUED]
TENDED  .N      : TENSION FROM DENSITY LOG [ADJ. TO RESISTIVITY LOG]
TENRED  .N      : TENSION FROM RESISTIVITY LOG
SPWS    .MV     : SPONTANEOUS POTENTIAL [BASELINE 0 MV, SPRED]
~Params ----------------------------------------------------
PD  .                         GL : PERMANENT DATUM
EPD .M                     978.7 : ELEVATION PERMANENT DATUM
LMF .                         KB : LOG MEASURED FROM
DAPD.M                       3.5 : FEET ABOVE PERMANENT DATUM
DMF .                         KB : DRILLING MEASURED FROM
EKB .M                     982.2 : KELLY BUSHING
EGL .M                     978.7 : GROUND LEVEL
DATE.                   12/29/86 : RUN DATE
RUN .                          1 : RUN NUMBER
DD  .M                      3170 : DEPTH DRILLER
DL  .M                    3165.4 : DEPTH LOGGER
BLI .M                    3164.7 : BOTTOM LOG INTERVAL
TLI .M                     451.5 : TOP LOG INTERVAL
CS  .MM                    244.5 : CASING SIZE
CBD .M                     451.7 : CASING BOTTOM DRILLER
CBL .M                     451.5 : CASING BOTTOM LOGGER
BS  .MM                    215.9 : BIT SIZE
BSD .M                      3170 : BIT SIZE AT DEPTH
DFT .                   GEL CHEM : DRILLING FLUID TYPE
DFD .                       1080 : DRILLING FLUID DENSITY
DFV .                         82 : DRILLING FLUID VISCOSITY
DFPH.                       10.5 : DRILLING FLUID PH
DFL .                          7 : DRILLING FLUID LOSS
MSS .                   FLOWLINE : MUD SAMPLE SOURCE
RMS .OHMM                   1.18 : RESISTIVITY MUD SAMPLE
MST .DEGC                   26.7 : MUD SAMPLE TEMPERATURE
RMF .OHMM                   1.28 : RESISTIVITY MUD FILTRATE SAMPLE
MFST.DEGC                     20 : MUD FILTRATE SAMPLE TEMPERATURE
RMC .OHMM                  0.535 : RESISTIVITY MUD CAKE
MCST.DEGC                     78 : MUD CAKE SAMPLE TEMPERATURE
MFSS.                      PRESS : MUD FILTRATE SAMPLE SOURCE
MCSS.                    FILT CK : MUD CAKE SAMPLE SOURCE
RMB .OHMM                  0.573 : RESISTIVITY MUD AT BHT
TCS .HRS                    1800 : TIME CIRCULATED STOPPED
TLAB.HRS                    2332 : TIME LOGGER AT BOTTOM
LUN .                       8123 : LOGGING UNIT NUMBER
LUL .                         RD : LOGGING UNIT LOCATION
ENGI.                      POWER : RECORDING ENGINEER
WITN.                     SANDHU : WITNESSED BY
CLNT.                    A2DTECH : CLIENT CODE
ORIG. 6.5"/100" 16.5"/100M PRINT : ORIGIN OF DATA
UWI .           100070104103W500 : UNIQUE WELL ID
DICO.     A2D Technologies, Inc. : DIGITIZING COMPANY
~Other -----------------------------------------------------
~ASCII -----------------------------------------------------
# ...
 1550.00000  372.37900  256.95350  273.63470  273.63470  171.05420   87.97490 1928.50730    -999.25    0.42750    0.45700    5.84610   87.97490  293.44400  293.44400   98.40840   94.95270   94.95270    5.84610    5.23110    5.23110    -999.25    0.43870    0.39670    3.08690    3.08690 1928.50730    5.38530   -6.84130    5.38530 12627.50000 10822.15040   -0.55420
 1600.00000  333.97540  241.09620  263.68970  263.68970   91.04980   67.28230 2097.17240    -999.25    0.33660    0.35840   10.98300   67.28230  260.49280  260.49280   86.89800   81.67580   81.67580   10.98300    9.77550    9.77550    -999.25    0.34560    0.30190    3.41790    3.41790 2097.17240    8.77180   -9.33610    8.77180 12882.54200 10962.63180   -3.93440
 1650.00000  323.14040  293.53810  291.05810  291.05810  105.20560   83.23140 1806.56370    -999.25    0.51300    0.52830    9.50520   83.23140  261.75360  261.75360   98.66400   93.74140   93.74140    9.50520    9.08500    9.08500    -999.25    0.33070    0.28690    3.07070    3.07070 1806.56370    8.73970   -5.95630    8.73970 12741.74510 11208.13670   -2.74270
 1700.00000  308.98830  244.95840  243.09090  243.09090  118.26480   35.66860 1651.54960    -999.25    0.59960    0.61900    8.45560   35.66860  298.46290  298.46290  115.24030  109.51150  109.51150    8.45560    7.91320    7.91320    -999.25    0.43880    0.39680    3.14440    3.14440 1651.54960    9.27490   -3.29270    9.27490 13015.49320 11365.54590   -2.31350
 1750.00000  214.38620  245.56510  219.24560  219.24560  136.28430    3.76060 2558.89180    -999.25    0.04660    0.08840    7.33760    3.76060  248.24400  248.24400   97.53000   97.49730   97.49730    7.33760    9.01080    9.01080    -999.25    0.30530    0.26130    3.61940    3.61940 2558.89180   20.78870    1.35220   20.78870 13007.19340 11652.83890   -0.13630
 1800.00000  223.45420  311.20470  240.19030  240.19030   98.28110  127.96580 2178.12720    -999.25    0.29220    0.31100   10.17490  127.96580  330.46920  330.46920  179.24750  171.81970  171.81970   10.17490    9.61470    9.61470    -999.25    0.51710    0.47810    3.07500    3.07500 2178.12720   13.14190    4.10080   13.14190 13083.16890 11840.90330   -1.44460
 1850.00000  323.99180  265.14300  280.14200  280.14200  312.83240   92.96050 2230.08110    -999.25    0.25800    0.28070    3.19660   92.96050  318.39830  318.39830   95.63140  100.20030  100.20030    3.19660    2.87270    2.87270    -999.25    0.43510    0.39300    2.99570    2.99570 2230.08110    3.31490    5.53950    3.31490 13161.08690 11993.67190   -1.18540
 1900.00000  331.53930  260.65610  282.52370  282.52370  282.31040   97.72860 2244.21000    -999.25    0.24920    0.27240    3.54220   97.72860  289.28800  289.28800   84.99860   89.89150   89.89150    3.54220    3.43870    3.43870    -999.25    0.41870    0.37620    2.98660    2.98660 2244.21000    3.66050   16.38330    3.66050 13623.13380 12367.62890   -1.92360
 1950.00000  297.58820  255.76670  260.46830  260.46830  110.23050    1.09640 2543.24460    -999.25    0.07610    0.09750    9.07190    1.09640  232.51110  232.51110   64.65010   67.49050   67.49050    9.07190    8.46210    8.46210    -999.25    0.23730    0.19350    3.08840    3.08840 2543.24460   11.29290    3.39510   11.29290 14004.06840 12463.24120   -7.97720
 2000.00000  242.53310  264.94500  241.87670  241.87670   72.67180   -7.81190 2600.17800    -999.25    0.02230    0.06420   13.76050   -7.81190  234.18030  234.18030   97.23940   92.03220   92.03220   13.76050   14.74120   14.74120    -999.25    0.28000    0.23600    2.79380    2.79380 2600.17800   15.94670   -5.53020   15.94670 14139.21580 12579.35740   -3.67760
 2050.00000  212.84990  227.13160  205.60010  205.60010   11.90750    6.13610 2411.43020    -999.25    0.14460    0.17460   83.98060    6.13610  233.14170  233.14170   14.01150   11.85610   11.85610   83.98060   87.72120   87.72120    -999.25    0.14890    0.10640    2.36890    2.36890 2411.43020   98.62980  -48.10260   98.62980 14197.91600 13065.56640  -37.37380
 2100.00000  220.54780  229.88730  220.67710  220.67710   12.52710   45.24100 2577.43680    0.07710    -999.25    0.07750   79.82690   45.24100  218.03230  218.03230    -999.25   46.33460   46.33460   79.82690   69.35680   69.35680    0.10900    -999.25    0.10900    5.16480    5.16480 2577.43680   57.70790 -128.24440   57.70790 14403.70900 13073.25980  -93.26490
 2150.00000  266.72330  268.12790  248.88130  248.88130    6.00490   -4.26410 2704.25880    0.00280    -999.25    0.00340  166.53080   -4.26410  166.33000  166.33000   22.28130   20.96470   20.96470  166.53080  149.81680  149.81680    0.01270    -999.25    0.01270    4.84270    4.84270 2704.25880  186.07510  -90.09570  186.07510 14704.37010 13431.03420  -53.46880
 2200.00000  227.98510  239.51750  225.34400  225.34400    2.95150    1.91560 2712.64450   -0.00150    -999.25   -0.00150  338.81120    1.91560  170.29600  170.29600   22.13580   22.23700   22.23700  338.81120  319.75930  319.75930    0.02130    -999.25    0.02130    4.36780    4.36780 2712.64450  384.09260 -106.80390  384.09260 14893.47170 13665.86330  -65.35970
 2250.00000  222.80280  239.82220  226.02180  226.02180    1.32260    4.61560 2701.67330    0.00410    -999.25    0.00490  756.09990    4.61560  170.80150  170.80150   19.54750   25.24880   25.24880  756.09990  589.40280  589.40280    0.01800    -999.25    0.01800    5.01060    5.01060 2701.67330  525.34510 -120.18580  525.34510 15388.88670 13762.98050  -73.92420
 2300.00000  217.54830  275.94490  235.15770  235.15770    4.71340   -0.01750 2694.76460    0.00820    -999.25    0.00890  212.16140   -0.01750  161.93420  161.93420    8.99960   11.14090   11.14090  212.16140  613.17580  613.17580    0.01180    -999.25    0.01180    4.62460    4.62460 2694.76460  961.64780  -87.36880  961.64780 15364.79790 14123.27830  -38.77600
 2350.00000  256.39070  250.38910  245.64860  245.64860   25.82380   -6.29550 2909.59550   -0.11860    -999.25   -0.11670   38.72400   -6.29550  173.39540  173.39540   12.27390   12.05260   12.05260   38.72400   42.50690   42.50690    0.01220    -999.25    0.01220    5.00770    5.00770 2909.59550  144.83200  -47.24110  144.83200 15363.04590 14286.71680   -5.39140
 2400.00000  256.71370  233.89660  231.24850  231.24850    3.15670  106.63640 2726.70120   -0.03120    -999.25   -0.00980  316.78220  106.63640  165.89380  165.89380   17.04570   19.26860   19.26860  316.78220  396.24390  396.24390    0.07540    -999.25    0.07540    3.54970    3.54970 2726.70120  296.29590  -86.84460  296.29590 15795.91310 14613.24220  -50.95570
 2450.00000  244.84620  229.99670  232.11940  232.11940    5.33000    1.45810 2920.68680   -0.12400    -999.25   -0.12320  187.61790    1.45810  164.93960  164.93960   14.26480   13.61800   13.61800  187.61790  129.22580  129.22580    0.01380    -999.25    0.01380    4.40010    4.40010 2920.68680  321.01370 -124.11270  321.01370 15891.52930 14766.08790  -94.18470
 2500.00000  249.74640  256.80050  246.15350  246.15350    0.93130   -8.64720 2897.80760   -0.11070    -999.25   -0.10980 1073.82350   -8.64720  160.79610  160.79610   14.63470   13.03770   13.03770 1073.82350  573.80210  573.80210    0.01360    -999.25    0.01360    4.90950    4.90950 2897.80760 1399.19450 -128.07570 1399.19450 16083.91890 15040.77730 -104.10850
 2550.00000  214.45840  234.04300  220.33270  220.33270    9.78480    4.61480 2774.17700   -0.03850    -999.25   -0.03750  102.19970    4.61480  158.20780  158.20780   26.62000   28.04130   28.04130  102.19970  113.12200  113.12200    0.06860    -999.25    0.06860    3.24330    3.24330 2774.17700  124.00670 -122.85440  124.00670 16716.58790 15315.80470 -104.80520
 2600.00000  215.78420  236.26450  223.37460  223.37460   15.87380   -4.95780 2792.86470   -0.04840    -999.25   -0.04850   62.99690   -4.95780  181.06930  181.06930   68.14420   71.28780   71.28780   62.99690   64.92510   64.92510    0.11210    -999.25    0.11210    3.44120    3.44120 2792.86470   75.32670  -15.03420   75.32670 16790.28910 15461.25100   -7.06880
