~Version ---------------------------------------------------
VERS.      2.0 : CWLS log ASCII Standard -VERSION 2.0
WRAP.       NO : One line per depth step
CREA. 08/04/17 : LAS Creation Date
~Well ------------------------------------------------------
STRT.FT                             1100.0 : START DEPTH
STOP.FT                            11250.0 : STOP DEPTH
STEP.FT                           50.00000 : STEP LENGTH
NULL.                              -999.25 : NULL VALUE
COMP.                 PETROFINA CANADA LTD : COMPANY
WELL. FINA AMOCO HB SAKWATAMAU 10-21-62-15 : WELL
FLD .                                   WC : FIELD
LOC .                                      : LOCATION
CTRY.                               CANADA : COUNTRY
SRVC.                         Schlumberger : SERVICE COMPANY
DATE.                          21-Aug-1976 : LOGDATE
PROV.                              Alberta : PROVINCE
UWI .                     100102106215W500 : UNIQUE WELL ID
SLAT.WGS84                        54.37886 : SURFACE LATITUDE
SLON.WGS84                       -116.1857 : SURFACE LONGITUDE
~Curve Information -----------------------------------------
DEPT    .FT    : Depth Curve
CALDED  .IN    : CALIPER FROM CND LOG [ADJ. TO ILDED]
CALSED  .IN    : CALIPER FROM BCS LOG [ADJ. TO GRDED]
CALWS   .IN    : CALIPER [CALSED]
CILDED  .MMHO  : DEEP INDUCTION CONDUCTIVITY FROM DIL-LAT LOG
CONDWS  .MMHO  : CONDUCTIVITY [CILDED]
DCORWS  .G/C3  : DENSITY CORRECTION [DRHOED]
DENWS   .G/C3  : FROMATION BILK DENSITY [RHOBED]
DPHILSED.V/V   : DENSITY POROSITY LIMESTONE [M=2.71, F=1000] FROM CND LOG [ADJ. TO RHOBED]
DPHISSED.V/V   : DENSITY POROSITY SANDSTONE [M=2.65, F=1.00] FROM CND LOG [ADJ. TO RHOBED]
DPOLSWS .V/V   : DENSITY POROSITY LIMESTONE [CALCULATED FROM DENWS, M=2.71, F=1.00]
DRESWS  .OHMM  : DEEP RESISTIVITY [spl. 1000/CONDWS, IF ILDED <=1, ILDED/ILDED at 4490']
DRHOED  .G/C3  : BULK DENSITY CORRECTION FROM CND LOG [ADJ. TO ILDED]
DTED    .US/F  : DELTA-T (INTERVAL TRANSIT TIME) FROM BCS LOG  [ADJ. TO GRDED]
DTWS    .US/F  : COMPRESSIONA L SONIC [DTED]
GRDED   .GAPI  : GAMMA RAY FROM CND LOG [ADJ. TO ILDED]
GRSED   .GAPI  : GAMMA RAY FROM BCS LOG  [ADJ. TO GRDED]
GRWS    .GAPI  : GAMMA RAY [GRSED SPL. TO GRDED @ 11233.5']
ILDED   .OHMM  : DEEP INDUCTION RESISTIVITY FROM DIL-LAT LOG
ILMED   .OHMM  : MEDIUM INDUCTION  RESISTIVITY FROM DIL-LAT LOG
LL8ED   .OHMM  : LATEROLOG 8 FROM DIL-LAT LOG
MRESWS  .OHMM  : MEDIUM RESISTIVITY [ILMED]
NPHILSED.V/V   : NEUTRON POROSITY LIMESTONE FROM CND LOG [ADJ. TO RHOBED]
NPHISSED.V/V   : NEUTRON POROSITY SANDSTONE FROM CND LOG [ADJ. TO RHOBED]
NPOLSWS .V/V   : NEUTRON POROSITY LIMESTONE [NPHISSED MATRIX CONVERSION FRO LIMESTONE,SPL TO NPHILSED @ 6345']
RHOBED  .G/C3  : BULK DENSITY FROM CND LOG [ADJ. TO ILDED]
SPRED   .MV    : SPONTANEOUS POTENTIAL FROM DIL-LAT LOG
SPWS    .MV    : SPONTANEOUS POTENTIAL [BASELINE 0 MV, SPRED]
SRESWS  .OHMM  : SHALLOW RESISTIVITY [LL8ED]
~Params ----------------------------------------------------
PD  .                     GL : PERMANENT DATUM
EPD .FT               3315.9 : ELEVATION PERMANENT DATUM
LMF .                     KB : LOG MEASURED FROM
DAPD.FT                 15.1 : FEET ABOVE PERMANENT DATUM
EKB .FT                 3331 : KELLY BUSHING
EGL .FT               3315.9 : GROUND LEVEL
DATE.               08/21/76 : RUN DATE
RUN .                      1 : RUN NUMBER
DD  .FT                11275 : DEPTH DRILLER
DL  .FT                11270 : DEPTH LOGGER
BLI .FT                11267 : BOTTOM LOG INTERVAL
TLI .FT                 1134 : TOP LOG INTERVAL
CBD .FT                 1134 : CASING BOTTOM DRILLER
CBL .FT                 1134 : CASING BOTTOM LOGGER
BS  .IN                 8.75 : BIT SIZE
BSD .FT                11275 : BIT SIZE AT DEPTH
DFT .               GEL CHEM : DRILLING FLUID TYPE
DFD .                    9.5 : DRILLING FLUID DENSITY
DFV .                     95 : DRILLING FLUID VISCOSITY
DFPH.                   10.5 : DRILLING FLUID PH
DFL .                      7 : DRILLING FLUID LOSS
MSS .               FLOWLINE : MUD SAMPLE SOURCE
RMS .OHMM                2.7 : RESISTIVITY MUD SAMPLE
MST .DEGF                 55 : MUD SAMPLE TEMPERATURE
RMF .OHMM               2.65 : RESISTIVITY MUD FILTRATE SAMPLE
MFST.DEGF                 56 : MUD FILTRATE SAMPLE TEMPERATURE
RMB .OHMM               0.56 : RESISTIVITY MUD AT BHT
TCS .HRS                 3.5 : TIME CIRCULATED STOPPED
LUN .                   7691 : LOGGING UNIT NUMBER
LUL .                    WCT : LOGGING UNIT LOCATION
ENGI.                GOODMAN : RECORDING ENGINEER
WITN.                 TIFFIN : WITNESSED BY
CLNT.                A2DTECH : CLIENT CODE
ORIG.            2" 5" PRINT : ORIGIN OF DATA
UWI .       100102106215W500 : UNIQUE WELL ID
DICO. A2D Technologies, Inc. : DIGITIZING COMPANY
~Other -----------------------------------------------------
~ASCII -----------------------------------------------------
# ...
 6100.00000   11.98660   10.56570   10.56570    -999.25   49.79090    0.17940    2.24470    -999.25    0.34130    0.27210   20.08400    0.17940   85.32490   85.32490   89.83450   70.73660   70.73660   20.08400   25.58140   36.42300   25.58140    -999.25    0.41490    0.37230    2.24470   -3.07280  -16.97430   36.42300
 6150.00000   10.47650    9.51910    9.51910    -999.25  121.18710    0.08300    2.52670    -999.25    0.08240    0.10720    8.25170    0.08300   73.11600   73.11600   83.61970   82.62100   82.62100    8.25170    9.65300   15.29450    9.65300    -999.25    0.21770    0.17410    2.52670  -44.06110  -60.46750   15.29450
 6200.00000   12.02970   10.76570   10.76570    -999.25  192.17100    0.12850    2.73890    -999.25   -0.06100   -0.01690    5.20370    0.12850   67.94580   67.94580   83.65060   81.28700   81.28700    5.20370    5.75170    6.01630    5.75170    -999.25    0.34130    0.29760    2.73890    5.70230  -13.22550    6.01630
 6250.00000   12.13250   10.49860   10.49860    -999.25  130.91750    0.13240    2.67610    -999.25   -0.01660    0.01980    7.63840    0.13240   61.91090   61.91090   90.57470   77.30040   77.30040    7.63840    7.86640    9.50530    7.86640    -999.25    0.17620    0.13310    2.67610   12.81480   -9.66470    9.50530
 6300.00000   14.57910   11.05000   11.05000    -999.25  147.61240    0.20620    2.53230    -999.25    0.06970    0.10390    6.77450    0.20620   79.31310   79.31310  105.92960  106.74450  106.74450    6.77450    7.28750    8.20460    7.28750    -999.25    0.26340    0.21940    2.53230   14.57630  -11.72310    8.20460
 6350.00000   13.72260   11.44840   11.44840    -999.25  185.97040    0.24990    2.36320    0.16640    -999.25    0.20280    5.37720    0.24990   95.18390   95.18390  106.58470   92.50640   92.50640    5.37720    5.66770    8.00610    5.66770    0.40930    -999.25    0.40930    2.36320   24.84340   -5.23870    8.00610
 6400.00000    9.20030    9.05040    9.05040    -999.25    3.47640    0.04400    2.64300    0.03680    -999.25    0.03920  287.65020    0.04400   57.77500   57.77500   41.97050   33.27130   33.27130  287.65020 1296.93550  423.19300 1296.93550    0.06460    -999.25    0.06460    2.64300    6.06790  -10.25570  423.19300
 6450.00000   10.08440    9.85680    9.85680    -999.25  119.79490    0.02970    2.71440   -0.00200    -999.25   -0.00260    8.34760    0.02970   64.59450   64.59450   84.17610   85.97400   85.97400    8.34760    9.01240   16.19390    9.01240    0.17750    -999.25    0.17750    2.71440   10.83310  -17.43110   16.19390
 6500.00000   10.62560   10.45390   10.45390    -999.25  315.22870    0.14170    2.62520    0.05560    -999.25    0.04960    3.17230    0.14170   65.67660   65.67660   36.63950   38.10840   38.10840    3.17230    4.30310   15.50260    4.30310    0.21260    -999.25    0.21260    2.62520  -56.93210  -94.45290   15.50260
 6550.00000   10.74460   10.14740   10.14740    -999.25    8.13640    0.06740    2.69500    0.01730    -999.25    0.00880  122.90430    0.06740   50.92560   50.92560   43.18890   45.01700   45.01700  122.90430  160.83260  148.50380  160.83260    0.05610    -999.25    0.05610    2.69500   22.71810  -20.42850  148.50380
 6600.00000   11.54270   10.44810   10.44810    -999.25    2.33470    0.11180    2.69770    0.01010    -999.25    0.00720  428.32180    0.11180   51.51200   51.51200   22.64600   23.37070   23.37070  428.32180  269.66070  227.41930  269.66070    0.00120    -999.25    0.00120    2.69770    0.31110  -36.43130  227.41930
 6650.00000   10.28370    9.85230    9.85230    -999.25   22.43600    0.20260    2.65920    0.03210    -999.25    0.02970   44.57130    0.20260   51.84260   51.84260   18.50930   16.53210   16.53210   44.57130   67.50500  250.62890   67.50500    0.03170    -999.25    0.03170    2.65920 -129.18120 -159.56120  250.62890
 6700.00000   11.18380   10.30370   10.30370    -999.25   15.10730    0.05540    2.71180   -0.00070    -999.25   -0.00110   66.19300    0.05540   50.04210   50.04210   18.47900   18.73960   18.73960   66.19300  111.45860  344.79210  111.45860    0.00670    -999.25    0.00670    2.71180 -133.77550 -157.75120  344.79210
 6750.00000   11.14830   10.75760   10.75760    -999.25  483.39540    0.13320    2.74480   -0.02920    -999.25   -0.02040    2.06870    0.13320   67.53620   67.53620  108.80660  107.16280  107.16280    2.06870    2.13010    4.99310    2.13010    0.12620    -999.25    0.12620    2.74480  -22.63250  -40.24590    4.99310
 6800.00000   10.66450    9.88030    9.88030    -999.25   64.48620    0.06150    2.79840   -0.05820    -999.25   -0.05170   15.50720    0.06150   58.09620   58.09620   70.89960   72.56390   72.56390   15.50720   16.79900   25.85380   16.79900    0.05320    -999.25    0.05320    2.79840   20.45860   -3.62440   25.85380
 6850.00000   10.94580   10.23020   10.23020    -999.25  166.40320    0.07140    2.77040   -0.03010    -999.25   -0.03540    6.00950    0.07140   55.86070   55.86070   42.85010   43.31370   43.31370    6.00950    5.83540   16.89480    5.83540    0.04730    -999.25    0.04730    2.77040  -22.21900  -52.70890   16.89480
 6900.00000   11.49520   10.28780   10.28780    -999.25   89.44060    0.07930    2.76270   -0.02790    -999.25   -0.03080   11.18060    0.07930   65.11370   65.11370   86.40420   86.35820   86.35820   11.18060   11.78180   18.69220   11.78180    0.02530    -999.25    0.02530    2.76270   33.23720   -2.56740   18.69220
 6950.00000   10.35160    9.70900    9.70900    -999.25   26.61550    0.02020    2.69910    0.00550    -999.25    0.00630   37.57210    0.02020   56.76570   56.76570   44.92440   43.67600   43.67600   37.57210   39.98240   46.81880   39.98240    0.03220    -999.25    0.03220    2.69910   32.47390   -6.92620   46.81880
 7000.00000    9.87050    9.58330    9.58330    -999.25   38.81100    0.05170    2.70910   -0.00310    -999.25    0.00050   25.76590    0.05170   56.42340   56.42340    -999.25   29.19400   29.19400   25.76590   26.57370   31.53450   26.57370    0.01920    -999.25    0.01920    2.70910   34.57530   -7.50560   31.53450
 7050.00000    9.69090    9.28830    9.28830    -999.25   44.05810    0.06970    2.73120   -0.02160    -999.25   -0.01240   22.69730    0.06970   56.59900   56.59900   -0.08950   39.32080   39.32080   22.69730   23.87650   28.77720   23.87650    0.08730    -999.25    0.08730    2.73120   24.42750  -18.57000   28.77720
 7100.00000    9.35830    9.15540    9.15540    -999.25    6.30940    0.01830    2.71320   -0.01090    -999.25   -0.00180  158.49300    0.01830   51.80490   51.80490   21.73770   19.19260   19.19260  158.49300  250.60960  253.54080  250.60960    0.00840    -999.25    0.00840    2.71320  -12.14080  -56.06100  253.54080
 7150.00000    9.56560    9.18870    9.18870    -999.25   28.40640    0.02460    2.74030   -0.01760    -999.25   -0.01770   35.20330    0.02460   51.30420   51.30420   19.42830   21.13360   21.13360   35.20330   42.39440   74.66730   42.39440    0.01170    -999.25    0.01170    2.74030  -25.87080  -70.70760   74.66730
 7200.00000    9.76620    9.48340    9.48340    -999.25    6.73640    0.01860    2.72430   -0.01130    -999.25   -0.00840  148.44770    0.01860   51.30670   51.30670   19.05720   20.59270   20.59270  148.44770  184.22000  165.23690  184.22000    0.00790    -999.25    0.00790    2.72430   -0.76660  -46.52610  165.23690
 7250.00000    9.33050    9.22200    9.22200    -999.25    6.05600    0.03820    2.73260   -0.02150    -999.25   -0.01320  165.12510    0.03820   53.36760   53.36760   39.99870   40.58720   40.58720  165.12510  227.57250  210.45580  227.57250    0.01580    -999.25    0.01580    2.73260   32.67030  -14.00590  210.45580
 7300.00000   10.72650   10.54270   10.54270    -999.25   26.13950    0.03290    2.60880    0.06120    -999.25    0.05920   38.25630    0.03290   77.52750   77.52750  147.47140  143.92970  143.92970   38.25630   40.85120   54.43270   40.85120    0.19640    -999.25    0.19640    2.60880   42.34200   -4.92480   54.43270
