~Version ---------------------------------------------------
VERS.      2.0 : CWLS log ASCII Standard -VERSION 2.0
WRAP.       NO : One line per depth step
CREA. 08/31/17 : LAS Creation Date
~Well ------------------------------------------------------
STRT.FT                                 1050.0 : START DEPTH
STOP.FT                                10100.0 : STOP DEPTH
STEP.FT                               50.00000 : STEP LENGTH
NULL.                                  -999.25 : NULL VALUE
COMP.            HUDSON'S BAY OIL & GAS CO LTD : COMPANY
WELL. HUDSONS BAY UNION SNIPE LAKE 16-19-68-19 : WELL
FLD .                                          : FIELD
LOC .                                          : LOCATION
CTRY.                                   CANADA : COUNTRY
SRVC.                   Schlumberger of Canada : SERVICE COMPANY
DATE.                              25-Mar-1962 : LOGDATE
PROV.                                  Alberta : PROVINCE
UWI .                         100161906819W500 : UNIQUE WELL ID
SLAT.WGS84                            54.90768 : SURFACE LATITUDE
SLON.WGS84                           -116.8764 : SURFACE LONGITUDE
~Curve Information -----------------------------------------
DEPT  .FT         : Depth Curve
CALWS .IN         : CALIPER [MCALDED]
CILDED.MMHO       : CONDUCTIVITY INDUCTION LOG DEEP FROM RESISTIVITY LOG
CONDWS.MMHO       : CONDUCTIVITY [1000/DRESWS]
DRESWS.OHMM       : DEEP RESISTIVITY [1000/CILDED, IF ILDED<5, ILDED]
DTED  .US/F       : ACOUSTIC TRANSIT TIME SLOWNESS, DELTA T FROM SONIC LOG
DTWS  .US/F       : COMPRESSIONAL SONIC [DTED]
GRRED .UgRa-Eq/T  : GAMMA RAY FROM SONIC LOG
GRWS  .GAPI       : GAMMA RAY [GRRED*16.50 FOR GAPI]
ILDED .OHMM       : DEEP INDUCTION RESISTIVITY FROM RESISTIVITY LOG
MCALED.IN         : MLT [MICROLOG] CALIPER FROM SONIC LOG
SNED  .OHMM       : SHORT NORMAL 10" FROM RESISTIVITY LOG
SPRED .MV         : SPONTANEOUS POTENTIAL FROM RESISTIVITY LOG
SPWS  .MV         : SPONTANEOUS POTENTIAL [BASELINE 0 MV, SPRED]
SRESWS.OHMM       : SHALLOW RESISTIVITY [SNED]
~Params ----------------------------------------------------
PD  .                     GL : PERMANENT DATUM
EPD .FT                 2478 : ELEVATION PERMANENT DATUM
LMF .                     KB : LOG MEASURED FROM
DAPD.FT                 12.6 : FEET ABOVE PERMANENT DATUM
EKB .FT               2490.6 : KELLY BUSHING
EGL .FT                 2478 : GROUND LEVEL
DATE.               03/25/62 : RUN DATE
RUN .                      1 : RUN NUMBER
DD  .FT                10135 : DEPTH DRILLER
DL  .FT                10139 : DEPTH LOGGER
BLI .FT                10138 : BOTTOM LOG INTERVAL
TLI .FT                 1010 : TOP LOG INTERVAL
CBD .FT                 1009 : CASING BOTTOM DRILLER
CBL .FT                 1010 : CASING BOTTOM LOGGER
BS  .IN                    9 : BIT SIZE
BSD .FT                10135 : BIT SIZE AT DEPTH
DFT .                    GEL : DRILLING FLUID TYPE
DFD .                     10 : DRILLING FLUID DENSITY
DFV .                    190 : DRILLING FLUID VISCOSITY
DFPH.                    8.5 : DRILLING FLUID PH
DFL .                    7.2 : DRILLING FLUID LOSS
RMS .OHMM                2.6 : RESISTIVITY MUD SAMPLE
MST .DEGF                 62 : MUD SAMPLE TEMPERATURE
RMF .OHMM                  2 : RESISTIVITY MUD FILTRATE SAMPLE
MFST.DEGF                 68 : MUD FILTRATE SAMPLE TEMPERATURE
RMC .OHMM               3.04 : RESISTIVITY MUD CAKE
MCST.DEGF                 68 : MUD CAKE SAMPLE TEMPERATURE
RMB .OHMM              0.815 : RESISTIVITY MUD AT BHT
TCS .HRS                   4 : TIME CIRCULATED STOPPED
LUN .                   1534 : LOGGING UNIT NUMBER
LUL .                    EDM : LOGGING UNIT LOCATION
ENGI.                SKILTON : RECORDING ENGINEER
WITN.                   COLE : WITNESSED BY
CLNT.                A2DTECH : CLIENT CODE
ORIG.            2" 5" PRINT : ORIGIN OF DATA
UWI .       100161906819W500 : UNIQUE WELL ID
DICO. A2D Technologies, Inc. : DIGITIZING COMPANY
~Other -----------------------------------------------------
~ASCII -----------------------------------------------------
# ...
 3500.00000    -999.25  400.67170  400.67170    2.49580    -999.25    -999.25    -999.25    -999.25    3.55090    -999.25    3.94830 -112.61050  -11.34990    3.94830
 3550.00000    -999.25  420.27000  420.27000    2.37940    -999.25    -999.25    -999.25    -999.25    3.84730    -999.25    3.34510 -114.26730  -12.83580    3.34510
 3600.00000   15.93900  569.73900  569.73900    1.75520    -999.25    -999.25    -999.25    -999.25    3.08970   15.93900    2.75220 -111.74940  -10.14580    2.75220
 3650.00000   12.91980  288.84320  288.84320    3.46210    -999.25    -999.25    -999.25    -999.25    4.45370   12.91980    4.29720 -111.97740  -10.20290    4.29720
 3700.00000   13.98050  224.65500  192.13260    5.20510    -999.25    -999.25    -999.25    -999.25    5.20510   13.98050    5.12350 -111.05100   -8.17020    5.12350
 3750.00000   14.16420  178.36910  161.89090    6.17700    -999.25    -999.25    -999.25    -999.25    6.17700   14.16420    6.70060 -119.11760  -13.97780    6.70060
 3800.00000   12.78010  144.09200  139.50700    7.16810    -999.25    -999.25    -999.25    -999.25    7.16810   12.78010    6.79680 -126.73710  -18.44660    6.79680
 3850.00000    8.82810  959.09420  959.09420    1.04270    -999.25    -999.25    -999.25    -999.25    2.56020    8.82810    2.50380 -113.55220   -2.20030    2.50380
 3900.00000   10.58800   94.57960   94.05300   10.63230    -999.25    -999.25    -999.25    -999.25   10.63230   10.58800   17.71670 -159.14740  -48.24960   17.71670
 3950.00000   12.59520  230.00570  230.00570    4.34780    -999.25    -999.25    -999.25    -999.25    4.86970   12.59520    6.05310 -114.47740   -4.03660    6.05310
 4000.00000   10.47460  156.90000  150.49140    6.64490    -999.25    -999.25    -999.25    -999.25    6.64490   10.47460   10.29360 -155.06180  -45.22880   10.29360
 4050.00000    8.20370  292.58060  292.58060    3.41790    -999.25    -999.25    -999.25    -999.25    4.17690    8.20370   17.97160 -193.83780  -84.79740   17.97160
 4100.00000    8.82630  161.85940  158.65490    6.31280    -999.25    -999.25    -999.25    -999.25    6.31280    8.82630   17.21050 -156.36650  -48.12400   17.21050
 4150.00000   12.31130  180.01560  171.15670    5.84260    -999.25    -999.25    -999.25    -999.25    5.84260   12.31130    7.09820 -110.05780   -2.63730    7.09820
 4200.00000   13.31420  164.49620  162.96510    6.14520    -999.25    -999.25    -999.25    -999.25    6.14520   13.31420    7.66140 -112.11310   -5.55480    7.66140
 4250.00000   11.73520  100.80360   97.52960   10.25330    -999.25    -999.25    -999.25    -999.25   10.25330   11.73520   12.53820 -115.06380   -9.36190   12.53820
 4300.00000   10.73570  199.37860  180.71420    5.53360    -999.25    -999.25    -999.25    -999.25    5.53360   10.73570    8.00640 -126.40130  -21.55590    8.00640
 4350.00000    8.32100  152.56460  147.20940    6.79310    -999.25    -999.25    -999.25    -999.25    6.79310    8.32100   21.95950 -177.73290  -73.54400   21.95950
 4400.00000   10.03110  141.65980  136.77270    7.31140    -999.25    -999.25    -999.25    -999.25    7.31140   10.03110   12.53460 -118.52000  -14.52250   12.53460
 4450.00000   10.98800  196.17840  182.78230    5.47110    -999.25    -999.25    -999.25    -999.25    5.47110   10.98800    6.29730 -105.93250   -2.12780    6.29730
 4500.00000    8.20920  233.28570  233.28570    4.28660    -999.25    -999.25    -999.25    -999.25    4.79030    8.20920   14.03700 -172.20270  -68.58940   14.03700
 4550.00000    7.99250  172.94090  163.15080    6.12930    -999.25    -999.25    -999.25    -999.25    6.12930    7.99250   18.17870 -193.14400  -89.72220   18.17870
 4600.00000    9.62230  159.53480  152.77250    6.54580    -999.25    -999.25    -999.25    -999.25    6.54580    9.62230    8.25950 -114.04560  -10.81650    8.25950
 4650.00000    9.74950  122.43200  119.77770    8.34880    -999.25    -999.25    -999.25    -999.25    8.34880    9.74950   10.66030 -111.65260   -8.75170   10.66030
 4700.00000   11.19530  300.02190  300.02190    3.33770    -999.25    -999.25    -999.25    -999.25    4.07220   11.19530    5.02750 -104.55700   -3.08010    5.02750
 4750.00000    9.33290   87.24620   78.59410   12.72360    -999.25    -999.25    -999.25    -999.25   12.72360    9.33290   13.06010 -117.62370  -17.56140   13.06010
 4800.00000   12.19930  251.01010  251.01010    3.98390   94.80590   94.80590   63.93020   63.93020    4.57280   12.19930    5.56610 -106.74150   -8.09380    5.56610
 4850.00000    8.16870  197.08280  182.79030    5.47090   81.74670   81.74670   21.48780   21.48780    5.47090    8.16870   18.87010 -179.38900  -82.16520   18.87010
 4900.00000   13.00570  550.94940  550.94940    1.81500  102.66910  102.66910   55.15540   55.15540    3.04970   13.00570    2.92180 -101.43400   -5.62490    2.92180
 4950.00000   15.01660  476.44410  476.44410    2.09890   90.93980   90.93980   53.66120   53.66120    3.23480   15.01660    3.31400 -110.91210  -16.52690    3.31400
 5000.00000   10.13160   51.36550   47.94350   20.85790  104.02440  104.02440   87.91500   87.91500   20.85790   10.13160   29.62870 -100.33790   -6.47930   29.62870
 5050.00000    9.75510   19.28750   16.00700   62.47270  100.98500  100.98500  124.53570  124.53570   62.47270    9.75510   71.05970 -101.59520   -6.97410   71.05970
 5100.00000    9.57700    9.70090    8.05140  124.28210   66.79170   66.79170   57.77620   57.77620  124.28210    9.57700  139.76630 -123.08820  -29.25820  139.76630
 5150.00000    8.40850  219.68010  219.68010    4.55210   75.37670   75.37670   47.59090   47.59090    4.71890    8.40850   18.56900 -163.88470  -71.11470   18.56900
 5200.00000    8.20520  234.81860  234.81860    4.25860   72.53440   72.53440   46.88100   46.88100    4.68850    8.20520   18.63870 -175.59330  -83.23470   18.63870
 5250.00000   10.57290  282.79930  282.79930    3.53610   71.27500   71.27500   49.39580   49.39580    3.94730   10.57290   11.40440 -133.34320  -40.98460   11.40440
 5300.00000    9.75760  282.62720  282.62720    3.53820   73.51430   73.51430   59.36150   59.36150    4.01060    9.75760   12.34440 -131.89500  -39.53640   12.34440
 5350.00000    7.64710  957.18420  957.18420    1.04480   82.99040   82.99040   16.14240   16.14240    2.18200    7.64710    5.85780 -234.66280 -142.30420    5.85780
 5400.00000    7.58560  272.73860   89.87790   11.12620   51.06800   51.06800   25.80460   25.80460   11.12620    7.58560   21.35570 -221.01610 -128.65750   21.35570
 5450.00000    8.57400   46.49760   44.77260   22.33580   50.92350   50.92350   23.49350   23.49350   22.33580    8.57400   63.41080 -223.80580 -131.44720   63.41080
 5500.00000    8.66140   23.61390   21.92930   45.60110   47.22550   47.22550   17.82200   17.82200   45.60110    8.66140   69.07130 -184.47460  -92.11600   69.07130
 5550.00000    8.81580   78.20020   68.84590   14.52520   52.07370   52.07370   20.70020   20.70020   14.52520    8.81580   34.77680 -159.47210  -67.11350   34.77680
 5600.00000    9.02090  142.66870  143.32430    6.98600   61.03640   61.03640   27.37910   27.37910    6.98600    9.02090   48.53440 -203.62850 -111.26990   48.53440
 5650.00000    8.97660  708.41850  708.41850    1.41160   74.86610   74.86610   48.83790   48.83790    2.46310    8.97660    7.91210 -178.01510  -85.77750    7.91210
 5700.00000   10.31270   31.17390   29.35220   34.06900   56.10890   56.10890   31.53100   31.53100   34.06900   10.31270   49.69090 -107.63170  -15.93870   49.69090
 5750.00000   10.90520   31.32220   28.25030   35.39790   59.09720   59.09720   41.42740   41.42740   35.39790   10.90520   37.96420 -105.22970  -13.75360   37.96420
 5800.00000   11.10650  218.07180  218.07180    4.58560   62.38480   62.38480   52.06720   52.06720    4.89290   11.10650   14.59360 -151.01880  -56.21240   14.59360
 5850.00000    9.36110  772.23820  772.23820    1.29540   67.80710   67.80710   35.76640   35.76640    2.22410    9.36110   15.39790 -203.77850 -114.85740   15.39790
 5900.00000   10.04720  109.74010  105.45070    9.48310   56.57650   56.57650   29.21990   29.21990    9.48310   10.04720   23.66610 -154.60140  -71.52710   23.66610
