~Version ---------------------------------------------------
VERS. 2.0 : CWLS log ASCII Standard -VERSION 2.0
WRAP.  NO : ONE LINE PER DEPTH STEP
~Well ------------------------------------------------------
STRT.F                              1150.0 : START DEPTH
STOP.F                             10850.0 : STOP DEPTH
STEP.F                            50.00000 : STEP LENGTH
NULL.                              -999.25 : NULL VALUE
COMP.             CANADIAN KEWANEE LIMITED : COMPANY
WELL. KEWANEE ET AL SAKWATAMAU 10-15-63-15 : WELL
FLD .                                   WC : FIELD
LOC .                                      : LOCATION
CTRY.                               CANADA : COUNTRY
SRVC.                         Schlumberger : SERVICE COMPANY
DATE.                          21-Mar-1965 : LOGDATE
PROV.                              Alberta : PROVINCE
UWI .                     100101506315W500 : UNIQUE WELL ID
SLAT.WGS84                        54.45235 : SURFACE LATITUDE
SLON.WGS84                        -116.177 : SURFACE LONGITUDE
~Curve Information -----------------------------------------
DEPT  .F                 : 
GRS   .GAPI 60 310 01 00 : GAMMA RAY FROM SONIC LOG
DT    .US/F 60 500 33 00 : DELTA-T (INTERVAL TRANSIT TIME)
CALS  .IN   60 280 50 00 : CALIPER FROM SONIC LOG
CILD  .MMHO 05 110 46 00 : INDUCTION DEEP CONDUCTIVITY
ILD   .OHMM 05 120 46 00 : INDUCTION DEEP RESISTIVITY
SN    .OHMM 05 040 16 00 : SHORT NORMAL RESISTIVITY
SPR   .MV   05 010 01 00 : SPONTANEOUS POTENTIAL FROM RESISTIVITY LOG
SPR_1 .MV   05 010 01 00 : SPONTANEOUS POTENTIAL FROM RESISTIVITY
CILD_1.MMHO 05 110 46 00 : INDUCTION DEEP CONDUCTIVITY
ILD_1 .OHMM 05 120 46 00 : INDUCTION DEEP RESISTIVITY
SN_1  .OHMM 05 040 16 00 : SHORT NORMAL
~Params ----------------------------------------------------
PD  .                    SCF : PERMANENT DATUM
EPD .FT                 3104 : ELEVATION PERMANENT DATUM
LMF .                    SCF : LOG MEASURED FROM
EKB .FT               3117.1 : KELLY BUSHING
EGL .FT                 3103 : GROUND LEVEL
DATE.               03/12/65 : RUN DATE
RUN .                      1 : RUN NUMBER
DD  .FT                10858 : DEPTH DRILLER
DL  .FT                10864 : DEPTH LOGGER
BLI .FT                10863 : BOTTOM LOG INTERVAL
TLI .FT                 9600 : TOP LOG INTERVAL
BS  .IN                 8.75 : BIT SIZE
BSD .FT                10858 : BIT SIZE AT DEPTH
DFT .                    GEL : DRILLING FLUID TYPE
DFD .                    9.8 : DRILLING FLUID DENSITY
DFV .                     73 : DRILLING FLUID VISCOSITY
DFPH.                     10 : DRILLING FLUID PH
DFL .                    7.8 : DRILLING FLUID LOSS
RMS .OHMM               2.32 : RESISTIVITY MUD SAMPLE
MST .DEGF                 52 : MUD SAMPLE TEMPERATURE
RMF .OHMM               1.72 : RESISTIVITY MUD FILTRATE SAMPLE
MFST.DEGF                 52 : MUD FILTRATE SAMPLE TEMPERATURE
RMC .OHMM                2.1 : RESISTIVITY MUD CAKE
MCST.DEGF                 52 : MUD CAKE SAMPLE TEMPERATURE
RMB .OHMM               0.56 : RESISTIVITY MUD AT BHT
TCS .HRS                   2 : TIME CIRCULATED STOPPED
LUN .                   3534 : LOGGING UNIT NUMBER
LUL .                    WCT : LOGGING UNIT LOCATION
ENGI.                  HAYES : RECORDING ENGINEER
WITN.                 FISHER : WITNESSED BY
CLNT.                A2DTECH : CLIENT CODE
ORIG.               5" PRINT : ORIGIN OF DATA
UWI .       100101506315W500 : UNIQUE WELL ID
DICO. A2D Technologies, Inc. : DIGITIZING COMPANY
~Other -----------------------------------------------------
~ASCII -----------------------------------------------------
 1150.00000   51.90800  133.32350   10.47200  364.75280    4.06690    4.29800  -35.32880    -999.25    -999.25    -999.25    -999.25
 1200.00000   53.77610  126.98800   10.22120  377.93320    4.15950    3.82500  -37.76140    -999.25    -999.25    -999.25    -999.25
 1250.00000   42.49900  113.92190   11.66970  212.66730    6.29390    6.16850  -37.39350    -999.25    -999.25    -999.25    -999.25
 1300.00000   38.59850  108.90270    9.07180  145.82480    8.60340    7.67360  -42.34460    -999.25    -999.25    -999.25    -999.25
 1350.00000   54.59280  138.72280   11.51020  340.96760    4.31980    3.74120  -37.87280    -999.25    -999.25    -999.25    -999.25
 1400.00000   36.09180  137.39860   10.56590  426.92170    3.85440    3.55150  -39.25730    -999.25    -999.25    -999.25    -999.25
 1450.00000   44.72380  142.23690   11.14360  400.10630    4.01640    3.55530  -38.55410    -999.25    -999.25    -999.25    -999.25
 1500.00000   39.88600  138.95390    9.62750  336.36800    4.01760    4.66290  -37.27480    -999.25    -999.25    -999.25    -999.25
 1550.00000   48.39970  107.98390   11.22530  258.27800    5.03060    6.01900  -36.86370    -999.25    -999.25    -999.25    -999.25
 1600.00000   49.85410  119.84170   10.45480  433.21880    3.74780    3.23670  -36.00190    -999.25    -999.25    -999.25    -999.25
 1650.00000   56.41190  112.42510   10.09100  371.74990    3.67670    3.35670  -37.07590    -999.25    -999.25    -999.25    -999.25
 1700.00000   46.15550  143.63670   12.99980  462.08540    3.69260    4.38420  -37.20220    -999.25    -999.25    -999.25    -999.25
 1750.00000   61.78950  114.71230   10.97690  314.99570    4.44800    4.10650  -37.60980    -999.25    -999.25    -999.25    -999.25
 1800.00000   53.29590  128.38430   10.32400  474.11750    3.53690    3.31810  -36.44330    -999.25    -999.25    -999.25    -999.25
 1850.00000   52.98130  105.56450   11.08000  365.73280    4.29690    3.97570  -36.61350    -999.25    -999.25    -999.25    -999.25
 1900.00000   56.13650  118.72220   11.53580  404.47230    3.79070    3.47810  -35.66910    -999.25    -999.25    -999.25    -999.25
 1950.00000   73.95580  126.26700    9.53350  549.40610    3.46710    2.89700  -35.85660    -999.25    -999.25    -999.25    -999.25
 2000.00000   33.45870  101.45720    9.45810  363.90260    4.13280    3.87970  -42.08080    -999.25    -999.25    -999.25    -999.25
 2050.00000   42.74320  101.40020    9.69960  161.16440    7.47860    8.61450  -39.35520    -999.25    -999.25    -999.25    -999.25
 2100.00000   55.86690  136.04540   11.57050  296.39140    4.86850    5.22870  -40.80710    -999.25    -999.25    -999.25    -999.25
 2150.00000   43.63550  106.58220   10.02920  325.84550    4.08240    4.46150  -37.82940    -999.25    -999.25    -999.25    -999.25
 2200.00000   38.69210  124.95770   11.27080  370.96020    3.92280    3.54950  -37.92290    -999.25    -999.25    -999.25    -999.25
 2250.00000   47.14900  113.61170    9.93770  261.99440    4.60290    4.92630  -37.96450    -999.25    -999.25    -999.25    -999.25
 2300.00000   21.52750   68.99020    9.50150   51.74590   25.04410   19.63810  -44.43380    -999.25    -999.25    -999.25    -999.25
 2350.00000   29.99040  126.13940   11.11970  267.96170    4.74510    4.13550  -38.16290    -999.25    -999.25    -999.25    -999.25
 2400.00000   46.23290  125.75100   10.46130  277.25600    5.10440    4.36270  -37.29410    -999.25    -999.25    -999.25    -999.25
 2450.00000   35.06480  144.29480    9.61810  327.32960    4.71340    4.29700  -37.11800    -999.25    -999.25    -999.25    -999.25
 2500.00000   26.56800  111.32880    9.60090  126.56510    9.00900    9.83440  -42.43760    -999.25    -999.25    -999.25    -999.25
 2550.00000   36.73960  134.13180   10.91370  372.05450    4.01070    4.38840  -37.43880    -999.25    -999.25    -999.25    -999.25
 2600.00000   42.83290  105.62400   11.91920  329.73920    4.56290    3.95810  -37.62240    -999.25    -999.25    -999.25    -999.25
 2650.00000   39.66660   91.75110   10.08640  266.91430    4.69370    5.05110  -37.80680    -999.25    -999.25    -999.25    -999.25
 2700.00000   33.98090   95.37780   10.82600  204.57260    6.38150    6.46720  -40.26300    -999.25    -999.25    -999.25    -999.25
 2750.00000   33.24980   95.30150    8.41360  184.17440    7.49560    6.86080  -50.83020    -999.25    -999.25    -999.25    -999.25
 2800.00000   40.31700  111.31420   11.07050  306.01890    4.23230    4.74940  -36.68430    -999.25    -999.25    -999.25    -999.25
 2850.00000   36.13840  116.55550   10.18800  320.25380    4.70320    4.35570  -36.72360    -999.25    -999.25    -999.25    -999.25
 2900.00000   29.64860   91.49340    9.47880  119.92470    9.75140   11.21610  -59.38310    -999.25    -999.25    -999.25    -999.25
 2950.00000   40.23690   98.00390   10.03930  160.48620    8.63180    9.25610  -37.47580    -999.25    -999.25    -999.25    -999.25
 3000.00000   35.21900  107.10940   11.52720  282.35180    4.47580    4.75720  -36.56410    -999.25    -999.25    -999.25    -999.25
 3050.00000   44.62650   98.00850    9.58550  262.11410    4.74140    5.24400  -37.33630    -999.25    -999.25    -999.25    -999.25
 3100.00000   39.47890  106.42580   10.19810  329.37650    4.15740    4.47800  -37.06130    -999.25    -999.25    -999.25    -999.25
 3150.00000   51.37390  119.11690   10.59160  220.65790    5.73310    5.49220  -40.17320    -999.25    -999.25    -999.25    -999.25
 3200.00000   50.36790   82.86150   12.66380  144.97490    8.02900    6.94220  -43.11250    -999.25    -999.25    -999.25    -999.25
 3250.00000   60.19400   99.45840   11.34790  195.87660    6.25680    6.05350  -43.85320    -999.25    -999.25    -999.25    -999.25
 3300.00000   67.91460  105.47500   12.03420  221.48720    5.72730    5.89970  -43.31150    -999.25    -999.25    -999.25    -999.25
 3350.00000   63.08850   95.79090   11.44370  121.50890    9.55700   10.74240  -43.28800    -999.25    -999.25    -999.25    -999.25
 3400.00000   65.10290   99.88000   12.63230  153.48670    7.53370    8.07170  -42.93590    -999.25    -999.25    -999.25    -999.25
 3450.00000   52.67770   95.11670   12.50550  184.40030    6.42320    6.86510  -44.71210    -999.25    -999.25    -999.25    -999.25
 3500.00000   57.31520  104.45540   12.20060  197.21730    6.37920    6.03570  -45.57890    -999.25    -999.25    -999.25    -999.25
 3550.00000   58.59590  100.38500   11.27620  179.49980    6.70280    6.25940  -45.47850    -999.25    -999.25    -999.25    -999.25
 3600.00000   56.79030   96.08940   12.31480  145.30320    7.97520    8.32610  -45.22840    -999.25    -999.25    -999.25    -999.25
 3650.00000   65.85690   99.40890   12.78320  211.39490    5.76410    6.14890  -45.52820    -999.25    -999.25    -999.25    -999.25
 3700.00000   69.86500  101.04270   12.41840  185.08000    6.65030    6.04170  -45.94310    -999.25    -999.25    -999.25    -999.25
 3750.00000   61.35900  101.75830   11.99060  154.00270    7.75210    7.24070  -45.52050    -999.25    -999.25    -999.25    -999.25
 3800.00000   64.14260   95.52160   12.22210  200.83090    6.24250    5.95720  -45.92690    -999.25    -999.25    -999.25    -999.25
 3850.00000   65.57160  117.38740   13.14480  152.63620    8.01160    7.48500  -45.67480    -999.25    -999.25    -999.25    -999.25
 3900.00000   53.17420   99.93190   11.27760  147.62470    7.83630    6.73890  -47.05420    -999.25    -999.25    -999.25    -999.25
 3950.00000   68.44770   97.38720   11.13620  158.26630    7.19600    6.32270  -47.36370    -999.25    -999.25    -999.25    -999.25
 4000.00000   64.67300   96.26860   10.92850  164.27920    7.47660    6.87730  -46.02490    -999.25    -999.25    -999.25    -999.25
 4050.00000   68.37000   91.48390   12.73730  176.37370    6.48370    7.24660  -45.39690    -999.25    -999.25    -999.25    -999.25
 4100.00000   69.05370  102.40040   12.98470  175.61090    6.60360    7.29960  -44.05510    -999.25    -999.25    -999.25    -999.25
 4150.00000   75.16610  108.19020   12.86940  166.04640    7.00360    8.01640  -43.46520    -999.25    -999.25    -999.25    -999.25
