~Version ---------------------------------------------------
VERS.      2.0 : CWLS log ASCII Standard -VERSION 2.0
WRAP.       NO : One line per depth step
CREA. 09/06/14 : LAS Creation Date
~Well ------------------------------------------------------
STRT.FT                         300.0 : START DEPTH
STOP.FT                       11250.0 : STOP DEPTH
STEP.FT                      50.00000 : STEP LENGTH
NULL.                         -999.25 : NULL VALUE
COMP.            MOBIL OIL CANADA LTD : COMPANY
WELL. MOBIL ET AL ROSEVEAR 10-4-54-15 : WELL
FLD .                              WC : FIELD
LOC .                                 : LOCATION
CTRY.                          CANADA : COUNTRY
SRVC.                    Schlumberger : SERVICE COMPANY
DATE.                     09-Jul-1971 : LOGDATE
PROV.                         Alberta : PROVINCE
UWI .                100100405415W500 : UNIQUE WELL ID
SLAT.WGS84                   53.63557 : SURFACE LATITUDE
SLON.WGS84                  -116.1457 : SURFACE LONGITUDE
~Curve Information -----------------------------------------
DEPT   .FT                : DEPTH FEET
CALD   .IN   45 280 60 00 : CALIPER FROM DENSITY LOG
CALN   .IN   41 280 60 00 : CALIPER FROM NEUTRON LOG
CALS   .IN   60 280 50 00 : CALIPER FROM SONIC LOG
CILD   .MMHO 05 110 46 00 : INDUCTION DEEP CONDUCTIVITY
DPHI_LS.DEC  45 890 10 00 : DENSITY POROSITY LIMESTONE
DRHO   .G/C3 45 356 01 00 : BULK DENSITY CORRECTION
DT     .US/F 60 500 00 00 : DELTA-T (INTERVAL TRANSIT TIME)
GRD    .GAPI 45 310 01 00 : GAMMA RAY FROM DENSITY LOG
GRN    .GAPI 41 310 01 00 : GAMMA RAY FROM GRN LOG
GRS    .GAPI 60 310 01 00 : GAMMA RAY FROM SONIC LOG
ILD    .OHMM 05 120 46 00 : INDUCTION DEEP RESISTIVITY
MCAL   .IN   15 280 01 00 : MLT (MICROLOG) CALIPER
RHOB   .G/C3 45 350 01 00 : BULK DENSITY
SN     .OHMM 05 040 16 00 : SHORT NORMAL RESISTIVITY
SNP_LS .DEC  41 890 01 00 : SIDEWALL NEUTRON POROSITY [LIMESTONE]
SPR    .MV   05 010 01 00 : SPONTANEOUS POTENTIAL FROM RESISTIVITY LOG
~Params ----------------------------------------------------
PD  .                     GL : PERMANENT DATUM
EPD .FT                 2903 : ELEVATION PERMANENT DATUM
LMF .                     KB : LOG MEASURED FROM
DAPD.FT                   13 : FEET ABOVE PERMANENT DATUM
EKB .FT                 2916 : KELLY BUSHING
EGL .FT                 2903 : GROUND LEVEL
DATE.               07/09/71 : RUN DATE
RUN .                      1 : RUN NUMBER
DD  .FT                11300 : DEPTH DRILLER
DL  .FT                11289 : DEPTH LOGGER
BLI .FT                11288 : BOTTOM LOG INTERVAL
TLI .FT                 1176 : TOP LOG INTERVAL
CBD .FT                 1176 : CASING BOTTOM DRILLER
CBL .FT                 1176 : CASING BOTTOM LOGGER
BS  .IN                 8.75 : BIT SIZE
BSD .FT                11300 : BIT SIZE AT DEPTH
DFT .                    GEL : DRILLING FLUID TYPE
DFD .                    9.1 : DRILLING FLUID DENSITY
DFV .                    100 : DRILLING FLUID VISCOSITY
DFPH.                     11 : DRILLING FLUID PH
DFL .                    8.2 : DRILLING FLUID LOSS
RMS .OHMM               2.46 : RESISTIVITY MUD SAMPLE
MST .DEGF                 71 : MUD SAMPLE TEMPERATURE
RMF .OHMM               2.36 : RESISTIVITY MUD FILTRATE SAMPLE
MFST.DEGF                 72 : MUD FILTRATE SAMPLE TEMPERATURE
RMC .OHMM               2.22 : RESISTIVITY MUD CAKE
MCST.DEGF                 72 : MUD CAKE SAMPLE TEMPERATURE
TCS .HRS                   5 : TIME CIRCULATED STOPPED
LUN .                   7501 : LOGGING UNIT NUMBER
LUL .                    EDM : LOGGING UNIT LOCATION
ENGI.                  PLUNE : RECORDING ENGINEER
WITN.                   DOAN : WITNESSED BY
CLNT.                A2DTECH : CLIENT CODE
ORIG.            2" 5" PRINT : ORIGIN OF DATA
UWI .       100100405415W500 : UNIQUE WELL ID
DICO. A2D Technologies, Inc. : DIGITIZING COMPANY
~Other -----------------------------------------------------
~ASCII -----------------------------------------------------
# ...
 8900.00000   12.46840   12.21570    9.78080    0.62490    0.20410    0.19620   51.96450    9.52780    9.27620    9.68430    -999.25   11.65170    2.44450  189.48310    0.10380 -178.49890
 8950.00000   14.98700   15.23460    9.74010    1.26180    0.16780    0.18930   50.26610   12.61580   12.52480   14.37380  506.88530   12.34610    2.46580  136.67300    0.11670 -175.23300
 9000.00000   13.99250   13.60900    9.78050    2.89020    0.08830    0.19190   56.34050   10.31410    9.15200   12.38660  299.18030   11.04820    2.54710  170.02620    0.10280 -167.76980
 9050.00000   12.69280   12.26040    9.65460    0.48340    0.04570    0.19680   50.80960   14.69530   12.57470   13.56260    -999.25   11.57560    2.57820  245.91500    0.06010 -172.34010
 9100.00000   12.81190   12.53760    9.57630    5.58150    0.10810    0.24450   48.26040   10.79350   11.59350    9.50200  172.20870   11.25510    2.53260  129.32340    0.09650 -183.01740
 9150.00000    8.89300    8.92470    9.07200   15.24130    0.00220    0.16930   47.24200   11.51690    7.00970   12.92330   63.82210    7.08650    2.75120   85.84500    0.07700 -201.07590
 9200.00000   11.20050   10.74960    9.38020    5.07270    0.08480    0.24990   47.64170   13.81600   13.18990   15.99440  191.35530    9.64400    2.58570  143.24510    0.08980 -127.46360
 9250.00000   11.97470   11.33210    9.57590    2.62700    0.24860    0.24910   49.32040   12.32140   13.85020   13.69160  372.28510   11.66740    2.36160  232.13820    0.18080 -156.38870
 9300.00000   13.73190   13.02800    9.60210    2.54840    0.33830    0.20380   48.38170   14.02220   11.14870   15.99290  388.99190   10.81180    2.09770  122.47880    0.20030 -163.76190
 9350.00000   11.52540   10.96050    9.67960    5.25900    0.19470    0.24640   53.49150   21.32760   23.30400   21.63280  185.95220   10.44500    2.58250   97.59660    0.11340 -144.55910
 9400.00000   11.90180   11.40370    9.80820   20.52560    0.16740    -999.25   53.14770   26.02880   25.27010   27.88660   48.99300   10.44640    2.39890   52.53630    0.13400 -105.25480
 9450.00000    8.75670    9.47880    9.63900   39.55420    0.03840    0.06460   61.20640   55.08880   52.61700   52.86630   24.67360    8.88020    2.72500   37.01930    0.08580  -45.44290
 9500.00000    9.32710    9.17160    9.37550   53.62570   -0.02090    0.24970   61.99270   65.85750   60.09290   61.84760   18.56200    8.89390    2.76650   25.98360    0.07830  -49.80590
 9550.00000    8.93410    9.18600    9.18250   47.04970   -0.03200    0.04160   62.68240   54.39540   51.52260   60.52720   21.19870    8.84630    2.66150   26.69220    0.05880  -43.63040
 9600.00000   13.20670    -999.25    9.95390   98.78650    -999.25    -999.25   66.85460   72.47960    -999.25   64.25360   10.09470   10.23860    2.28790   14.08840    -999.25  -45.27950
 9650.00000    -999.25    -999.25   14.47370  151.03640    -999.25    0.22430   78.90450   81.29290    -999.25   83.62440    6.66760   10.33250    1.97750    7.23070    -999.25  -77.32730
 9700.00000   12.40780    -999.25    9.45420   90.52920    -999.25    0.25200   69.85080   79.13010    -999.25   78.74590   11.10080    9.89000    2.19700   15.25150    -999.25  -54.25830
 9750.00000    9.93110    -999.25    9.40710   44.28540    -999.25    0.23180   57.54650   45.75800    -999.25   47.24080   22.12010    9.27890    2.62410   37.10030    -999.25  -52.19100
 9800.00000   13.69900    -999.25   11.32810   99.64760    -999.25    -999.25   68.12460   64.81250    -999.25   66.78740   10.11700   11.07220    2.26940   11.83180    -999.25  -67.04400
 9850.00000    9.03860    -999.25    9.39610   27.91260    -999.25    0.01350   56.71860   49.07390    -999.25   50.54310   35.98480    9.04470    2.70700   46.74870    -999.25  -37.24470
 9900.00000   11.67150    -999.25    9.61870   82.89160    -999.25    -999.25   68.67250   84.97220    -999.25   89.56260   11.97910    9.78780    2.58270   15.40280    -999.25  -54.09610
 9950.00000    9.54600    -999.25    9.44130   65.50650    -999.25    0.10270   65.53860   79.55680    -999.25   81.68560   15.27610    8.83930    2.76400   21.01730    -999.25  -55.58040
 10000.00000    9.08400    -999.25    9.43680   45.43470    -999.25    0.02910   61.35140   58.76030    -999.25   63.56600   21.99760    8.81830    2.78320   29.08810    -999.25  -45.26110
 10050.00000    9.74900    -999.25    9.53900   63.32240    -999.25    0.21170   64.39240   70.47740    -999.25   67.36930   15.90260    9.16990    2.56000   20.92960    -999.25  -45.67470
 10100.00000   11.96460    -999.25   10.06510   89.39950    -999.25    -999.25   69.52190   89.56050    -999.25   93.07340   11.17100   10.11400    2.47150   15.75270    -999.25  -41.79150
 10150.00000   10.08290    -999.25    9.72040   69.00540    -999.25    0.17870   68.53230   89.85640    -999.25   93.64200   14.41200    9.49600    2.62610   20.13460    -999.25  -38.07220
 10200.00000   12.02130    -999.25   10.04770   87.85500    -999.25    -999.25   70.05000   79.05360    -999.25   78.12560   11.19210   10.21130    2.60640   15.56210    -999.25  -33.79410
 10250.00000   10.33450    -999.25    9.76050   77.14310    -999.25    0.24850   66.77810   72.95730    -999.25   83.38120   12.85340    9.54230    2.58610   17.56410    -999.25  -29.04360
 10300.00000   11.05340    -999.25    9.94870   85.08010    -999.25    0.22340   71.09240   94.47830    -999.25  105.57530   11.68550    9.92170    2.69130   17.09020    -999.25  -29.83560
 10350.00000   10.12420    -999.25    9.75090   67.90240    -999.25    0.21830   67.60230   84.35170    -999.25   81.88410   14.61300    9.54100    2.69870   19.60580    -999.25  -22.73520
 10400.00000    9.51700    9.39090    9.61180   46.46300   -0.02620    0.04790   65.25170   72.44460   72.89680   73.77410   21.42690    8.99730    2.71190   29.96920    0.09270  -13.95210
 10450.00000    8.80600    8.82940    9.29700    7.26950    0.12060    0.04190   73.20980  111.42070  103.20110  111.29370  135.10420    8.63180    2.56890  110.68870    0.09730  -12.96000
 10500.00000    9.13750    9.12210    9.58990   12.06160    0.02390    0.06400   63.16090   73.94920   70.23950   72.39390   82.77890    8.66880    2.70050   79.69590    0.07240   -2.48830
 10550.00000   11.03500   10.59280   10.02160   29.99440    0.09210    0.24880   69.37720   93.36740   98.14740   97.89300   33.38780    9.70860    2.56260   50.68440    0.17920    2.60110
 10600.00000   11.50800   11.32180    9.70450    0.57100    0.16080    0.20510   51.05220    7.96780    7.69210    7.49950  538.73990   11.37290    2.52230  287.79830    0.05720  -61.67760
 10650.00000   10.30330    9.82940    9.62010    1.10690    0.08220    0.24000   49.29890    7.11040    7.49210    6.37030    -999.25   10.10110    2.71870  201.95710    0.04030 -102.50070
 10700.00000   11.13520   10.87420    9.78530    0.56800    0.08380    0.24900   48.32040    6.24990    8.20180    8.34960    -999.25   10.17530    2.56390  326.78060    0.04510 -116.63960
 10750.00000   10.89720   10.52510    9.58180    1.06360    0.06570    0.24950   48.24270   11.54620   18.18260   13.09640    -999.25    9.20320    2.55240  317.42470    0.05040  -68.95110
 10800.00000   10.71260   10.52100    9.72490    1.02080    0.08980    0.21440   48.67060   17.87760   22.89360   22.26950    -999.25    9.47610    2.54620  393.88460    0.04670  -71.50770
 10850.00000   10.76310   10.59150    9.72680    0.61770    0.08940    0.15380   49.50270   11.97720   14.07450   13.72240    -999.25   10.13330    2.60060  281.40810    0.05730  -84.91650
 10900.00000   12.00210   11.45580   10.42250    2.45210    0.26530    0.23960   58.13230   13.22660   13.69990   12.20020  389.09690   11.75080    2.36350  357.11680    0.13840  -78.02470
 10950.00000   11.94240   11.42980    9.70940    0.42610    0.11610    0.24940   50.48010   12.34560   11.39720   12.00210    -999.25   11.17460    2.53720  396.54550    0.06340  -58.16070
 11000.00000   11.22650   11.61840    9.73500    0.71610    0.13020    0.24960   54.32990   17.03040   16.95000   19.53390    -999.25   10.04610    2.50360  311.79750    0.10350  -44.16320
