~Version ---------------------------------------------------
VERS.      2.0 : CWLS log ASCII Standard -VERSION 2.0
WRAP.       NO : One line per depth step
CREA. 08/04/17 : LAS Creation Date
~Well ------------------------------------------------------
STRT.FT                       1050.0 : START DEPTH
STOP.FT                      11000.0 : STOP DEPTH
STEP.FT                     50.00000 : STEP LENGTH
NULL.                        -999.25 : NULL VALUE
COMP.           PETROFINA CANADA LTD : COMPANY
WELL. FINA AMOCO HB GROAT 10-9-58-16 : WELL
FLD .                             WC : FIELD
LOC .                                : LOCATION
CTRY.                         CANADA : COUNTRY
SRVC.         Schlumberger of Canada : SERVICE COMPANY
DATE.                    08-Apr-1977 : LOGDATE
PROV.                        Alberta : PROVINCE
UWI .               100100905816W500 : UNIQUE WELL ID
SLAT.WGS84                  54.00097 : SURFACE LATITUDE
SLON.WGS84                 -116.3132 : SURFACE LONGITUDE
~Curve Information -----------------------------------------
DEPT    .FT    : Depth Curve
CALDED  .IN    : CALIPER FROM COMPENSATED NEUTRON FORMATION DENSITY LOG
CALSED  .IN    : CALIPER FROM BOREHOLE COMPENSATED SONIC LOG [ADJ. TO ILDED/CALDED]
CALWS   .IN    : CALIPER [CALSED SPL. TO CALDED @ 6213']
CONDWS  .MMHO  : CONDUCTIVITY [1000/DRESWS]
DCORED  .G/C3  : DENSITY CORRECTION FROM COMPENSATED NEUTRON FORMATION DENSITY LOG
DCORWS  .G/C3  : DENSITY CORRECTION [DCORED]
DENWS   .G/C3  : FORMATION BULK DENSITY [RHOBED]
DPHILSED.V/V   : DENSITY POROSITY LIMESTONE [M=2.71 F=1.0] FROM COMPENSATED NEUTRON FORMATION DENSITY LOG [ADJ. TO RHOBED]
DPHISSED.V/V   : DENSITY POROSITY SANDSTONE [M=2.65 F=1.0] FROM COMPENSATED NEUTRON FORMATION DENSITY LOG [ADJ. TO RHOBED]
DPOLSWS .V/V   : DENSITY POROSITY LIMESTONE [M=2.71 F=1.0 CALCULATED FROM DENWS]
DRESWS  .OHMM  : DEEP RESISTIVITY [ILDED]
DTED    .US/F  : DELTA-T (INTERVAL TRANSIT TIME)  FROM BOREHOLE COMPENSATED SONIC LOG [ADJ. TO ILDED]
DTWS    .US/F  : COMPRESSIONAL SONIC [DTED]
GRDED   .GAPI  : GAMMA RAY FROM COMPENSATED NEUTRON FORMATION DENSITY LOG
GRSED   .GAPI  : GAMMA RAY  FROM BOREHOLE COMPENSATED SONIC LOG [GRSED IN CASING FROM 1045 - 1158.5'] [ADJ. TO ILDED]
GRWS    .GAPI  : GAMMA RAY [GRSED]
ILDED   .OHMM  : DEEP INDUCTION RESISTIVITY  FROM DUAL INDUCTION-LATEROLOG
ILMED   .OHMM  : MEDIUM INDUCTION RESISTIVITY  FROM DUAL INDUCTION-LATEROLOG
LL8ED   .OHMM  : LATEROLOG 8 FROM DUAL INDUCTION-LATEROLOG
MRESWS  .OHMM  : MEDIUM RESISTIVITY [ILMED]
NPHILSED.V/V   : NEUTRON POROSITY LIMESTONE FROM COMPENSATED NEUTRON FORMATION DENSITY LOG [ADJ. TO RHOBED]
NPHISSED.V/V   : NEUTRON POROSITY SANDSTONE FROM COMPENSATED NEUTRON FORMATION DENSITY LOG [ADJ. TO RHOBED]
NPOLSWS .V/V   : NEUTRON POROSITY LIMESTONE [NPHISSED MATRIX CONVERTED TO LIMESTONE AND SPL. TO NPHILSED FROM 2478 - 7249']
RHOBED  .G/C3  : FORMATION BULK DENSITY FROM COMPENSATED NEUTRON FORMATION DENSITY LOG
SPRED   .MV    : SPONTANEOUS POTENTIAL FROM DUAL INDUCTION-LATEROLOG
SPWS    .MV    : SPONTANEOUS POTENTIAL [BASELINE 0 MV, SPRED]
SRESWS  .OHMM  : SHALLOW RESISTIVITY [LL8ED]
~Params ----------------------------------------------------
PD  .                     GL : PERMANENT DATUM
EPD .FT               3310.2 : ELEVATION PERMANENT DATUM
LMF .                     KB : LOG MEASURED FROM
DAPD.FT                 13.5 : FEET ABOVE PERMANENT DATUM
EKB .FT                 3324 : KELLY BUSHING
EGL .FT               3310.2 : GROUND LEVEL
DATE.               04/08/77 : RUN DATE
RUN .                      1 : RUN NUMBER
DD  .FT                11000 : DEPTH DRILLER
DL  .FT                11005 : DEPTH LOGGER
BLI .FT                10999 : BOTTOM LOG INTERVAL
TLI .FT                 1159 : TOP LOG INTERVAL
CBD .FT                 1159 : CASING BOTTOM DRILLER
CBL .FT                 1159 : CASING BOTTOM LOGGER
BS  .IN                 8.75 : BIT SIZE
BSD .FT                11000 : BIT SIZE AT DEPTH
DFT .                    GEL : DRILLING FLUID TYPE
DFD .                    9.2 : DRILLING FLUID DENSITY
DFV .                    245 : DRILLING FLUID VISCOSITY
DFPH.                     10 : DRILLING FLUID PH
DFL .                    7.2 : DRILLING FLUID LOSS
MSS .               FLOWLINE : MUD SAMPLE SOURCE
RMS .OHMM               2.52 : RESISTIVITY MUD SAMPLE
MST .DEGF                 56 : MUD SAMPLE TEMPERATURE
RMF .OHMM               2.35 : RESISTIVITY MUD FILTRATE SAMPLE
MFST.DEGF                 50 : MUD FILTRATE SAMPLE TEMPERATURE
TCS .HRS                 3.5 : TIME CIRCULATED STOPPED
LUN .                   7809 : LOGGING UNIT NUMBER
LUL .                    EDM : LOGGING UNIT LOCATION
ENGI.               BERNISKY : RECORDING ENGINEER
WITN.                 HALKOW : WITNESSED BY
CLNT.                A2DTECH : CLIENT CODE
ORIG.            2" 5" PRINT : ORIGIN OF DATA
UWI .       100100905816W500 : UNIQUE WELL ID
DICO. A2D Technologies, Inc. : DIGITIZING COMPANY
~Other -----------------------------------------------------
~ASCII -----------------------------------------------------
# ...
 3650.00000    9.79030    9.83970    9.83970   69.69220    0.07190    0.07190    2.46320    -999.25    0.12590    0.14430   14.34880   83.02020   83.02020   52.98360   49.44230   49.44230   14.34880   14.98300   14.22510   14.98300    -999.25    0.36290    0.31940    2.46320  -75.99200  -11.87280   14.22510
 3700.00000    9.64760    9.65920    9.65920  130.14790    0.17390    0.17390    2.30400    -999.25    0.20570    0.23740    7.77320   74.04380   74.04380   51.66620   54.80140   54.80140    7.77320    8.32230    8.17540    8.32230    -999.25    0.43370    0.39150    2.30400  -74.49700  -10.49180    8.17540
 3750.00000   10.27680   10.42770   10.42770  133.40270    0.13450    0.13450    2.49080    -999.25    0.10580    0.12820    7.49610   80.55720   80.55720   51.96510   56.11940   56.11940    7.49610    7.88000    7.58960    7.88000    -999.25    0.36230    0.31880    2.49080  -70.44360   -6.55130    7.58960
 3800.00000   10.32130   10.21710   10.21710  135.28870    0.13300    0.13300    2.42170    -999.25    0.14250    0.16860    7.39160   83.02800   83.02800   56.07770   49.04050   49.04050    7.39160    8.21150    7.54680    8.21150    -999.25    0.31590    0.27200    2.42170  -70.63300   -6.85420    7.54680
 3850.00000    9.95420   10.41630   10.41630  265.81610    0.21620    0.21620    2.11980    -999.25    0.32100    0.34510    3.76200  103.16280  103.16280   67.75910   63.35540   63.35540    3.76200    3.98300    3.95350    3.98300    -999.25    0.43160    0.38940    2.11980  -68.25360   -4.58830    3.95350
 3900.00000    8.71490    8.87560    8.87560   23.11110    0.14680    0.14680    2.44710    -999.25    0.13230    0.15370   43.26920   71.75770   71.75770   27.98970   25.84320   25.84320   43.26920   47.29290   42.16380   47.29290    -999.25    0.25200    0.20810    2.44710  -84.55720  -21.00530   42.16380
 3950.00000    8.69760    8.74170    8.74170   30.63310    0.12550    0.12550    2.43480    -999.25    0.13730    0.16100   32.69100   74.26350   74.26350   36.99900   39.44230   39.44230   32.69100   40.18710   43.72010   40.18710    -999.25    0.26900    0.22500    2.43480  -88.43600  -24.99810   43.72010
 4000.00000    9.35770    9.59060    9.59060  120.86200    0.07670    0.07670    2.47590    -999.25    0.11060    0.13690    8.27390   84.50060   84.50060   54.75580   64.22050   64.22050    8.27390    8.59360    7.91470    8.59360    -999.25    0.38010    0.33690    2.47590  -69.15390   -5.82900    7.91470
 4050.00000    9.64920    9.79710    9.79710  198.88620    0.20530    0.20530    2.44050    -999.25    0.13650    0.15760    5.02800   92.38680   92.38680   64.36750   71.84180   71.84180    5.02800    5.20240    5.26680    5.20240    -999.25    0.44360    0.40170    2.44050  -65.87080   -2.65930    5.26680
 4100.00000    9.81280    9.56170    9.56170   98.54160    0.06150    0.06150    2.38950    -999.25    0.15220    0.18740   10.14800   78.87290   78.87290   45.73580   49.53970   49.53970   10.14800   10.69970   11.15360   10.69970    -999.25    0.36240    0.31890    2.38950  -80.29650  -17.29760   11.15360
 4150.00000    9.69210    9.45680    9.45680  121.60720    0.03550    0.03550    2.46720    -999.25    0.11870    0.14200    8.22320   74.05800   74.05800   46.65350   48.37090   48.37090    8.22320    8.92900   10.05470    8.92900    -999.25    0.28480    0.24080    2.46720  -71.23860   -8.51840   10.05470
 4200.00000   10.05600    9.59310    9.59310   93.45580    0.07430    0.07430    2.49970    -999.25    0.09190    0.12300   10.70450   74.88300   74.88300   59.73270   61.51500   61.51500   10.70450   11.19810   11.25090   11.19810    -999.25    0.29490    0.25090    2.49970  -68.46620   -6.02610   11.25090
 4250.00000   11.65690    9.95800    9.95800  202.51520    0.25700    0.25700    2.17310    -999.25    0.28470    0.31400    4.93790   94.16680   94.16680   64.20960   69.29130   69.29130    4.93790    5.12200    5.53720    5.12200    -999.25    0.39100    0.34800    2.17310  -65.69890   -3.49150    5.53720
 4300.00000   12.74610   10.12040   10.12040  176.79090    0.24710    0.24710    2.09090    -999.25    0.34400    0.36200    5.65640   85.88080   85.88080   74.84750   78.89320   78.89320    5.65640    5.85260    6.51520    5.85260    -999.25    0.40180    0.35900    2.09090  -67.01150   -4.80410    6.51520
 4350.00000   12.30300   10.33060   10.33060  152.12360    0.15020    0.15020    2.15880    -999.25    0.30900    0.32230    6.57360   87.81220   87.81220   92.89950   92.08520   92.08520    6.57360    6.80820    7.20510    6.80820    -999.25    0.39690    0.35400    2.15880  -68.05250   -5.84510    7.20510
 4400.00000   12.22800    9.92370    9.92370  141.48670    0.21510    0.21510    2.14610    -999.25    0.29920    0.32980    7.06780   84.75070   84.75070   87.97330   96.87810   96.87810    7.06780    7.31300    7.32780    7.31300    -999.25    0.42270    0.38030    2.14610  -69.16530   -6.95790    7.32780
 4450.00000   11.76370   10.17750   10.17750  128.30460    0.23570    0.23570    2.00520    -999.25    0.34260    0.41220    7.79410   89.22960   89.22960   99.52460  111.96260  111.96260    7.79410    8.07080    8.55400    8.07080    -999.25    0.40850    0.36580    2.00520  -68.08560   -5.87820    8.55400
 4500.00000   11.82270    9.92240    9.92240  150.87050    0.21190    0.21190    1.99690    -999.25    0.39860    0.41700    6.62820   89.07260   89.07260   99.40670  109.82020  109.82020    6.62820    6.88310    8.02770    6.88310    -999.25    0.39880    0.35590    1.99690  -64.85900   -2.65160    8.02770
 4550.00000   11.48140    9.75020    9.75020  105.32860    0.26320    0.26320    2.24470    -999.25    0.24410    0.27210    9.49410   92.97770   92.97770  130.65870  138.34550  138.34550    9.49410    9.82550   12.46720    9.82550    -999.25    0.40350    0.36070    2.24470  -64.59990   -2.39250   12.46720
 4600.00000   11.00600    9.66370    9.66370  125.23320    0.26340    0.26340    2.12960    -999.25    0.30980    0.33940    7.98510   89.15890   89.15890  103.36940  102.74920  102.74920    7.98510    8.26210    9.40380    8.26210    -999.25    0.40800    0.36530    2.12960  -63.93990   -1.73250    9.40380
 4650.00000    9.97600    9.74670    9.74670  148.42960    0.26030    0.26030    2.35570    -999.25    0.19140    0.20720    6.73720   91.46150   91.46150  103.07890  101.95890  101.95890    6.73720    6.97360    7.82760    6.97360    -999.25    0.40460    0.36190    2.35570  -63.68590   -1.47850    7.82760
 4700.00000   10.44120   10.03340   10.03340  182.73350    0.23290    0.23290    2.15250    -999.25    0.30470    0.32610    5.47250   89.45220   89.45220   94.94100  104.72380  104.72380    5.47250    5.66250    5.95540    5.66250    -999.25    0.40520    0.36240    2.15250  -67.67320   -5.46580    5.95540
 4750.00000   10.71860    9.60660    9.60660  165.13370    0.25960    0.25960    2.04930    -999.25    0.36290    0.38640    6.05570   85.24420   85.24420   97.00240   96.55070   96.55070    6.05570    6.30660    6.57100    6.30660    -999.25    0.44330    0.40140    2.04930  -65.88180   -3.67440    6.57100
 4800.00000   10.13330    9.38390    9.38390  148.00120    0.26230    0.26230    2.14910    -999.25    0.30850    0.32800    6.75670   83.27730   83.27730   95.41700   90.19650   90.19650    6.75670    6.99170    7.13920    6.99170    -999.25    0.37040    0.32700    2.14910  -66.11090   -3.90350    7.13920
 4850.00000    8.98970    8.93360    8.93360  131.45440    0.22560    0.22560    2.32790    -999.25    0.18470    0.22350    7.60720   82.73470   82.73470  103.88000  104.86010  104.86010    7.60720    7.87140    8.16740    7.87140    -999.25    0.34740    0.30370    2.32790  -67.83130   -5.62390    8.16740
 4900.00000   11.14740    9.87480    9.87480  147.65380    0.26110    0.26110    2.12000    -999.25    0.31810    0.34500    6.77260   84.71720   84.71720   99.27160  102.23840  102.23840    6.77260    7.01250    7.17250    7.01250    -999.25    0.36140    0.31790    2.12000  -65.82600   -3.61860    7.17250
