~Version ---------------------------------------------------
VERS. 2.0 : CWLS log ASCII Standard -VERSION 2.0
WRAP.  NO : ONE LINE PER DEPTH STEP
~Well ------------------------------------------------------
STRT.F                      950.0 : START DEPTH
STOP.F                    10050.0 : STOP DEPTH
STEP.F                   50.00000 : STEP LENGTH
NULL.                     -999.25 : NULL VALUE
COMP. SHELL CANADA RESOURCES LTD. : COMPANY
WELL.     ISH MAHASKA 11-32-56-13 : WELL
FLD .                             : FIELD
LOC .                             : LOCATION
CTRY.                      CANADA : COUNTRY
SRVC.                Schlumberger : SERVICE COMPANY
DATE.                 17-Nov-1977 : LOGDATE
PROV.                     Alberta : PROVINCE
UWI .            100113205613W500 : UNIQUE WELL ID
SLAT.WGS84               53.88366 : SURFACE LATITUDE
SLON.WGS84              -115.9002 : SURFACE LONGITUDE
~Curve Information -----------------------------------------
DEPT   .F    0   1   0  0 : 1 MEASURED DEPTH
MLL    .OHMM 20 270 04 00 : MICRO FOCUSED LATEROLOG RESISTIVITY
GRR    .GAPI 11 310 01 00 : GAMMA RAY FROM RESISTIVITY LOG
LLD    .OHMM 11 220 10 00 : LATEROLOG DEEP RESISTIVITY
LLS    .OHMM 11 220 09 00 : LATEROLOG SHALLOW RESISTIVITY
CALD   .IN   45 280 60 00 : CALIPER FROM DENSITY LOG
DRHO   .G/C3 45 356 01 00 : BULK DENSITY CORRECTION
GRD    .GAPI 45 310 01 00 : GAMMA RAY FROM DENSITY LOG
RHOB   .G/C3 45 350 01 00 : BULK DENSITY
DPHI_SS.DEC  45 890 12 00 : DENSITY POROSITY SANDSTONE
NPHI_SS.DEC  42 890 03 00 : NEUTRON POROSITY SANDSTONE
DPHI_LS.DEC  45 890 10 00 : DENSITY POROSITY LIMESTONE
NPHI_LS.DEC  42 890 01 00 : NEUTRON POROSITY LIMESTONE
GRS    .GAPI 60 310 01 00 : GAMMA RAY FROM SONIC LOG
DT     .US/F 60 500 00 00 : DELTA-T (INTERVAL TRANSIT TIME)
CALS   .IN   60 280 50 00 : CALIPER FROM SONIC LOG
~Params ----------------------------------------------------
PD  .                     GL : PERMANENT DATUM
EPD .FT               2734.7 : ELEVATION PERMANENT DATUM
LMF .                     KB : LOG MEASURED FROM
DAPD.FT                   13 : FEET ABOVE PERMANENT DATUM
DMF .                     KB : DRILLING MEASURED FROM
EKB .FT               2747.7 : KELLY BUSHING
EGL .FT               2734.7 : GROUND LEVEL
DATE.               11/17/77 : RUN DATE
RUN .                      1 : RUN NUMBER
DD  .FT                10070 : DEPTH DRILLER
DL  .FT                10075 : DEPTH LOGGER
BLI .FT                10074 : BOTTOM LOG INTERVAL
TLI .FT                 4250 : TOP LOG INTERVAL
CBD .FT                 1066 : CASING BOTTOM DRILLER
BS  .IN                 8.75 : BIT SIZE
BSD .FT                10070 : BIT SIZE AT DEPTH
DFT .                    KCL : DRILLING FLUID TYPE
DFD .                    9.3 : DRILLING FLUID DENSITY
DFV .                     85 : DRILLING FLUID VISCOSITY
DFPH.                   10.5 : DRILLING FLUID PH
RMS .OHMM               0.33 : RESISTIVITY MUD SAMPLE
MST .DEGF                 64 : MUD SAMPLE TEMPERATURE
RMF .OHMM               0.47 : RESISTIVITY MUD FILTRATE SAMPLE
MFST.DEGF                 61 : MUD FILTRATE SAMPLE TEMPERATURE
TCS .HRS                 700 : TIME CIRCULATED STOPPED
LUN .                   7730 : LOGGING UNIT NUMBER
LUL .                    EDM : LOGGING UNIT LOCATION
ENGI.                PERKINS : RECORDING ENGINEER
WITN.                  FUCHS : WITNESSED BY
CLNT.                A2DTECH : CLIENT CODE
ORIG.               5" PRINT : ORIGIN OF DATA
UWI .       100113205613W500 : UNIQUE WELL ID
DICO. A2D Technologies, Inc. : DIGITIZING COMPANY
~Other -----------------------------------------------------
~ASCII -----------------------------------------------------
# ...
 7850.00000   10.02260   16.10710   87.77060   73.65090   11.91250    0.14740   13.96960    2.44660    -999.25    -999.25    0.16170    0.02070   17.56110   50.99730    9.94350
 7900.00000    1.15760   15.87630   78.39130   96.27930   11.75560    0.07560   19.71980    2.37560    -999.25    -999.25    0.17620    0.03430   17.56520   51.19530    9.78160
 7950.00000  180.29910   30.78040  226.76700  224.77910    9.36810    0.03360   16.83090    2.82930    -999.25    -999.25   -0.08380    0.01180   38.23070   49.10810    9.21240
 8000.00000  114.48790   46.73050   21.76220   29.24320    9.49580    0.00070   39.33630    2.65880    -999.25    -999.25    0.01740    0.06920   55.94780   56.18830    9.23110
 8050.00000    5.29610   20.73140   36.87700   48.47050    9.47630    0.07880   21.97770    2.54010    -999.25    -999.25    0.08810    0.11640   20.53870   50.58690    9.25300
 8100.00000    3.24560   36.49080   46.01870   52.30300   13.26900    0.24220   32.43050    2.38650    -999.25    -999.25    0.17580    0.10720   34.95870   51.50310    9.42260
 8150.00000  162.23570   42.70570  109.72570  132.62750    9.13790   -0.00460   41.11700    2.67100    -999.25    -999.25    0.00890    0.05200   37.70890   51.37570    9.02980
 8200.00000   80.23460   45.64240   46.03040   55.14750    9.18210   -0.01250   41.32910    2.61040    -999.25    -999.25    0.05230    0.05990   43.85710   55.92900    9.20960
 8250.00000   34.79500   61.55840   24.02100   28.22550    9.25100   -0.00330   54.64940    2.64090    -999.25    -999.25    0.03390    0.10710   57.21170   58.63400    9.25660
 8300.00000   18.19990   73.26170   13.61440   14.45680    9.30550   -0.00260   69.08200    2.60970    -999.25    -999.25    0.05320    0.14860   70.38390   64.88760    9.31380
 8350.00000    3.95000  101.49560    9.65650    8.41460   13.21540    0.13970   94.55640    2.32950    -999.25    -999.25    0.21180    0.23940   99.38080   76.94670   10.39710
 8400.00000    0.50520  103.69570    6.09060    6.48050    -999.25    0.11890   96.99650    1.85260    -999.25    -999.25    -999.25    0.43120   97.61870   83.14890   13.00470
 8450.00000    2.53720   94.29820    8.52100   10.05870   13.44240    0.20960   91.52010    2.36430    -999.25    -999.25    0.18460    0.27420   81.14920   73.40790    9.94090
 8500.00000   18.84880   93.75720   20.70380   23.96600    9.29900    0.01260   80.72170    2.62310    -999.25    -999.25    0.04090    0.20780   84.98190   66.93140    9.09880
 8550.00000    7.63940   96.15000    9.03370   10.87050   11.33120    0.20890   98.45350    2.38030    -999.25    -999.25    0.17080    0.23090   87.05530   71.80220    9.92570
 8600.00000    0.94900   88.83920    7.15260    8.14880    -999.25    0.14370   93.26690    2.18090    -999.25    -999.25    -999.25    0.34570   96.71450   77.46770   11.23280
 8650.00000   82.52140   54.55220   69.78300   74.71290    9.13110   -0.00580   68.99800    2.65840    -999.25    -999.25    0.01830    0.09380   44.37440   53.76230    9.17250
 8700.00000   16.94420   96.15240   14.00500   15.82910    9.42080    0.00970   97.45380    2.66970    -999.25    -999.25    0.01410    0.18550   89.82710   67.28060    9.35260
 8750.00000   18.35520   93.11270   12.11330   14.99580    9.47540    0.00530   90.52830    2.65100    -999.25    -999.25    0.02150    0.18240   91.49030   67.90770    9.54450
 8800.00000   22.99970   76.62070   14.48990   16.34500    9.64710    0.04670   81.30190    2.60970    -999.25    -999.25    0.03750    0.18500   73.38420   65.24340    9.67180
 8850.00000   24.56760   77.88590   19.06220   21.56440    9.38980    0.01030   77.81090    2.68500    -999.25    -999.25    0.02350    0.14650   70.62850   62.73280    9.40420
 8900.00000   19.01670   98.90540   11.41500   13.65770    9.88070    0.00930  100.63980    2.62640    -999.25    -999.25    0.04620    0.18200   88.05060   67.06500    9.67530
 8950.00000   16.54220  103.95970   10.19040   12.70720    9.36970   -0.01280   95.33380    2.62750    -999.25    -999.25    0.03450    0.20340   99.13840   70.53170    9.33640
 9000.00000   16.50190   76.33180   12.70170   15.78740    9.15770   -0.00080   73.58180    2.63280    -999.25    -999.25    0.03450    0.17390   75.91330   65.89710    9.18700
 9050.00000   15.37460  109.43140   10.25040   12.73980    9.34280   -0.00220  112.74170    2.65350    -999.25    -999.25    0.03420    0.20570  103.46490   70.71650    9.47640
 9100.00000   16.64140   98.92760   11.84900   14.05860    9.60050    0.11530  106.13530    2.63490    -999.25    -999.25    0.02400    0.21190   88.21630   68.72060    9.47270
 9150.00000   16.77410  105.79870   11.74220   14.15150    9.24000    0.05390  105.94910    2.68080    -999.25    -999.25    0.02230    0.20090   92.12090   69.25250    9.20530
 9200.00000   15.28010  102.61790   11.28780   13.00390    9.09990    0.00170   96.20540    2.67180    -999.25    -999.25    0.03740    0.18380   83.76100   68.27620    9.10060
 9250.00000  480.00900  102.02840  466.76720  361.06170    8.88320    0.00870   90.51520    2.50930    -999.25    -999.25    0.10910    0.14160   91.12540   72.05680    8.86850
 9300.00000   55.40680   80.31690   37.99580   35.97930    9.07830    0.00860   87.25380    2.64050    -999.25    -999.25    0.04880    0.12500   71.95570   61.43680    9.04420
 9350.00000   16.78940  116.49860   16.62370   17.06700    9.47860    0.00550  109.71410    2.59870    -999.25    -999.25    0.07180    0.16610  120.20110   76.17260    9.49220
 9400.00000   52.39390  126.73720   38.02600   46.09420    9.00140    0.00480  138.35750    2.56810    -999.25    -999.25    0.07100    0.17650  118.14390   71.15470    9.01550
 9450.00000  151.53810   33.63760  220.39540  190.40510    9.08470    0.00910   34.22630    2.67460    -999.25    -999.25    0.01100    0.03170   28.02310   50.04650    9.12400
 9500.00000  413.50480   35.38820  140.26810  119.89510    9.23940    0.07330   19.24720    2.66380    -999.25    -999.25    0.00310    0.00570   44.48010   55.20610    9.08680
 9550.00000  333.26260   18.56010  451.16560  230.82820    9.26570    0.04270   15.30780    2.69680    -999.25    -999.25    0.02130    0.00070   17.83350   48.44130    9.07940
 9600.00000  121.76140   12.35490 9078.23930  291.39800    9.92940    0.04130   12.72450    2.71870    -999.25    -999.25   -0.00030   -0.00260   14.10960   47.44450    9.36780
 9650.00000  478.96560   11.70550  200.79140  131.67290    9.19860   -0.00610   10.44950    2.64650    -999.25    -999.25    0.03070    0.00170    8.79460   49.43120    9.02980
 9700.00000    3.99140   15.81990 4414.76610  460.96930   12.29020    0.13880   15.47140    2.54910    -999.25    -999.25    0.08550    0.00880   18.62520   48.90040    8.97800
 9750.00000    4.01090   14.35610  622.29130  268.16850   10.33980    0.11500   15.80890    2.63800    -999.25    -999.25    0.06000    0.00000   12.21230   50.72630    9.21000
 9800.00000    2.56560   21.52650 8545.75200  260.01390   13.14830    0.11830   21.92420    2.21350    -999.25    -999.25    0.23450    0.01460   26.41960   52.33630    9.41510
 9850.00000  120.32010  152.06580   42.24010   45.48130    8.76320   -0.00090  174.58650    2.60320    -999.25    -999.25    0.06650    0.18530  132.39580   64.76900    9.04980
 9900.00000   41.38500  144.59180   27.25560   34.01840    8.86500   -0.01290  124.88020    2.64510    -999.25    -999.25    0.04280    0.20970  128.38090   64.58560    8.95570
 9950.00000   45.52970  172.61040   43.85450   47.30790    8.71040   -0.01210  178.26260    2.62920    -999.25    -999.25    0.04830    0.14500  171.58930   64.82930    8.82580
 10000.00000   41.60880   35.10340    7.36660    9.39730    8.39040    0.01710   38.09710    2.46630    -999.25    -999.25    0.14340    0.05480   37.00940   60.07320    8.71830
 10050.00000   13.34420   38.16550   14.25650   13.09980    8.76720    0.01490   23.18470    2.67350    -999.25    -999.25    0.00130    0.11730   37.33850   53.32110    8.76440
