~Version ---------------------------------------------------
VERS.      2.0 : CWLS log ASCII Standard -VERSION 2.0
WRAP.       NO : One line per depth step
CREA. 12/18/17 : LAS Creation Date
~Well ------------------------------------------------------
STRT.FT                          1000.0 : START DEPTH
STOP.FT                          9650.0 : STOP DEPTH
STEP.FT                        50.00000 : STEP LENGTH
NULL.                           -999.25 : NULL VALUE
COMP.            FRONTIER PRODUCING INC : COMPANY
WELL. FRONT ET AL SAKWATAMAU 9-22-63-15 : WELL
FLD .                                   : FIELD
LOC .                                   : LOCATION
CTRY.                            CANADA : COUNTRY
SRVC.                      Schlumberger : SERVICE COMPANY
DATE.                       22-Dec-1965 : LOGDATE
PROV.                           Alberta : PROVINCE
UWI .                  100092206315W500 : UNIQUE WELL ID
SLAT.WGS84                      54.4662 : SURFACE LATITUDE
SLON.WGS84                    -116.1714 : SURFACE LONGITUDE
~Curve Information -----------------------------------------
DEPT  .FT    : Depth Curve
CALSED.IN    : CALIPER FROM SONIC LOG [ADJ. TO RESISTIVITY LOG]
CALWS .IN    : CALIPER [CALSED]
CILDED.MMHO  : CONDUCTIVITY FROM RESISTIVITY LOG
CONDWS.MMHO  : CONDUCTIVITY [1000/DRESWS]
DRESWS.OHMM  : DEEP RESISTIVITY [1000/CILDED IF ILDED<2, ILDED]
DTED  .US/F  : DELTA TIME FROM SONIC LOG [ADJ. TO RESISTIVITY LOG]
DTWS  .US/F  : COMPRESSIONAL SONIC [DTED]
GRSED .GAPI  : GAMMA RAY FROM SONIC LOG [ADJ. TO RESISTIVITY LOG]
GRWS  .GAPI  : GAMMA RAY [GRSED]
ILDED .OHMM  : DEEP INDUCTION FROM RESISTIVITY LOG
SNED  .OHMM  : 16 INCH SHORT NORMAL RESISTIVITY FROM RESISTIVITY LOG
SPRED .MV    : SPONTANEOUS POTENTIAL FROM RESISTIVITY LOG
SPWS  .MV    : SPONTANEOUS POTENTIAL [BASELINE 0 MV, SPRED]
SRESWS.OHMM  : SHALLOW RESISTIVITY [SNED]
~Params ----------------------------------------------------
PD  .                     GL : PERMANENT DATUM
EPD .FT                 3111 : ELEVATION PERMANENT DATUM
LMF .                     KB : LOG MEASURED FROM
DAPD.FT                   13 : FEET ABOVE PERMANENT DATUM
EKB .FT                 3124 : KELLY BUSHING
EGL .FT                 3111 : GROUND LEVEL
DATE.               12/22/65 : RUN DATE
RUN .                      1 : RUN NUMBER
DD  .FT                 9705 : DEPTH DRILLER
DL  .FT                 9697 : DEPTH LOGGER
BLI .FT                 9696 : BOTTOM LOG INTERVAL
TLI .FT                  996 : TOP LOG INTERVAL
CBD .FT                  997 : CASING BOTTOM DRILLER
CBL .FT                  996 : CASING BOTTOM LOGGER
BS  .IN                7.875 : BIT SIZE
BSD .FT                 9705 : BIT SIZE AT DEPTH
DFT .                    GEL : DRILLING FLUID TYPE
DFD .                    9.5 : DRILLING FLUID DENSITY
DFV .                    135 : DRILLING FLUID VISCOSITY
DFPH.                     11 : DRILLING FLUID PH
DFL .                    8.3 : DRILLING FLUID LOSS
RMS .OHMM               2.53 : RESISTIVITY MUD SAMPLE
MST .DEGF                 62 : MUD SAMPLE TEMPERATURE
RMF .OHMM               1.89 : RESISTIVITY MUD FILTRATE SAMPLE
MFST.DEGF                 72 : MUD FILTRATE SAMPLE TEMPERATURE
RMC .OHMM               2.36 : RESISTIVITY MUD CAKE
MCST.DEGF                 72 : MUD CAKE SAMPLE TEMPERATURE
TCS .HRS                 2.5 : TIME CIRCULATED STOPPED
LUN .                   3718 : LOGGING UNIT NUMBER
LUL .                     DV : LOGGING UNIT LOCATION
ENGI.               WILLIAMS : RECORDING ENGINEER
WITN.           HESKETH YONT : WITNESSED BY
CLNT.                A2DTECH : CLIENT CODE
ORIG.            2" 5" PRINT : ORIGIN OF DATA
UWI .       100092206315W500 : UNIQUE WELL ID
DICO. A2D Technologies, Inc. : DIGITIZING COMPANY
~Other -----------------------------------------------------
IEL-BCS LOG RUN
ALL CURVES HAVE BEEN VERIFIED FROM SMALL SECTION @TOP-4490'
~ASCII -----------------------------------------------------
# ...
 5900.00000    8.77620    8.77620    2.47410    2.05150  487.45410   66.50810   66.50810   98.05650   98.05650  487.45410   95.78400  -46.31770   -6.94260   95.78400
 5950.00000    7.91050    7.91050    0.31110    1.96730  508.32200   67.93720   67.93720  109.63500  109.63500  508.32200  175.58820  -60.45870  -21.11560  175.58820
 6000.00000    7.95870    7.95870  164.84230  162.27970    6.16220   66.90470   66.90470   64.03530   64.03530    6.16220   13.45390  -69.68580  -30.37440   13.45390
 6050.00000    7.66600    7.66600   42.70010   42.82710   23.38360   52.48950   52.48950   43.80950   43.80950   23.38360   36.78790  -77.19210  -37.91240   36.78790
 6100.00000    7.65890    7.65890  103.39240   95.88100   10.42960   61.22000   61.22000   42.42130   42.42130   10.42960   30.46900 -100.90320  -61.65540   30.46900
 6150.00000    7.68360    7.68360   98.48760   98.92180   10.10900   55.39840   55.39840   35.66160   35.66160   10.10900   31.66600  -80.15930  -40.94320   31.66600
 6200.00000    7.82380    7.82380    1.05100    1.98410  503.99970   52.00170   52.00170   23.16790   23.16790  503.99970  177.84700 -116.48770  -77.30350  177.84700
 6250.00000    7.89520    7.89520   40.64920   41.65470   24.00690   57.45390   57.45390   20.26440   20.26440   24.00690   96.46500 -169.81830 -130.66580   96.46500
 6300.00000    7.98030    7.98030   20.88560   21.60450   46.28750   51.82220   51.82220   23.09030   23.09030   46.28750  111.76870 -160.48130 -121.36050  111.76870
 6350.00000    7.96370    7.96370  336.86180  328.17010    3.04720   59.45160   59.45160   43.55850   43.55850    3.04720   13.43110  -94.82220  -55.73330   13.43110
 6400.00000    7.50240    7.50240  126.90050  125.23950    7.98470   63.13210   63.13210   68.86330   68.86330    7.98470   12.53590  -57.95440  -18.89720   12.53590
 6450.00000    6.99120    6.99120  108.04210   98.40870   10.16170   62.83440   62.83440   63.09620   63.09620   10.16170   14.71090  -65.98220  -26.95690   14.71090
 6500.00000    7.04930    7.04930   37.54430   37.27770   26.82570   59.18770   59.18770   44.65160   44.65160   26.82570   34.84570  -63.21410  -24.22050   34.84570
 6550.00000    7.22810    7.22810   12.18440   11.47880   87.11740   56.37790   56.37790   33.79720   33.79720   87.11740   79.33240  -52.91900  -13.95710   79.33240
 6600.00000    7.02240    7.02240   29.95660   29.68000   33.69270   58.71060   58.71060   31.66940   31.66940   33.69270   58.20140  -75.20590  -36.27590   58.20140
 6650.00000    7.09740    7.09740   77.87790   79.40040   12.59440   58.38380   58.38380   26.55440   26.55440   12.59440   33.85700  -92.92620  -54.02790   33.85700
 6700.00000    6.72730    6.72730   17.59650   14.20070   70.41890   54.46110   54.46110   28.33440   28.33440   70.41890   69.14750  -93.62410  -54.75770   69.14750
 6750.00000    6.76350    6.76350    2.38640    3.06960  325.77300   53.05360   53.05360   27.62200   27.62200  325.77300  115.11640  -72.22360  -33.38890  115.11640
 6800.00000    6.78930    6.78930    8.88850    9.64310  103.71120   55.47930   55.47930   36.38380   36.38380  103.71120   83.56350  -60.27630  -21.47330   83.56350
 6850.00000    6.82840    6.82840   12.75380   12.64840   79.06140   56.71510   56.71510   46.98690   46.98690   79.06140   67.71670  -55.02950  -16.25840   67.71670
 6900.00000    6.90430    6.90430   17.78180   17.99690   55.56500   80.04290   80.04290  159.82350  159.82350   55.56500   56.75830  -42.81010   -4.07070   56.75830
 6950.00000    7.61120    7.61120   46.42530   47.91110   20.87200   82.83190   82.83190  240.00000  240.00000   20.87200   29.41780  -42.84750   -4.14000   29.41780
 7000.00000    7.94730    7.94730    7.45870    7.65730  130.59480   52.67670   52.67670   20.42260   20.42260  130.59480   92.22590 -104.65850  -65.98270   92.22590
 7050.00000    7.99800    7.99800    1.20100    1.97750  505.69500   50.62720   50.62720   26.83960   26.83960  505.69500  149.75570 -113.28770  -74.64360  149.75570
 7100.00000    8.17320    8.17320    2.78350    1.97160  507.19670   49.93070   49.93070   22.69990   22.69990  507.19670  159.37680 -124.28400  -85.67190  159.37680
 7150.00000    8.08540    8.08540   18.72850   19.98350   50.04140   56.88050   56.88050   18.83450   18.83450   50.04140  111.32440 -153.09520 -114.51480  111.32440
 7200.00000    8.02700    8.02700   17.49200   17.73120   56.39780   51.86230   51.86230   20.25700   20.25700   56.39780   73.93390 -131.81350  -93.26500   73.93390
 7250.00000    7.35120    7.35120   11.41910    9.84130  101.61250   51.26630   51.26630   20.50860   20.50860  101.61250  126.32070 -163.06870 -124.55190  126.32070
 7300.00000    7.03250    7.03250   59.53210   61.20390   16.34140   58.07780   58.07780   18.01560   18.01560   16.34140   98.96370 -193.64900 -155.16390   98.96370
 7350.00000    7.59040    7.59040   19.40730   19.28760   51.84680   52.02880   52.02880   16.78350   16.78350   51.84680   97.09690 -162.39000 -123.93680   97.09690
 7400.00000    7.35930    7.35930   17.45400   15.63210   63.97080   52.41660   52.41660   18.76130   18.76130   63.97080   80.47340 -146.13600 -107.71450   80.47340
 7450.00000    7.39590    7.39590    5.56920    6.47870  154.35230   51.30120   51.30120   23.18890   23.18890  154.35230  107.40080 -132.23010  -93.84050  107.40080
 7500.00000    7.51120    7.51120    3.65840    2.96080  337.74940   51.00670   51.00670   20.13770   20.13770  337.74940  113.48730 -127.95810  -89.60020  113.48730
 7550.00000    7.88900    7.88900    5.11580    5.25210  192.06590   50.84650   50.84650   24.31510   24.31510  192.06590  112.85160 -143.57650 -105.25030  112.85160
 7600.00000    7.94820    7.94820   19.89560   18.85460   53.03750   51.21440   51.21440   18.17680   18.17680   53.03750  108.21050 -158.27810 -119.98380  108.21050
 7650.00000    8.30280    8.30280   11.61690   10.42280   95.94340   50.71410   50.71410   19.77590   19.77590   95.94340  129.53300 -169.58570 -131.32310  129.53300
 7700.00000    7.83750    7.83750    5.48530    3.15570  316.88260   50.18270   50.18270   43.08920   43.08920  316.88260  103.61120 -100.88230  -62.65160  103.61120
 7750.00000    7.11780    7.11780  159.48200  146.25010    6.83760   61.68590   61.68590   59.34310   59.34310    6.83760    7.76100  -89.84210  -51.64310    7.76100
 7800.00000    7.95270    7.95270    2.73670    5.30490  188.50780   48.69010   48.69010   26.48340   26.48340  188.50780  115.87370 -137.30210  -99.13480  115.87370
 7850.00000    7.93020    7.93020   30.92640   32.79090   30.49630   54.52520   54.52520   34.46540   34.46540   30.49630   44.52470  -96.67870  -58.54330   44.52470
 7900.00000    7.91910    7.91910   50.37250   49.41710   20.23590   51.45080   51.45080   29.03960   29.03960   20.23590   30.94470  -97.28140  -59.17770   30.94470
 7950.00000    7.45760    7.45760    7.42290    7.59680  131.63420   53.38770   53.38770   40.93540   40.93540  131.63420   92.64640  -47.54270   -9.47090   92.64640
 8000.00000    8.42750    8.42750   13.85460   12.98230   77.02770   55.69670   55.69670   40.52460   40.52460   77.02770   66.06000  -38.90640   -0.86630   66.06000
 8050.00000    7.53850    7.53850   10.01610   10.28740   97.20730   56.06860   56.06860   53.32510   53.32510   97.20730   70.36350  -54.38510  -16.37670   70.36350
 8100.00000    6.88290    6.88290   15.68770   14.96580   66.81900   55.98990   55.98990   43.92450   43.92450   66.81900   63.85040  -39.74910   -1.77260   63.85040
 8150.00000    6.91230    6.91230   16.11970   15.64930   63.90080   55.20080   55.20080   40.51500   40.51500   63.90080   59.14700  -40.88030   -2.92480   59.14700
 8200.00000    7.70070    7.70070   42.05110   44.45970   22.49230   58.48700   58.48700   49.57820   49.57820   22.49230   31.87380  -42.70000   -4.71780   31.87380
 8250.00000    8.16260    8.16260   49.54570   51.88880   19.27200   59.33710   59.33710   45.29600   45.29600   19.27200   29.05780  -46.18090   -8.17220   29.05780
 8300.00000    8.20870    8.20870   95.62070   99.83230   10.01870   65.41890   65.41890   55.31370   55.31370   10.01870   16.83700  -40.63390   -2.59870   16.83700
