~Version ---------------------------------------------------
VERS.      2.0 : CWLS log ASCII Standard -VERSION 2.0
WRAP.       NO : One line per depth step
CREA. 07/26/17 : LAS Creation Date
~Well ------------------------------------------------------
STRT.FT                     1250.0 : START DEPTH
STOP.FT                    11900.0 : STOP DEPTH
STEP.FT                   50.00000 : STEP LENGTH
NULL.                      -999.25 : NULL VALUE
COMP.         TALISMAN ENERGY INC. : COMPANY
WELL. BP ETHYL BASELINE 11-4-66-26 : WELL
FLD .                              : FIELD
LOC .                              : LOCATION
CTRY.                       CANADA : COUNTRY
SRVC.                      Unknown : SERVICE COMPANY
DATE.                  19-Feb-1971 : LOGDATE
PROV.                      Alberta : PROVINCE
UWI .             100110406626W500 : UNIQUE WELL ID
SLAT.WGS84                54.68586 : SURFACE LATITUDE
SLON.WGS84               -117.8738 : SURFACE LONGITUDE
~Curve Information -----------------------------------------
DEPT  .FT    : Depth Curve
CALSED.IN    : CALIPER FROM SONIC LOG
CALWS .IN    : CALIPER [CALSED]
CILDED.MMHO  : CONDUCTIVITY FROM RESISTIVITY LOG
CONDWS.MMHO  : CONDUCTIVITY [1000/DRESWS]
DRESWS.OHMM  : DEEP RESISTIVITY [1000/CILDED, IF ILDED < 5. ILDED]
DTED  .US/F  : DELTA-T FROM SONIC LOG
DTWS  .US/F  : COMPRESSIONAL SONIC [DTED]
GRSED .GAPI  : GAMMA RAY FROM SONIC LOG
GRWS  .GAPI  : GAMMA RAY [GRSED]
ILDED .OHMM  : INDUCTION DEEP RESISTIVITY
SNED  .OHMM  : SHORT NORMAL FROM  RESISTIVITY LOG
SPRED .MV    : SPONTANEOUS POTENTIAL FROM RESISTIVITY LOG
SPWS  .MV    : SPONTANEOUS POTENTIAL [BASELINE 0 MV, SPRED]
SRESWS.OHMM  : SHALLOW RESISITIVITY [SNED]
~Params ----------------------------------------------------
PD  .                     GL : PERMANENT DATUM
EPD .FT                 2594 : ELEVATION PERMANENT DATUM
LMF .                     KB : LOG MEASURED FROM
DAPD.FT                   14 : FEET ABOVE PERMANENT DATUM
EKB .FT                 2608 : KELLY BUSHING
EGL .FT                 2594 : GROUND LEVEL
DATE.               02/19/71 : RUN DATE
RUN .                      1 : RUN NUMBER
DD  .FT                11931 : DEPTH DRILLER
DL  .FT                11931 : DEPTH LOGGER
BLI .FT                11930 : BOTTOM LOG INTERVAL
TLI .FT                 1238 : TOP LOG INTERVAL
CBD .FT                 1238 : CASING BOTTOM DRILLER
CBL .FT                 1238 : CASING BOTTOM LOGGER
BS  .IN                7.875 : BIT SIZE
BSD .FT                11931 : BIT SIZE AT DEPTH
DFT .                    GEL : DRILLING FLUID TYPE
DFD .                    9.5 : DRILLING FLUID DENSITY
DFV .                     80 : DRILLING FLUID VISCOSITY
DFPH.                     10 : DRILLING FLUID PH
DFL .                    7.8 : DRILLING FLUID LOSS
RMS .OHMM               0.97 : RESISTIVITY MUD SAMPLE
MST .DEGF                 72 : MUD SAMPLE TEMPERATURE
RMF .OHMM               0.67 : RESISTIVITY MUD FILTRATE SAMPLE
MFST.DEGF                 74 : MUD FILTRATE SAMPLE TEMPERATURE
TCS .HRS                   4 : TIME CIRCULATED STOPPED
LUN .                   7002 : LOGGING UNIT NUMBER
LUL .                     RD : LOGGING UNIT LOCATION
ENGI.                 TALBOT : RECORDING ENGINEER
WITN.    KERKEGI DANIELEWICZ : WITNESSED BY
CLNT.                A2DTECH : CLIENT CODE
ORIG.            2" 5" PRINT : ORIGIN OF DATA
UWI .       100110406626W500 : UNIQUE WELL ID
DICO. A2D Technologies, Inc. : DIGITIZING COMPANY
~Other -----------------------------------------------------
~ASCII -----------------------------------------------------
# ...
 3700.00000    -999.25    -999.25   91.07220   93.33500   10.71410    -999.25    -999.25    -999.25    -999.25   10.71410   10.12800  -42.71660   -3.37010   10.12800
 3750.00000    -999.25    -999.25   66.37860   66.79980   14.97010    -999.25    -999.25    -999.25    -999.25   14.97010   12.36160  -45.43260   -5.60400   12.36160
 3800.00000    -999.25    -999.25   66.93570   66.85710   14.95860    -999.25    -999.25    -999.25    -999.25   14.95860   15.96160  -49.02310   -8.71240   15.96160
 3850.00000    -999.25    -999.25   84.28210   84.29570   11.86300    -999.25    -999.25    -999.25    -999.25   11.86300   11.65080  -45.35270   -4.55670   11.65080
 3900.00000    -999.25    -999.25   91.09440   92.77930   10.77890    -999.25    -999.25    -999.25    -999.25   10.77890   10.28270  -43.54390   -2.26580   10.28270
 3950.00000    -999.25    -999.25  100.61480  100.61780    9.93860    -999.25    -999.25    -999.25    -999.25    9.93860    9.58030  -42.91440   -1.13250    9.58030
 4000.00000    -999.25    -999.25  102.82720  103.90910    9.62380    -999.25    -999.25    -999.25    -999.25    9.62380    9.94900  -44.08100   -1.53640    9.94900
 4050.00000    -999.25    -999.25  111.17550  113.42970    8.81630    -999.25    -999.25    -999.25    -999.25    8.81630   10.14550  -45.39590   -2.08860   10.14550
 4100.00000    9.88630    9.88630  123.78590  121.63230    8.22150   95.33280   95.33280   87.14240   87.14240    8.22150    9.77740  -46.08020   -2.00520    9.77740
 4150.00000   10.50800   10.50800  111.23900  108.41880    9.22360   93.58700   93.58700   86.92330   86.92330    9.22360   10.59670  -46.24530   -1.67880   10.59670
 4200.00000   10.23200   10.23200  114.79220  112.19820    8.91280   94.93830   94.93830   82.16920   82.16920    8.91280   10.23690  -45.22620   -1.01340   10.23690
 4250.00000    9.71320    9.71320   88.67520   87.18930   11.46930   91.24930   91.24930   84.46400   84.46400   11.46930   12.91870  -45.23160   -1.37030   12.91870
 4300.00000    9.71430    9.71430  107.27870  105.09350    9.51600   93.67040   93.67040   83.50850   83.50850    9.51600   11.71460  -44.27870   -0.76870   11.71460
 4350.00000    8.89230    8.89230   82.55820   80.08590   12.48660   87.59160   87.59160   84.10840   84.10840   12.48660   15.72010  -45.25860   -2.10230   15.72010
 4400.00000    8.93440    8.93440   91.83660   90.50120   11.04960  102.24770  102.24770  111.75370  111.75370   11.04960   14.77680  -44.46870   -1.66380   14.77680
 4450.00000    9.15820    9.15820   88.83410   86.51340   11.55890   88.90010   88.90010   84.95700   84.95700   11.55890   13.96190  -44.12760   -1.67640   13.96190
 4500.00000    9.78210    9.78210  121.01660  118.39360    8.44640   92.24750   92.24750   93.77690   93.77690    8.44640   10.53710  -44.01390   -1.91410   10.53710
 4550.00000    9.60440    9.60440  140.45220  135.20400    7.39760   90.10410   90.10410   77.92220   77.92220    7.39760    8.89550  -43.96400   -2.21560    8.89550
 4600.00000    9.43850    9.43850   81.18200   77.79620   12.85410   77.31380   77.31380   68.72180   68.72180   12.85410   13.58250  -46.59130   -5.19660   13.58250
 4650.00000    9.86590    9.86590  146.69690  144.50140    6.92050   85.12310   85.12310   74.41500   74.41500    6.92050    7.85380  -42.42850   -1.38510    7.85380
 4700.00000    9.24020    9.24020   97.07270   89.52150   11.17050   84.14630   84.14630   67.31970   67.31970   11.17050   12.83010  -46.05940   -5.27030   12.83010
 4750.00000    9.33260    9.33260  118.91460  116.64940    8.57270   86.78490   86.78490   80.22860   80.22860    8.57270    9.65630  -43.15910   -2.60950    9.65630
 4800.00000    9.14680    9.14680  124.68600  122.31720    8.17580   85.23850   85.23850   73.09990   73.09990    8.17580    8.95130  -43.69940   -3.38920    8.95130
 4850.00000    9.05400    9.05400  104.96520  103.76130    9.63750   76.30970   76.30970   81.41060   81.41060    9.63750   10.04540  -41.83190   -1.76270   10.04540
 4900.00000    9.34950    9.34950  111.42960  112.53630    8.88610   82.00770   82.00770   75.56070   75.56070    8.88610    9.53430  -42.01920   -2.18940    9.53430
 4950.00000    9.44390    9.44390  127.90090  126.19250    7.92440   82.39340   82.39340   83.32780   83.32780    7.92440    9.05920  -40.88650   -1.29770    9.05920
 5000.00000    9.46950    9.46950  139.45640  137.59320    7.26780   85.93720   85.93720   84.94140   84.94140    7.26780    8.43210  -41.33100   -1.98160    8.43210
 5050.00000    9.93460    9.93460  119.53050  116.29960    8.59860   85.00090   85.00090   79.36460   79.36460    8.59860    9.64730  -42.26390   -3.15390    9.64730
 5100.00000    9.96300    9.96300  303.64690  303.64690    3.29330  100.49550  100.49550   92.85320   92.85320    3.26530    4.22010  -40.69560   -1.82650    4.22010
 5150.00000   10.60530   10.60530  235.06110  235.06110    4.25730  102.52620  102.52620   91.51310   91.51310    4.43060    5.48140  -41.40570   -2.77610    5.48140
 5200.00000   10.78250   10.78250  287.29590  287.29590    3.48070   85.56650   85.56650   76.11430   76.11430    3.36990    4.30270  -40.15390   -1.76530    4.30270
 5250.00000    9.96570    9.96570  201.54160  198.62160    5.03470   90.94770   90.94770   75.91180   75.91180    5.03470    5.58380  -40.52010   -2.37090    5.58380
 5300.00000    9.64830    9.64830  237.31140  237.31140    4.21440   96.89090   96.89090   86.94680   86.94680    4.29340    5.34290  -41.15380   -2.99010    5.34290
 5350.00000    9.98190    9.98190  161.42240  159.32950    6.27630   90.90580   90.90580   89.25200   89.25200    6.27630    7.15390  -41.35320   -3.07410    7.15390
 5400.00000    8.89680    8.89680   74.54170   70.59290   14.17190   77.25070   77.25070   73.84070   73.84070   14.17190   15.54740  -46.12840   -7.73470   15.54740
 5450.00000    8.91570    8.91570   55.60930   51.76680   19.31740   74.82950   74.82950   45.75120   45.75120   19.31740   22.56160  -61.09220  -22.58300   22.56160
 5500.00000   11.10800   11.10800  162.03150  165.43970    6.04450   88.56580   88.56580   69.38550   69.38550    6.04450    8.01370  -42.40220   -3.77850    8.01370
 5550.00000    9.60100    9.60100   79.82630   75.99440   13.15900   76.74500   76.74500   72.63550   72.63550   13.15900   15.15130  -41.73350   -2.99510   15.15130
 5600.00000    9.51530    9.51530   96.67050   90.56740   11.04150   76.67180   76.67180   73.11250   73.11250   11.04150   13.20690  -42.67840   -3.82460   13.20690
 5650.00000    8.73920    8.73920   39.17670   36.73720   27.31220   89.33550   89.33550   48.93320   48.93320   27.31220   22.10440  -50.45760  -11.48910   22.10440
 5700.00000    9.86650    9.86650   83.05080   80.20280   12.46840   82.86150   82.86150   75.61460   75.61460   12.46840   12.16320  -43.31380   -4.23000   12.16320
 5750.00000    9.28060    9.28060  122.60110  121.99290    8.19720   81.16650   81.16650   64.93080   64.93080    8.19720   15.02730  -48.06260   -8.86420   15.02730
 5800.00000    8.77920    8.77920   62.92510   59.37840   16.84110   73.60680   73.60680   38.36870   38.36870   16.84110   23.39260  -69.99980  -30.68670   23.39260
 5850.00000    9.36880    9.36880   95.95710   89.48230   11.17540   74.81060   74.81060   51.02480   51.02480   11.17540   15.99210  -49.41270   -9.98420   15.99210
 5900.00000   10.19570   10.19570   91.60940   92.77350   10.81480  115.20310  115.20310   74.43510   74.43510   10.81480   19.05170  -40.57460   -1.03760   19.05170
 5950.00000    8.62120    8.62120   52.81970   50.24920   19.90080   71.54380   71.54380   37.34980   37.34980   19.90080   23.10260  -72.31350  -33.13000   23.10260
 6000.00000    9.07630    9.07630   62.51940   58.95530   16.96200   68.00630   68.00630   50.81490   50.81490   16.96200   26.02830  -50.03660  -11.20430   26.02830
 6050.00000    8.99220    8.99220  112.67720  106.93110    9.35290   81.42830   81.42830   67.56130   67.56130    9.35290   13.12640  -45.16560   -6.68440   13.12640
 6100.00000    9.17430    9.17430  111.02730  109.28010    9.15080   74.60430   74.60430   65.11130   65.11130    9.15080   12.29740  -56.91330  -18.78560   12.29740
