~Version ---------------------------------------------------
VERS.      2.0 : CWLS log ASCII Standard -VERSION 2.0
WRAP.       NO : One line per depth step
CREA. 10/27/17 : LAS Creation Date
~Well ------------------------------------------------------
STRT.FT                          950.0 : START DEPTH
STOP.FT                         9950.0 : STOP DEPTH
STEP.FT                       50.00000 : STEP LENGTH
NULL.                          -999.25 : NULL VALUE
COMP. AMOCO CANADA PETROLEUM CO., LTD. : COMPANY
WELL.  AMOCO HBOG WINDFALL 16-29-61-16 : WELL
FLD .                                  : FIELD
LOC .                                  : LOCATION
CTRY.                           CANADA : COUNTRY
SRVC.                     Schlumberger : SERVICE COMPANY
DATE.                      22-Dec-1976 : LOGDATE
PROV.                          Alberta : PROVINCE
UWI .                 100162906116W500 : UNIQUE WELL ID
SLAT.WGS84                    54.30881 : SURFACE LATITUDE
SLON.WGS84                   -116.3532 : SURFACE LONGITUDE
~Curve Information -----------------------------------------
DEPT    .FT    : Depth Curve
CALDED  .IN    : CALIPER FROM DENSITY LOG [ADJ. TO RESISTIVITY LOG]
CALSED  .IN    : CALIPER FROM SONIC LOG [ADJ. TO RESISTIVITY LOG]
CALWS   .IN    : CALIPER [CALDED]
CONDWS  .MMHO  : CONDUCTIVITY [1000/DRESWS]
DCORWS  .G/C3  : DENSITY CORRECTION [DRHOED]
DENWS   .G/C3  : FORMATION BULK DENSITY [RHOBED]
DPHILSED.V/V   : DENSITY POROSITY LIMESTONE [M=2.71, F=1.00] FROM DENSITY LOG [ADJ. TO RESISTIVITY LOG]
DPHISSED.V/V   : DENSITY POROSITY SANDSTONE [M=2.65, F=1.00] FROM DENSITY LOG [ADJ. TO RESISTIVITY LOG]
DPOLSWS .V/V   : DENSITY POROSITY LIMESTONE [CALC. FROM DENWS M=2.71, F=1.00]
DRESWS  .OHMM  : DEEP RESISTIVITY [ILDED]
DRHOED  .G/C3  : DENSITY CORRECTION FROM DENSITY LOG [ADJ. TO RESISTIVITY LOG/DPHISSED/DPHILSED]
DTED    .US/F  : DELTA TIME FROM SONIC LOG [ADJ. TO RESISTIVITY LOG]
DTWS    .US/F  : COMPRESSIONAL SONIC [DTED]
GRDED   .GAPI  : GAMMA RAY FROM DENSITY LOG [ADJ. TO RESISTIVITY LOG]
GRSED   .GAPI  : GAMMA RAY FROM SONIC LOG [ADJ. TO RESISTIVITY LOG]
GRWS    .GAPI  : GAMMA RAY [GRSED]
ILDED   .OHMM  : DEEP INDUCTION FROM RESISTIVITY LOG
ILMED   .OHMM  : MEDIUM INDUCTION FROM RESISTIVITY LOG
LL8ED   .OHMM  : 8 INCH LATEROLOG FROM RESISTIVITY LOG
MRESWS  .OHMM  : MEDIUM RESISTIVITY [ILMED]
NPHILSED.V/V   : NEUTRON POROSITY LIMESTONE FROM DENSITY LOG [ADJ. TO RESISTIVITY LOG]
NPHISSED.V/V   : NEUTRON POROSITY SANDSTONE FROM DENSITY LOG [ADJ. TO RESISTIVITY LOG]
NPOLSWS .V/V   : NEUTRON POROSITY LIMESTONE [NPHISSED MATRIX CONVERSION FOR LIMESTONE, SPL. TO NPHILSED @ 6250']
RHOBED  .G/C3  : BULK DENSITY FROM DENSITY LOG [ADJ. TO RESISTIVITY LOG/DPHISSED/DPHILSED]
SPRED   .MV    : SPONTANEOUS POTENTIAL FROM RESISTIVITY LOG
SPWS    .MV    : SPONTANEOUS POTENTIAL [BASELINE 0 MV, SPRED]
SRESWS  .OHMM  : SHALLOW RESISTIVITY [LL8ED]
~Params ----------------------------------------------------
PD  .                     GL : PERMANENT DATUM
EPD .FT                 2851 : ELEVATION PERMANENT DATUM
LMF .                     KB : LOG MEASURED FROM
DAPD.FT                   14 : FEET ABOVE PERMANENT DATUM
DMF .                     KB : DRILLING MEASURED FROM
EKB .FT                 2875 : KELLY BUSHING
EGL .FT                 2861 : GROUND LEVEL
DATE.               12/22/76 : RUN DATE
RUN .                      1 : RUN NUMBER
DD  .FT                 9966 : DEPTH DRILLER
DL  .FT                 9964 : DEPTH LOGGER
BLI .FT                 9958 : BOTTOM LOG INTERVAL
TLI .FT                 1029 : TOP LOG INTERVAL
CBD .FT                 1030 : CASING BOTTOM DRILLER
CBL .FT                 1029 : CASING BOTTOM LOGGER
BS  .IN                 8.75 : BIT SIZE
BSD .FT                 9966 : BIT SIZE AT DEPTH
DFT .               GEL CHEM : DRILLING FLUID TYPE
DFD .                    9.3 : DRILLING FLUID DENSITY
DFV .                     70 : DRILLING FLUID VISCOSITY
DFPH.                      9 : DRILLING FLUID PH
DFL .                      9 : DRILLING FLUID LOSS
MSS .             CIRCULATED : MUD SAMPLE SOURCE
RMF .OHMM               2.16 : RESISTIVITY MUD FILTRATE SAMPLE
MFST.DEGF                 74 : MUD FILTRATE SAMPLE TEMPERATURE
RMC .OHMM               2.83 : RESISTIVITY MUD CAKE
MCST.DEGF                 68 : MUD CAKE SAMPLE TEMPERATURE
LUN .                   7772 : LOGGING UNIT NUMBER
LUL .                    EDM : LOGGING UNIT LOCATION
ENGI.                   BIGG : RECORDING ENGINEER
WITN.                  LENTZ : WITNESSED BY
CLNT.                A2DTECH : CLIENT CODE
ORIG.            2" 5" PRINT : ORIGIN OF DATA
UWI .       100162906116W500 : UNIQUE WELL ID
DICO. A2D Technologies, Inc. : DIGITIZING COMPANY
~Other -----------------------------------------------------
DIL-LL-CNFD-BHC LOG RUN
~ASCII -----------------------------------------------------
# ...
 8750.00000   10.47430   10.02500   10.47430  101.33350    0.00860    2.64690    0.03660    -999.25    0.03690    9.86840    0.00860   64.36000   64.36000   77.92490   51.18690   51.18690    9.86840   10.90760   14.61100   10.90760    0.12460    -999.25    0.12460    2.64690  -29.88220   -3.69950   14.61100
 8800.00000   10.01770    8.68130   10.01770   17.40930   -0.00230    2.59850    0.06610    -999.25    0.06520   57.44060   -0.00230   64.03600   64.03600  102.51610   65.77650   65.77650   57.44060   87.22690  148.27810   87.22690    0.16730    -999.25    0.16730    2.59850  -39.40010  -13.80970  148.27810
 8850.00000    9.99450    8.70280    9.99450   57.14420    0.00250    2.66210    0.02440    -999.25    0.02800   17.54520    0.00250   60.78000   60.78000   61.79500   41.98570   41.98570   17.54520   21.89930   31.47680   21.89930    0.09500    -999.25    0.09500    2.66210  -33.24590   -8.25090   31.47680
 8900.00000   12.69960    9.26430   12.69960  157.94540    0.20510    2.45830    0.14480    -999.25    0.14720    6.33130    0.20510   72.41600   72.41600   88.10410   63.92260   63.92260    6.33130    7.00620    9.87570    7.00620    0.21440    -999.25    0.21440    2.45830  -56.00620  -31.60050    9.87570
 8950.00000   11.10270    8.87730   11.10270  124.80860    0.18610    2.48740    0.10660    -999.25    0.13020    8.01260    0.18610   68.28000   68.28000   89.90040   64.54910   64.54910    8.01260    9.03690   14.95540    9.03690    0.17230    -999.25    0.17230    2.48740  -48.74220  -24.93180   14.95540
 9000.00000   10.17110    8.38390   10.17110  109.35650    0.05910    2.63730    0.04020    -999.25    0.04250    9.14440    0.05910   68.53600   68.53600  121.02660   75.26450   75.26450    9.14440   10.05890   12.43890   10.05890    0.17140    -999.25    0.17140    2.63730  -43.62590  -20.40490   12.43890
 9050.00000   10.11600   10.59600   10.11600  101.26270    0.02580    2.64930    0.03090    -999.25    0.03550    9.87530    0.02580   67.94800   67.94800  107.76020   71.27440   71.27440    9.87530   11.03220   14.25850   11.03220    0.13790    -999.25    0.13790    2.64930  -39.46910  -16.84050   14.25850
 9100.00000   10.31920   11.27500   10.31920  121.29500    0.00220    2.67480    0.01720    -999.25    0.02060    8.24560    0.00220   70.23800   70.23800  119.74930   79.01510   79.01510    8.24560    9.29490   12.59870    9.29490    0.14280    -999.25    0.14280    2.67480  -41.13550  -19.10220   12.59870
 9150.00000   10.65670   10.91370   10.65670  127.74980    0.05060    2.68310    0.01260    -999.25    0.01570    7.82780    0.05060   71.71400   71.71400  124.10080   83.87740   83.87740    7.82780    8.85600   11.70720    8.85600    0.16620    -999.25    0.16620    2.68310  -37.75670  -16.31280   11.70720
 9200.00000   10.10160    8.77230   10.10160  125.61330    0.01410    2.65370    0.02840    -999.25    0.03290    7.96120    0.01410   69.18000   69.18000  114.23210   74.84760   74.84760    7.96120    8.88980   12.42130    8.88980    0.15600    -999.25    0.15600    2.65370  -25.62770   -4.77910   12.42130
 9250.00000    9.88580    9.80660    9.88580  127.48440   -0.01230    2.61520    0.05020    -999.25    0.05540    7.84410   -0.01230   72.63200   72.63200  124.75170   83.11260   83.11260    7.84410    9.23720   12.84940    9.23720    0.16840    -999.25    0.16840    2.61520  -20.89560   -0.63640   12.84940
 9300.00000    9.79090   13.05900    9.79090  150.39180    0.05020    2.66480    0.02140    -999.25    0.02640    6.64930    0.05020   79.72400   79.72400  130.88560   92.65450   92.65450    6.64930    7.35790   10.68080    7.35790    0.20080    -999.25    0.20080    2.66480  -20.69440   -4.18300   10.68080
 9350.00000    9.65770    9.10010    9.65770    0.58540    0.00250    2.51550    0.11140    -999.25    0.11380 1708.23030    0.00250   35.42000   35.42000  252.16800  179.89820  179.89820 1708.23030 1585.11540 1463.62360 1585.11540    0.12370    -999.25    0.12370    2.51550  -50.25070  -39.62020 1463.62360
 9400.00000    9.61950    9.21000    9.61950    1.31710    0.00370    2.53220    0.09960    -999.25    0.10400  759.25230    0.00370   36.35600   36.35600  117.57540   73.78750   73.78750  759.25230 1519.65430 1412.17650 1519.65430    0.10790    -999.25    0.10790    2.53220  -49.37770  -44.56940 1412.17650
 9450.00000    9.66060    9.65910    9.66060   21.72310   -0.01590    2.62820    0.04550    -999.25    0.04780   46.15850   -0.01590   56.72600   56.72600   72.63130   48.21770   48.21770   46.15850   56.42970   75.96850   56.42970    0.05330    -999.25    0.05330    2.62820  -15.84460  -16.91710   75.96850
 9500.00000    9.70350    9.95940    9.70350    2.35610    0.00090    2.63080    0.04760    -999.25    0.04630  424.43730    0.00090   55.42000   55.42000   47.37950   29.97930   29.97930  424.43730 1015.15520 1502.13000 1015.15520    0.02670    -999.25    0.02670    2.63080  -43.37420  -47.16860 1502.13000
 9550.00000    9.72840   11.06270    9.72840    3.51840   -0.00710    2.62770    0.05280    -999.25    0.04810  284.21980   -0.00710   49.53600   49.53600   14.14930    8.34100    8.34100  284.21980  925.99220  335.75920  925.99220    0.00140    -999.25    0.00140    2.62770 -128.16440 -128.69140  335.75920
 9600.00000   11.72000   11.37260   11.72000    0.57940    0.13560    2.60520    0.05700    -999.25    0.06130 1726.07040    0.13560   48.25200   48.25200   11.54310    6.70930    6.70930 1726.07040 1639.14440 1058.30680 1639.14440    0.00230    -999.25    0.00230    2.60520 -157.49280 -154.73620 1058.30680
 9650.00000   11.06600   10.93440   11.06600    0.68780    0.22840    2.57510    0.07540    -999.25    0.07890 1453.87180    0.22840   48.52800   48.52800   19.81830   10.00320   10.00320 1453.87180 1670.24790 1579.09530 1670.24790    0.00980    -999.25    0.00980    2.57510 -133.70500 -127.69740 1579.09530
 9700.00000   13.20710   11.02570   13.20710    0.55630    0.10140    2.46840    0.14100    -999.25    0.14130 1797.48760    0.10140   50.02400   50.02400   26.15100   17.73740   17.73740 1797.48760 1417.74250 1305.91570 1417.74250    0.00620    -999.25    0.00620    2.46840 -174.21220 -164.92100 1305.91570
 9750.00000    9.92670   11.19120    9.92670    0.58000    0.03310    2.61520    0.05480    -999.25    0.05540 1724.20040    0.03310   48.97800   48.97800   11.50500    7.14520    7.14520 1724.20040 1620.14880 1455.29250 1620.14880    0.00130    -999.25    0.00130    2.61520 -153.55510 -141.01290 1455.29250
 9800.00000   10.21250   10.45410   10.21250    0.57140    0.12480    2.65460    0.03060    -999.25    0.03240 1750.02650    0.12480   48.84400   48.84400   12.92690    8.44740    8.44740 1750.02650 1607.53190 1456.98320 1607.53190    0.00390    -999.25    0.00390    2.65460 -181.09410 -165.28460 1456.98320
 9850.00000   13.39450   13.22880   13.39450    0.57070    0.16290    2.46820    0.14120    -999.25    0.14140 1752.15870    0.16290   49.38600   49.38600   19.99660   10.94440   10.94440 1752.15870 1648.62980 1500.86970 1648.62980    0.01080    -999.25    0.01080    2.46820 -183.32140 -164.22830 1500.86970
 9900.00000   10.50060   12.61630   10.50060    1.13800    0.18920    2.62510    0.04720    -999.25    0.04960  878.70360    0.18920   48.81600   48.81600   16.76860   12.13470   12.13470  878.70360 1620.50550 1534.95020 1620.50550    0.00150    -999.25    0.00150    2.62510 -170.71980 -148.37570 1534.95020
 9950.00000    9.33780   12.85120    9.33780   67.01890    0.01050    2.54750    0.09020    -999.25    0.09500   14.97090    0.01050   58.03200   58.03200    -999.25   30.75640   30.75640   14.97090   20.54360   31.66550   20.54360    0.13510    -999.25    0.13510    2.54750  -87.14080  -61.51300   31.66550
