~Version ---------------------------------------------------
VERS.      2.0 : CWLS log ASCII Standard -VERSION 2.0
WRAP.       NO : One line per depth step
CREA. 12/21/17 : LAS Creation Date
~Well ------------------------------------------------------
STRT.FT                 1500.0 : START DEPTH
STOP.FT                10050.0 : STOP DEPTH
STEP.FT               50.00000 : STEP LENGTH
NULL.                  -999.25 : NULL VALUE
COMP.     CHEVRON STANDARD LTD : COMPANY
WELL. CHEVRON PEMBINA 6-3-51-7 : WELL
FLD .                          : FIELD
LOC .                          : LOCATION
CTRY.                   CANADA : COUNTRY
SRVC.             Schlumberger : SERVICE COMPANY
DATE.              05-Jul-1978 : LOGDATE
PROV.                  Alberta : PROVINCE
UWI .         100060305107W500 : UNIQUE WELL ID
SLAT.WGS84            53.37366 : SURFACE LATITUDE
SLON.WGS84           -114.9508 : SURFACE LONGITUDE
~Curve Information -----------------------------------------
DEPT    .FT    : Depth Curve
CALDED  .IN    : CALIPER FROM DENSITY LOG [ADJ.TO RESISTIVITY LOG]
CALSED  .IN    : CALIPER FROM SONIC LOG [ADJ.TO RESISTIVITY LOG]
CALWS   .IN    : CALIPER [CALDED]
CONDWS  .MMHO  : CONDUCTIVITY [1000/DRESWS]
DCORED  .G/C3  : DENSITY CORRECTION FROM DENSITY LOG [ADJ.TO RESISTIVITY LOG]
DCORWS  .G/C3  : DENSITY CORRECTION [DCORED]
DENWS   .G/C3  : FORMATION BULK DENSITY [RHOBED]
DPHILSED.V/V   : DENSITY POROSITY LIMESTONE [M=2.71,F=1.0] FROM DENSITY LOG [RESISTIVITY LOG]
DPHISSED.V/V   : DENSITY POROSITY SANDSTONE [M=2.65,F=1.0] FROM DENSITY LOG [RESISTIVITY LOG]
DPOLSWS .V/V   : DENSITY POROSITY LIMESTONE [CALC FROM DENWS,M=2.71, F=1.00]]
DRESWS  .OHMM  : DEEP RESISTIVITY [ILDED]
DTED    .US/F  : DELTA TIME FROM SONIC LOG [ADJ.TO RESISTIVITY LOG]
DTWS    .US/F  : COMPRESSIONAL SONIC [DTED]
GRDED   .GAPI  : GAMMA RAY FROM DENSITY LOG [ADJ.TO RESISTIVITY LOG]
GRSED   .GAPI  : GAMMA RAY FROM SONIC LOG [ADJ.TO RESISTIVITY LOG]
GRWS    .GAPI  : GAMMA RAY [GRSED SPL.TO GRDED @ 1554.5']
ILDED   .OHMM  : DEEP INDUCTION FROM RESISTIVITY LOG
ILMED   .OHMM  : MEDIUM INDUCTION FROM RESISTIVITY LOG
MRESWS  .OHMM  : MEDIUM RESISTIVITY [ILMED]
NPHILSED.V/V   : NEUTRON POROSITY LIMESTONE FROM DENSITY LOG [RESISTIVITY LOG]
NPHISSED.V/V   : NEUTRON POROSITY SANDSTONE FROM DENSITY LOG [RESISTIVITY LOG]
NPOLSWS .V/V   : NEUTRON POROSITY LIMESTONE [NPHISSED MATRIX SLB CONVERSION FOR LIMESTONE, SPL.TO NPHILSED @ 6010']
RHOBED  .G/C3  : BULK DENSITY FROM DENSITY LOG [ADJ.TO RESISTIVITY LOG]
SFLED   .OHMM  : SPHERICALLY FOCUSED FROM RESISTIVITY LOG
SPRED   .MV    : SPONTANEOUS POTENTIAL FROM RESISTIVITY LOG
SPWS    .MV    : SPONTANEOUS POTENTIAL [BASELINE 0 MV, SPRED]
SRESWS  .OHMM  : SHALLOW RESISTIVITY [SFLED]
~Params ----------------------------------------------------
PD  .                     GL : PERMANENT DATUM
EPD .FT               2688.6 : ELEVATION PERMANENT DATUM
LMF .                     KB : LOG MEASURED FROM
DAPD.FT                 17.4 : FEET ABOVE PERMANENT DATUM
EKB .FT                 2706 : KELLY BUSHING
EGL .FT               2688.6 : GROUND LEVEL
DATE.                0705/78 : RUN DATE
RUN .                      1 : RUN NUMBER
DD  .FT              3066.28 : DEPTH DRILLER
DL  .FT              3065.67 : DEPTH LOGGER
BLI .FT              3064.76 : BOTTOM LOG INTERVAL
TLI .FT               473.96 : TOP LOG INTERVAL
CBD .FT               473.96 : CASING BOTTOM DRILLER
CBL .FT               472.44 : CASING BOTTOM LOGGER
BS  .IN                 8.75 : BIT SIZE
BSD .FT              3066.28 : BIT SIZE AT DEPTH
DFT .                    GEL : DRILLING FLUID TYPE
DFD .                    110 : DRILLING FLUID DENSITY
DFV .                     75 : DRILLING FLUID VISCOSITY
DFPH.                    9.5 : DRILLING FLUID PH
MSS .            CIRCULATION : MUD SAMPLE SOURCE
RMS .OHMM               0.33 : RESISTIVITY MUD SAMPLE
MST .DEGF                 58 : MUD SAMPLE TEMPERATURE
RMF .OHMM               0.14 : RESISTIVITY MUD FILTRATE SAMPLE
MFST.DEGF                 68 : MUD FILTRATE SAMPLE TEMPERATURE
RMC .OHMM               0.15 : RESISTIVITY MUD CAKE
MCST.DEGF                 68 : MUD CAKE SAMPLE TEMPERATURE
TCS .HRS                   8 : TIME CIRCULATED STOPPED
LUN .                   7738 : LOGGING UNIT NUMBER
LUL .                    EDM : LOGGING UNIT LOCATION
ENGI.                ALVAREZ : RECORDING ENGINEER
WITN.                SPRAGUE : WITNESSED BY
CLNT.                A2DTECH : CLIENT CODE
ORIG.            2" 5" PRINT : ORIGIN OF DATA
UWI .       100060305107W500 : UNIQUE WELL ID
DICO. A2D Technologies, Inc. : DIGITIZING COMPANY
~Other -----------------------------------------------------
~ASCII -----------------------------------------------------
# ...
 6700.00000   10.42410    8.44680   10.42410   72.00250    0.02890    0.02890    2.49690    0.12870    -999.25    0.12460   13.88840   53.55710   53.55710   23.24600   27.35780   23.24600   13.88840   19.35200   19.35200    0.11650    -999.25    0.11650    2.49690   57.94160 -108.77020  -80.01090   57.94160
 6750.00000    9.87630    8.48420    9.87630    9.01870   -0.03730   -0.03730    2.84540   -0.09040    -999.25   -0.07920  110.88080   47.29120   47.29120   14.24340   16.54620   14.24340  110.88080  249.58030  249.58030    0.01280    -999.25    0.01280    2.84540 1260.31300 -104.09310  -75.90140 1260.31300
 6800.00000    9.17280    8.15770    9.17280   14.54660    0.02680    0.02680    2.61540    0.05040    -999.25    0.05530   68.74470   48.48530   48.48530   15.65200   15.36110   15.65200   68.74470  112.55000  112.55000    0.08530    -999.25    0.08530    2.61540  313.15630 -128.67940 -101.05540  313.15630
 6850.00000    8.64120    7.71700    8.64120   90.60840   -0.00510   -0.00510    2.61180    0.05850    -999.25    0.05740   11.03650   50.70260   50.70260   17.10850   17.90700   17.10850   11.03650   17.32980   17.32980    0.12810    -999.25    0.12810    2.61180   56.06400 -128.47690 -101.42420   56.06400
 6900.00000    8.53300    7.59050    8.53300  233.75960   -0.01170   -0.01170    2.53850    0.09950    -999.25    0.10030    4.27790   55.84800   55.84800   16.06650   15.94470   16.06650    4.27790    6.16510    6.16510    0.17380    -999.25    0.17380    2.53850   22.51800 -153.60460 -127.11950   22.51800
 6950.00000    8.55390    7.60650    8.55390  113.41210   -0.00670   -0.00670    2.65450    0.02880    -999.25    0.03250    8.81740   50.86180   50.86180   16.53890   17.46860   16.53890    8.81740   14.24060   14.24060    0.11460    -999.25    0.11460    2.65450  113.03930 -148.28260 -122.36890  113.03930
 7000.00000    8.44080    7.67840    8.44080   64.82690   -0.01030   -0.01030    2.60730    0.06110    -999.25    0.06010   15.42570   50.87710   50.87710   16.53820   18.23710   16.53820   15.42570   27.58100   27.58100    0.12820    -999.25    0.12820    2.60730  132.83970 -147.51150 -122.16550  132.83970
 7050.00000    8.97890    7.89650    8.97890   94.98390   -0.02100   -0.02100    2.62860    0.04780    -999.25    0.04760   10.52810   51.91280   51.91280   15.02320   16.79680   15.02320   10.52810   12.08580   12.08580    0.13430    -999.25    0.13430    2.62860   33.27240 -147.24240 -122.46400   33.27240
 7100.00000    8.37200    7.51270    8.37200  131.44400   -0.00030   -0.00030    2.58270    0.07500    -999.25    0.07440    7.60780   50.17660   50.17660   15.86570   15.31050   15.86570    7.60780   11.65390   11.65390    0.14740    -999.25    0.14740    2.58270   79.59520 -149.62170 -125.41470   79.59520
 7150.00000    8.73270    8.07650    8.73270   14.21810   -0.05480   -0.05480    2.75680   -0.03290    -999.25   -0.02740   70.33310   47.30080   47.30080   12.98510   13.85960   12.98510   70.33310  150.41690  150.41690    0.05880    -999.25    0.05880    2.75680  384.84990 -127.82470 -104.18540  384.84990
 7200.00000    9.05760    8.19000    9.05760    4.91570   -0.04300   -0.04300    2.90930   -0.14450    -999.25   -0.11650  203.42940   48.05310   48.05310   14.32370   15.00830   14.32370  203.42940  293.10300  293.10300    0.00540    -999.25    0.00540    2.90930 1500.67270 -103.30290  -80.23480 1500.67270
 7250.00000    9.16410    8.26880    9.16410   99.27920   -0.05220   -0.05220    2.63990    0.03910    -999.25    0.04100   10.07260   56.93540   56.93540   86.31060   88.04590   86.31060   10.07260   12.03300   12.03300    0.12340    -999.25    0.12340    2.63990   11.73960  -37.36150  -14.86110   11.73960
 7300.00000    9.04460    8.17110    9.04460   30.63860   -0.00300   -0.00300    2.60010    0.06660    -999.25    0.06430   32.63860   48.24320   48.24320   26.28040   25.76980   26.28040   32.63860   58.74650   58.74650    0.10670    -999.25    0.10670    2.60010  174.22530 -109.32110  -87.38830  174.22530
 7350.00000    9.01580    7.96840    9.01580   23.11170   -0.04860   -0.04860    2.67710    0.01390    -999.25    0.01920   43.26810   50.37280   50.37280   20.92740   23.63750   20.92740   43.26810   55.82230   55.82230    0.09360    -999.25    0.09360    2.67710  104.20830 -114.22400  -92.86260  104.20830
 7400.00000    9.13490    8.21790    9.13490   37.28230   -0.00370   -0.00370    2.66710    0.02540    -999.25    0.02510   26.82240   52.12750   52.12750   48.09560   48.42140   48.09560   26.82240   29.58710   29.58710    0.11420    -999.25    0.11420    2.66710   40.36860  -56.67070  -35.87700   40.36860
 7450.00000    8.83410    7.96970    8.83410  146.55880   -0.03430   -0.03430    2.63200    0.04590    -999.25    0.04560    6.82320   54.83540   54.83540   16.50030   18.87630   16.50030    6.82320    8.86570    8.86570    0.15930    -999.25    0.15930    2.63200   34.15090 -138.63980 -118.41750   34.15090
 7500.00000   10.21300    8.27120   10.21300   11.62260    0.07950    0.07950    2.65590    0.03590    -999.25    0.03160   86.03930   49.13360   49.13360   20.82230   23.34510   20.82230   86.03930  102.59880  102.59880    0.06760    -999.25    0.06760    2.65590  169.96130  -72.80090  -53.14620  169.96130
 7550.00000    9.10340    8.24180    9.10340   88.64700   -0.04150   -0.04150    2.64010    0.03830    -999.25    0.04080   11.28070   58.78610   58.78610   76.04310   84.52830   76.04310   11.28070   11.95540   11.95540    0.13800    -999.25    0.13800    2.64010   12.40860  -48.03380  -28.94670   12.40860
 7600.00000    9.00660    8.14550    9.00660    5.22390   -0.04150   -0.04150    2.66150    0.02720    -999.25    0.02840  191.42910   50.74160   50.74160   32.97480   35.63650   32.97480  191.42910  229.67570  229.67570    0.01200    -999.25    0.01200    2.66150  249.51620  -26.72880   -8.21300  249.51620
 7650.00000    9.44240    8.36880    9.44240   67.08390   -0.01960   -0.01960    2.62690    0.04850    -999.25    0.04860   14.90670   61.42880   61.42880   63.34770   69.06300   63.34770   14.90670   16.63040   16.63040    0.12270    -999.25    0.12270    2.62690   22.06040  -20.08470   -2.13660   22.06040
 7700.00000    9.57780    8.39270    9.57780   75.99530   -0.04150   -0.04150    2.69760    0.00470    -999.25    0.00730   13.15870   64.41660   64.41660   87.06280   91.35260   87.06280   13.15870   13.85350   13.85350    0.15130    -999.25    0.15130    2.69760   16.59850  -20.93450   -3.55780   16.59850
 7750.00000   10.72260    8.63520   10.72260   94.61720    0.08300    0.08300    2.40240    0.17970    -999.25    0.17990   10.56890   66.70870   66.70870   75.22000   82.30530   75.22000   10.56890   11.04530   11.04530    0.15680    -999.25    0.15680    2.40240   12.22510  -27.51490   -9.17350   12.22510
 7800.00000   10.02820    8.43310   10.02820  116.70520   -0.01490   -0.01490    2.47650    0.13780    -999.25    0.13650    8.56860   68.89540   68.89540   84.80500   85.46670   84.80500    8.56860    9.80000    9.80000    0.19140    -999.25    0.19140    2.47650   11.00030  -25.53500   -5.00500   11.00030
 7850.00000   11.87920    8.70310   11.87920  123.32740    0.08760    0.08760    2.29660    0.24330    -999.25    0.24180    8.10850   69.21460   69.21460   75.91640   77.10120   75.91640    8.10850    8.77990    8.77990    0.21370    -999.25    0.21370    2.29660   10.21370  -31.72280   -8.98970   10.21370
 7900.00000   11.58480    9.25770   11.58480  136.18780    0.09150    0.09150    2.25540    0.27100    -999.25    0.26580    7.34280   72.24100   72.24100   74.30820   82.88510   74.30820    7.34280    8.09300    8.09300    0.22180    -999.25    0.22180    2.25540    8.71590  -34.55740   -9.70090    8.71590
 7950.00000   12.96900    9.60760   12.96900  141.68320    0.04710    0.04710    2.31300    0.23320    -999.25    0.23220    7.05800   73.35730   73.35730   85.02450   89.90180   85.02450    7.05800    7.52700    7.52700    0.23990    -999.25    0.23990    2.31300    8.43660  -31.03410   -7.29840    8.43660
