~Version ---------------------------------------------------
VERS. 2.0 : CWLS log ASCII Standard -VERSION 2.0
WRAP.  NO : ONE LINE PER DEPTH STEP
~Well ------------------------------------------------------
STRT.F                      557.7428 : START DEPTH
STOP.F                    10838.7428 : STOP DEPTH
STEP.F                       0.50000 : STEP LENGTH
NULL.                        -999.25 : NULL VALUE
COMP.           PETROFINA CANADA LTD : COMPANY
WELL. FINA AMOCO HB FOXCK 6-35-60-18 : WELL
FLD .                                : FIELD
LOC .                                : LOCATION
CTRY.                         CANADA : COUNTRY
SRVC.         Schlumberger of Canada : SERVICE COMPANY
DATE.                    29-Aug-1976 : LOGDATE
PROV.                        Alberta : PROVINCE
UWI .               100063506018W500 : UNIQUE WELL ID
SLAT.WGS84                  54.22952 : SURFACE LATITUDE
SLON.WGS84                 -116.5928 : SURFACE LONGITUDE
~Curve Information -----------------------------------------
DEPT   .F                 : 
SPR    .MV                : SPONTANEOUS POTENTIAL FROM RESISTIVITY
ILD    .OHMM              : DEEP INDUCTION RESISTIVITY
ILM    .OHMM              : INDUCTION MEDIUM RESISTIVITY
LL8    .OHMM              : LATEROLOG-8 RESISTIVITY
CALD   .IN   70 280 01 00 : CALIPER
DCOR   .G/C3 45 356 01 00 : DENSITY CORRECTION
GRD    .GAPI 45 310 01 00 : GAMMA RAY FROM DENSITY LOG
RHOB   .G/C3 45 350 01 00 : BULK DENSITY
DPOR_SS.DEC               : DENSITY POROSITY SANDSTONE
NPOR_S .DEC               : ENCHANCED THERMAL NEUTRON POROSITY IN SELECTED LITHOLOGY SANDSTONE
DPOR_LS.DEC               : DENSITY POROSITY LIMESTONE
NPOR_LS.DEC               : ENCHANCED THERMAL NEUTRON POROSITY IN SELECTED LITHOLOGY SANDSTONE
DT     .US/F 60 520 00 00 : ACOUSTIC TRANSIT TIME SLOWNESS, DELTA T
CALS   .IN                : 
GRS    .GAPI              : GAMMA RAY FROM SONIC LOG
GR     .GAPI              : GAMMA RAY
~Params ----------------------------------------------------
PD  .                     GL : PERMANENT DATUM
EPD .FT                 3085 : ELEVATION PERMANENT DATUM
LMF .                     KB : LOG MEASURED FROM
DAPD.FT                 15.7 : FEET ABOVE PERMANENT DATUM
EKB .FT               3100.9 : KELLY BUSHING
EDF .FT               3085.2 : DRILLING FLOOR
EGL .FT               3085.5 : GROUND LEVEL
DATE.               08/29/76 : RUN DATE
RUN .                      1 : RUN NUMBER
DD  .FT                10843 : DEPTH DRILLER
DL  .FT                10840 : DEPTH LOGGER
BLI .FT                10834 : BOTTOM LOG INTERVAL
TLI .FT                 1119 : TOP LOG INTERVAL
CBD .FT                 1119 : CASING BOTTOM DRILLER
CBL .FT                 1119 : CASING BOTTOM LOGGER
BS  .IN                 8.75 : BIT SIZE
BSD .FT                10843 : BIT SIZE AT DEPTH
DFT .               GEL CHEM : DRILLING FLUID TYPE
DFD .                    9.3 : DRILLING FLUID DENSITY
DFV .                    150 : DRILLING FLUID VISCOSITY
DFPH.                   10.5 : DRILLING FLUID PH
DFL .                    7.0 : DRILLING FLUID LOSS
MSS .            CIRCULATION : MUD SAMPLE SOURCE
RMS .OHMM               2.43 : RESISTIVITY MUD SAMPLE
MST .DEGF                 76 : MUD SAMPLE TEMPERATURE
RMF .OHMM               2.33 : RESISTIVITY MUD FILTRATE SAMPLE
MFST.DEGF                 73 : MUD FILTRATE SAMPLE TEMPERATURE
RMC .OHMM               2.22 : RESISTIVITY MUD CAKE
MCST.DEGF                 67 : MUD CAKE SAMPLE TEMPERATURE
RMB .OHMM               0.86 : RESISTIVITY MUD AT BHT
TCS .HRS                   3 : TIME CIRCULATED STOPPED
LUN .                   7691 : LOGGING UNIT NUMBER
LUL .                    WCT : LOGGING UNIT LOCATION
ENGI.              CROCKFORD : RECORDING ENGINEER
WITN.                 HALKOW : WITNESSED BY
CLNT.                A2DTECH : CLIENT CODE
ORIG.            2" 5" PRINT : ORIGIN OF DATA
UWI .       100063506018W500 : UNIQUE WELL ID
DICO. A2D Technologies, Inc. : DIGITIZING COMPANY
~Other -----------------------------------------------------
~ASCII -----------------------------------------------------
# ...
 7007.74280   -9.81080   58.83080   98.51090  147.52750    9.96460    0.02970  150.78640    2.49010    -999.25    -999.25    0.10010    0.22910   80.95190    9.48720   89.36120    -999.25
 7008.24280   -9.79460   54.31620   93.57820  126.16710    9.95880    0.02110  155.92670    2.45670    -999.25    -999.25    0.11680    0.24780   78.69800    9.49410   90.57420    -999.25
 7008.74280   -9.79740   50.41020   85.82890  120.59370    9.95310    0.01500  159.41190    2.43630    -999.25    -999.25    0.13500    0.26060   77.67280    9.48840   99.61540    -999.25
 7009.24280   -9.80030   47.28240   76.66880  122.41880    9.94730    0.01290  162.35340    2.42850    -999.25    -999.25    0.15220    0.26550   79.40760    9.45950  114.99770    -999.25
 7009.74280   -9.78970   44.58090   67.10270  124.09360    9.93970    0.01300  164.97430    2.42300    -999.25    -999.25    0.16410    0.26830   83.61100    9.44740  132.19820    -999.25
 7010.24280   -9.76680   42.03380   58.16250  120.96920    9.92630    0.01480  169.86090    2.42210    -999.25    -999.25    0.17050    0.27120   87.68680    9.46590  144.81000    -999.25
 7010.74280   -9.65450   39.64050   50.38440  103.12900    9.90880    0.01770  182.32170    2.43100    -999.25    -999.25    0.17120    0.27510   89.86490    9.48080  151.15030    -999.25
 7011.24280   -9.62100   37.64330   43.73120   78.29560    9.89130    0.01960  203.57280    2.44180    -999.25    -999.25    0.16760    0.28350   90.96300    9.48300  153.96960    -999.25
 7011.74280   -9.73760   36.02680   39.76400   66.47200    9.88080    0.01950  231.18090    2.44150    -999.25    -999.25    0.16090    0.29690   92.20310    9.48220  157.08730    -999.25
 7012.24280   -9.82400   34.85520   38.18590   67.12500    9.88070    0.01870  268.02580    2.43660    -999.25    -999.25    0.15750    0.30850   93.62670    9.48250  161.25610    -999.25
 7012.74280  -10.00190   34.35670   37.23260   70.45710    9.88360    0.01700  295.20060    2.44520    -999.25    -999.25    0.16220    0.31160   94.77700    9.47990  167.34840    -999.25
 7013.24280  -10.18360   34.50030   37.07130   72.55370    9.88660    0.01420  300.06930    2.46580    -999.25    -999.25    0.16250    0.30820   95.50620    9.47730  179.43400    -999.25
 7013.74280  -10.11760   35.57950   37.82200   71.92670    9.88950    0.01100  300.02640    2.48080    -999.25    -999.25    0.15200    0.30270   95.76070    9.47860  200.76560    -999.25
 7014.24280   -9.78590   37.45330   39.89610   70.25510    9.89370    0.00540  299.98340    2.49310    -999.25    -999.25    0.13990    0.28820   95.53700    9.48000  228.18450    -999.25
 7014.74280   -9.14480   39.62080   42.86360   74.53880    9.90020   -0.00080  299.95600    2.51270    -999.25    -999.25    0.13280    0.26630   94.72610    9.48130  261.72800    -999.25
 7015.24280   -8.00480   41.95520   46.30950   91.81450    9.90750    0.00820  290.67870    2.52360    -999.25    -999.25    0.12410    0.24680   92.83780    9.48520  290.04140    -999.25
 7015.74280   -6.70420   44.66740   50.28110  135.54410    9.91880    0.05730  263.63750    2.53930    -999.25    -999.25    0.11610    0.23300   89.38380    9.48260  299.30880    -999.25
 7016.24280   -5.48660   47.76360   54.62030  162.53040    9.93450    0.09010  244.18670    2.54330    -999.25    -999.25    0.10650    0.23280   84.92810    9.47450  299.30880    -999.25
 7016.74280   -4.32140   51.07450   59.33550  140.74430    9.95020    0.05990  247.87210    2.49880    -999.25    -999.25    0.09330    0.25340   80.23990    9.48090  299.30880    -999.25
 7017.24280   -3.51910   54.61700   64.43470  124.05170    9.95840    0.02920  252.28960    2.46170    -999.25    -999.25    0.10370    0.28460   77.50980    9.48640  299.30880    -999.25
 7017.74280   -3.07430   58.41260   69.56430  155.38650    9.94470    0.01770  245.42060    2.45290    -999.25    -999.25    0.13170    0.30390   78.42870    9.48230  295.31480    -999.25
 7018.24280   -2.77170   62.47690   72.85440  215.66350    9.91830    0.01040  232.00760    2.43940    -999.25    -999.25    0.14890    0.30280   81.69600    9.48220  260.49900    -999.25
 7018.74280   -2.55260   66.16650   73.85960  236.60080    9.90050    0.00810  215.73770    2.43670    -999.25    -999.25    0.15580    0.29360   86.14810    9.48130  229.05910    -999.25
 7019.24280   -2.38020   67.71300   73.52340  205.86630    9.89060    0.00880  198.08450    2.44640    -999.25    -999.25    0.16170    0.28380   89.95530    9.47840  233.09970    -999.25
 7019.74280   -2.37810   64.96160   72.08030  163.59330    9.88230    0.01170  181.78870    2.44650    -999.25    -999.25    0.16020    0.27830   92.05770    9.47440  237.45270    -999.25
 7020.24280   -2.54540   59.24300   69.78300  135.89390    9.87400    0.01660  168.02140    2.44270    -999.25    -999.25    0.15620    0.27790   93.19410    9.47050  232.23710    -999.25
 7020.74280   -2.71150   53.22360   65.87800  142.10950    9.90160    0.02640  158.43030    2.44030    -999.25    -999.25    0.15890    0.27150   93.54710    9.47580  218.24150    -999.25
 7021.24280   -3.12730   46.01510   58.24720  190.99100    9.98460    0.04460  154.57170    2.41440    -999.25    -999.25    0.15740    0.25450   92.93900    9.50020  203.16670    -999.25
 7021.74280   -3.98520   38.32400   48.25880  194.51970   10.08290    0.12610  156.01840    2.38310    -999.25    -999.25    0.16670    0.24930   91.33530    9.51600  187.57980    -999.25
 7022.24280   -5.02710   32.00020   39.55430  115.45740   10.46120    0.22410  157.60970    2.35250    -999.25    -999.25    0.18870    0.28460   88.21790    9.52260  172.39550    -999.25
 7022.74280   -6.01600   26.80120   32.41910   51.33280   10.88310    0.20760  156.40290    2.26750    -999.25    -999.25    0.20860    0.32660   84.37160    9.53000  159.42030    -999.25
 7023.24280   -6.84830   22.44690   26.22500   36.11180   10.55660    0.11260  152.38160    2.19890    -999.25    -999.25    0.25490    0.33290   82.79970    9.52770  150.30810    -999.25
 7023.74280   -7.57130   18.54190   20.62350   42.93750   10.12490    0.07740  146.05910    2.21300    -999.25    -999.25    0.29580    0.31540   84.52420    9.54790  146.89810    -999.25
 7024.24280   -8.29640   14.98770   15.97520   50.17800   10.50250    0.16910  137.81030    2.22130    -999.25    -999.25    0.29290    0.31620   88.78930    9.66630  148.37300    -999.25
 7024.74280   -8.92280   12.64110   12.37580   40.50670   11.48130    0.23310  128.50700    2.13740    -999.25    -999.25    0.28750    0.34860   93.26820    9.95540  149.09670    -999.25
 7025.24280   -9.28500   11.62010    9.83130   23.55190   12.66400    0.19510  120.90430    2.02520    -999.25    -999.25    0.31960    0.37800   94.34320    9.87560  147.00410    -999.25
 7025.74280   -9.37150   11.01310    8.70080   16.08990   13.35530    0.16300  116.43130    2.02510    -999.25    -999.25    0.38120    0.39400   92.58300    9.56860  143.19290    -999.25
 7026.24280   -9.37720   10.49730    8.63010   14.61060   13.67770    0.16840  116.47180    2.07380    -999.25    -999.25    0.39820    0.39750   92.83610    9.62480  136.94100    -999.25
 7026.74280   -9.37710   10.17460    8.98150   15.19670   13.81430    0.18450  118.87910    2.08270    -999.25    -999.25    0.36770    0.39370   96.99500    9.84880  127.98760    -999.25
 7027.24280   -9.37420   10.03450    9.56420   15.52130   13.73480    0.18810  121.93470    2.08590    -999.25    -999.25    0.36130    0.38940  101.11400   10.69850  118.54750    -999.25
 7027.74280   -9.36830   10.16440   10.18520   16.78650   13.46350    0.18460  125.27000    2.10600    -999.25    -999.25    0.36720    0.38200  102.82630   11.22160  112.46620    -999.25
 7028.24280   -9.36520   10.82260   10.84640   19.78000   12.41040    0.17730  126.54960    2.14280    -999.25    -999.25    0.35650    0.36860  101.79350   10.84500  111.84840    -999.25
 7028.74280   -9.35150   11.87580   11.55060   21.76950   11.47300    0.18330  125.97930    2.18830    -999.25    -999.25    0.33740    0.35290  100.34640   10.94130  114.80720    -999.25
