~Version ---------------------------------------------------
VERS.      2.0 : CWLS log ASCII Standard -VERSION 2.0
WRAP.       NO : One line per depth step
CREA. 08/02/17 : LAS Creation Date
~Well ------------------------------------------------------
STRT.FT                        1050.0 : START DEPTH
STOP.FT                       10700.0 : STOP DEPTH
STEP.FT                      50.00000 : STEP LENGTH
NULL.                         -999.25 : NULL VALUE
COMP.            CHEVRON STANDARD LTD : COMPANY
WELL. CHEVRON GULF KAYBOBS 13-8-63-20 : WELL
FLD .                                 : FIELD
LOC .                                 : LOCATION
CTRY.                          CANADA : COUNTRY
SRVC.                    Schlumberger : SERVICE COMPANY
DATE.                     07-Dec-1977 : LOGDATE
PROV.                         Alberta : PROVINCE
UWI .                100130806320W500 : UNIQUE WELL ID
SLAT.WGS84                   54.44033 : SURFACE LATITUDE
SLON.WGS84                   -116.995 : SURFACE LONGITUDE
~Curve Information -----------------------------------------
DEPT    .FT    : Depth Curve
C13ED   .IN    : CALIPER 1-3 PAD ELECTRODE
C24ED   .IN    : CALIPER 2-4 PAD ELECTRODE
CALDED  .IN    : CALIPER FROM DENSITY LOG
CALSED  .IN    : CALIPER FROM SONIC LOG
CALWS   .IN    : CALIPER [CALSED]
CONDWS  .MMHO  : CONDUCTIVITY [1000/DRESWS]
DCORWS  .G/C3  : DENSITY CORRECTION [DRHOED]
DENWS   .G/C3  : BULK DENSITY [RHOBED]
DPHILSED.V/V   : DENSITY POROSITY [M=2.71 F=1.00] FROM DENSITY LOG
DPHISSED.V/V   : DENSITY POROSITY [M=2.65 F=1.00] FROM DENSITY LOG
DPOLSWS .V/V   : DENSITY POROSITY LIMESTONE  {CALCUKLATED FROM RHOBED]
DRESWS  .OHMM  : DEEP RESISTIVITY [ILDED]
DRHOED  .G/C3  : DENSITY CORRECTION FROM DENSITY LOG
DTED    .US/F  : DELTA TIME FROM SONIC LOG
DTWS    .US/F  : DELTA TIME [DTED]
GRDED   .GAPI  : GAMMA RAY FROM DENSITY LOG
GRSED   .GAPI  : GAMMA RAY FROM SONIC LOG
GRWS    .GAPI  : GAMMA RAY [GRSED]
ILDED   .OHMM  : INDUCTION LOG DEEP RESISTIVITY
ILMED   .OHMM  : INDUCTION LOG MEDIUM RESISTIVITY
LL8ED   .OHMM  : 8 INCH LATEROLOG RESISTIVITY
MRESWS  .OHMM  : MEDIUM RESISTIVITY [ILMED]
NPHILSED.V/V   : NEUTRON POROSITY LIMESTONE FROM DENSITY LOG
NPHISSED.V/V   : NEUTRON POROSITY SANDSTONE FROM DENSITY LOG
NPOLSWS .V/V   : NEUTRON POROSITY LIMESTONE [NPHILSED], SPLICED WITH CONVERTED MATRIX FROM SANDSTONE TO LIMESTONE FROM 2180'-6857'
RHOBED  .G/C3  : BULK DENSITY FROM DENSITY LOG
SPRED   .MV    : SPONTANEOUS POTENTIAL FROM RESISTIVITY LOG
SPWS    .MV    : SPONTANEOUS POTENTIAL [BASELINE 0 MV] [SPRED]
SRESWS  .OHMM  : SHALLOW RESISTIVITY [LL8ED]
TENDED  .LBF   : TENSION FROM DENSITY LOG
TENSED  .LBF   : TENSION FROM SONIC LOG
~Params ----------------------------------------------------
PD  .                     GL : PERMANENT DATUM
EPD .FT               2595.6 : ELEVATION PERMANENT DATUM
LMF .                     KB : LOG MEASURED FROM
DAPD.FT                 17.4 : FEET ABOVE PERMANENT DATUM
EKB .FT                 2613 : KELLY BUSHING
EGL .FT               2595.6 : GROUND LEVEL
DATE.               01/05/77 : RUN DATE
RUN .                      2 : RUN NUMBER
DD  .FT                10720 : DEPTH DRILLER
DL  .FT                10709 : DEPTH LOGGER
BLI .FT                10706 : BOTTOM LOG INTERVAL
TLI .FT                 6500 : TOP LOG INTERVAL
CBD .FT                 1090 : CASING BOTTOM DRILLER
CBL .FT                 1091 : CASING BOTTOM LOGGER
BS  .IN                 8.75 : BIT SIZE
BSD .FT                10720 : BIT SIZE AT DEPTH
DFT .         FGM MLGARD OIL : DRILLING FLUID TYPE
DFD .                    9.2 : DRILLING FLUID DENSITY
DFV .                     80 : DRILLING FLUID VISCOSITY
DFPH.                   10.5 : DRILLING FLUID PH
MSS .               FLOWLINE : MUD SAMPLE SOURCE
RMS .OHMM               1.43 : RESISTIVITY MUD SAMPLE
MST .DEGF                 70 : MUD SAMPLE TEMPERATURE
RMF .OHMM               1.08 : RESISTIVITY MUD FILTRATE SAMPLE
MFST.DEGF                 74 : MUD FILTRATE SAMPLE TEMPERATURE
LUN .                   7800 : LOGGING UNIT NUMBER
LUL .                    EDM : LOGGING UNIT LOCATION
ENGI.               FEINGOLD : RECORDING ENGINEER
WITN.             RICHARDSON : WITNESSED BY
CLNT.                A2DTECH : CLIENT CODE
ORIG.            2" 5" PRINT : ORIGIN OF DATA
UWI .       100130806320W500 : UNIQUE WELL ID
DICO. A2D Technologies, Inc. : DIGITIZING COMPANY
~Other -----------------------------------------------------
~ASCII -----------------------------------------------------
# ...
 3350.00000    -999.25    -999.25   13.40800    9.61680    9.61680  121.48720    0.14500    1.80450    -999.25    0.49420    0.52950    8.23140    0.14500   92.38910   92.38910  102.67030  100.22090  100.22090    8.23140    8.72360    9.48430    8.72360    -999.25    0.34520    0.30600    1.80450  -30.52980  -11.68090    9.48430 3003.01380 5382.62950
 3400.00000    -999.25    -999.25   13.42140    9.83810    9.83810  118.41330    0.19400    2.29740    -999.25    0.17480    0.24130    8.44500    0.19400   98.33260   98.33260  132.14400  118.13860  118.13860    8.44500    8.71370   10.65160    8.71370    -999.25    0.32450    0.28530    2.29740  -27.27050   -9.65570   10.65160 1602.88320 5652.05920
 3450.00000    -999.25    -999.25   11.53330    9.21350    9.21350   61.87380    0.09070    2.51340    -999.25    0.06880    0.11500   16.16200    0.09070   84.33520   84.33520  105.53310  100.86380  100.86380   16.16200   16.68840   19.83350   16.68840    -999.25    0.24040    0.20120    2.51340  -26.04740   -9.67900   19.83350 2015.95190 5932.63050
 3500.00000    -999.25    -999.25   13.11440   11.09870   11.09870  100.46520    0.24980    2.15530    -999.25    0.31380    0.32440    9.95370    0.24980   94.45890   94.45890  118.72060  110.89780  110.89780    9.95370   10.40740   11.90300   10.40740    -999.25    0.34510    0.30590    2.15530  -18.97840   -3.84420   11.90300 2079.43760 5647.55990
 3550.00000    -999.25    -999.25   12.37070    9.76850    9.76850   96.89640    0.24850    2.36820    -999.25    0.18330    0.19990   10.32030    0.24850   90.85650   90.85650  116.77220  104.01570  104.01570   10.32030   10.90110   12.37970   10.90110    -999.25    0.28970    0.25050    2.36820  -23.41740   -9.52350   12.37970 1904.44680 4097.89880
 3600.00000    -999.25    -999.25   14.99370   10.53810   10.53810  129.21070    0.15410    1.87290    -999.25    0.47280    0.48950    7.73930    0.15410   90.38360   90.38360  106.21070  104.28030  104.28030    7.73930    8.19880    8.84660    8.19880    -999.25    0.39180    0.35260    1.87290  -24.20240  -11.55500    8.84660 2434.30320 3951.94330
 3650.00000    -999.25    -999.25   14.32650   10.25300   10.25300  106.41920    0.18300    1.81530    -999.25    0.49770    0.52320    9.39680    0.18300   88.01430   88.01430  103.78630  105.75510  105.75510    9.39680    9.87350   10.93080    9.87350    -999.25    0.35950    0.32030    1.81530  -23.97950  -12.56620   10.93080 2740.63880 4004.31850
 3700.00000    -999.25    -999.25   10.45470   10.10720   10.10720   72.54650    0.04900    2.63540    -999.25    0.03740    0.04360   13.79290    0.04900   78.13870   78.13870   93.48630   71.81280   71.81280   13.79290   14.45070   17.93870   14.45070    -999.25    0.32470    0.28560    2.63540  -30.00570  -19.83890   17.93870 2439.74850 4396.07980
 3750.00000    -999.25    -999.25   12.47320   10.22330   10.22330  113.89000    0.21410    1.95900    -999.25    0.42750    0.43920    8.78040    0.21410   87.67220   87.67220  110.17710  100.96270  100.96270    8.78040    9.06410   10.30180    9.06410    -999.25    0.29830    0.25910    1.95900  -20.65480  -11.72210   10.30180 2546.28250 4439.46710
 3800.00000    -999.25    -999.25   12.16450    9.85870    9.85870  107.11450    0.17640    2.13380    -999.25    0.32400    0.33700    9.33580    0.17640   91.04470   91.04470  122.78170  111.01400  111.01400    9.33580    9.78460   10.82880    9.78460    -999.25    0.37400    0.33480    2.13380  -19.61450  -11.92210   10.82880 3125.75530 4593.43180
 3850.00000    -999.25    -999.25   13.18520   10.40130   10.40130  138.64720    0.16660    1.88120    -999.25    0.45730    0.48470    7.21260    0.16660   91.27110   91.27110  115.91130  110.82610  110.82610    7.21260    7.66900    8.53880    7.66900    -999.25    0.35840    0.31910    1.88120  -18.67810  -12.23220    8.53880 3036.95730 4873.89250
 3900.00000    9.06630   11.56010   13.20740    9.90400    9.90400  101.49400    0.17380    1.87170    -999.25    0.48730    0.49020    9.85280    0.17380   86.25940   86.25940  103.23800  109.74770  109.74770    9.85280   10.37290   11.02980   10.37290    -999.25    0.37430    0.33510    1.87170  -16.50150  -11.28970   11.02980 3287.36910 4866.71350
 3950.00000    9.39340   11.73660   12.70230   10.10160   10.10160  111.34560    0.19070    1.89660    -999.25    0.45070    0.47570    8.98100    0.19070   87.22850   87.22850  113.22050  110.05410  110.05410    8.98100    9.53540    9.91880    9.53540    -999.25    0.35000    0.31080    1.89660  -12.63780   -8.67240    9.91880 3089.93710 5004.00420
 4000.00000    9.17130   10.08140   11.35290   10.03630   10.03630   81.73210    0.24860    2.20530    -999.25    0.28250    0.29510   12.23510    0.24860   82.76380   82.76380  110.56180   98.19290   98.19290   12.23510   12.64270   13.24530   12.64270    -999.25    0.27480    0.23560    2.20530   -9.11420   -6.38300   13.24530 3509.36840 5196.91580
 4050.00000    9.32170   11.84220   12.62550    9.95470    9.95470   94.86230    0.22470    2.14100    -999.25    0.31490    0.33270   10.54160    0.22470   89.94970   89.94970  112.71320  107.45300  107.45300   10.54160   10.89250   11.71770   10.89250    -999.25    0.31100    0.27180    2.14100   -8.49510   -7.00410   11.71770 3304.63810 5339.37620
 4100.00000    -999.25    -999.25    -999.25    9.98900    9.98900   99.30300    -999.25    -999.25    -999.25    -999.25    -999.25   10.07030    -999.25   83.63830   83.63830    -999.25  101.03020  101.03020   10.07030   10.45860   11.43860   10.45860    -999.25    -999.25    -999.25    -999.25   -7.03120   -6.78670   11.43860    -999.25 5473.34390
 4150.00000    -999.25    -999.25    -999.25    9.71090    9.71090   95.32980    -999.25    -999.25    -999.25    -999.25    -999.25   10.48990    -999.25   85.24050   85.24050    -999.25  105.81160  105.81160   10.48990   10.92700   11.47260   10.92700    -999.25    -999.25    -999.25    -999.25  -22.80900  -23.79860   11.47260    -999.25 5527.32530
 4200.00000    -999.25    -999.25    -999.25   10.44390   10.44390  111.46110    -999.25    -999.25    -999.25    -999.25    -999.25    8.97180    -999.25   85.70150   85.70150    -999.25  101.86830  101.86830    8.97180    9.26160   10.08740    9.26160    -999.25    -999.25    -999.25    -999.25   -6.71910   -8.95520   10.08740    -999.25 5555.66310
 4250.00000    -999.25    -999.25    -999.25   10.36520   10.36520  113.65570    -999.25    -999.25    -999.25    -999.25    -999.25    8.79850    -999.25   86.52900   86.52900    -999.25   97.97100   97.97100    8.79850    9.12940   10.43870    9.12940    -999.25    -999.25    -999.25    -999.25   -7.76560  -11.23580   10.43870    -999.25 5766.31790
 4300.00000    -999.25    -999.25    -999.25   10.03970   10.03970  118.85090    -999.25    -999.25    -999.25    -999.25    -999.25    8.41390    -999.25   93.69960   93.69960    -999.25  121.62700  121.62700    8.41390    8.68670   10.60960    8.68670    -999.25    -999.25    -999.25    -999.25   -7.71170  -12.42220   10.60960    -999.25 3841.20730
 4350.00000    -999.25    -999.25    -999.25    9.80040    9.80040  105.24340    -999.25    -999.25    -999.25    -999.25    -999.25    9.50180    -999.25   93.73690   93.73690    -999.25  118.02690  118.02690    9.50180    9.81310   12.14580    9.81310    -999.25    -999.25    -999.25    -999.25   13.23800    7.28100   12.14580    -999.25 4136.93130
 4400.00000    -999.25    -999.25    -999.25    9.75670    9.75670  103.18320    -999.25    -999.25    -999.25    -999.25    -999.25    9.69150    -999.25   91.22900   91.22900    -999.25  114.21480  114.21480    9.69150   10.31710   13.07530   10.31710    -999.25    -999.25    -999.25    -999.25   -8.82970  -16.02080   13.07530    -999.25 4154.55730
 4450.00000    -999.25    -999.25    -999.25    9.62090    9.62090   82.52110    -999.25    -999.25    -999.25    -999.25    -999.25   12.11840    -999.25   93.87530   93.87530    -999.25  117.77310  117.77310   12.11840   12.51790   17.23890   12.51790    -999.25    -999.25    -999.25    -999.25   -6.33370  -14.77130   17.23890    -999.25 4329.13990
