~Version ---------------------------------------------------
VERS.      2.0 : CWLS log ASCII Standard -VERSION 2.0
WRAP.       NO : One line per depth step
CREA. 11/07/17 : LAS Creation Date
~Well ------------------------------------------------------
STRT.FT                            650.0 : START DEPTH
STOP.FT                           5950.0 : STOP DEPTH
STEP.FT                         50.00000 : STEP LENGTH
NULL.                            -999.25 : NULL VALUE
COMP. CANADIAN NATURAL RESOURCES LIMITED : COMPANY
WELL.        LASMO IOE NIPISI 10-25-80-9 : WELL
FLD .                                    : FIELD
LOC .                                    : LOCATION
CTRY.                             CANADA : COUNTRY
SRVC.                       Schlumberger : SERVICE COMPANY
DATE.                        19-Apr-1966 : LOGDATE
PROV.                            Alberta : PROVINCE
UWI .                   100102508009W500 : UNIQUE WELL ID
SLAT.WGS84                 55.9653406195 : SURFACE LATITUDE
SLON.WGS84               -115.2632626844 : SURFACE LONGITUDE
~Curve Information -----------------------------------------
DEPT  .FT    : Depth Curve
CALSED.IN    : CALIPER FROM SONIC LOG [DEPTH SHIFTED TO RES.]
CALWS .IN    : CALIPER [CALSED]
CILDED.MMHO  : CONDUCTIVITY FROM RESISTIVITY LOG
CONDWS.MMHO  : CONDUCTIVITY [1000/DRESWS]
DRESWS.OHMM  : DEEP RESISTIVITY [ILDED] IF ILDED<1;1000/CILDED;ELSE ILDED
DTED  .US/F  : DELTA TIME FROM SONIC LOG [DEPTH SHIFTED TO RES.]
DTWS  .US/F  : DELTA TIME [DTED] [DEPTH SHIFTED TO RES.]
GRSED .GAPI  : GAMMA RAY FROM SONIC LOG [DEPTH SHIFTED TO RES.]
GRWS  .GAPI  : GAMMA RAY [GRSED]
ILDED .OHMM  : INDUCTION LOG DEEP RESISTIVITY
SNED  .OHMM  : 16 INCH SHORT NORMAL RESISTIVITY FROM IEL
SPRED .MV    : SPONTANEOUS POTENTIAL FROM RESISTIVITY LOG
SPWS  .MV    : SPONTANEOUS POTENTIAL [BASELINE 0 MV] [SPRED]
SRESWS.OHMM  : SHALLOW RESISTIVITY [SNED]
~Params ----------------------------------------------------
PD  .                     GL : PERMANENT DATUM
EPD .FT                 2171 : ELEVATION PERMANENT DATUM
LMF .                     KB : LOG MEASURED FROM
DAPD.FT                   12 : FEET ABOVE PERMANENT DATUM
EKB .FT                 2183 : KELLY BUSHING
EGL .FT                 2171 : GROUND LEVEL
DATE.               04/19/66 : RUN DATE
RUN .                      1 : RUN NUMBER
DD  .FT                 5985 : DEPTH DRILLER
DL  .FT                 5989 : DEPTH LOGGER
BLI .FT                 5988 : BOTTOM LOG INTERVAL
TLI .FT                  640 : TOP LOG INTERVAL
CBD .FT                  640 : CASING BOTTOM DRILLER
CBL .FT                  640 : CASING BOTTOM LOGGER
BS  .IN                7.875 : BIT SIZE
BSD .FT                 5985 : BIT SIZE AT DEPTH
DFT .                    GEL : DRILLING FLUID TYPE
DFD .                    9.2 : DRILLING FLUID DENSITY
DFV .                     52 : DRILLING FLUID VISCOSITY
DFPH.                     18 : DRILLING FLUID PH
DFL .                     11 : DRILLING FLUID LOSS
RMS .OHMM                0.6 : RESISTIVITY MUD SAMPLE
MST .DEGF                 74 : MUD SAMPLE TEMPERATURE
RMF .OHMM               0.32 : RESISTIVITY MUD FILTRATE SAMPLE
MFST.DEGF                 70 : MUD FILTRATE SAMPLE TEMPERATURE
RMC .OHMM                0.8 : RESISTIVITY MUD CAKE
MCST.DEGF                 72 : MUD CAKE SAMPLE TEMPERATURE
RMB .OHMM               0.37 : RESISTIVITY MUD AT BHT
TCS .HRS                   2 : TIME CIRCULATED STOPPED
LUN .                   2547 : LOGGING UNIT NUMBER
LUL .                     SL : LOGGING UNIT LOCATION
ENGI.                  CRAIN : RECORDING ENGINEER
WITN.              TURNQUIST : WITNESSED BY
CLNT.                A2DTECH : CLIENT CODE
ORIG.            2" 5" PRINT : ORIGIN OF DATA
UWI .       100102508009W500 : UNIQUE WELL ID
DICO. A2D Technologies, Inc. : DIGITIZING COMPANY
~Other -----------------------------------------------------
~ASCII -----------------------------------------------------
# ...
 3100.00000    8.63640    8.63640   45.77950   51.97690   19.23930   59.98330   59.98330    7.00470    7.00470   19.23930   41.60560 -101.88980  -67.38060   41.60560
 3150.00000    9.46860    9.46860   43.70760   48.39850   20.66180   59.07060   59.07060    6.52250    6.52250   20.66180   38.95180  -98.33870  -63.91950   38.95180
 3200.00000   10.34130   10.34130   28.66350   31.32880   31.94540   52.56760   52.56760    7.62880    7.62880   31.94540   50.00000  -99.06900  -64.74030   50.00000
 3250.00000    9.73200    9.73200   12.70870   13.19410   75.79130   51.22050   51.22050    6.01550    6.01550   75.79130   50.00000  -78.18040  -43.94130   50.00000
 3300.00000   10.40180   10.40180   25.46760   28.06730   35.62870   54.44340   54.44340    7.98270    7.98270   35.62870   39.54120  -82.30410  -48.15510   39.54120
 3350.00000   10.08040   10.08040   11.46480   11.76880   84.97040   50.99370   50.99370    8.03290    8.03290   84.97040   49.49730  -69.71680  -35.65780   49.49730
 3400.00000   10.03180   10.03180    5.57540    6.76390  147.84260   49.18500   49.18500    5.78080    5.78080  147.84260   50.00000  -70.80390  -36.83500   50.00000
 3450.00000    9.80430    9.80430   12.26280   13.84130   72.27530   44.83640   44.83640    5.62630    5.62630   72.27530   50.00000  -72.33160  -38.45310   50.00000
 3500.00000    9.57370    9.57370    5.67000    7.21060  138.68480   48.60700   48.60700    1.81400    1.81400  138.68480   50.00000  -70.10420  -36.31540   50.00000
 3550.00000    9.92020    9.92020   19.68770   22.36790   44.70700   50.36220   50.36220    6.37490    6.37490   44.70700   42.81160  -74.33510  -40.63630   42.81160
 3600.00000    9.51340    9.51340   60.49190   69.17400   14.45630   57.05400   57.05400    6.20430    6.20430   14.45630   26.85370  -92.55390  -58.94510   26.85370
 3650.00000   10.57460   10.57460   47.40910   53.51770   18.68540   57.82850   57.82850   19.48090   19.48090   18.68540   29.64580  -59.63510  -26.11640   29.64580
 3700.00000    8.51050    8.51050   99.50380  114.62740    8.72440   55.03410   55.03410   22.50410   22.50410    8.72440   21.42580  -87.62050  -54.19230   21.42580
 3750.00000    8.94780    8.94780   26.60120   28.25670   35.38980   49.42440   49.42440    7.39720    7.39720   35.38980   44.23610  -87.89750  -54.55890   44.23610
 3800.00000    9.35880    9.35880   49.75350   55.99760   17.85790   52.67810   52.67810   29.91200   29.91200   17.85790   24.76070  -67.46210  -34.21350   24.76070
 3850.00000    9.12400    9.12400   13.53020   14.69350   68.05740   44.74380   44.74380   11.63040   11.63040   68.05740   50.00000  -69.30140  -36.14290   50.00000
 3900.00000    8.71440    8.71440   70.46720   81.08260   12.33310   53.64820   53.64820   15.67450   15.67450   12.33310   29.18670  -94.88100  -61.81250   29.18670
 3950.00000    8.07120    8.07120   68.87040   77.84370   12.84990   51.99240   51.99240   25.30050   25.30050   12.84990   26.68790  -86.18930  -53.21130   26.68790
 4000.00000    7.88610    7.88610  177.89600  214.84120    4.65460   61.58370   61.58370   32.23690   32.23690    4.65460   15.28200  -92.15620  -59.26780   15.28200
 4050.00000    8.43540    8.43540   17.99540   18.98770   52.66570   53.97220   53.97220   21.84340   21.84340   52.66570   39.85180  -43.22210  -10.42370   39.85180
 4100.00000   14.96340   14.96340  292.84320  391.38940    2.55500  107.81510  107.81510   55.77220   55.77220    2.55500    4.81420  -48.77010  -16.06180    4.81420
 4150.00000   12.09290   12.09290  226.14550  302.39800    3.30690   87.37060   87.37060   55.67570   55.67570    3.30690    4.50300  -47.33530  -14.71700    4.50300
 4200.00000   12.02460   12.02460  227.34990  300.75350    3.32510   87.02520   87.02520   54.38760   54.38760    3.32510    4.39210  -46.00790  -13.48010    4.39210
 4250.00000   11.49530   11.49530  188.95280  241.52840    4.14030   82.29700   82.29700   52.24330   52.24330    4.14030    5.38230  -40.79570   -8.35750    5.38230
 4300.00000   13.84390   13.84390  269.38850  366.28700    2.73010   95.01170   95.01170   48.40540   48.40540    2.73010    3.79600  -47.24600  -14.89780    3.79600
 4350.00000   14.99440   14.99440  249.56510  327.63250    3.05220   91.19760   91.19760   50.13600   50.13600    3.05220    3.97070  -43.69320  -11.33730    3.97070
 4400.00000   11.21130   11.21130  205.28130  245.42890    4.07450   82.94750   82.94750   58.11180   58.11180    4.07450    5.19190  -55.89290  -23.40960    5.19190
 4450.00000   15.00000   15.00000  361.40560  475.29470    2.10410   96.79460   96.79460   54.56000   54.56000    2.10410    2.81540  -59.72320  -27.11190    2.81540
 4500.00000   15.00000   15.00000  439.44400  610.79900    1.63720  151.11130  151.11130   63.96390   63.96390    1.63720    2.39380  -57.58930  -24.85130    2.39380
 4550.00000    8.61860    8.61860  105.61940  122.54450    8.16030   69.77320   69.77320   43.83890   43.83890    8.16030   10.14050  -50.13580  -17.27040   10.14050
 4600.00000    8.84950    8.84950  129.17870  146.60180    6.82120   72.08560   72.08560   30.49930   30.49930    6.82120    7.99120  -51.98990  -18.99710    7.99120
 4650.00000    8.38130    8.38130   51.45030   57.84230   17.28840   56.46590   56.46590   13.54240   13.54240   17.28840   18.24470  -58.99880  -25.87870   18.24470
 4700.00000    8.82840    8.82840   89.87400  102.71150    9.73610   65.76730   65.76730   31.87560   31.87560    9.73610   11.35700  -43.97280  -10.72470   11.35700
 4750.00000    9.01300    9.01300  133.54550  151.00490    6.62230   68.55100   68.55100   42.82690   42.82690    6.62230    8.17770  -46.03560  -12.66070    8.17770
 4800.00000    8.69640    8.69640   87.44520   96.20190   10.39480   66.90940   66.90940   45.68900   45.68900   10.39480   12.41100  -42.22990   -8.72770   12.41100
 4850.00000   11.16020   11.16020  197.24580  244.61240    4.08810   84.19210   84.19210   55.54050   55.54050    4.08810    5.22240  -53.37160  -19.74200    5.22240
 4900.00000   15.00000   15.00000  337.69720  440.04400    2.27250   97.69030   97.69030   72.33460   72.33460    2.27250    3.11670  -54.65650  -20.89950    3.11670
 4950.00000   10.99600   10.99600  353.41100  456.45470    2.19190  106.17620  106.17620   94.53940   94.53940    2.19190    3.32350  -52.43920  -18.55420    3.32350
 5000.00000   13.31560   13.31560  244.50220  312.53910    3.19960   92.79030   92.79030   59.94240   59.94240    3.19960    4.11170  -54.79340  -20.78170    4.11170
 5050.00000   13.20030   13.20030  211.30350  271.48090    3.68350   85.11910   85.11910   58.07520   58.07520    3.68350    4.88030  -51.22460  -17.08550    4.88030
 5100.00000   11.24680   11.24680  262.06250  325.91340    3.06830   79.93340   79.93340   51.93510   51.93510    3.06830    4.24660  -54.82600  -20.55960    4.24660
 5150.00000   10.06460   10.06460  113.49480  125.85740    7.94550   70.07050   70.07050   37.78480   37.78480    7.94550   10.36620  -39.32530   -4.93150   10.36620
 5200.00000    8.59800    8.59800   78.68140   87.81650   11.38740   59.34980   59.34980   29.10440   29.10440   11.38740   14.33720  -40.27170   -5.74980   14.33720
 5250.00000    8.85610    8.85610   40.99050   42.22470   23.68280   56.89070   56.89070   27.33770   27.33770   23.68280   22.84480  -36.81090   -2.16240   22.84480
 5300.00000    9.05430    9.05430   74.05930   83.75210   11.94000   62.32080   62.32080   15.60050   15.60050   11.94000   15.27800  -58.57890  -11.42030   15.27800
 5350.00000   11.15960   11.15960  139.96640  155.20960    6.44290   77.59860   77.59860   57.29120   57.29120    6.44290    7.88250  -62.59770  -15.03700    7.88250
 5400.00000    9.06370    9.06370   81.60880   90.39380   11.06270   64.60540   64.60540   44.69280   44.69280   11.06270   13.05890  -54.31730   -6.35460   13.05890
 5450.00000    9.41970    9.41970  114.46310  129.22650    7.73830   71.38290   71.38290   58.47510   58.47510    7.73830   10.12310  -52.31010   -3.94330   10.12310
 5500.00000    9.55130    9.55130  119.29980  135.24300    7.39410   72.23550   72.23550   46.88120   46.88120    7.39410    9.81900  -55.26010   -6.49330    9.81900
