~Version ---------------------------------------------------
VERS.      2.0 : CWLS log ASCII Standard -VERSION 2.0
WRAP.       NO : One line per depth step
CREA. 09/27/17 : LAS Creation Date
~Well ------------------------------------------------------
STRT.FT                        300.0 : START DEPTH
STOP.FT                      12850.0 : STOP DEPTH
STEP.FT                     50.00000 : STEP LENGTH
NULL.                        -999.25 : NULL VALUE
COMP.  WESTERN DECALTA PETROLEUM LTD : COMPANY
WELL. DECALTA ET AL BRAZR 6-31-47-13 : WELL
FLD .                  BRAZEAU RIVER : FIELD
LOC .                                : LOCATION
CTRY.                         CANADA : COUNTRY
SRVC.                   Schlumberger : SERVICE COMPANY
DATE.                    15-Mar-1978 : LOGDATE
PROV.                        Alberta : PROVINCE
UWI .               100063104713W500 : UNIQUE WELL ID
SLAT.WGS84                  53.09535 : SURFACE LATITUDE
SLON.WGS84                 -115.8946 : SURFACE LONGITUDE
~Curve Information -----------------------------------------
DEPT    .FT    : Depth Curve
CALDED  .IN    : CALIPER FROM DENSITY LOG [ADJ. TO RESISTIVITY LOG]
CALSED  .IN    : CALIPER FROM SONIC LOG [ADJ. TO RESISTIVITY LOG]
CALWS   .IN    : CALIPER [CALSED]
CONDWS  .MMHO  : CONDUCTIVITY [1000/DRESWS]
DCORWS  .G/C3  : DENSITY CORRECTION [DRHOED]
DENWS   .G/C3  : FORAMTION BULK DENSITY [CALC FROM DPOLSWS,M=2.71, F=1.00]
DPHILSED.V/V   : DENSITY POROSITY LIMESTONE [M=2.71, F=1.00] FROM DENSITY LOG [ADJ. TO RESISTIVITY LOG]
DPHISSED.V/V   : DENSITY POROSITY SANDSTONE [M=2.65, F=1.00] FROM DENSITY LOG [ADJ. TO RESISTIVITY LOG]
DPOLSWS .V/V   : DENSITY POROSITY LIMESTONE [DPHISSED MATRIX CONVERTED TO LS & SPL. TO DPHILSED @ 9450']
DRESWS  .OHMM  : DEEP RESISTIVITY [ILDED]
DRHOED  .G/C3  : DENSITY CORRECTION FROM DENSITY LOG [ADJ. TO RESISTIVITY LOG]
DTED    .US/F  : DELTA TIME FROM SONIC LOG [ADJ. TO RESISTIVITY LOG]
DTWS    .US/F  : COMPRESSIONAL SONIC [DTED]
GRDED   .GAPI  : GAMMA RAY FROM DENSITY LOG [ADJ. TO RESISTIVITY LOG]
GRSED   .GAPI  : GAMMA RAY FROM SONIC LOG [ADJ. TO RESISTIVITY LOG]
GRWS    .GAPI  : GAMMA RAY [GRSED SPL. TO GRDED @ 12818']
ILDED   .OHMM  : DEEP INDUCTION RESISTIVITY FROM RESISTIVITY LOG
ILMED   .OHMM  : MEDIUM INDUCTION RESISTIVITY FROM RESISTIVITY LOG
LL8ED   .OHMM  : 8 INCH LATEROLOG RESISTIVITY FROM RESISTIVITY LOG
MRESWS  .OHMM  : MEDIUM RESISTIVITY [ILMED]
NPHILSED.V/V   : NEUTRON POROSITY LIMESTONE FROM DENSITY LOG [ADJ. TO RESISTIVITY LOG]
NPHISSED.V/V   : NEUTRON POROSITY SANDSTONE FROM DENSITY LOG [ADJ. TO RESISTIVITY LOG]
NPOLSWS .V/V   : NEUTRON POROSITY LIMESTONE [NPHISSED MATRIX CONVERTED TO LS & SPL. TO NPHILSED @ 9350']
RHOBED  .G/C3  : BULK DENSITY FROM DENSITY LOG [ADJ. TO RESISTIVITY LOG]
SPRED   .MV    : SPONTANEOUS POTENTIAL FROM RESISTIVITY LOG
SPWS    .MV    : SPONTANEOUS POTENTIAL [BASELINE 0 MV, SPRED]
SRESWS  .OHMM  : SHALLOW RESISTIVITY [LL8ED]
~Params ----------------------------------------------------
PD  .                     GL : PERMANENT DATUM
EPD .FT                 3420 : ELEVATION PERMANENT DATUM
LMF .                     KB : LOG MEASURED FROM
DAPD.FT                   27 : FEET ABOVE PERMANENT DATUM
DMF .                     KB : DRILLING MEASURED FROM
EGL .FT                 3420 : GROUND LEVEL
DATE.               03/15/78 : RUN DATE
RUN .                      2 : RUN NUMBER
DD  .FT                12857 : DEPTH DRILLER
DL  .FT                12856 : DEPTH LOGGER
BLI .FT                12850 : BOTTOM LOG INTERVAL
TLI .FT                10390 : TOP LOG INTERVAL
CS  .IN                9.625 : CASING SIZE
CBD .FT                10395 : CASING BOTTOM DRILLER
CBL .FT                10390 : CASING BOTTOM LOGGER
BS  .IN                6.125 : BIT SIZE
BSD .FT                12857 : BIT SIZE AT DEPTH
DFT .                    GEL : DRILLING FLUID TYPE
DFD .                   10.3 : DRILLING FLUID DENSITY
DFV .                     44 : DRILLING FLUID VISCOSITY
DFPH.                   11.5 : DRILLING FLUID PH
DFL .                    8.8 : DRILLING FLUID LOSS
MSS .               FLOWLINE : MUD SAMPLE SOURCE
RMS .OHMM               0.89 : RESISTIVITY MUD SAMPLE
MST .DEGF                 62 : MUD SAMPLE TEMPERATURE
TCS .HRS                 2.5 : TIME CIRCULATED STOPPED
LUN .                   7687 : LOGGING UNIT NUMBER
LUL .                    EDA : LOGGING UNIT LOCATION
ENGI.               BERNISKY : RECORDING ENGINEER
WITN.                  COWAN : WITNESSED BY
CLNT.                A2DTECH : CLIENT CODE
ORIG.            2" 5" PRINT : ORIGIN OF DATA
UWI .       100063104713W500 : UNIQUE WELL ID
DICO. A2D Technologies, Inc. : DIGITIZING COMPANY
~Other -----------------------------------------------------
DIL-LL-CNL-FDC-BHC LOG RUN
NEUTRON CONVERSION: SCHLUMBERGER, DESCRIPTION: CNL(NPHI)
~ASCII -----------------------------------------------------
# ...
 2900.00000   11.26770    9.62290    9.62290  154.67660    0.06840    2.43200    -999.25    0.12680    0.15740    6.46510    0.06840   94.30290   94.30290   99.27080   92.12470   92.12470    6.46510    7.36910    5.83270    7.36910    -999.25    0.35350    0.30990    2.44830 -162.12160  -10.84890    5.83270
 2950.00000   11.18220   10.72710   10.72710  130.23380    0.12870    2.46050    -999.25    0.11480    0.14590    7.67850    0.12870   79.77090   79.77090   78.08640   76.06840   76.06840    7.67850    9.36730    8.39680    9.36730    -999.25    0.26260    0.21860    2.47480 -161.89310   -9.16600    8.39680
 3000.00000   10.98260   10.23660   10.23660  191.75090    0.07290    2.37300    -999.25    0.18560    0.21420    5.21510    0.07290   99.25560   99.25560  103.79680  104.25360  104.25360    5.21510    6.02100    4.40970    6.02100    -999.25    0.36990    0.32650    2.39740 -162.55500   -8.37350    4.40970
 3050.00000   10.55960   10.34250   10.34250  109.50980    0.16550    2.50570    -999.25    0.09420    0.12600    9.13160    0.16550   75.01970   75.01970   87.93160   81.88190   81.88190    9.13160   10.08620    8.92980   10.08620    -999.25    0.23550    0.19170    2.50070 -164.11480   -9.68330    8.92980
 3100.00000   10.24250   10.22210   10.22210   80.44210    0.04400    2.49980    -999.25    0.09100    0.12290   12.43130    0.04400   73.86920   73.86920   74.08290   74.29910   74.29910   12.43130   14.04390   13.16660   14.04390    -999.25    0.22520    0.18150    2.50560 -163.57210   -9.31380   13.16660
 3150.00000   10.09410    9.86430    9.86430  170.87880    0.16600    2.36230    -999.25    0.15660    0.18620    5.85210    0.16600   89.12290   89.12290   90.20360   89.54900   89.54900    5.85210    7.41970    6.12770    7.41970    -999.25    0.32900    0.28520    2.36140 -160.90080   -6.81560    6.12770
 3200.00000    9.77160   10.07560   10.07560   97.64960    0.20450    2.53540    -999.25    0.06940    0.10210   10.24070    0.20450   76.26270   76.26270   77.74620   72.03110   72.03110   10.24070   11.33810   10.70100   11.33810    -999.25    0.27840    0.23440    2.49930 -162.69850   -8.78640   10.70100
 3250.00000   10.82310   10.23580   10.23580  125.21290    0.24750    2.36110    -999.25    0.17020    0.19930    7.98640    0.24750   76.99100   76.99100   89.21730   85.15070   85.15070    7.98640    8.81560    7.91440    8.81560    -999.25    0.28810    0.24410    2.37300 -159.86700   -6.12810    7.91440
 3300.00000   11.47820   10.71400   10.71400  167.31920    0.20080    2.29390    -999.25    0.22620    0.25340    5.97660    0.20080   85.14280   85.14280   90.46250   91.32040   91.32040    5.97660    6.26390    5.71510    6.26390    -999.25    0.34610    0.30240    2.28790 -160.11820   -6.55240    5.71510
 3350.00000    9.20020    9.51160    9.51160   64.83230    0.10220    2.49710    -999.25    0.09270    0.12450   15.42440    0.10220   64.99180   64.99180   67.77820   69.48880   69.48880   15.42440   16.08430   17.24570   16.08430    -999.25    0.17860    0.13550    2.51540 -164.23310  -10.84050   17.24570
 3400.00000    9.68110    9.26890    9.26890  114.55800    0.20950    2.40680    -999.25    0.14890    0.17880    8.72920    0.20950   79.79870   79.79870   72.60930   64.83700   64.83700    8.72920   11.03830    9.58950   11.03830    -999.25    0.29950    0.25550    2.42570 -157.41770   -4.19820    9.58950
 3450.00000   10.88190    9.27910    9.27910  167.25200    0.17730    2.23910    -999.25    0.24910    0.27540    5.97900    0.17730   89.50290   89.50290   97.57540   89.56020   89.56020    5.97900    6.38880    6.12510    6.38880    -999.25    0.38720    0.34410    2.24160 -159.83260   -6.78620    6.12510
 3500.00000    9.87210    9.82420    9.82420  137.08020    0.23540    2.33940    -999.25    0.19960    0.22770    7.29500    0.23540   79.42080   79.42080   83.68850   77.94660   77.94660    7.29500    7.81380    7.09440    7.81380    -999.25    0.30460    0.26060    2.33230 -159.57920   -6.70600    7.09440
 3550.00000    9.55450    9.31400    9.31400  160.90360    0.19470    2.41250    -999.25    0.16990    0.19900    6.21490    0.19470   91.21050   91.21050   95.40730   87.06830   87.06830    6.21490    8.05930    6.63680    8.05930    -999.25    0.35760    0.31410    2.36120 -158.38030   -5.68020    6.63680
 3600.00000   10.48540    9.36260    9.36260  147.85680    0.22530    2.52050    -999.25    0.07850    0.11080    6.76330    0.22530   80.45600   80.45600   83.58010   80.65350   80.65350    6.76330    7.28700    6.99310    7.28700    -999.25    0.29540    0.25140    2.50980 -158.49240   -5.96550    6.99310
 3650.00000   10.36290    9.17700    9.17700  213.13780    0.04760    2.40960    -999.25    0.15100    0.18080    4.69180    0.04760   88.74730   88.74730   94.73680   91.64370   91.64370    4.69180    5.42440    4.86680    5.42440    -999.25    0.36380    0.32030    2.38760 -158.38060   -6.02680    4.86680
 3700.00000   10.02760    9.10320    9.10320  343.80800    0.07350    2.30320    -999.25    0.21020    0.23790    2.90860    0.07350   92.87130   92.87130   93.25870   90.77760   90.77760    2.90860    3.42570    3.06140    3.42570    -999.25    0.34870    0.30500    2.30030 -155.88770   -3.85960    3.06140
 3750.00000   10.03810    9.15230    9.15230   74.22750    0.13580    2.52500    -999.25    0.07490    0.10740   13.47210    0.13580   73.18860   73.18860   57.85040   56.23960   56.23960   13.47210   10.37350   11.92040   10.37350    -999.25    0.21680    0.17320    2.49510 -157.74550   -7.58580   11.92040
 3800.00000    9.44250    9.00780    9.00780  216.44080    0.02360    2.40670    -999.25    0.13960    0.16980    4.62020    0.02360   92.17810   92.17810   95.45650   88.08020   88.08020    4.62020    5.26900    4.86150    5.26900    -999.25    0.37170    0.32830    2.42780 -153.74560   -5.45420    4.86150
 3850.00000    9.39330    9.39280    9.39280  160.92950    0.02440    2.53160    -999.25    0.07170    0.10430    6.21390    0.02440   85.89200   85.89200   90.77510   89.56280   89.56280    6.21390    7.02380    6.66350    7.02380    -999.25    0.38710    0.34400    2.53760 -151.60230   -4.13300    6.66350
 3900.00000    8.63170    8.79030    8.79030   79.28200    0.08440    2.52610    -999.25    0.06830    0.10100   12.61320    0.08440   77.69450   77.69450   59.27070   59.32880   59.32880   12.61320   13.77640   12.90040   13.77640    -999.25    0.27790    0.23390    2.54150 -156.35310   -8.88380   12.90040
 3950.00000    8.68150    9.33910    9.33910   89.49670    0.01090    2.52910    -999.25    0.07330    0.10580   11.17360    0.01090   79.66120   79.66120   79.62460   73.21950   73.21950   11.17360   13.62290   12.24980   13.62290    -999.25    0.33390    0.29010    2.53420 -154.66420   -7.19490   12.24980
 4000.00000    8.67950    9.06450    9.06450   63.42320    0.00060    2.54570    -999.25    0.05920    0.09220   15.76710    0.00060   69.21830   69.21830   58.97240   55.53170   55.53170   15.76710   16.12430   17.96450   16.12430    -999.25    0.21560    0.17200    2.55680 -153.67980   -6.21050   17.96450
 4050.00000    8.66630    9.25850    9.25850  141.41870    0.01030    2.53130    -999.25    0.07470    0.10720    7.07120    0.01030   79.87100   79.87100   91.21640   83.60540   83.60540    7.07120    7.56640    7.28160    7.56640    -999.25    0.31820    0.27430    2.53370 -153.70690   -6.23760    7.28160
 4100.00000    8.56570    9.01370    9.01370  122.55650    0.00860    2.48240    -999.25    0.10150    0.13310    8.15950    0.00860   86.59370   86.59370  107.77060  111.46730  111.46730    8.15950    9.06680    8.44850    9.06680    -999.25    0.37840    0.33510    2.48570 -152.88860   -5.41930    8.44850
 4150.00000    8.73900    8.84000    8.84000   26.27760    0.00710    2.59230    -999.25    0.04360    0.07720   38.05520    0.00710   64.69360   64.69360   51.23790   54.10890   54.10890   38.05520   35.23050   38.90490   35.23050    -999.25    0.15490    0.11220    2.58610 -163.27140  -16.12060   38.90490
