~Version ---------------------------------------------------
VERS. 2.0 : CWLS log ASCII Standard -VERSION 2.0
WRAP.  NO : ONE LINE PER DEPTH STEP
~Well ------------------------------------------------------
STRT.F                              1100.0 : START DEPTH
STOP.F                             11550.0 : STOP DEPTH
STEP.F                            50.00000 : STEP LENGTH
NULL.                              -999.25 : NULL VALUE
COMP.              MURPHY OIL COMPANY LTD. : COMPANY
WELL. MURPHY ASHLAND WOLF CREEK 11-5-53-15 : WELL
FLD .                                      : FIELD
LOC .                                      : LOCATION
CTRY.                               CANADA : COUNTRY
SRVC.               Schlumberger of Canada : SERVICE COMPANY
DATE.                          08-Dec-1976 : LOGDATE
PROV.                              Alberta : PROVINCE
UWI .                     100110505315W500 : UNIQUE WELL ID
SLAT.WGS84                        53.55101 : SURFACE LATITUDE
SLON.WGS84                        -116.179 : SURFACE LONGITUDE
~Curve Information -----------------------------------------
DEPT   .F    0   1   0  0 : 1 MEASURED DEPTH
SPR    .MV   07 010 01 00 : SPONTANEOUS POTENTIAL FROM RESISTIVITY LOG
ILD    .OHMM 07 120 46 00 : INDUCTION DEEP RESISTIVITY
ILM    .OHMM 07 120 44 00 : INDUCTION MEDIUM RESISTIVITY
LL8    .OHMM 07 220 08 00 : LATEROLOG 8
CILD   .MMHO 07 110 46 00 : INDUCTION DEEP CONDUCTIVITY
DPHI_SS.DEC  45 890 12 00 : DENSITY POROSITY SANDSTONE
NPHI_SS.DEC  42 890 03 00 : NEUTRON POROSITY SANDSTONE
GRD    .GAPI 45 310 01 00 : GAMMA RAY FROM DENSITY LOG
CALD   .IN   45 280 60 00 : CALIPER FROM DENSITY LOG
DPHI_LS.DEC  45 890 10 00 : DENSITY POROSITY LIMESTONE
NPHI_LS.DEC  42 890 01 00 : NEUTRON POROSITY LIMESTONE
DRHO   .G/C3 45 356 01 00 : BULK DENSITY CORRECTION
RHOB   .G/C3 45 350 01 00 : BULK DENSITY
DT     .US/F 60 500 00 00 : DELTA-T (INTERVAL TRANSIT TIME)
CALS   .IN   60 280 50 00 : CALIPER FROM SONIC LOG
GRS    .GAPI 60 310 01 00 : GAMMA RAY FROM SONIC LOG
~Params ----------------------------------------------------
PD  .                     GL : PERMANENT DATUM
EPD .FT               2966.3 : ELEVATION PERMANENT DATUM
LMF .                     KB : LOG MEASURED FROM
DAPD.FT                 15.4 : FEET ABOVE PERMANENT DATUM
EKB .FT               2981.7 : KELLY BUSHING
EGL .FT               2966.3 : GROUND LEVEL
DATE.               12/08/76 : RUN DATE
RUN .                      1 : RUN NUMBER
DD  .FT                11560 : DEPTH DRILLER
DL  .FT                11554 : DEPTH LOGGER
BLI .FT                11548 : BOTTOM LOG INTERVAL
TLI .FT                 1160 : TOP LOG INTERVAL
CBD .FT                 1160 : CASING BOTTOM DRILLER
CBL .FT                 1160 : CASING BOTTOM LOGGER
BS  .IN                 8.75 : BIT SIZE
BSD .FT                11560 : BIT SIZE AT DEPTH
DFT .               GEL CHEM : DRILLING FLUID TYPE
DFD .                    9.1 : DRILLING FLUID DENSITY
DFV .                    290 : DRILLING FLUID VISCOSITY
DFPH.                     11 : DRILLING FLUID PH
DFL .                    5.8 : DRILLING FLUID LOSS
MSS .               FLOWLINE : MUD SAMPLE SOURCE
RMS .OHMM               1.67 : RESISTIVITY MUD SAMPLE
MST .DEGF                 37 : MUD SAMPLE TEMPERATURE
RMF .OHMM                1.3 : RESISTIVITY MUD FILTRATE SAMPLE
MFST.DEGF                 55 : MUD FILTRATE SAMPLE TEMPERATURE
TCS .HRS                 2.5 : TIME CIRCULATED STOPPED
LUN .                   7730 : LOGGING UNIT NUMBER
LUL .                    EDM : LOGGING UNIT LOCATION
ENGI.        MCDONALD KARAKI : RECORDING ENGINEER
WITN.            ABEL WORKUM : WITNESSED BY
CLNT.                A2DTECH : CLIENT CODE
ORIG.            2" 5" PRINT : ORIGIN OF DATA
UWI .       100110505315W500 : UNIQUE WELL ID
DICO. A2D Technologies, Inc. : DIGITIZING COMPANY
~Other -----------------------------------------------------
~ASCII -----------------------------------------------------
# ...
 3250.00000  -38.28080    6.48940    -999.25    6.02400  156.41350    -999.25    -999.25   72.09440   10.40950    -999.25    -999.25    0.12230    2.39760   85.31190    9.14550  102.29390
 3300.00000  -38.15320    4.79150    -999.25    4.82610  208.58140    -999.25    -999.25  111.16550   11.25880    -999.25    -999.25    0.11290    2.12070   87.10310    9.21070  115.90030
 3350.00000  -43.91870    8.45180    -999.25    7.99100  118.57310    -999.25    -999.25   64.82530    9.39880    -999.25    -999.25    0.08990    2.40270   76.49270    8.93040   82.23500
 3400.00000  -43.40860   19.19530    -999.25   20.51900   53.64380    -999.25    -999.25  107.11290    9.74970    -999.25    -999.25    0.06520    2.43350   77.47210    8.87780  104.88580
 3450.00000  -40.59160    6.03090    -999.25    5.07110  165.83490    -999.25    -999.25   94.02370   10.14150    -999.25    -999.25    0.02030    2.16710   86.24760    9.31220  101.96270
 3500.00000  -36.28780    4.68800    -999.25    4.94640  213.23710    -999.25    -999.25   95.18120   10.94260    -999.25    -999.25    0.20270    1.98770   90.31760    9.58560  108.38280
 3550.00000  -41.08000    3.32090    -999.25    3.46190  301.43970    -999.25    -999.25   91.86930   11.57540    -999.25    -999.25    0.13700    1.97640   87.40870    9.34880  107.02460
 3600.00000  -42.82140    6.06920    -999.25    5.84770  167.33910    -999.25    -999.25   83.97030   12.02590    -999.25    -999.25    0.04980    1.63930   84.12900    9.61230   89.58220
 3650.00000  -45.19540    9.15900    -999.25    9.03840  107.78310    -999.25    -999.25   72.98930    9.69780    -999.25    -999.25    0.24770    2.29490   80.45270    9.36210   66.63100
 3700.00000  -47.21800    6.84090    -999.25    6.36660  146.14490    -999.25    -999.25   81.15880   14.99620    -999.25    -999.25    0.15850    1.75250   85.00280    8.99690   85.79820
 3750.00000  -33.78260    8.71220    -999.25    8.02170  114.74860    -999.25    -999.25   77.01070   10.40880    -999.25    -999.25    0.23330    2.18840   80.28050    9.04900   86.61010
 3800.00000  -83.97140    2.23170    -999.25    2.71090  448.19670    -999.25    -999.25  107.59930   14.42920    -999.25    -999.25    0.09880    1.57720  124.20560    9.95760  114.33120
 3850.00000  -87.41160    4.86440    -999.25    5.28900  206.13960    -999.25    -999.25   59.26060   10.29220    -999.25    -999.25    0.15790    2.22310  102.68990    9.59470   80.02170
 3900.00000 -106.55900   27.60760    -999.25   25.53970   37.87650    -999.25    -999.25   42.14920    9.13590    -999.25    -999.25    0.01890    2.53450   77.43470    8.93900   42.72780
 3950.00000  -97.58340    6.18200    -999.25    5.84800  161.90760    -999.25    -999.25   79.89950   12.15290    -999.25    -999.25    0.12740    1.82000   86.18100    9.35720   89.71840
 4000.00000  -99.21520   19.87730    -999.25   23.60940   60.65850    -999.25    -999.25   63.56130    9.54400    -999.25    -999.25    0.03990    2.49200   73.87490    8.97970   63.37370
 4050.00000  -98.33100    5.96830    -999.25    6.23940  167.70750    -999.25    -999.25   76.86850   11.40850    -999.25    -999.25    0.18340    1.97730   83.82050    9.59290   83.56040
 4100.00000  -98.03660    6.35850    -999.25    6.66680  157.25640    -999.25    -999.25   69.83330   14.72510    -999.25    -999.25    0.14660    1.64140   85.83390    9.59500   81.29150
 4150.00000  -99.11450   23.70690    -999.25   24.19550   42.17750    -999.25    -999.25   51.55550    9.31510    -999.25    -999.25    0.12230    2.47540   70.04550    8.91850   51.44280
 4200.00000  -94.58870    7.02300    -999.25    6.57550  142.40140    -999.25    -999.25   79.87170   11.26160    -999.25    -999.25    0.04070    2.12730   84.78190    9.10780   76.36950
 4250.00000  -92.04510    8.70010    -999.25    8.47380  114.99960    -999.25    -999.25   73.51600   13.49080    -999.25    -999.25    0.10200    2.46470   85.62640    9.33470   74.28200
 4300.00000  -94.78760    7.32450    -999.25    7.02420  136.66890    -999.25    -999.25   70.45010   11.56720    -999.25    -999.25    0.03590    2.51620   83.42760    9.29470   78.01400
 4350.00000  -95.65710    6.29100    -999.25    7.10040  158.80810    -999.25    -999.25   67.48780   11.54140    -999.25    -999.25    0.09280    1.99390   94.85440    9.73150   65.81810
 4400.00000  -97.95480    7.85670    -999.25    7.83170  127.31480    -999.25    -999.25   59.87780   10.34790    -999.25    -999.25    0.14800    2.04000   86.11140    9.17910   68.82030
 4450.00000  -96.62170    7.74970    -999.25    7.12150  129.17900    -999.25    -999.25   67.95880   12.74500    -999.25    -999.25    0.18770    1.88870   85.94250    9.49400   78.63900
 4500.00000 -102.23590   16.58190    -999.25   17.25280   60.55390    -999.25    -999.25   47.78260    9.43340    -999.25    -999.25    0.03510    2.54700   75.63800    9.26300   50.06640
 4550.00000  -98.05760   10.04610    -999.25   10.40290   97.64400    -999.25    -999.25   71.32560   13.09680    -999.25    -999.25    0.14260    1.87440   83.86080    9.58050   90.20060
 4600.00000 -112.74960    8.75220    -999.25   10.33630  114.24860    -999.25    -999.25   71.61790   10.69500    -999.25    -999.25    0.15910    2.01390   89.09150    9.20340   78.49500
 4650.00000 -133.30360   20.88040    -999.25   25.93130   47.64650    -999.25    -999.25   43.12490    8.94190    -999.25    -999.25    0.03950    2.52250   70.86290    8.95460   47.04550
 4700.00000 -112.16630   10.52960    -999.25   11.23600   94.77310    -999.25    -999.25   70.13950    9.82670    -999.25    -999.25    0.22220    2.13580   79.01190    9.13400   81.28960
 4750.00000 -111.41620   11.26980    -999.25   12.73070   88.72140    -999.25    -999.25   82.61650   11.45200    -999.25    -999.25    0.21760    2.08620   79.48230    9.21870   85.32590
 4800.00000 -113.19020   11.73580    -999.25   12.58690   85.23640    -999.25    -999.25  100.21060   10.67460    -999.25    -999.25    0.03500    2.55610   77.77520    9.38540  111.95920
 4850.00000 -114.94970   11.24550    -999.25   12.10970   88.93100    -999.25    -999.25  105.18190   11.82990    -999.25    -999.25    0.07620    2.61780   80.27910    9.39410  115.55820
 4900.00000 -116.90590   12.48040   12.71530   13.83350    -999.25    -999.25    -999.25  104.70190   14.54080    -999.25    -999.25    0.04600    2.60740   78.37900    9.75690  115.74790
 4950.00000 -110.80890   13.50860   13.74390   14.67200    -999.25    0.09250    0.24600   99.51720   12.91240    -999.25    -999.25    0.10670    2.48960   76.36170    9.67770  109.55890
 5000.00000 -113.31640   12.17080   12.87010   14.12070    -999.25    0.21030    0.31970  102.62930   13.83560    -999.25    -999.25    0.17900    2.33400   79.77750    9.88510  112.70010
 5050.00000 -111.79080   13.39390   13.62830   15.01320    -999.25    0.05280    0.31610  113.13430   11.49770    -999.25    -999.25    0.09210    2.55790   82.61910    9.41720  127.93270
 5100.00000 -110.93900   12.77500   12.96070   14.72990    -999.25    0.25270    0.40940  116.23060   11.28050    -999.25    -999.25    0.10090    2.23370   85.82520    9.53720  135.22270
 5150.00000 -112.21660   14.39840   13.69360   15.68430    -999.25    0.00410    0.31960  116.30350   10.73140    -999.25    -999.25    0.08960    2.63730   82.21970    9.77370  129.84250
 5200.00000 -111.69470   12.20670   14.10210   14.49820    -999.25    0.08520    0.39000  106.01180   13.63420    -999.25    -999.25    0.09310    2.54060   79.52810   10.36170  130.82450
 5250.00000 -113.81570   10.17550    8.83310    8.74550    -999.25    0.39230    0.40700   89.20650   12.65710    -999.25    -999.25    0.20290    2.05520   80.01820   11.07440   92.83880
 5300.00000 -112.37160    9.31280    9.47090    9.99940    -999.25    0.17210    0.42400   91.55460   11.71360    -999.25    -999.25    0.19390    2.35420   79.17590   10.64930  107.38210
 5350.00000 -113.94670   10.09530    9.68520   11.45610    -999.25    -999.25    0.43770   85.58570   15.01740    -999.25    -999.25    0.16290    1.84260   79.51760   10.62960  100.49640
