~Version ---------------------------------------------------
VERS.      2.0 : CWLS log ASCII Standard -VERSION 2.0
WRAP.       NO : One line per depth step
CREA. 12/18/17 : LAS Creation Date
~Well ------------------------------------------------------
STRT.FT                        1150.0 : START DEPTH
STOP.FT                       11350.0 : STOP DEPTH
STEP.FT                      50.00000 : STEP LENGTH
NULL.                         -999.25 : NULL VALUE
COMP.   THE ATLANTIC REFINING COMPANY : COMPANY
WELL. ATLANTIC ANTE CREEK 10-18-65-23 : WELL
FLD .                                 : FIELD
LOC .                                 : LOCATION
CTRY.                          CANADA : COUNTRY
SRVC.                    Schlumberger : SERVICE COMPANY
DATE.                     05-Jan-1963 : LOGDATE
PROV.                         Alberta : PROVINCE
UWI .                100101806523W500 : UNIQUE WELL ID
SLAT.WGS84                     54.627 : SURFACE LATITUDE
SLON.WGS84                  -117.4631 : SURFACE LONGITUDE
~Curve Information -----------------------------------------
DEPT  .FT    : Depth Curve
CALWS .IN    : CALIPER [MCALED]
CILDED.MMHO  : CONDUCTIVITY FROM RESISTIVITY LOG
CONDWS.MMHO  : CONDUCTIVITY [1000/DRESWS]
DRESWS.OHMM  : DEEP RESISTIVITY [1000/CILDED IF ILDED <=5, ILDED]
DT1ED .US/F  : DELTA-T 1' SPAN FROM SONIC LOG [ADJ.TO DTED]
DTED  .US/F  : DELTA-T 3' SPAN FROM SONIC LOG
DTWS  .US/F  : COMPRESSIONAL SONIC [DTED]
GRNED .GAPI  : GAMMA RAY FROM GRN LOG [ADJ.TO RESISTIVITY LOG]
GRSED .GAPI  : GAMMA RAY FROM SONIC LOG
GRWS  .GAPI  : GAMMA RAY [GRSED]
ILDED .OHMM  : DEEP INDUCTION FROM RESISTIVITY LOG
MCALED.IN    : MICRO CALIPER FROM MICRO LOG
NEUTED.NAPI  : NEUTRON FROM GRN LOG [ADJ.TO RESISTIVITY LOG]
NEUTWS.NAPI  : NEUTRON [NEUTED]
SNED  .OHMM  : SHORT NORMAL 16" FROM RESISTIVITY LOG
SPRED .MV    : SPONTANEOUS POTENTIAL FROM RESISTIVITY LOG
SPWS  .MV    : SPONTANEOUS POTENTIAL [BASELINE 0 MV, SPRED]
SRESWS.OHMM  : SHALLOW RESISTIVITY [SNED]
~Params ----------------------------------------------------
PD  .                     GL : PERMANENT DATUM
EPD .FT                 2763 : ELEVATION PERMANENT DATUM
LMF .                     KB : LOG MEASURED FROM
DAPD.FT                 14.5 : FEET ABOVE PERMANENT DATUM
EKB .FT               2777.5 : KELLY BUSHING
EGL .FT                 2763 : GROUND LEVEL
DATE.               01/05/63 : RUN DATE
RUN .                      1 : RUN NUMBER
DD  .FT                11380 : DEPTH DRILLER
DL  .FT                11362 : DEPTH LOGGER
BLI .FT                11361 : BOTTOM LOG INTERVAL
TLI .FT                 1166 : TOP LOG INTERVAL
CBD .FT                 1175 : CASING BOTTOM DRILLER
CBL .FT                 1166 : CASING BOTTOM LOGGER
BS  .IN                8.625 : BIT SIZE
BSD .FT                11380 : BIT SIZE AT DEPTH
DFT .               GEL CHEM : DRILLING FLUID TYPE
DFD .                    9.8 : DRILLING FLUID DENSITY
DFV .                     80 : DRILLING FLUID VISCOSITY
DFPH.                    9.5 : DRILLING FLUID PH
DFL .                      7 : DRILLING FLUID LOSS
RMS .OHMM                2.7 : RESISTIVITY MUD SAMPLE
MST .DEGF                 67 : MUD SAMPLE TEMPERATURE
RMF .OHMM                1.9 : RESISTIVITY MUD FILTRATE SAMPLE
MFST.DEGF                 82 : MUD FILTRATE SAMPLE TEMPERATURE
RMC .OHMM               2.41 : RESISTIVITY MUD CAKE
MCST.DEGF                 82 : MUD CAKE SAMPLE TEMPERATURE
RMB .OHMM               0.95 : RESISTIVITY MUD AT BHT
TCS .HRS                   3 : TIME CIRCULATED STOPPED
LUN .                   3534 : LOGGING UNIT NUMBER
LUL .                    WCT : LOGGING UNIT LOCATION
ENGI.                  MILLS : RECORDING ENGINEER
WITN.        HARTWELL RAMSEY : WITNESSED BY
CLNT.                A2DTECH : CLIENT CODE
ORIG.            2" 5" PRINT : ORIGIN OF DATA
UWI .       100101806523W500 : UNIQUE WELL ID
DICO. A2D Technologies, Inc. : DIGITIZING COMPANY
~Other -----------------------------------------------------
IEL-ML-SONIC-GRN LOG RUN.
ALL CURVE FROM IEL LOG DIG IN 2" SCALE @ TOP TO 3438'
ALL CURVE FROM SONIC LOG DIG IN 2" SCALE @ TOP TO 3438'
MCALED DIG IN 2" SCALE @ TOP TO 3488'
~ASCII -----------------------------------------------------
# ...
 5050.00000   13.59080  349.96710  349.96710    2.85740    -999.25  108.81300  108.81300   79.83290   92.81540   92.81540    2.93770   13.59080    -999.25    -999.25    5.17750  -65.80460   -4.91730    5.17750
 5100.00000   12.99010  388.83700  388.83700    2.57180    -999.25  106.96070  106.96070   74.19890   86.72680   86.72680    2.56140   12.99010    -999.25    -999.25    4.41140  -67.00410   -5.64510    4.41140
 5150.00000   12.54510  187.19700  184.12480    5.43110    -999.25   75.84460   75.84460   56.56670   74.12900   74.12900    5.43110   12.54510    -999.25    -999.25    7.24510  -67.73250   -5.90180    7.24510
 5200.00000   12.20090  137.11280  157.11410    6.36480    -999.25   82.73490   82.73490   60.98200   80.19750   80.19750    6.36480   12.20090    -999.25    -999.25    9.78860  -68.46050   -6.15810    9.78860
 5250.00000   11.32390  121.85970  125.67390    7.95710    -999.25   78.59890   78.59890   62.22480   78.22650   78.22650    7.95710   11.32390    -999.25    -999.25   10.45210  -67.76460   -4.99050   10.45210
 5300.00000    8.84750   68.83260   62.83420   15.91490    -999.25   86.30340   86.30340   41.30150   55.06100   55.06100   15.91490    8.84750    -999.25    -999.25   23.40730 -102.93420  -39.68840   23.40730
 5350.00000   12.54000  303.09600  303.09600    3.29930    -999.25   83.20990   83.20990   52.14800   63.20990   63.20990    2.84450   12.54000    -999.25    -999.25    6.22700  -65.70200   -1.98450    6.22700
 5400.00000   11.35270  112.58250  107.93190    9.26510    -999.25   79.23960   79.23960   56.45810   63.93160   63.93160    9.26510   11.35270    -999.25    -999.25   13.29170  -70.22320   -6.03400   13.29170
 5450.00000   10.22610   70.70820   60.10190   16.63840    -999.25   74.39870   74.39870   33.61620   42.47940   42.47940   16.63840   10.22610    -999.25    -999.25   21.73500  -95.52210  -31.97890   21.73500
 5500.00000   12.34230   70.89580   57.38120   17.42730    -999.25   70.71590   70.71590   26.63570   39.87480   39.87480   17.42730   12.34230    -999.25    -999.25   18.29280  -86.89020  -25.81640   18.29280
 5550.00000   12.16320  156.36260  155.18550    6.44390    -999.25   79.42100   79.42100    -999.25   71.26050   71.26050    6.44390   12.16320    -999.25    -999.25    9.99300  -68.23080   -9.62650    9.99300
 5600.00000   11.00870   51.09780   42.16810   23.71460    -999.25   86.82570   86.82570    -999.25   55.20610   55.20610   23.71460   11.00870    -999.25    -999.25   31.33480  -73.14590  -17.01110   31.33480
 5650.00000   11.81990   62.30480   50.93850   19.63150    -999.25   76.05620   76.05620    -999.25   51.74440   51.74440   19.63150   11.81990    -999.25    -999.25   32.66980  -73.06480  -19.39940   32.66980
 5700.00000    8.57630   94.66730   78.62500   12.71860    -999.25   72.49920   72.49920    -999.25   31.04320   31.04320   12.71860    8.57630    -999.25    -999.25   24.15000 -127.24220  -76.04630   24.15000
 5750.00000   12.41440   71.34070   65.11900   15.35650    -999.25   69.19780   69.19780    -999.25   43.15920   43.15920   15.35650   12.41440    -999.25    -999.25   23.48140  -67.52270  -18.79620   23.48140
 5800.00000   12.16030  120.01040  124.78790    8.01360    -999.25   77.86080   77.86080    -999.25   64.56140   64.56140    8.01360   12.16030    -999.25    -999.25   12.17910  -54.56580   -8.30880   12.17910
 5850.00000   12.20530   94.99700   90.75730   11.01840    -999.25   75.99450   75.99450    -999.25   60.50790   60.50790   11.01840   12.20530    -999.25    -999.25   18.02930  -51.53220   -7.74460   18.02930
 5900.00000    9.77000   69.89410   69.65340   14.35680    -999.25   64.44650   64.44650    -999.25   34.41080   34.41080   14.35680    9.77000    -999.25    -999.25   26.94010  -67.82610  -26.50800   26.94010
 5950.00000    9.93160   91.52160   92.56350   10.80340    -999.25   69.82860   69.82860    -999.25   56.61760   56.61760   10.80340    9.93160    -999.25    -999.25   18.23610  -54.29780  -12.38850   18.23610
 6000.00000   12.58850   86.55330   85.53440   11.69120    -999.25   70.85760   70.85760    -999.25   48.64280   48.64280   11.69120   12.58850    -999.25    -999.25   15.34270  -59.95680  -18.69680   15.34270
 6050.00000   10.32950   32.87520   28.59760   34.96800    -999.25   60.74100   60.74100    -999.25   31.12940   31.12940   34.96800   10.32950    -999.25    -999.25   40.30100  -68.17630  -27.56560   40.30100
 6100.00000   10.80240   69.51850   70.61050   14.16220    -999.25   70.87990   70.87990    -999.25   61.69170   61.69170   14.16220   10.80240    -999.25    -999.25   18.53230  -48.93060   -8.96920   18.53230
 6150.00000   10.96610   72.49250   71.84220   13.91940    -999.25   74.42150   74.42150   55.40340   66.67220   66.67220   13.91940   10.96610    -999.25    -999.25   17.55820  -43.49240   -4.18030   17.55820
 6200.00000   10.94940   98.14230  102.68840    9.73820    -999.25   77.62900   77.62900   53.61020   72.00670   72.00670    9.73820   10.94940    -999.25    -999.25   14.56410  -41.61770   -2.95500   14.56410
 6250.00000   11.51700   92.81110  103.01840    9.70700    -999.25   76.32460   76.32460   52.17780   63.95210   63.95210    9.70700   11.51700    -999.25    -999.25   14.45170  -42.37200   -4.35860   14.45170
 6300.00000   10.03490   79.81470   81.34120   12.29390    -999.25   73.22410   73.22410   22.64540   37.83800   37.83800   12.29390   10.03490    -999.25    -999.25   25.12030 -102.14760  -64.16810   25.12030
 6350.00000   10.95570   31.08210   29.22740   34.21450    -999.25   67.44440   67.44440   26.58710   37.92260   37.92260   34.21450   10.95570    -999.25    -999.25   38.55710  -50.42630  -12.16380   38.55710
 6400.00000   13.09640   82.54210   81.63070   12.25030    -999.25   90.43980   90.43980   46.90840   70.54430   70.54430   12.25030   13.09640    -999.25    -999.25   18.57090  -47.53130   -8.98570   18.57090
 6450.00000   12.30930   94.59230   94.32980   10.60110    -999.25   67.18140   67.18140   44.32080   68.84260   68.84260   10.60110   12.30930    -999.25    -999.25   18.03000  -45.09040   -6.26170   18.03000
 6500.00000   13.25850   73.16820   73.28750   13.64490    -999.25   65.05280   65.05280   48.36820   61.02460   61.02460   13.64490   13.25850    -999.25    -999.25   17.28220  -45.16810   -6.05640   17.28220
 6550.00000   13.75480   68.46680   63.81660   15.66990    -999.25   90.79890   90.79890   58.23320   69.77050   69.77050   15.66990   13.75480    -999.25    -999.25   17.01530  -50.72770  -11.33290   17.01530
 6600.00000   17.80530  117.50240  103.38800    9.67230    -999.25   82.90160   82.90160   72.56730   92.14530   92.14530    9.67230   17.80530    -999.25    -999.25   12.98240  -49.07560   -9.39780   12.98240
 6650.00000    8.29340   87.13930   78.75750   12.69720    -999.25   78.68360   78.68360   15.37720   30.55240   30.55240   12.69720    8.29340    -999.25    -999.25   32.25190 -125.69600  -85.73510   32.25190
 6700.00000    9.47770   73.30740   71.30940   14.02340    -999.25   74.12520   74.12520   37.07280   61.36970   61.36970   14.02340    9.47770    -999.25    -999.25   22.53710  -60.46720  -20.22320   22.53710
 6750.00000    9.84910    9.35460   24.13440   41.43460    -999.25  126.10950  126.10950   72.32670   86.24730   86.24730   41.43460    9.84910    -999.25    -999.25   48.39600  -51.41300  -10.88600   48.39600
 6800.00000   10.06330    7.36010    4.29530  232.81040    -999.25   82.75830   82.75830   76.11110   96.17140   96.17140  232.81040   10.06330    -999.25    -999.25  183.68970  -48.85760   -8.04750  183.68970
 6850.00000   10.02800    7.03660    3.43100  291.45610    -999.25   90.38400   90.38400    -999.25    -999.25    -999.25  291.45610   10.02800    -999.25    -999.25  176.84430  -76.43250  -35.33940  176.84430
 6900.00000   10.93260   55.58970   51.21560   19.52530    -999.25   60.83280   60.83280    -999.25   76.22260   76.22260   19.52530   10.93260    -999.25    -999.25   24.26720  -51.40860  -10.03240   24.26720
 6950.00000   10.88700   69.17720   63.53480   15.73940    -999.25   63.81570   63.81570    -999.25   66.47340   66.47340   15.73940   10.88700    -999.25    -999.25   19.41810  -66.83540  -25.17610   19.41810
