~Version ---------------------------------------------------
VERS.      2.0 : CWLS log ASCII Standard -VERSION 2.0
WRAP.       NO : One line per depth step
CREA. 12/01/17 : LAS Creation Date
~Well ------------------------------------------------------
STRT.FT                      1000.0 : START DEPTH
STOP.FT                      9350.0 : STOP DEPTH
STEP.FT                    50.00000 : STEP LENGTH
NULL.                       -999.25 : NULL VALUE
COMP. ATLANTIC RICHFIELD CANADA LTD : COMPANY
WELL.         ARCO SNIPE 10-6-69-17 : WELL
FLD .                               : FIELD
LOC .                               : LOCATION
CTRY.                        CANADA : COUNTRY
SRVC.        Schlumberger of Canada : SERVICE COMPANY
DATE.                   01-Jan-1971 : LOGDATE
PROV.                       Alberta : PROVINCE
UWI .              100100606917W500 : UNIQUE WELL ID
SLAT.WGS84                 54.94767 : SURFACE LATITUDE
SLON.WGS84                -116.5759 : SURFACE LONGITUDE
~Curve Information -----------------------------------------
DEPT  .FT    : Depth Curve
CALSED.IN    : CALIPER FROM SONIC LOG
CALWS .IN    : CALIPER [CALSED]
CONDWS.MMHO  : CONDUCTIVITY [1000/DRESWS]
DRESWS.OHMM  : DEEP MRESISTIVITY [ILDED]
DTED  .US/F  : DELTA-TIME FROM SONIC LOG
DTWS  .US/F  : COMPRESSIONAL SONIC [DTED]
GRSED .GAPI  : GAMMA RAY FROM SONIC LOG
GRWS  .GAPI  : GAMMA RAY [GRSED]
ILDED .OHMM  : DEEP INDUCTION LOG RESISTIVITY FROM RESISTIVITY LOG
ILMED .OHMM  : MEDIUM INDUCTION LOG RESISTIVITY FROM RESISTIVITY LOG
LL8ED .OHMM  : 8 INCH LATEROLOG RESISTIVITY FROM RESISTIVITY LOG
MRESWS.OHMM  : MEDIUM RESISTIITY [ILMED]
SPRED .MV    : SPONTANEOUS POTENTIAL FROM RESISTIVITY LOG
SPWS  .MV    : SPONTANEOUS POTENTIAL [BASELINE TO ZERO, SPRED]
SRESWS.OHMM  : SHALLOW RESISTIVITY [LL8ED]
~Params ----------------------------------------------------
PD  .                     GL : PERMANENT DATUM
EPD .FT               3010.5 : ELEVATION PERMANENT DATUM
LMF .                     KB : LOG MEASURED FROM
DAPD.FT                 18.5 : FEET ABOVE PERMANENT DATUM
EKB .FT                 3029 : KELLY BUSHING
EGL .FT               3010.5 : GROUND LEVEL
DATE.               01/01/71 : RUN DATE
RUN .                      1 : RUN NUMBER
DD  .FT                 9400 : DEPTH DRILLER
DL  .FT                 9398 : DEPTH LOGGER
BLI .FT                 9392 : BOTTOM LOG INTERVAL
TLI .FT                  974 : TOP LOG INTERVAL
CBD .FT                  974 : CASING BOTTOM DRILLER
CBL .FT                  974 : CASING BOTTOM LOGGER
BS  .IN                7.875 : BIT SIZE
BSD .FT                 9400 : BIT SIZE AT DEPTH
DFT .              FRESH GEL : DRILLING FLUID TYPE
DFD .                    9.4 : DRILLING FLUID DENSITY
DFV .                     76 : DRILLING FLUID VISCOSITY
DFPH.                   10.5 : DRILLING FLUID PH
DFL .                    9.2 : DRILLING FLUID LOSS
MSS .               FLOWLINE : MUD SAMPLE SOURCE
RMS .OHMM               3.45 : RESISTIVITY MUD SAMPLE
MST .DEGF                 60 : MUD SAMPLE TEMPERATURE
RMF .OHMM               2.98 : RESISTIVITY MUD FILTRATE SAMPLE
MFST.DEGF                 48 : MUD FILTRATE SAMPLE TEMPERATURE
RMB .OHMM               1.08 : RESISTIVITY MUD AT BHT
TCS .HRS                   3 : TIME CIRCULATED STOPPED
LUN .                   7502 : LOGGING UNIT NUMBER
LUL .                    EDM : LOGGING UNIT LOCATION
ENGI.                 BUFTON : RECORDING ENGINEER
WITN.                 BAINES : WITNESSED BY
CLNT.                A2DTECH : CLIENT CODE
ORIG.            2" 5" PRINT : ORIGIN OF DATA
UWI .       100100606917W500 : UNIQUE WELL ID
DICO. A2D Technologies, Inc. : DIGITIZING COMPANY
~Other -----------------------------------------------------
~ASCII -----------------------------------------------------
 1000.00000   10.10620   10.10620  262.92260    3.80340  143.52700  143.52700   59.24280   59.24280    3.80340    3.49820    4.28400    3.49820  -85.90260  -59.63060    4.28400
 1050.00000   12.16480   12.16480  335.47050    2.98090  146.40060  146.40060   45.76380   45.76380    2.98090    2.74920    3.12670    2.74920  -88.82950  -62.55750    3.12670
 1100.00000    8.63960    8.63960  115.90170    8.62800  114.16000  114.16000   41.17680   41.17680    8.62800    8.70730    7.98380    8.70730  -93.54780  -67.27580    7.98380
 1150.00000   10.37120   10.37120  386.60790    2.58660  129.40990  129.40990   56.15570   56.15570    2.58660    2.41990    3.18770    2.41990  -86.35630  -60.08430    3.18770
 1200.00000    7.62390    7.62390  107.60560    9.29320  115.10730  115.10730   46.14320   46.14320    9.29320    8.55780    8.09940    8.55780  -94.50240  -68.23040    8.09940
 1250.00000   11.55300   11.55300  241.16140    4.14660  131.46890  131.46890   44.00060   44.00060    4.14660    3.75550    4.45360    3.75550  -85.32470  -59.05270    4.45360
 1300.00000   10.53580   10.53580  266.37260    3.75420  134.13520  134.13520   54.51400   54.51400    3.75420    3.44970    3.97890    3.44970  -85.62700  -59.35500    3.97890
 1350.00000    8.64930    8.64930   63.79140   15.67610  113.93520  113.93520   33.71660   33.71660   15.67610   13.77410   13.00820   13.77410  -92.33700  -66.06500   13.00820
 1400.00000    8.92070    8.92070  110.98660    9.01010  128.07040  128.07040   33.43060   33.43060    9.01010    8.02000    7.15510    8.02000  -91.44580  -65.17380    7.15510
 1450.00000    8.62030    8.62030   71.17540   14.04980  120.25770  120.25770   33.53460   33.53460   14.04980   12.50770   11.36770   12.50770  -88.55880  -62.28680   11.36770
 1500.00000   11.54020   11.54020  248.92340    4.01730  125.60490  125.60490   41.17870   41.17870    4.01730    3.42810    3.64780    3.42810  -83.03760  -56.76560    3.64780
 1550.00000   11.02850   11.02850  266.01260    3.75920  133.13830  133.13830   41.62720   41.62720    3.75920    3.56050    4.11530    3.56050  -84.61310  -58.34110    4.11530
 1600.00000   11.19940   11.19940  226.97350    4.40580  148.06420  148.06420   38.52560   38.52560    4.40580    3.90130    4.63260    3.90130  -86.29640  -60.02440    4.63260
 1650.00000    9.31020    9.31020  179.78170    5.56230  120.94360  120.94360   37.75570   37.75570    5.56230    4.33850    4.89220    4.33850  -84.51250  -58.24050    4.89220
 1700.00000   11.29610   11.29610  220.26920    4.53990  125.93050  125.93050   44.71520   44.71520    4.53990    3.85490    4.23140    3.85490  -82.66600  -56.39400    4.23140
 1750.00000   10.44950   10.44950  241.27780    4.14460  122.08820  122.08820   40.45520   40.45520    4.14460    3.65240    3.93660    3.65240  -82.41620  -56.14420    3.93660
 1800.00000    9.45940    9.45940  259.21780    3.85820  118.82270  118.82270   44.93740   44.93740    3.85820    3.53990    4.25740    3.53990  -80.55020  -54.27820    4.25740
 1850.00000   10.24430   10.24430  249.12180    4.01410  124.53650  124.53650   38.57360   38.57360    4.01410    3.39380    3.77210    3.39380  -80.68920  -54.41720    3.77210
 1900.00000    8.61880    8.61880  142.05350    7.03960  113.75180  113.75180   45.83090   45.83090    7.03960    6.62750    7.99370    6.62750  -90.91730  -64.64530    7.99370
 1950.00000    8.64670    8.64670   97.70010   10.23540  109.51220  109.51220   39.05950   39.05950   10.23540    9.45690    9.07380    9.45690  -85.00290  -58.73090    9.07380
 2000.00000   14.96580   14.96580  311.54590    3.20980  183.51890  183.51890   33.75760   33.75760    3.20980    2.98260    4.77760    2.98260  -79.67330  -53.40130    4.77760
 2050.00000   13.73590   13.73590  243.07680    4.11470  135.01030  135.01030   43.85860   43.85860    4.11470    3.89820    5.30920    3.89820  -79.07780  -52.80580    5.30920
 2100.00000    8.48910    8.48910  196.13230    5.09860  109.25820  109.25820   37.47520   37.47520    5.09860    4.60340    5.45480    4.60340  -82.38180  -56.10980    5.45480
 2150.00000    8.30570    8.30570  211.06840    4.73780  111.37110  111.37110   41.79330   41.79330    4.73780    4.45970    4.96660    4.45970  -80.80680  -54.53480    4.96660
 2200.00000    8.64660    8.64660  178.91010    5.58940  116.55020  116.55020   42.84990   42.84990    5.58940    5.24600    6.70750    5.24600  -83.62340  -57.35140    6.70750
 2250.00000   10.48900   10.48900  235.27200    4.25040  117.11880  117.11880   43.44630   43.44630    4.25040    3.96310    4.79010    3.96310  -79.23020  -52.95820    4.79010
 2300.00000   10.29190   10.29190  261.44480    3.82490  115.97760  115.97760   51.14950   51.14950    3.82490    3.52670    4.57650    3.52670  -79.30440  -53.03240    4.57650
 2350.00000   15.00000   15.00000  176.34820    5.67060  109.89420  109.89420   49.24080   49.24080    5.67060    5.32100    6.22040    5.32100  -80.28200  -54.01000    6.22040
 2400.00000   15.00000   15.00000  168.33030    5.94070  118.63590  118.63590   52.17150   52.17150    5.94070    5.49790    6.35260    5.49790  -82.70990  -56.43790    6.35260
 2450.00000    9.89540    9.89540  195.01160    5.12790  118.83950  118.83950   68.76960   68.76960    5.12790    4.73700    5.94910    4.73700  -81.03350  -54.76150    5.94910
 2500.00000    9.51670    9.51670  170.73000    5.85720  114.58600  114.58600   96.56170   96.56170    5.85720    5.51900    7.05460    5.51900  -80.03170  -53.75970    7.05460
 2550.00000   14.56800   14.56800  182.97630    5.46520  114.75100  114.75100   63.77940   63.77940    5.46520    5.04640    6.30030    5.04640  -80.68200  -54.41000    6.30030
 2600.00000   15.00000   15.00000  166.93380    5.99040  113.03440  113.03440   54.97430   54.97430    5.99040    5.07500    5.68290    5.07500  -83.74010  -57.46810    5.68290
 2650.00000   15.00000   15.00000  168.67100    5.92870  122.80580  122.80580   53.25220   53.25220    5.92870    4.83230    5.40590    4.83230  -83.97440  -57.70240    5.40590
 2700.00000   14.37390   14.37390  127.72040    7.82960  101.46860  101.46860   65.37510   65.37510    7.82960    6.71980    7.16350    6.71980  -84.60830  -58.33630    7.16350
 2750.00000   15.00000   15.00000  158.73020    6.30000  106.14350  106.14350   49.21960   49.21960    6.30000    5.10940    5.56130    5.10940  -84.16840  -57.89640    5.56130
 2800.00000   15.00000   15.00000  156.57460    6.38680  128.11120  128.11120   41.50010   41.50010    6.38680    5.13280    5.60020    5.13280  -83.54930  -57.27730    5.60020
 2850.00000   10.63320   10.63320  170.22150    5.87470  168.89300  168.89300   50.26940   50.26940    5.87470    4.99910    5.49190    4.99910  -84.62780  -58.35580    5.49190
 2900.00000   15.00120   15.00120  122.68880    8.15070  104.81920  104.81920   47.23100   47.23100    8.15070    6.63290    7.02560    6.63290  -84.74070  -58.46870    7.02560
 2950.00000   15.00000   15.00000  153.72790    6.50500  127.87790  127.87790   58.74590   58.74590    6.50500    5.41610    5.71960    5.41610  -82.09680  -55.82480    5.71960
 3000.00000   10.51490   10.51490  148.07360    6.75340  110.22630  110.22630   60.00570   60.00570    6.75340    5.92900    6.35210    5.92900  -81.07760  -54.80560    6.35210
 3050.00000   10.49270   10.49270  183.35630    5.45390  126.10700  126.10700   69.59180   69.59180    5.45390    4.94030    5.75540    4.94030  -79.12810  -52.85610    5.75540
 3100.00000    8.59500    8.59500  191.14250    5.23170  111.12750  111.12750   78.97210   78.97210    5.23170    4.92320    6.00970    4.92320  -77.26250  -50.99050    6.00970
 3150.00000   10.12930   10.12930  171.23290    5.84000  113.88370  113.88370   70.22550   70.22550    5.84000    5.56060    6.80160    5.56060  -78.95580  -52.68380    6.80160
 3200.00000   10.14300   10.14300  175.70370    5.69140  116.55370  116.55370   67.66370   67.66370    5.69140    5.41290    6.75760    5.41290  -76.77280  -50.50080    6.75760
 3250.00000    9.04920    9.04920  145.25380    6.88450  114.05310  114.05310   97.90900   97.90900    6.88450    6.54720    9.14890    6.54720  -74.76520  -48.49320    9.14890
