~Version ---------------------------------------------------
VERS. 2.0 : CWLS log ASCII Standard -VERSION 2.0
WRAP.  NO : ONE LINE PER DEPTH STEP
~Well ------------------------------------------------------
STRT.F                           1000.0 : START DEPTH
STOP.F                          10450.0 : STOP DEPTH
STEP.F                         50.00000 : STEP LENGTH
NULL.                           -999.25 : NULL VALUE
COMP.     CANADIAN SUPERIOR OIL COMPANY : COMPANY
WELL. CDN-SUP CEGO FOX CR 10-11SH-62-18 : WELL
FLD .                                   : FIELD
LOC .                                   : LOCATION
CTRY.                            CANADA : COUNTRY
SRVC.                      Schlumberger : SERVICE COMPANY
DATE.                       29-Mar-1977 : LOGDATE
PROV.                           Alberta : PROVINCE
UWI .                  102101106218W500 : UNIQUE WELL ID
SLAT.WGS84                     54.35151 : SURFACE LATITUDE
SLON.WGS84                    -116.5828 : SURFACE LONGITUDE
~Curve Information -----------------------------------------
DEPT   .F                 : 
SPR    .MV                : SPONTANEOUS POTENTIAL FROM RESISTIVITY
LL8    .OHMM              : LATEROLOG-8 RESISTIVITY
ILD    .OHMM 06 121 12 00 : INDUCTION LOG DEEP RESISTIVITY
ILM    .OHMM 07 120 44 00 : INDUCTION LOG MEDIUM RESISTIVITY
CILD   .MMHO 07 110 00 00 : CONDUCTIVITY INDUCTION LOG
GRS    .GAPI              : GAMMA RAY FROM SONIC LOG
DT     .US/F 60 520 00 00 : SONIC
CALD   .IN   45 280 60 00 : CALIPER FROM DENSITY LOG
DCOR   .G/C3 45 356 01 00 : DENSITY CORRECTION
RHOB   .G/C3 45 350 01 00 : BULK DENSITY
NPOR_SS.DEC               : NEUTRON POROSITY SANDSTONE
DPOR_SS.DEC               : DENSITY POROSITY
CALS   .IN                : CALIPER FROM SONIC LOG
GRD    .GAPI              : GAMMA RAY FROM DENSITY LOG
NPOR_LS.DEC               : NEUTRON POROSITY LIMESTONE
DPOR_LS.DEC               : DENSITY POROSITY LIMESTONE
~Params ----------------------------------------------------
PD  .                     GL : PERMANENT DATUM
EPD .FT                 2963 : ELEVATION PERMANENT DATUM
LMF .                     KB : LOG MEASURED FROM
DAPD.FT                   13 : FEET ABOVE PERMANENT DATUM
EKB .FT                 2976 : KELLY BUSHING
EGL .FT                 2963 : GROUND LEVEL
DATE.               03/29/77 : RUN DATE
RUN .                      1 : RUN NUMBER
DD  .FT                10475 : DEPTH DRILLER
DL  .FT                10478 : DEPTH LOGGER
BLI .FT                10472 : BOTTOM LOG INTERVAL
TLI .FT                 1071 : TOP LOG INTERVAL
CBD .FT                 1070 : CASING BOTTOM DRILLER
CBL .FT                 1071 : CASING BOTTOM LOGGER
BS  .IN                 8.75 : BIT SIZE
BSD .FT                10475 : BIT SIZE AT DEPTH
DFT .               GEL CHEM : DRILLING FLUID TYPE
DFD .                    9.2 : DRILLING FLUID DENSITY
DFV .                     81 : DRILLING FLUID VISCOSITY
DFPH.                    9.5 : DRILLING FLUID PH
DFL .                      8 : DRILLING FLUID LOSS
MSS .             CIRCULATED : MUD SAMPLE SOURCE
RMS .OHMM                1.1 : RESISTIVITY MUD SAMPLE
MST .DEGF                 62 : MUD SAMPLE TEMPERATURE
RMF .OHMM               0.76 : RESISTIVITY MUD FILTRATE SAMPLE
MFST.DEGF                 62 : MUD FILTRATE SAMPLE TEMPERATURE
TCS .HRS                   4 : TIME CIRCULATED STOPPED
LUN .                   7690 : LOGGING UNIT NUMBER
LUL .                    EDM : LOGGING UNIT LOCATION
ENGI.                WOROWUK : RECORDING ENGINEER
WITN.                  KELLY : WITNESSED BY
CLNT.                A2DTECH : CLIENT CODE
ORIG.            2" 5" PRINT : ORIGIN OF DATA
UWI .       102101106218W500 : UNIQUE WELL ID
DICO. A2D Technologies, Inc. : DIGITIZING COMPANY
~Other -----------------------------------------------------
~ASCII -----------------------------------------------------
# ...
 3150.00000  -95.89480   12.62940   10.49950   11.79300    -999.25   42.74640   94.88430   11.09980    0.06010    2.41370    0.37910    0.15500   10.48030   46.30270    -999.25    -999.25
 3200.00000  -90.80060    4.41620    4.07230    4.58370    -999.25   29.29750   89.01170    9.15220    0.11130    2.32930    0.29500    0.19840    8.86700   42.76720    -999.25    -999.25
 3250.00000  -82.81150    4.03110    4.15680    4.35590    -999.25   49.72900   87.87370    9.44090    0.06550    2.45790    0.38660    0.13150    9.75540   57.43410    -999.25    -999.25
 3300.00000  -85.95500    6.17540    4.65140    4.87580    -999.25   42.71390  114.71460    9.99370    0.11120    2.33780    0.51380    0.21890   11.03470   52.45860    -999.25    -999.25
 3350.00000  -89.55200    4.43090    4.74650    4.59840    -999.25   40.65810   86.39680   10.81720    0.04250    2.46000    0.30230    0.12100   10.17810   52.28670    -999.25    -999.25
 3400.00000  -87.21920    8.00520    6.54950    7.02120    -999.25   44.69580   83.11010   11.01060    0.06300    2.53180    0.30380    0.07150   10.41070   57.49340    -999.25    -999.25
 3450.00000  -87.06270    6.15160    5.36960    5.59600    -999.25   52.41460   83.29800   11.67880    0.03570    2.53900    0.32270    0.06360   10.60690   67.11650    -999.25    -999.25
 3500.00000  -85.62200    4.79640    4.32620    4.46140    -999.25   59.92130   91.69630   12.39270    0.09350    2.52170    0.33550    0.06770   11.04460   73.71990    -999.25    -999.25
 3550.00000  -86.95570    5.65970    5.35890    5.52260    -999.25   67.70590   89.19140   12.65840    0.07180    2.50700    0.33600    0.09580   12.28490   88.36300    -999.25    -999.25
 3600.00000  -86.72610    5.61950    5.20120    5.12420    -999.25   65.98510   90.34060   12.98420    0.08740    2.52510    0.33420    0.06960   11.19160   91.81710    -999.25    -999.25
 3650.00000  -85.62170    5.59880    4.97480    5.24780    -999.25   67.14830   91.50510   12.44630    0.07860    2.50820    0.34640    0.07760   11.48130   87.50180    -999.25    -999.25
 3700.00000  -85.59390    8.26420    6.31860    6.58280    -999.25   98.19260   94.38240   10.87100    0.04690    2.52670    0.38840    0.07400   10.55830  117.00410    -999.25    -999.25
 3750.00000  -85.72110    7.31000    6.31740    6.50520    -999.25   72.32040   87.60810   10.47930    0.09090    2.57400    0.33780    0.03410   10.56930   95.65370    -999.25    -999.25
 3800.00000  -84.25490    6.05820    5.37370    5.62260    -999.25   70.50560   89.65710   10.90290    0.06970    2.51270    0.32950    0.07560   11.05260   91.81840    -999.25    -999.25
 3850.00000  -85.01340    5.31500    4.84530    4.99350    -999.25   67.54930   91.67390   11.45390    0.06720    2.43940    0.41330    0.12140   11.49590   87.00430    -999.25    -999.25
 3900.00000  -86.96030    7.63270    7.17360    7.40380    -999.25   64.60190   90.14710   11.87110    0.11760    2.53410    0.33700    0.07170   11.15230   89.90040    -999.25    -999.25
 3950.00000  -86.31540    7.10590    6.47810    -999.25  103.26290   65.98550   86.56440   12.14650    0.07190    2.47570    0.32590    0.10950   10.61760   87.79100    -999.25    -999.25
 4000.00000  -85.32860    7.84110    6.93440    7.19850    -999.25   71.32910   86.74750   12.33160    0.08030    2.53170    0.28700    0.07690   10.39370   88.64110    -999.25    -999.25
 4050.00000  -83.50190    7.79600    6.64400    6.89560    -999.25   73.36930   92.04880   12.28870    0.04920    2.45770    0.34090    0.11650   10.53080   97.74570    -999.25    -999.25
 4100.00000  -84.82780    5.71860    5.28430    5.48630    -999.25   73.68220   92.92290   12.13210    0.11240    2.45680    0.37560    0.13150   11.35420   87.12620    -999.25    -999.25
 4150.00000  -84.73550    6.81330    6.37570    6.61820    -999.25   64.23700   87.05580   11.45560    0.07690    2.48890    0.29090    0.08390   11.42160   93.06670    -999.25    -999.25
 4200.00000  -83.26240    7.06260    6.24640    6.49200    -999.25   70.42040   85.62600   11.77560    0.10220    2.54640    0.31340    0.09160   11.38730   89.19110    -999.25    -999.25
 4250.00000  -84.67550   10.35510    8.80810    9.37850    -999.25   54.49810   80.99070   11.22850    0.06740    2.51490    0.26680    0.07040   10.23480   78.06990    -999.25    -999.25
 4300.00000  -82.95400    7.13280    6.38650    6.63640    -999.25   70.64320   85.35510   10.20980    0.17230    2.16780    0.35920    0.27550   11.51650   91.53720    -999.25    -999.25
 4350.00000  -82.20160    7.35550    6.47270    6.75800    -999.25   67.37490   87.36280   11.13010    0.20010    2.20980    0.35050    0.27630   11.09560   88.32200    -999.25    -999.25
 4400.00000  -81.40720    8.14010    7.14460    7.41600    -999.25   64.80890   84.41960   10.81290    0.22000    2.22750    0.33780    0.25720   10.18830   83.98980    -999.25    -999.25
 4450.00000  -80.50680    6.97860    5.83580    6.16650    -999.25   66.30050   90.25390   11.51370    0.24020    2.25700    0.38620    0.23690   10.59480   85.54730    -999.25    -999.25
 4500.00000  -80.79340    7.72860    6.74190    7.17210    -999.25   67.66840   85.74740   11.47960    0.23230    2.37260    0.33560    0.16040   10.28780   83.38200    -999.25    -999.25
 4550.00000  -80.32150    7.83520    6.39900    6.85610    -999.25   69.33750   94.19110   10.13520    0.18330    2.28360    0.38380    0.23300    9.96570   93.74990    -999.25    -999.25
 4600.00000  -79.29790    9.96800    7.34990    7.88970    -999.25   79.49660   93.58000   10.52280    0.26310    2.36850    0.39190    0.17550    9.49390  106.83670    -999.25    -999.25
 4650.00000  -78.90210    9.51130    6.96400    7.46550    -999.25   76.33590   90.24130    9.18640    0.07080    2.50580    0.36130    0.08090    9.31350  103.35390    -999.25    -999.25
 4700.00000  -78.55640   12.54120    8.93420    9.61180    -999.25   88.20580   93.83360    9.42690    0.04420    2.51170    0.37820    0.07580    9.51940  110.09410    -999.25    -999.25
 4750.00000  -78.13860   11.09430    7.87930    8.54600    -999.25   83.53050   93.65970    9.14200    0.05300    2.50610    0.39480    0.07920    9.59770  113.31440    -999.25    -999.25
 4800.00000  -75.69510    8.21450    5.98540    6.36880    -999.25   81.19140   93.38850    9.74800    0.18420    2.39570    0.39660    0.16370   10.16960  101.71850    -999.25    -999.25
 4850.00000  -75.73610    5.96320    5.30780    5.68220    -999.25   60.74030   80.27420   10.03540    0.21960    2.37780    0.27910    0.15320   10.32070   82.39890    -999.25    -999.25
 4900.00000  -75.27690    5.75590    4.85620    5.03470    -999.25   66.50990   85.26080   10.57060    0.19210    2.42310    0.31850    0.13470   10.31540   89.29740    -999.25    -999.25
 4950.00000  -75.13200    6.27710    5.25030    5.65410    -999.25   69.59190   84.52440    9.97640    0.09850    2.55510    0.32160    0.05850   10.11110   93.48000    -999.25    -999.25
 5000.00000  -73.83670    5.77150    4.82680    5.10090    -999.25   71.87440   86.75380   10.69260    0.19640    2.49940    0.34300    0.11330   10.25170   97.35230    -999.25    -999.25
 5050.00000  -95.22240   16.95000   10.05030   11.72110    -999.25   53.23350   79.61170   10.58620    0.04650    2.51020    0.24740    0.10000   10.30680   67.95390    -999.25    -999.25
 5100.00000  -71.28070    6.31320    5.20960    5.43860    -999.25   68.76220   83.46480   11.68280    0.09250    2.53060    0.34430    0.07860   11.09040   88.67150    -999.25    -999.25
 5150.00000  -69.91220    4.76750    3.71750    3.86990    -999.25   77.19290   94.11920   12.69980    0.10630    2.46860    0.40920    0.12770   11.96990   96.68060    -999.25    -999.25
 5200.00000  -68.62540    6.46630    4.78140    4.99280    -999.25   76.50470   93.16120   12.83100    0.08270    2.47640    0.38100    0.10840   11.85060   97.93360    -999.25    -999.25
 5250.00000  -68.51720    4.15080    3.25150    3.40300    -999.25   90.98360   98.63830   12.15610    0.06680    2.50900    0.36280    0.11220   11.19000  119.31380    -999.25    -999.25
