~Version ---------------------------------------------------
VERS. 2.0 : CWLS log ASCII Standard -VERSION 2.0
WRAP.  NO : ONE LINE PER DEPTH STEP
~Well ------------------------------------------------------
STRT.F                      557.7428 : START DEPTH
STOP.F                    10838.7428 : STOP DEPTH
STEP.F                       0.50000 : STEP LENGTH
NULL.                        -999.25 : NULL VALUE
COMP.           PETROFINA CANADA LTD : COMPANY
WELL. FINA AMOCO HB FOXCK 6-35-60-18 : WELL
FLD .                                : FIELD
LOC .                                : LOCATION
CTRY.                         CANADA : COUNTRY
SRVC.         Schlumberger of Canada : SERVICE COMPANY
DATE.                    29-Aug-1976 : LOGDATE
PROV.                        Alberta : PROVINCE
UWI .               100063506018W500 : UNIQUE WELL ID
SLAT.WGS84                  54.22952 : SURFACE LATITUDE
SLON.WGS84                 -116.5928 : SURFACE LONGITUDE
~Curve Information -----------------------------------------
DEPT   .F                 : 
SPR    .MV                : SPONTANEOUS POTENTIAL FROM RESISTIVITY
ILD    .OHMM              : DEEP INDUCTION RESISTIVITY
ILM    .OHMM              : INDUCTION MEDIUM RESISTIVITY
LL8    .OHMM              : LATEROLOG-8 RESISTIVITY
CALD   .IN   70 280 01 00 : CALIPER
DCOR   .G/C3 45 356 01 00 : DENSITY CORRECTION
GRD    .GAPI 45 310 01 00 : GAMMA RAY FROM DENSITY LOG
RHOB   .G/C3 45 350 01 00 : BULK DENSITY
DPOR_SS.DEC               : DENSITY POROSITY SANDSTONE
NPOR_S .DEC               : ENCHANCED THERMAL NEUTRON POROSITY IN SELECTED LITHOLOGY SANDSTONE
DPOR_LS.DEC               : DENSITY POROSITY LIMESTONE
NPOR_LS.DEC               : ENCHANCED THERMAL NEUTRON POROSITY IN SELECTED LITHOLOGY SANDSTONE
DT     .US/F 60 520 00 00 : ACOUSTIC TRANSIT TIME SLOWNESS, DELTA T
CALS   .IN                : 
GRS    .GAPI              : GAMMA RAY FROM SONIC LOG
GR     .GAPI              : GAMMA RAY
~Params ----------------------------------------------------
PD  .                     GL : PERMANENT DATUM
EPD .FT                 3085 : ELEVATION PERMANENT DATUM
LMF .                     KB : LOG MEASURED FROM
DAPD.FT                 15.7 : FEET ABOVE PERMANENT DATUM
EKB .FT               3100.9 : KELLY BUSHING
EDF .FT               3085.2 : DRILLING FLOOR
EGL .FT               3085.5 : GROUND LEVEL
DATE.               08/29/76 : RUN DATE
RUN .                      1 : RUN NUMBER
DD  .FT                10843 : DEPTH DRILLER
DL  .FT                10840 : DEPTH LOGGER
BLI .FT                10834 : BOTTOM LOG INTERVAL
TLI .FT                 1119 : TOP LOG INTERVAL
CBD .FT                 1119 : CASING BOTTOM DRILLER
CBL .FT                 1119 : CASING BOTTOM LOGGER
BS  .IN                 8.75 : BIT SIZE
BSD .FT                10843 : BIT SIZE AT DEPTH
DFT .               GEL CHEM : DRILLING FLUID TYPE
DFD .                    9.3 : DRILLING FLUID DENSITY
DFV .                    150 : DRILLING FLUID VISCOSITY
DFPH.                   10.5 : DRILLING FLUID PH
DFL .                    7.0 : DRILLING FLUID LOSS
MSS .            CIRCULATION : MUD SAMPLE SOURCE
RMS .OHMM               2.43 : RESISTIVITY MUD SAMPLE
MST .DEGF                 76 : MUD SAMPLE TEMPERATURE
RMF .OHMM               2.33 : RESISTIVITY MUD FILTRATE SAMPLE
MFST.DEGF                 73 : MUD FILTRATE SAMPLE TEMPERATURE
RMC .OHMM               2.22 : RESISTIVITY MUD CAKE
MCST.DEGF                 67 : MUD CAKE SAMPLE TEMPERATURE
RMB .OHMM               0.86 : RESISTIVITY MUD AT BHT
TCS .HRS                   3 : TIME CIRCULATED STOPPED
LUN .                   7691 : LOGGING UNIT NUMBER
LUL .                    WCT : LOGGING UNIT LOCATION
ENGI.              CROCKFORD : RECORDING ENGINEER
WITN.                 HALKOW : WITNESSED BY
CLNT.                A2DTECH : CLIENT CODE
ORIG.            2" 5" PRINT : ORIGIN OF DATA
UWI .       100063506018W500 : UNIQUE WELL ID
DICO. A2D Technologies, Inc. : DIGITIZING COMPANY
~Other -----------------------------------------------------
~ASCII -----------------------------------------------------
# ...
 10168.24280  -49.29580  460.10340 1369.83230 1281.62780    8.87950    0.01590  113.58720    2.56380    -999.25    -999.25    0.09090    0.11040   67.32180    8.89900   95.69020    -999.25
 10168.74280  -52.74450  434.23860 1316.03810 1332.05850    8.87880    0.01420  112.42110    2.57470    -999.25    -999.25    0.09150    0.11750   67.74860    8.89880  100.47960    -999.25
 10169.24280  -56.69620  427.80970 1159.84880 1244.62960    8.87810    0.01160  108.54560    2.58900    -999.25    -999.25    0.08820    0.12460   68.76810    8.89890  106.90090    -999.25
 10169.74280  -61.11740  429.93840  969.77390 1076.28200    8.87730    0.00790  105.57830    2.60430    -999.25    -999.25    0.08050    0.12800   70.05930    8.89960  111.66830    -999.25
 10170.24280  -65.90480  411.20750  831.60110  919.86160    8.87660    0.00300  106.41490    2.60500    -999.25    -999.25    0.06740    0.12440   70.86510    8.90040  113.02480    -999.25
 10170.74280  -70.85960  371.74910  737.93650  811.46920    8.87590   -0.00170  109.89770    2.58730    -999.25    -999.25    0.05930    0.12290   70.52550    8.90110  111.80870    -999.25
 10171.24280  -75.75120  337.98640  663.65990  762.99550    8.87510   -0.00470  112.49060    2.57110    -999.25    -999.25    0.06510    0.12860   69.57650    8.90190  109.26260    -999.25
 10171.74280  -80.01930  316.96770  583.96800  738.60330    8.87440    0.00120  114.36370    2.56730    -999.25    -999.25    0.07800    0.13290   68.95630    8.90270  106.90860    -999.25
 10172.24280  -83.17200  304.21770  489.29340  676.14290    8.87360    0.01290  115.48860    2.56360    -999.25    -999.25    0.08540    0.13380   68.62080    8.90340  106.41690    -999.25
 10172.74280  -85.09070  292.05990  401.83400  569.76720    8.87270    0.01410  115.81990    2.54800    -999.25    -999.25    0.08500    0.13480   69.08700    8.90420  108.36190    -999.25
 10173.24280  -85.89250  283.99240  355.13370  482.37280    8.87140    0.01120  117.91510    2.54200    -999.25    -999.25    0.09090    0.13710   70.12700    8.90500  111.13040    -999.25
 10173.74280  -86.02040  279.92360  345.02990  441.68530    8.87000    0.01280  122.53510    2.55280    -999.25    -999.25    0.09900    0.14020   70.79480    8.90570  113.70280    -999.25
 10174.24280  -86.13470  278.42520  347.69160  441.12070    8.86860    0.01200  127.54910    2.55790    -999.25    -999.25    0.09750    0.14340   71.43520    8.90650  115.43780    -999.25
 10174.74280  -86.32590  281.83880  361.35750  463.98540    8.86720    0.00800  131.81650    2.56190    -999.25    -999.25    0.09300    0.14650   72.05110    8.90730  115.08140    -999.25
 10175.24280  -86.35390  289.51070  383.52870  520.48090    8.86580    0.00830  133.97060    2.56780    -999.25    -999.25    0.08960    0.14960   72.45190    8.90810  114.18000    -999.25
 10175.74280  -86.28930  300.09910  407.21620  621.47120    8.86440    0.01370  131.79130    2.56910    -999.25    -999.25    0.08560    0.15290   72.96770    8.90880  114.69300    -999.25
 10176.24280  -86.34710  313.47670  421.66710  712.15810    8.86300    0.01540  124.95030    2.57400    -999.25    -999.25    0.08330    0.15630   73.78980    8.90960  116.52050    -999.25
 10176.74280  -86.41440  333.38070  428.70580  754.12300    8.86160    0.01150  119.79620    2.58190    -999.25    -999.25    0.08260    0.16050   74.75840    8.91040  118.55130    -999.25
 10177.24280  -86.41690  364.32180  439.06010  774.44680    8.86020    0.00850  123.15790    2.58310    -999.25    -999.25    0.07880    0.16180   75.13680    8.91110  119.74590    -999.25
 10177.74280  -86.41580  403.73880  461.13750  749.10250    8.85880    0.00970  133.15750    2.57390    -999.25    -999.25    0.07450    0.15990   74.74050    8.91190  119.53100    -999.25
 10178.24280  -86.43160  447.01650  499.57830  640.44420    8.85730    0.01180  144.89010    2.56310    -999.25    -999.25    0.07570    0.16340   73.88900    8.91270  118.26680    -999.25
 10178.74280  -86.57180  493.63170  584.29270  525.03900    8.85590    0.00900  153.20620    2.55150    -999.25    -999.25    0.08280    0.17330   73.38630    8.91340  118.20260    -999.25
 10179.24280  -86.77520  528.17030  719.17640  669.98020    8.85450    0.00000  155.96800    2.54090    -999.25    -999.25    0.09080    0.18530   74.30380    8.91420  122.34990    -999.25
 10179.74280  -87.04800  549.72330  877.97300 1131.85230    8.85310   -0.00520  152.16920    2.54920    -999.25    -999.25    0.09850    0.18890   76.66790    8.91500  131.94870    -999.25
 10180.24280  -87.48070  607.59800 1071.83240 1442.74600    8.85170    0.00360  145.51650    2.57430    -999.25    -999.25    0.09810    0.17690   78.96480    8.91520  143.58410    -999.25
 10180.74280  -87.97330  720.16940 1263.65500 1476.14750    8.85030    0.02010  143.93050    2.59860    -999.25    -999.25    0.08650    0.15320   79.44200    8.91430  151.31720    -999.25
 10181.24280  -88.54800  876.97860 1368.13900 1476.19810    8.84890    0.03040  147.08200    2.59720    -999.25    -999.25    0.07180    0.12450   77.65640    8.91290  151.81910    -999.25
 10181.74280  -89.14670 1106.89580 1395.96780 1476.24880    8.84750    0.02440  146.10400    2.56720    -999.25    -999.25    0.06340    0.10720   73.73400    8.91150  146.98530    -999.25
 10182.24280  -89.74910 1261.83020 1407.36540 1476.29980    8.84610    0.01920  133.12840    2.54390    -999.25    -999.25    0.07450    0.10910   69.73910    8.91000  142.32260    -999.25
 10182.74280  -90.37080 1248.46170 1411.16780 1476.35050    8.84470    0.02970  115.41580    2.54710    -999.25    -999.25    0.09490    0.11510   68.09370    8.90860  140.67580    -999.25
 10183.24280  -90.87260 1206.65580 1417.12460 1476.40110    8.84330    0.04470  105.66540    2.55230    -999.25    -999.25    0.09960    0.11110   68.22420    8.90760  140.01230    -999.25
 10183.74280  -91.27040 1241.91690 1425.42830 1476.45210    8.84190    0.05340  106.68390    2.54540    -999.25    -999.25    0.09380    0.10320   68.88280    8.90680  134.27650    -999.25
 10184.24280  -91.70630 1354.47400 1433.83070 1476.50290    8.84050    0.04970  112.91950    2.53880    -999.25    -999.25    0.09470    0.10480   68.84990    8.90610  119.72390    -999.25
 10184.74280  -92.10240 1417.12620 1442.28270 1476.55350    8.83910    0.03720  121.61180    2.53910    -999.25    -999.25    0.10030    0.11400   67.68290    8.90550  105.82220    -999.25
 10185.24280  -92.31390 1412.14420 1450.78450 1476.60420    8.83760    0.02850  133.32380    2.53230    -999.25    -999.25    0.10210    0.12630   66.77470    8.90530  103.64700    -999.25
 10185.74280  -92.33570 1400.80630 1458.95090 1476.65490    8.83620    0.02500  145.93160    2.51790    -999.25    -999.25    0.10280    0.14100   66.91280    8.90530  109.87910    -999.25
 10186.24280  -92.11310 1389.55960 1460.09630 1476.70590    8.83480    0.01880  154.75480    2.51260    -999.25    -999.25    0.10810    0.15580   68.14590    8.90530  118.22130    -999.25
 10186.74280  -91.70550 1378.40310 1454.22070 1476.75660    8.83340    0.01230  156.04300    2.51680    -999.25    -999.25    0.11530    0.17050   70.43420    8.90530  127.72040    -999.25
 10187.24280  -91.18740 1373.33780 1448.36830 1476.80730    8.83200    0.00740  154.23180    2.51660    -999.25    -999.25    0.11670    0.17830   73.23060    8.90520  137.80530    -999.25
 10187.74280  -90.56240 1375.96480 1442.53940 1476.85830    8.83060    0.00360  156.98770    2.51380    -999.25    -999.25    0.11700    0.17280   75.39600    8.90520  144.80430    -999.25
 10188.24280  -89.77020 1379.49510 1436.73450 1476.90910    8.82920    0.00120  167.87620    2.50820    -999.25    -999.25    0.11770    0.16700   75.88090    8.90520  146.33580    -999.25
 10188.74280  -88.93180 1381.05920 1430.95250 1476.95970    8.82780   -0.00020  182.47580    2.49240    -999.25    -999.25    0.11830    0.16920   75.03620    8.90520  146.58020    -999.25
 10189.24280  -88.20440 1367.08110 1425.19370 1477.01070    8.82640   -0.00160  195.69130    2.48290    -999.25    -999.25    0.12550    0.17320   73.99310    8.90520  150.80420    -999.25
