~Version ---------------------------------------------------
VERS.      2.0 : CWLS log ASCII Standard -VERSION 2.0
WRAP.       NO : One line per depth step
CREA. 08/02/17 : LAS Creation Date
~Well ------------------------------------------------------
STRT.FT                        650.0 : START DEPTH
STOP.FT                      10150.0 : STOP DEPTH
STEP.FT                     50.00000 : STEP LENGTH
NULL.                        -999.25 : NULL VALUE
COMP.     THE CALIFORNIA STANDARD CO : COMPANY
WELL. CALSTAN B A IOSEGUN 7-33-63-19 : WELL
FLD .                         KAYBOB : FIELD
LOC .                                : LOCATION
CTRY.                         CANADA : COUNTRY
SRVC.         Schlumberger of Canada : SERVICE COMPANY
DATE.                    08-Oct-1957 : LOGDATE
PROV.                        Alberta : PROVINCE
UWI .               100073306319W500 : UNIQUE WELL ID
SLAT.WGS84                  54.49249 : SURFACE LATITUDE
SLON.WGS84                 -116.8075 : SURFACE LONGITUDE
~Curve Information -----------------------------------------
DEPT  .FT    : Depth Curve
CALWS .IN    : CALIPER [MCALED]
CILDED.MMHO  : CONDUCTIVITY FROM RESISTIVITY LOG
CONDWS.MMHO  : CONDUCTIVITY [1000/DRESWS]
DRESWS.OHMM  : DEEP RESISTIVITY [ILDED] IF ILDED<1;1000/CILDED; ELSE ILDED
GRNED .CU    : GAMMA RAY FROM NEUTRON LOG [ADJ TO ILDED]
GRWS  .CU    : GAMMA RAY [GRNED, CASED HOLE DATA]
ILDED .OHMM  : INDUCTION LOG DEEP RESISTIVITY
LATED .OHMM  : 18 FOOT 8 INCH LATERAL RESISTIVITY FROM IEL
LNED  .OHMM  : 64 INCH LONG NORMAL RESISTIVITY FROM IEL
MCALED.IN    : CALIPER MICROLOG
MLLED .OHMM  : MICROLATEROLOG RESISTIVITY [ADJ TO ILDED]
NEUTED.CU    : NEUTRON FROM NEUTRON LOG [ADJ TO ILDED]
NEUTWS.CU    : NEUTRON [NEUTED]
SNED  .OHMM  : 16 INCH SHORT NORMAL RESISTIVITY FROM IEL
SPRED .MV    : SPONTANEOUS POTENTIAL FROM RESISTIVITY LOG
SPWS  .MV    : SPONTANEOUS POTENTIAL [BASELINE 0 MV] [SPRED]
SRESWS.OHMM  : SHALLOW RESISTIVITY [SNED]
~Params ----------------------------------------------------
LMF .                     KB : LOG MEASURED FROM
DMF .                     KB : DRILLING MEASURED FROM
EKB .FT                 2601 : KELLY BUSHING
EGL .FT                 2588 : GROUND LEVEL
DATE.               10/08/57 : RUN DATE
RUN .                      1 : RUN NUMBER
DD  .FT                10194 : DEPTH DRILLER
DL  .FT                10189 : DEPTH LOGGER
BLI .FT                10188 : BOTTOM LOG INTERVAL
TLI .FT                  825 : TOP LOG INTERVAL
CBD .FT                  825 : CASING BOTTOM DRILLER
CBL .FT                  825 : CASING BOTTOM LOGGER
BS  .IN                    9 : BIT SIZE
BSD .FT                10194 : BIT SIZE AT DEPTH
DFT .                    GEL : DRILLING FLUID TYPE
DFD .                   10.6 : DRILLING FLUID DENSITY
DFV .                    177 : DRILLING FLUID VISCOSITY
DFPH.                    9.5 : DRILLING FLUID PH
DFL .                    5.4 : DRILLING FLUID LOSS
RMS .OHMM                8.0 : RESISTIVITY MUD SAMPLE
RMF .OHMM                1.6 : RESISTIVITY MUD FILTRATE SAMPLE
MFST.DEGF                 62 : MUD FILTRATE SAMPLE TEMPERATURE
RMC .OHMM                2.1 : RESISTIVITY MUD CAKE
MCST.DEGF                 62 : MUD CAKE SAMPLE TEMPERATURE
RMB .OHMM                1.0 : RESISTIVITY MUD AT BHT
TCS .HRS                   2 : TIME CIRCULATED STOPPED
LUN .                   1534 : LOGGING UNIT NUMBER
LUL .                     VV : LOGGING UNIT LOCATION
ENGI.               THOMPSON : RECORDING ENGINEER
WITN.                JOHNSON : WITNESSED BY
CLNT.                A2DTECH : CLIENT CODE
ORIG.            2" 5" PRINT : ORIGIN OF DATA
UWI .       100073306319W500 : UNIQUE WELL ID
DICO. A2D Technologies, Inc. : DIGITIZING COMPANY
~Other -----------------------------------------------------
~ASCII -----------------------------------------------------
# ...
 8850.00000    9.25180   47.76450   42.09140   23.75890   20.88860   20.88860   23.75890   32.93550   44.06860    9.25180   42.85120 1622.28710 1622.28710   34.99510 -100.53630  -21.72120   34.99510
 8900.00000    9.07440   42.76820   38.67140   25.85980   14.82290   14.82290   25.85980   65.21970   52.22340    9.07440   41.07420 1794.86820 1794.86820   36.44590  -98.50450  -20.14020   36.44590
 8950.00000    9.23930   34.34910   28.34640   35.27780   19.50790   19.50790   35.27780   25.29270   58.39080    9.23930   37.01600 1577.04880 1577.04880   40.08660 -102.68220  -24.77090   40.08660
 9000.00000   11.81160  133.09920  126.99910    7.87420   19.28510   19.28510    7.87420    9.34140    9.27640   11.81160    8.26760 1944.94540 1944.94540   10.14980 -109.52330  -32.06060   10.14980
 9050.00000   14.96730  220.91030  216.74580    4.61370   19.60740   19.60740    4.61370    3.99660    7.34910   14.96730    1.01760  877.43350  877.43350    6.08800 -111.04970  -34.03550    6.08800
 9100.00000   15.03100  241.79630  241.44010    4.14200   19.07370   19.07370    4.14200    6.33720    6.98780   15.03100    1.09020  877.24180  877.24180    5.68700 -107.39410  -30.83300    5.68700
 9150.00000   15.01320  276.91740  267.08800    3.74410   19.90060   19.90060    3.74410    5.72280    6.87510   15.01320    0.50090  838.94650  838.94650    5.08800 -103.72290  -27.61270    5.08800
 9200.00000   13.42010  174.64850  165.14730    6.05520   21.47160   21.47160    6.05520    4.68820    9.31800   13.42010    1.38530  979.37370  979.37370    7.47610  -96.56610  -20.90890    7.47610
 9250.00000    9.36200   95.54480   90.01900   11.10980   22.70180   22.70180   11.10980   14.37550   16.38450    9.36200   12.02930 1264.63280 1264.63280   15.35410  -85.27510  -10.06650   15.35410
 9300.00000    9.06040   85.86410   82.17400   12.16930   26.67960   26.67960   12.16930   11.22100   14.85010    9.06040   24.60810 1298.40320 1298.40320   16.62490  -81.79590   -7.03580   16.62490
 9350.00000    9.03600   66.40310   62.39990   16.02570   24.03960   24.03960   16.02570   13.37580   18.44610    9.03600   22.78160 1376.56400 1376.56400   19.34760  -85.12690  -10.81990   19.34760
 9400.00000    9.76510  110.67650  103.56280    9.65710   31.57230   31.57230    9.65710    8.92620   11.19460    9.76510   12.44610 1189.27930 1189.27930   12.95210  -88.20850  -14.35220   12.95210
 9450.00000    9.53510  121.60350  115.53880    8.65510   24.59620   24.59620    8.65510    8.90530   11.80480    9.53510    9.65820 1069.98060 1069.98060   12.60320  -83.49560  -10.09240   12.60320
 9500.00000   10.86990  129.14550  121.41480    8.23650   24.40630   24.40630    8.23650    6.74340   10.91510   10.86990    5.09690 1156.41630 1156.41630   11.83340  -87.60590  -14.65120   11.83340
 9550.00000    9.26410   63.10380   59.10380   16.91940   35.22210   35.22210   16.91940    5.44490   29.49070    9.26410   32.16020 1314.62110 1314.62110   22.46480  -88.73240  -16.22630   22.46480
 9600.00000    8.86740    7.72410    3.72410  268.56640   25.77820   25.77820  268.56640  478.54820  435.11160    8.86740  362.37570 1398.87670 1398.87670  146.25160  -78.08370   -4.48620  146.25160
 9650.00000    8.85910   16.72940   12.72930   78.62810   41.27460   41.27460   78.62810  251.40200  149.94340    8.85910  344.49740 1322.83590 1322.83590   71.68790  -88.37650  -12.54370   71.68790
 9700.00000    9.04920   23.26280   19.26280   51.91340   39.25220   39.25220   51.91340  176.14930  101.09400    9.04920   66.68200 1245.85110 1245.85110   55.33070  -97.06330  -18.98400   55.33070
 9750.00000    8.69340   22.13760   18.13760   55.13460   15.18010   15.18010   55.13460   31.84760  115.25890    8.69340  163.65870 1453.05020 1453.05020   68.86400 -109.74380  -29.44030   68.86400
 9800.00000    8.95500   13.47930    9.47930  105.49260    5.94460    5.94460  105.49260  224.22380  310.65770    8.95500  326.61980 1865.69310 1865.69310  112.55170 -186.86170 -104.33410  112.55170
 9850.00000    9.01800   19.48460   15.48470   64.66040    5.07060    5.07060   64.66040 1301.77840  408.92030    9.01800  401.38650 1706.75710 1706.75710  103.54050 -226.61830 -141.84420  103.54050
 9900.00000    8.36950   16.69860   12.69860   78.74920    5.31170    5.31170   78.74920  315.49590  236.39060    8.36950   70.46840 1735.67760 1735.67760   96.78120 -279.97440 -192.96500   96.78120
 9950.00000    8.15330   40.36200   36.36200   27.50120    3.95570    3.95570   27.50120  174.18190  155.55380    8.15330  377.47530 1714.56300 1714.56300   76.34520 -276.94890 -187.69300   76.34520
 10000.00000    9.01930   33.97880   29.60060   33.92160    4.13210    4.13210   33.92160  261.51790  131.40240    9.01930  297.22760 1682.48490 1682.48490   63.79620 -242.63520 -151.15510   63.79620
 10050.00000    8.97190    6.00320    2.00320  499.19280    -999.25    -999.25  499.19280  498.39640 1230.44630    8.97190  401.42470    -999.25    -999.25  295.44040 -170.64290  -76.93870  295.44040
 10100.00000    8.95960    6.00000    2.00000  500.00000    -999.25    -999.25  500.00000 2465.78320 1571.16460    8.95960  385.97190    -999.25    -999.25  162.75560 -125.74710  -29.79640  162.75560
 10150.00000    9.33280   60.82680   58.21580   17.19180    -999.25    -999.25   17.19180  272.07460   61.06700    9.33280   46.73880    -999.25    -999.25   39.09100 -113.66650  -15.58110   39.09100
