~Version ---------------------------------------------------
VERS.      2.0 : CWLS log ASCII Standard -VERSION 2.0
WRAP.       NO : One line per depth step
CREA. 10/26/17 : LAS Creation Date
~Well ------------------------------------------------------
STRT.FT                          1000.0 : START DEPTH
STOP.FT                          9700.0 : STOP DEPTH
STEP.FT                        50.00000 : STEP LENGTH
NULL.                           -999.25 : NULL VALUE
COMP.                      GUYER OIL CO : COMPANY
WELL. GUYER ET AL SAKWATAMAU 2-15-63-15 : WELL
FLD .                                WC : FIELD
LOC .                                   : LOCATION
CTRY.                            CANADA : COUNTRY
SRVC.                      Schlumberger : SERVICE COMPANY
DATE.                       13-Nov-1969 : LOGDATE
PROV.                           Alberta : PROVINCE
UWI .                  100021506315W500 : UNIQUE WELL ID
SLAT.WGS84                     54.44702 : SURFACE LATITUDE
SLON.WGS84                     -116.175 : SURFACE LONGITUDE
~Curve Information -----------------------------------------
DEPT    .FT    : Depth Curve
CALNED  .IN    : CALIPER FROM SNP LOG [ADJ. TO RESISTIVITY LOG]
CALSED  .IN    : CALIPER FROM SONIC LOG [ADJ. TO RESISTIVITY LOG]
CALWS   .IN    : CALIPER [CALSED]
CONDWS  .MMHO  : CONDUCTIVITY [1000/DRESWS]
DRESWS  .OHMM  : DEEP RESISTIVITY [ILDED]
DTED    .US/F  : DELTA TIME FROM SONIC LOG [ADJ. TO RESISTIVITY LOG]
DTWS    .US/F  : COMPRESSIONAL SONIC [DTED]
GRSED   .GAPI  : GAMMA RAY FROM SONIC LOG [ADJ. TO RESISTIVITY LOG]
GRWS    .GAPI  : GAMMA RAY [GRSED]
ILDED   .OHMM  : DEEP INDUCTION RESISTIVITY FROM RESISTIVITY LOG
ILMED   .OHMM  : MEDIUM INDUCTION RESISTIVITY FROM RESISTIVITY LOG
LL8ED   .OHMM  : LATEROLOG-8 RESISTIVITY FROM RESISTIVITY LOG
MRESWS  .OHMM  : MEDIUM RESISTIVITY [ILMED]
NPOLSWS .V/V   : NEUTRON POROSITY LIMESTONE [SNPLSED]
SNPLSED .V/V   : SIDEWALL NEUTRON POROSITY LIMESTONE FROM SNP LOG [ADJ. TO RESISTIVITY LOG]
SPHILSED.V/V   : SONIC POROSITY LIMESTONE [DTM=47.6, DTF=189] FROM SONIC LOG [ADJ. TO RESISTIVITY LOG]
SPHISSED.V/V   : SONIC POROSITY SANDSTONE [DTM=55.6, DTF=189] FROM SONIC LOG [ADJ. TO RESISTIVITY LOG]
SPOLSWS .V/V   : SONIC POROSITTY LIMESTONE [SPHISSED SPL. TO SPHILSED @ 5901']
SPRED   .MV    : SPONTANEOUS POTENTIAL FROM RESISTIVITY LOG
SPWS    .MV    : SPONTANEOUS POTENTIAL [BASELINE 0 MV, SPRED]
SRESWS  .OHMM  : SHALLOW RESISTIVITY [LL8ED]
~Params ----------------------------------------------------
PD  .                     GL : PERMANENT DATUM
EPD .FT                 3072 : ELEVATION PERMANENT DATUM
LMF .                     KB : LOG MEASURED FROM
DAPD.FT                   13 : FEET ABOVE PERMANENT DATUM
EKB .FT                 3085 : KELLY BUSHING
EGL .FT                 3072 : GROUND LEVEL
DATE.               11/13/69 : RUN DATE
RUN .                      1 : RUN NUMBER
DD  .FT                 9704 : DEPTH DRILLER
DL  .FT                 9705 : DEPTH LOGGER
BLI .FT                 9701 : BOTTOM LOG INTERVAL
TLI .FT                 1005 : TOP LOG INTERVAL
CBD .FT                 1005 : CASING BOTTOM DRILLER
CBL .FT                 1005 : CASING BOTTOM LOGGER
BS  .IN                7.875 : BIT SIZE
BSD .FT                 9704 : BIT SIZE AT DEPTH
DFT .                    GEL : DRILLING FLUID TYPE
DFD .                    9.1 : DRILLING FLUID DENSITY
DFV .                     70 : DRILLING FLUID VISCOSITY
DFPH.                    8.5 : DRILLING FLUID PH
DFL .                      9 : DRILLING FLUID LOSS
MSS .                DRILLER : MUD SAMPLE SOURCE
RMS .OHMM               2.61 : RESISTIVITY MUD SAMPLE
MST .DEGF                 74 : MUD SAMPLE TEMPERATURE
RMF .OHMM               2.12 : RESISTIVITY MUD FILTRATE SAMPLE
MFST.DEGF                 75 : MUD FILTRATE SAMPLE TEMPERATURE
RMC .OHMM               2.91 : RESISTIVITY MUD CAKE
MCST.DEGF                 75 : MUD CAKE SAMPLE TEMPERATURE
TCS .HRS                   6 : TIME CIRCULATED STOPPED
LUN .                   7501 : LOGGING UNIT NUMBER
LUL .                    EDM : LOGGING UNIT LOCATION
ENGI.                 EDGSON : RECORDING ENGINEER
WITN.              ZASEYBIDA : WITNESSED BY
CLNT.                A2DTECH : CLIENT CODE
ORIG.            2" 5" PRINT : ORIGIN OF DATA
UWI .       100021506315W500 : UNIQUE WELL ID
DICO. A2D Technologies, Inc. : DIGITIZING COMPANY
~Other -----------------------------------------------------
DLL-BCS-SNP LOG RUN
~ASCII -----------------------------------------------------
# ...
 5950.00000    8.67920    8.61490    8.61490    2.20270  454.11990   60.22630   60.22630   35.74040   35.74040  454.11990  396.75020  349.10730  396.75020    0.06040    0.06040    0.08610    -999.25    0.08610  -41.11220  -24.60950  349.10730
 6000.00000    8.31600    8.29340    8.29340  130.44950    7.66580   64.24290   64.24290   60.25340   60.25340    7.66580   10.11820   26.14800   10.11820    0.10540    0.10540    0.11710    -999.25    0.11710 -135.68750 -120.16220   26.14800
 6050.00000   10.38680   10.16980   10.16980  186.30990    5.36740   63.77120   63.77120   35.16470   35.16470    5.36740    5.77980    5.90010    5.77980    0.11170    0.11170    0.11220    -999.25    0.11220  -64.06960  -49.52180    5.90010
 6100.00000    9.63100    9.62240    9.62240  110.15760    9.07790   54.96780   54.96780   46.37440   46.37440    9.07790   12.61900   21.53740   12.61900    0.04330    0.04330    0.04170    -999.25    0.04170  -73.21710  -59.65320   21.53740
 6150.00000    9.81490   10.00320   10.00320   10.52490   95.01290   55.03820   55.03820   27.88450   27.88450   95.01290  113.37630  145.97270  113.37630    0.02140    0.02140    0.05320    -999.25    0.05320  -43.92640  -31.33990  145.97270
 6200.00000    9.45740    9.30400    9.30400    9.79180  107.41270   48.93680   48.93680   11.71250   11.71250  107.41270  236.12510  401.58130  236.12510    0.00820    0.00820    0.00820    -999.25    0.00820 -121.87320 -110.27060  401.58130
 6250.00000   10.36660   10.01250   10.01250   32.19600   31.05980   48.73260   48.73260   13.43820   13.43820   31.05980   52.81910  191.95080   52.81910    0.03340    0.03340    0.00580    -999.25    0.00580 -172.17790 -161.55270  191.95080
 6300.00000    9.94330    9.53340    9.53340   35.79610   27.93600   52.66290   52.66290   12.85020   12.85020   27.93600   48.26920  220.15700   48.26920    0.05380    0.05380    0.04070    -999.25    0.04070 -178.96490 -169.31720  220.15700
 6350.00000   10.46150   10.48770   10.48770  302.66340    3.30400   65.28090   65.28090   54.59570   54.59570    3.30400    3.50990    3.91100    3.50990    0.08020    0.08020    0.12260    -999.25    0.12260  -58.27440  -49.61060    3.91100
 6400.00000   10.17040   10.31030   10.31030  261.39690    3.82560   65.45240   65.45240   47.30370   47.30370    3.82560    4.12620    7.17540    4.12620    0.10280    0.10280    0.12440    -999.25    0.12440  -71.21670  -63.53030    7.17540
 6450.00000    9.88720    9.76790    9.76790   23.28250   42.97550   56.15580   56.15580   32.24980   32.24980   42.97550   45.02940   45.84030   45.02940    0.01370    0.01370    0.05840    -999.25    0.05840  -34.81950  -28.11700   45.84030
 6500.00000    -999.25    9.30980    9.30980   21.52350   46.46090   53.94340   53.94340   21.96890   21.96890   46.46090   55.22500   64.48990   55.22500    -999.25    -999.25    0.04420    -999.25    0.04420  -72.14390  -66.41890   64.48990
 6550.00000    -999.25    9.08940    9.08940    1.30170  768.24870   52.50200   52.50200   22.44850   22.44850  768.24870  318.88160  411.59850  318.88160    -999.25    -999.25    0.03390    -999.25    0.03390  -32.69060  -27.94300  411.59850
 6600.00000    -999.25    8.62850    8.62850    1.21500  823.06410   52.10170   52.10170   23.22330   23.22330  823.06410  474.82120  394.77290  474.82120    -999.25    -999.25    0.02990    -999.25    0.02990  -32.01440  -28.25070  394.77290
 6650.00000    -999.25    9.34910    9.34910    0.65100 1536.13290   50.76470   50.76470   16.82420   16.82420 1536.13290  710.14290  450.05590  710.14290    -999.25    -999.25    0.01990    -999.25    0.01990  -70.98000  -68.19370  450.05590
 6700.00000    -999.25    8.62100    8.62100    0.63900 1565.03030   50.84250   50.84250   17.87530   17.87530 1565.03030  785.03690  699.04790  785.03690    -999.25    -999.25    0.02190    -999.25    0.02190  -48.44980  -46.64740  699.04790
 6750.00000    -999.25    8.62330    8.62330    0.63090 1584.94560   51.42200   51.42200   19.87220   19.87220 1584.94560 1050.89540  613.69510 1050.89540    -999.25    -999.25    0.02480    -999.25    0.02480  -60.24560  -59.42070  613.69510
 6800.00000    -999.25    8.56630    8.56630    4.91430  203.48760   52.30640   52.30640   25.43720   25.43720  203.48760  194.54140  183.66660  194.54140    -999.25    -999.25    0.03230    -999.25    0.03230  -39.22570  -39.37820  183.66660
 6850.00000    8.81450    8.83750    8.83750    7.72830  129.39510   54.69040   54.69040   39.32280   39.32280  129.39510  120.16950  112.37570  120.16950    -999.25    -999.25    0.04900    -999.25    0.04900  -27.77570  -28.91210  112.37570
 6900.00000    9.35060    9.82270    9.82270    2.21480  451.50920   50.71290   50.71290   22.63740   22.63740  451.50920  535.96970  773.37490  535.96970    0.01840    0.01840    0.02200    -999.25    0.02200  -17.99490  -21.22940  773.37490
 6950.00000    8.67590    8.77550    8.77550    7.97110  172.75600   88.06030   88.06030  120.47530  120.47530  172.75600  140.40040  865.05740  140.40040    0.21090    0.21090    0.27780    -999.25    0.27780  -19.11110  -26.76540  865.05740
 7000.00000   10.24080    9.82000    9.82000    1.95290  512.04720   51.80060   51.80060   12.64500   12.64500  512.04720  239.55960  308.20460  239.55960    0.00600    0.00600    0.02700    -999.25    0.02700  -86.47230  -93.51250  308.20460
 7050.00000   10.66890   10.25930   10.25930    0.68990 1449.44730   49.49550   49.49550   15.11750   15.11750 1449.44730 1388.58020 1389.11780 1388.58020   -0.00440   -0.00440    0.01170    -999.25    0.01170  -59.00820  -65.43430 1389.11780
 7100.00000   10.52650    9.66630    9.66630    2.49750  400.39270   50.89010   50.89010   12.36180   12.36180  400.39270  202.21700  153.31610  202.21700    0.00210    0.00210    0.02200    -999.25    0.02200  -86.85460  -92.66260  153.31610
 7150.00000    9.72380    9.30810    9.30810    1.07090  933.75100   50.35510   50.35510   11.35400   11.35400  933.75100  371.93310  335.80930  371.93310    0.00620    0.00620    0.01830    -999.25    0.01830  -91.35400  -96.54790  335.80930
 7200.00000   10.19000    9.25380    9.25380    0.72800 1373.57530   49.83640   49.83640   13.04980   13.04980 1373.57530 1134.53360 1031.80800 1134.53360    0.00030    0.00030    0.01450    -999.25    0.01450  -90.36620  -94.94200 1031.80800
 7250.00000    9.87670    9.27040    9.27040   16.66950   59.98980   50.85290   50.85290   10.50360   10.50360   59.98980   75.29290  273.85710   75.29290    0.00800    0.00800    0.02190    -999.25    0.02190 -115.88600 -119.84770  273.85710
 7300.00000    8.80780    8.74260    8.74260   27.46960   36.40390   52.82700   52.82700   12.14230   12.14230   36.40390   63.45470  347.65570   63.45470    0.04910    0.04910    0.03570    -999.25    0.03570 -147.14800 -150.49560  347.65570
 7350.00000    9.80610    8.71250    8.71250   21.52210   46.46390   51.86250   51.86250   10.03450   10.03450   46.46390   60.52950  291.90060   60.52950    0.02630    0.02630    0.02850    -999.25    0.02850 -111.31610 -114.04560  291.90060
 7400.00000    9.73280    9.11130    9.11130    0.78750 1269.85270   48.99310   48.99310   14.55390   14.55390 1269.85270 1306.29110 1254.92160 1306.29110   -0.00220   -0.00220    0.00800    -999.25    0.00800  -88.59450  -90.70990 1254.92160
 7450.00000    9.56770    9.08690    9.08690    0.78760 1269.68680   49.09090   49.09090   14.07560   14.07560 1269.68680  572.65560  370.16250  572.65560   -0.00460   -0.00460    0.00940    -999.25    0.00940  -85.31820  -86.81550  370.16250
 7500.00000    9.76050    9.36650    9.36650    6.51600  153.46750   49.47590   49.47590   10.24180   10.24180  153.46750  119.47000  111.94210  119.47000    0.00080    0.00080    0.01160    -999.25    0.01160  -86.87000  -87.75320  111.94210
 7550.00000    8.71800    8.28070    8.28070   20.78070   48.12160   53.52680   53.52680   11.46850   11.46850   48.12160   98.64820  401.30640   98.64820    0.05450    0.05450    0.04190    -999.25    0.04190 -132.64720 -132.91630  401.30640
