~Version ---------------------------------------------------
VERS.      2.0 : CWLS log ASCII Standard -VERSION 2.0
WRAP.       NO : One line per depth step
CREA. 12/12/17 : LAS Creation Date
~Well ------------------------------------------------------
STRT.FT                      1200.0 : START DEPTH
STOP.FT                     11750.0 : STOP DEPTH
STEP.FT                    50.00000 : STEP LENGTH
NULL.                       -999.25 : NULL VALUE
COMP.  DEKALB PETROLEUM CORPORATION : COMPANY
WELL. DEKALB ET AL PEERS 6-32-52-14 : WELL
FLD .                               : FIELD
LOC .                               : LOCATION
CTRY.                        CANADA : COUNTRY
SRVC.                  Schlumberger : SERVICE COMPANY
DATE.                   21-Aug-1968 : LOGDATE
PROV.                       Alberta : PROVINCE
UWI .              100063205214W500 : UNIQUE WELL ID
SLAT.WGS84                 53.53109 : SURFACE LATITUDE
SLON.WGS84                -116.0318 : SURFACE LONGITUDE
~Curve Information -----------------------------------------
DEPT  .FT    : Depth Curve
CALSED.IN    : CALIPER FROM SONIC LOG
CALWS .IN    : CALIPER [CALSED]
CONDWS.MMHO  : CONDUCTIVITY [1000/DRESWS]
DRESWS.OHMM  : DEEP RESISTIVITY [ILDED]
DTED  .US/F  : DELTA-TIME FROM SONIC LOG
DTWS  .US/F  : COMPRESSIONAL SONIC [DTED]
GRSED .GAPI  : GAMMA RAY FROM SONIC LOG
GRWS  .GAPI  : GAMMA RAY [GRSED]
ILDED .OHMM  : DEEP INDUCTION RESISTIVITY FROM RESISTIVITY LOG
ILMED .OHMM  : MEDIUM INDUCTION RESISTIVITY FROM RESISTIVITY LOG
LL8ED .OHMM  : LATEROLOG 8 RESISTIVITY FROM RESISTIVITY LOG
MRESWS.OHMM  : MEDIUM RESISTIVITY [ILMED]
SPRED .MV    : SPONTANEOUS POTENTIAL FROM RESISTIVITY LOG
SPWS  .MV    : SPONTANEOUS POTENTIAL [BASELINE 0 MV, SPRED]
SRESWS.OHMM  : SHALLOW RESISTIVITY [LL8ED]
~Params ----------------------------------------------------
PD  .                     GL : PERMANENT DATUM
EPD .FT               3044.5 : ELEVATION PERMANENT DATUM
LMF .                     KB : LOG MEASURED FROM
DAPD.FT                 13.5 : FEET ABOVE PERMANENT DATUM
EKB .FT                 3058 : KELLY BUSHING
EGL .FT               3044.5 : GROUND LEVEL
DATE.               08/21/68 : RUN DATE
RUN .                      1 : RUN NUMBER
DD  .FT                11760 : DEPTH DRILLER
DL  .FT                11767 : DEPTH LOGGER
BLI .FT                11762 : BOTTOM LOG INTERVAL
TLI .FT                 1227 : TOP LOG INTERVAL
CBD .FT                 1227 : CASING BOTTOM DRILLER
CBL .FT                 1227 : CASING BOTTOM LOGGER
BS  .IN                 8.75 : BIT SIZE
BSD .FT                11760 : BIT SIZE AT DEPTH
DFT .                    GEL : DRILLING FLUID TYPE
DFD .                    9.5 : DRILLING FLUID DENSITY
DFV .                     55 : DRILLING FLUID VISCOSITY
DFPH.                    8.5 : DRILLING FLUID PH
DFL .                    8.4 : DRILLING FLUID LOSS
MSS .             CIRCULATED : MUD SAMPLE SOURCE
RMS .OHMM               2.95 : RESISTIVITY MUD SAMPLE
MST .DEGF                 59 : MUD SAMPLE TEMPERATURE
RMF .OHMM               1.86 : RESISTIVITY MUD FILTRATE SAMPLE
MFST.DEGF                 67 : MUD FILTRATE SAMPLE TEMPERATURE
RMB .OHMM               2.73 : RESISTIVITY MUD AT BHT
TCS .HRS                   4 : TIME CIRCULATED STOPPED
LUN .                   7501 : LOGGING UNIT NUMBER
LUL .                    EDM : LOGGING UNIT LOCATION
ENGI.               STUEHMER : RECORDING ENGINEER
WITN.                 MCLEOD : WITNESSED BY
CLNT.                A2DTECH : CLIENT CODE
ORIG.            2" 5" PRINT : ORIGIN OF DATA
UWI .       100063205214W500 : UNIQUE WELL ID
DICO. A2D Technologies, Inc. : DIGITIZING COMPANY
~Other -----------------------------------------------------
DILL-BCS LOG RUN
ALL DATA FROM SMALL SECTION @ TOP-6588'
~ASCII -----------------------------------------------------
# ...
 3500.00000   10.16270   10.16270  132.28040    7.55970   76.47740   76.47740   71.80340   71.80340    7.55970    7.76500    8.09250    7.76500 -136.02210   -3.31510    8.09250
 3550.00000   10.72030   10.72030  153.53830    6.53200   77.35290   77.35290   59.76360   59.76360    6.53200    5.55010    5.97910    5.55010 -135.70540   -3.24650    5.97910
 3600.00000   10.91000   10.91000   72.10010   13.86960   77.47260   77.47260   45.14960   45.14960   13.86960   12.32870   12.00160   12.32870 -143.92880  -11.69240   12.00160
 3650.00000   11.05650   11.05650   81.27640   12.30370   78.42500   78.42500   58.38610   58.38610   12.30370   10.14900   10.68270   10.14900 -135.47730   -3.31360   10.68270
 3700.00000   10.90300   10.90300   79.88370   12.51820   81.27590   81.27590   67.51030   67.51030   12.51820   10.25620   10.72640   10.25620 -138.11370   -6.02260   10.72640
 3750.00000   11.19270   11.19270   80.88060   12.36390   78.18640   78.18640   56.54230   56.54230   12.36390   11.37330   11.36340   11.37330 -136.05390   -4.03540   11.36340
 3800.00000   12.47050   12.47050  181.41250    5.51670   84.23740   84.23740   66.40750   66.40750    5.51670    4.60450    5.13760    4.60450 -134.29060   -2.34440    5.13760
 3850.00000   12.99010   12.99010  112.82610    8.86320   78.35960   78.35960   68.19170   68.19170    8.86320    7.45120    8.37440    7.45120 -134.56510   -2.69180    8.37440
 3900.00000   12.40230   12.40230  113.20540    8.83350   84.05450   84.05450   59.64160   59.64160    8.83350    8.11860    8.28060    8.11860 -136.23900   -4.43830    8.28060
 3950.00000   11.01180   11.01180   25.06720   39.89270   62.71700   62.71700   26.86030   26.86030   39.89270   39.19770   50.23230   39.19770 -143.57400  -11.84600   50.23230
 4000.00000   11.37030   11.37030  123.08300    8.12460   84.12100   84.12100   58.45170   58.45170    8.12460    7.62560    7.18540    7.62560 -134.79100   -3.13560    7.18540
 4050.00000   11.52720   11.52720   69.63870   14.36340   79.53410   79.53410   53.00490   53.00490   14.36340   11.88990   13.25490   11.88990 -138.53010   -6.94700   13.25490
 4100.00000   12.38970   12.38970  137.20430    7.28840   85.43510   85.43510   51.22280   51.22280    7.28840    6.46300    6.74760    6.46300 -135.12510   -3.61490    6.74760
 4150.00000   12.07970   12.07970  124.60280    8.02550   83.37570   83.37570   47.67900   47.67900    8.02550    7.16640    7.53440    7.16640 -133.46510   -2.02750    7.53440
 4200.00000   11.27550   11.27550   35.94690   27.81880   73.83040   73.83040   39.41470   39.41470   27.81880   24.36290   26.56430   24.36290 -141.22400   -9.90100   26.56430
 4250.00000   11.73530   11.73530  118.13630    8.46480   81.25370   81.25370   57.99400   57.99400    8.46480    7.89630    7.56290    7.89630 -135.68090   -4.56150    7.56290
 4300.00000   10.34950   10.34950   68.08800   14.70400   77.01800   77.01800   42.86480   42.86480   14.70400   16.80640   16.26160   16.80640 -143.78450  -12.86770   16.26160
 4350.00000   12.18790   12.18790  134.90360    7.41270   85.14590   85.14590   55.66830   55.66830    7.41270    6.89510    6.97080    6.89510 -133.41390   -2.70160    6.97080
 4400.00000   12.08620   12.08620  121.19450    8.25120   81.82520   81.82520   54.22460   54.22460    8.25120    7.90010    7.29390    7.90010 -134.33490   -3.82620    7.29390
 4450.00000   10.65120   10.65120   34.03480   29.38170   70.28210   70.28210   28.24460   28.24460   29.38170   34.50030   39.47410   34.50030 -163.13240  -32.82730   39.47410
 4500.00000   13.60940   13.60940  114.50820    8.73300   80.69070   80.69070   57.34090   57.34090    8.73300    7.65110    8.22140    7.65110 -135.36160   -5.26010    8.22140
 4550.00000   12.47640   12.47640  126.28370    7.91910   87.42700   87.42700   62.91160   62.91160    7.91910    7.19000    7.54300    7.19000 -132.12210   -2.22310    7.54300
 4600.00000   11.67980   11.67980   33.46180   29.88480   66.98380   66.98380   30.95310   30.95310   29.88480   25.66990   33.97270   25.66990 -158.75160  -29.39240   33.97270
 4650.00000   11.80660   11.80660  145.06840    6.89330   87.51090   87.51090   61.73880   61.73880    6.89330    7.27060    7.65170    7.27060 -131.00030   -2.24380    7.65170
 4700.00000   11.11360   11.11360  126.09230    7.93070   84.87260   84.87260   59.31210   59.31210    7.93070    8.32300    8.58250    8.32300 -130.47780   -2.11330    8.58250
 4750.00000   11.47040   11.47040  103.09280    9.70000   82.35250   82.35250   80.18930   80.18930    9.70000   10.17950   11.14850   10.17950 -131.12030   -2.84480   11.14850
 4800.00000   12.66260   12.66260  110.03610    9.08810   79.72930   79.72930   84.45460   84.45460    9.08810    9.51350   10.01560    9.51350 -132.90980   -4.72290   10.01560
 4850.00000   12.45650   12.45650   98.68360   10.13340   78.79730   78.79730   85.21800   85.21800   10.13340   10.40990   10.91890   10.40990 -132.56680   -4.46930   10.91890
 4900.00000   13.09370   13.09370   81.28030   12.30310   77.41950   77.41950   85.96480   85.96480   12.30310   12.59380   13.04120   12.59380 -132.32360   -4.31510   13.04120
 4950.00000   12.91930   12.91930   98.14310   10.18920   79.03570   79.03570   84.11400   84.11400   10.18920   10.54170   11.48110   10.54170 -131.97210   -4.05260   11.48110
 5000.00000   12.68810   12.68810  100.76380    9.92420   82.75480   82.75480   90.14250   90.14250    9.92420   10.84160   12.21180   10.84160 -130.42970   -2.59930   12.21180
 5050.00000   12.60140   12.60140  105.44960    9.48370   86.15500   86.15500   99.67810   99.67810    9.48370    9.97030   11.29950    9.97030 -129.84900   -2.10710   11.29950
 5100.00000   11.80460   11.80460   78.09570   12.80480   81.72480   81.72480   99.08990   99.08990   12.80480   13.66260   16.72940   13.66260 -131.00630   -3.35390   16.72940
 5150.00000   12.41530   12.41530   83.38270   11.99290   76.97060   76.97060   87.48760   87.48760   11.99290   10.97820   13.40030   10.97820 -131.77640   -4.21300   13.40030
 5200.00000   12.24290   12.24290  111.82810    8.94230   77.48600   77.48600   83.97630   83.97630    8.94230    9.22900    9.73290    9.22900 -132.40320   -4.92880    9.73290
 5250.00000   11.58430   11.58430  112.42140    8.89510   76.95450   76.95450   89.67330   89.67330    8.89510    9.26280    9.94360    9.26280 -131.98850   -4.60310    9.94360
 5300.00000   11.56580   11.56580  109.36630    9.14400   77.68840   77.68840   92.34320   92.34320    9.14400    9.53500    9.98940    9.53500 -131.70320   -4.40630    9.98940
 5350.00000   12.04120   12.04120  113.54090    8.80740   80.30130   80.30130   85.70570   85.70570    8.80740    9.37170    9.83020    9.37170 -130.59400   -3.38660    9.83020
 5400.00000   12.36150   12.36150  103.84110    9.63010   76.34820   76.34820   81.97510   81.97510    9.63010   10.27500   10.84260   10.27500 -130.77050   -3.65210   10.84260
 5450.00000   11.87490   11.87490  115.78090    8.63700   77.89370   77.89370   85.74770   85.74770    8.63700    9.00080    9.55310    9.00080 -130.08250   -3.05310    9.55310
 5500.00000   11.69460   11.69460  108.82460    9.18910   81.72370   81.72370   95.49730   95.49730    9.18910    9.66890   10.51990    9.66890 -129.11350   -2.17310   10.51990
 5550.00000   11.51880   11.51880  134.85840    7.41520   82.07910   82.07910   88.66750   88.66750    7.41520    7.79460    8.44190    7.79460 -129.35030   -2.49850    8.44190
 5600.00000   11.69820   11.69820  136.36800    7.33310   85.21370   85.21370   91.15380   91.15380    7.33310    7.70580    8.25250    7.70580 -129.13510   -2.37270    8.25250
 5650.00000   11.65920   11.65920  100.07310    9.99270   77.11990   77.11990   77.45820   77.45820    9.99270   10.28710   10.78830   10.28710 -130.43500   -3.81020   10.78830
 5700.00000   11.53170   11.53170   54.68900   18.28520   71.46310   71.46310   60.44900   60.44900   18.28520   19.38970   19.94970   19.38970 -136.19120   -9.95900   19.94970
 5750.00000   11.91210   11.91210   89.93860   11.11870   80.91550   80.91550   88.58380   88.58380   11.11870   11.61490   12.06340   11.61490 -128.98190   -3.14230   12.06340
