~Version ---------------------------------------------------
VERS.      2.0 : CWLS log ASCII Standard -VERSION 2.0
WRAP.       NO : One line per depth step
CREA. 01/03/18 : LAS Creation Date
~Well ------------------------------------------------------
STRT.FT                      750.0 : START DEPTH
STOP.FT                     9100.0 : STOP DEPTH
STEP.FT                   50.00000 : STEP LENGTH
NULL.                      -999.25 : NULL VALUE
COMP.            SABINE CANADA LTD : COMPANY
WELL. SABINE VIRGHILLS 14-32-64-12 : WELL
FLD .                              : FIELD
LOC .                              : LOCATION
CTRY.                       CANADA : COUNTRY
SRVC.                 Schlumberger : SERVICE COMPANY
DATE.                  13-Nov-1977 : LOGDATE
PROV.                      Alberta : PROVINCE
UWI .             100143206412W500 : UNIQUE WELL ID
SLAT.WGS84                54.58613 : SURFACE LATITUDE
SLON.WGS84               -115.7817 : SURFACE LONGITUDE
~Curve Information -----------------------------------------
DEPT  .FT    : Depth Curve
CALSED.IN    : CALIPER FROM SONIC LOG
CALWS .IN    : CALIPER [CALSED]
CONDWS.MMHO  : CONDUCTIVITY [1000/DRESWS]
DRESWS.OHMM  : DEEP RESISTIVITY [ILDED]
DTED  .US/F  : DELTA TIME FROM SONIC LOG
DTWS  .US/F  : DELTA TIME [DTED]
GRNED .CU    : GAMMA RAY FROM CBL LOG [DEP. ADJ. TO GRSED]
GRSED .GAPI  : GAMMA RAY FROM SONIC LOG
GRWS  .GAPI  : GAMMA RAY [GRSED]
ILDED .OHMM  : INDUCTION LOG DEEP RESISTIVITY
ILMED .OHMM  : INDUCTION LOG MEDIUM RESISTIVITY
LL8ED .OHMM  : 8 INCH LATEROLOG RESISTIVITY
MRESWS.OHMM  : MEDIUM RESISTIVITY [ILMED]
NEUTED.CU    : NEUTRON FROM CBL LOG [DEP. ADJ. TO GRSED]
NEUTWS.CU    : NEUTRON [NEUTED]
SPRED .MV    : SPONTANEOUS POTENTIAL FROM RESISTIVITY LOG
SPWS  .MV    : SPONTANEOUS POTENTIAL [BASELINE 0 MV] [SPRED]
SRESWS.OHMM  : SHALLOW RESISTIVITY [LL8ED]
~Params ----------------------------------------------------
PD  .                     GL : PERMANENT DATUM
EPD .FT               3348.7 : ELEVATION PERMANENT DATUM
LMF .                     KB : LOG MEASURED FROM
DAPD.FT                 14.3 : FEET ABOVE PERMANENT DATUM
EKB .FT                 3363 : KELLY BUSHING
EGL .FT               3348.7 : GROUND LEVEL
DATE.               11/13/77 : RUN DATE
RUN .                      1 : RUN NUMBER
DD  .FT                 9128 : DEPTH DRILLER
DL  .FT                 9134 : DEPTH LOGGER
BLI .FT                 9128 : BOTTOM LOG INTERVAL
TLI .FT                  720 : TOP LOG INTERVAL
CBD .FT                  716 : CASING BOTTOM DRILLER
CBL .FT                  720 : CASING BOTTOM LOGGER
BS  .IN                7.875 : BIT SIZE
BSD .FT                 9134 : BIT SIZE AT DEPTH
DFT .                    GEL : DRILLING FLUID TYPE
DFD .                    9.1 : DRILLING FLUID DENSITY
DFV .                     94 : DRILLING FLUID VISCOSITY
DFPH.                    9.4 : DRILLING FLUID PH
MSS .               FLOWLINE : MUD SAMPLE SOURCE
RMS .OHMM               2.75 : RESISTIVITY MUD SAMPLE
MST .DEGF                 58 : MUD SAMPLE TEMPERATURE
RMF .OHMM               2.59 : RESISTIVITY MUD FILTRATE SAMPLE
MFST.DEGF                 58 : MUD FILTRATE SAMPLE TEMPERATURE
RMC .OHMM               2.13 : RESISTIVITY MUD CAKE
MCST.DEGF                 62 : MUD CAKE SAMPLE TEMPERATURE
RMB .OHMM               1.04 : RESISTIVITY MUD AT BHT
TCS .HRS                   4 : TIME CIRCULATED STOPPED
LUN .                   7730 : LOGGING UNIT NUMBER
LUL .                    EDM : LOGGING UNIT LOCATION
ENGI.        ACKERMAN BERGEN : RECORDING ENGINEER
WITN.              VANDERLEE : WITNESSED BY
CLNT.                A2DTECH : CLIENT CODE
ORIG.            2" 5" PRINT : ORIGIN OF DATA
UWI .       100143206412W500 : UNIQUE WELL ID
DICO. A2D Technologies, Inc. : DIGITIZING COMPANY
~Other -----------------------------------------------------
~ASCII -----------------------------------------------------
  750.00000    -999.25    -999.25  168.99310    5.91740    -999.25    -999.25    -999.25    -999.25    -999.25    5.91740    5.33020    5.05430    5.33020    -999.25    -999.25  -87.75500   -9.30990    5.05430
  800.00000    -999.25    -999.25  145.61710    6.88180    -999.25    -999.25    -999.25    -999.25    -999.25    6.88180    6.03460    7.72700    6.03460    -999.25    -999.25  -88.91950   -8.91550    7.72700
  850.00000    -999.25    -999.25  258.17780    3.87330    -999.25    -999.25    -999.25    -999.25    -999.25    3.87330    3.60370    3.60450    3.60370    -999.25    -999.25  -84.82680   -3.24830    3.60450
  900.00000    -999.25    -999.25  188.48360    5.30550    -999.25    -999.25    -999.25    -999.25    -999.25    5.30550    5.03840    4.72670    5.03840    -999.25    -999.25  -85.10590   -3.11840    4.72670
  950.00000    -999.25    -999.25  123.73940    8.08150    -999.25    -999.25    -999.25    -999.25    -999.25    8.08150    6.97690    6.31520    6.97690    -999.25    -999.25  -84.78110   -2.73050    6.31520
 1000.00000    -999.25    -999.25  423.11920    2.36340    -999.25    -999.25    -999.25    -999.25    -999.25    2.36340    2.11660    2.71310    2.11660    -999.25    -999.25  -89.50030   -7.38650    2.71310
 1050.00000    -999.25    -999.25  172.46110    5.79870    -999.25    -999.25    -999.25    -999.25    -999.25    5.79870    5.60650    5.46030    5.60650    -999.25    -999.25  -89.78420   -7.60750    5.46030
 1100.00000    -999.25    -999.25  377.82900    2.64670    -999.25    -999.25    -999.25    -999.25    -999.25    2.64670    2.39270    2.83300    2.39270    -999.25    -999.25  -89.89790   -7.65770    2.83300
 1150.00000    -999.25    -999.25  374.72830    2.66860    -999.25    -999.25    -999.25    -999.25    -999.25    2.66860    2.80600    3.02450    2.80600    -999.25    -999.25  -87.95890   -5.65550    3.02450
 1200.00000    -999.25    -999.25  235.87690    4.23950    -999.25    -999.25    -999.25    -999.25    -999.25    4.23950    3.80420    3.56380    3.80420    -999.25    -999.25  -87.31040   -4.94380    3.56380
 1250.00000    -999.25    -999.25  296.65670    3.37090    -999.25    -999.25    -999.25    -999.25    -999.25    3.37090    3.28350    3.04880    3.28350    -999.25    -999.25  -88.28030   -5.85050    3.04880
 1300.00000    -999.25    -999.25  251.57820    3.97500    -999.25    -999.25    -999.25    -999.25    -999.25    3.97500    3.69010    3.51940    3.69010    -999.25    -999.25  -87.31890   -4.82620    3.51940
 1350.00000    -999.25    -999.25  268.62220    3.72270    -999.25    -999.25    -999.25    -999.25    -999.25    3.72270    3.51030    3.44150    3.51030    -999.25    -999.25  -88.91350   -6.35730    3.44150
 1400.00000    -999.25    -999.25  217.75110    4.59240    -999.25    -999.25    -999.25    -999.25    -999.25    4.59240    4.16180    3.77490    4.16180    -999.25    -999.25  -89.17450   -6.55510    3.77490
 1450.00000    -999.25    -999.25  321.07880    3.11450    -999.25    -999.25    -999.25    -999.25    -999.25    3.11450    2.94370    3.36190    2.94370    -999.25    -999.25  -88.34250   -5.66000    3.36190
 1500.00000    -999.25    -999.25  191.31070    5.22710    -999.25    -999.25    -999.25    -999.25    -999.25    5.22710    5.28980    4.44920    5.28980    -999.25    -999.25  -89.70790   -6.96220    4.44920
 1550.00000    -999.25    -999.25  178.95360    5.58900    -999.25    -999.25    -999.25    -999.25    -999.25    5.58900    5.37760    5.83090    5.37760    -999.25    -999.25  -89.06070   -6.25210    5.83090
 1600.00000    -999.25    -999.25  379.54990    2.63470    -999.25    -999.25    -999.25    -999.25    -999.25    2.63470    2.72860    2.81950    2.72860    -999.25    -999.25  -88.50190   -5.62980    2.81950
 1650.00000    -999.25    -999.25  319.36640    3.13120    -999.25    -999.25    -999.25    -999.25    -999.25    3.13120    3.30350    3.50460    3.30350    -999.25    -999.25  -88.27850   -5.34320    3.50460
 1700.00000    -999.25    -999.25  324.73860    3.07940    -999.25    -999.25    -999.25    -999.25    -999.25    3.07940    3.00860    2.82510    3.00860    -999.25    -999.25  -88.59730   -5.59880    2.82510
 1750.00000    -999.25    -999.25  340.85490    2.93380    -999.25    -999.25    -999.25    -999.25    -999.25    2.93380    3.04850    3.11560    3.04850    -999.25    -999.25  -87.90070   -4.83900    3.11560
 1800.00000    -999.25    -999.25  233.92690    4.27880    -999.25    -999.25    -999.25    -999.25    -999.25    4.27880    4.08230    3.69670    4.08230    -999.25    -999.25  -91.89900   -8.77440    3.69670
 1850.00000    -999.25    -999.25  397.29840    2.51700    -999.25    -999.25    -999.25    -999.25    -999.25    2.51700    2.60840    2.72290    2.60840    -999.25    -999.25  -90.80090   -7.61280    2.72290
 1900.00000    -999.25    -999.25  189.65260    5.27280    -999.25    -999.25    -999.25    -999.25    -999.25    5.27280    5.19740    4.83570    5.19740    -999.25    -999.25  -89.29500   -6.04370    4.83570
 1950.00000    -999.25    -999.25  320.47170    3.12040    -999.25    -999.25    -999.25    -999.25    -999.25    3.12040    2.88830    2.90660    2.88830    -999.25    -999.25  -90.57950   -7.26500    2.90660
 2000.00000    -999.25    -999.25  113.99520    8.77230    -999.25    -999.25    -999.25    -999.25    -999.25    8.77230    8.39300    7.35520    8.39300    -999.25    -999.25 -101.41190  -18.03430    7.35520
 2050.00000    -999.25    -999.25  170.04040    5.88140    -999.25    -999.25    -999.25    -999.25    -999.25    5.88140    5.58690    5.07530    5.58690    -999.25    -999.25  -88.61940   -5.17890    5.07530
 2100.00000    -999.25    -999.25   43.31840   23.08490    -999.25    -999.25    -999.25    -999.25    -999.25   23.08490   24.16180   32.92240   24.16180    -999.25    -999.25  -96.89200  -13.38800   32.92240
 2150.00000    -999.25    -999.25  130.79250    7.64570    -999.25    -999.25    -999.25    -999.25    -999.25    7.64570    7.04360    6.42830    7.04360    -999.25    -999.25 -101.95980  -18.39260    6.42830
 2200.00000    -999.25    -999.25  267.21530    3.74230    -999.25    -999.25    -999.25    -999.25    -999.25    3.74230    3.55450    3.04120    3.55450    -999.25    -999.25  -88.72020   -5.08980    3.04120
 2250.00000    -999.25    -999.25  268.11810    3.72970    -999.25    -999.25    -999.25    -999.25    -999.25    3.72970    3.59030    3.19900    3.59030    -999.25    -999.25  -89.11470   -5.42110    3.19900
 2300.00000    -999.25    -999.25  179.96610    5.56350    -999.25    -999.25    -999.25    -999.25    -999.25    5.56350    5.05800    5.30000    5.05800    -999.25    -999.25  -96.08370  -12.32730    5.30000
 2350.00000    -999.25    -999.25  234.88510    4.25740    -999.25    -999.25    -999.25    -999.25    -999.25    4.25740    4.48170    4.84940    4.48170    -999.25    -999.25  -89.62490   -5.80490    4.84940
 2400.00000    -999.25    -999.25  255.36910    3.91590    -999.25    -999.25    -999.25    -999.25    -999.25    3.91590    3.68850    3.53640    3.68850    -999.25    -999.25  -89.29210   -5.40890    3.53640
 2450.00000    -999.25    -999.25  315.14920    3.17310    -999.25    -999.25    -999.25    -999.25    -999.25    3.17310    3.21580    3.29980    3.21580    -999.25    -999.25  -87.80060   -3.85420    3.29980
 2500.00000    -999.25    -999.25   77.11110   12.96830    -999.25    -999.25    -999.25    -999.25    -999.25   12.96830   13.22170   11.93550   13.22170    -999.25    -999.25 -102.69120  -18.68170   11.93550
 2550.00000    -999.25    -999.25  245.87490    4.06720    -999.25    -999.25    -999.25    -999.25    -999.25    4.06720    3.90850    3.37120    3.90850    -999.25    -999.25  -88.25710   -4.18470    3.37120
 2600.00000    -999.25    -999.25  264.41740    3.78190    -999.25    -999.25    -999.25    -999.25    -999.25    3.78190    3.96470    4.06170    3.96470    -999.25    -999.25  -86.73390   -2.59800    4.06170
 2650.00000    -999.25    -999.25  278.70680    3.58800    -999.25    -999.25    -999.25    -999.25    -999.25    3.58800    3.58490    3.71330    3.58490    -999.25    -999.25  -87.99390   -3.90320    3.71330
