~Version ---------------------------------------------------
VERS.      2.0 : CWLS log ASCII Standard -VERSION 2.0
WRAP.       NO : One line per depth step
CREA. 01/03/18 : LAS Creation Date
~Well ------------------------------------------------------
STRT.FT                         900.0 : START DEPTH
STOP.FT                        8550.0 : STOP DEPTH
STEP.FT                      50.00000 : STEP LENGTH
NULL.                         -999.25 : NULL VALUE
COMP.          APACHE OIL CORPORATION : COMPANY
WELL. APACHE CEGO KINAKIN 10-25-63-10 : WELL
FLD .                                 : FIELD
LOC .                                 : LOCATION
CTRY.                          CANADA : COUNTRY
SRVC.          Schlumberger of Canada : SERVICE COMPANY
DATE.                     29-Jun-1964 : LOGDATE
PROV.                         Alberta : PROVINCE
UWI .                100102506310W500 : UNIQUE WELL ID
SLAT.WGS84                   54.48135 : SURFACE LATITUDE
SLON.WGS84                  -115.3707 : SURFACE LONGITUDE
~Curve Information -----------------------------------------
DEPT  .FT    : Depth Curve
CALSED.IN    : CALIPER FROM SONIC LOG
CALWS .IN    : CALIPER [CALSED]
CILDED.MMHO  : CONDUCTIVITY FROM IEL LOG
CONDWS.MMHO  : CONDUCTIVITY [1000/DRESWS]
DRESWS.OHMM  : DEEP RESISTIVITY [ILDED] IF ILDED<5;1000/CILDED;ELSE ILDED
DTED  .US/F  : DELTA TIME FROM SONIC LOG
DTWS  .US/F  : DELTA TIME [DTED]
GRSED .GAPI  : GAMMA RAY FROM SONIC LOG
GRWS  .GAPI  : GAMMA RAY [GRSED]
ILDED .OHMM  : INDUCTION LOG DEEP RESISTIVITY FROM IEL LOG
SNED  .OHMM  : 16 INCH SHORT NORMAL RESISTIVITY FROM IEL LOG
SPRED .MV    : SPONTANEOUS POTENTIAL FROM IEL LOG SHIFTED
SPWS  .MV    : SPONTANEOUS POTENTIAL [BASELINE 0 MV] [SPRED]
SRESWS.OHMM  : SHALLOW RESISTIVITY [SNED]
~Params ----------------------------------------------------
PD  .                     GL : PERMANENT DATUM
EPD .FT                 3164 : ELEVATION PERMANENT DATUM
LMF .                     KB : LOG MEASURED FROM
DAPD.FT                   14 : FEET ABOVE PERMANENT DATUM
EKB .FT                 3178 : KELLY BUSHING
EGL .FT                 3164 : GROUND LEVEL
DATE.               06/29/64 : RUN DATE
RUN .                      1 : RUN NUMBER
DD  .FT                 8582 : DEPTH DRILLER
DL  .FT                 8591 : DEPTH LOGGER
BLI .FT                 8590 : BOTTOM LOG INTERVAL
TLI .FT                  895 : TOP LOG INTERVAL
CBD .FT                  895 : CASING BOTTOM DRILLER
CBL .FT                  895 : CASING BOTTOM LOGGER
BS  .IN                 8.75 : BIT SIZE
BSD .FT                 8582 : BIT SIZE AT DEPTH
DFT .                    GEL : DRILLING FLUID TYPE
DFD .                    8.8 : DRILLING FLUID DENSITY
DFV .                    130 : DRILLING FLUID VISCOSITY
DFPH.                    9.5 : DRILLING FLUID PH
DFL .                   10.4 : DRILLING FLUID LOSS
RMF .OHMM               1.53 : RESISTIVITY MUD FILTRATE SAMPLE
MFST.DEGF                 68 : MUD FILTRATE SAMPLE TEMPERATURE
RMC .OHMM               1.96 : RESISTIVITY MUD CAKE
MCST.DEGF                 68 : MUD CAKE SAMPLE TEMPERATURE
TCS .HRS                 2.5 : TIME CIRCULATED STOPPED
LUN .                   4508 : LOGGING UNIT NUMBER
LUL .                     RD : LOGGING UNIT LOCATION
ENGI.         KOKONIS HIPKIN : RECORDING ENGINEER
WITN.              CHOQUETTE : WITNESSED BY
CLNT.                A2DTECH : CLIENT CODE
ORIG.            2" 5" PRINT : ORIGIN OF DATA
UWI .       100102506310W500 : UNIQUE WELL ID
DICO. A2D Technologies, Inc. : DIGITIZING COMPANY
~Other -----------------------------------------------------
~ASCII -----------------------------------------------------
# ...
 5800.00000    9.45260    9.45260   69.31080   65.83620   15.18920   55.11640   55.11640   24.65030   24.65030   15.18920   31.32370  -12.40330   -3.22050   31.32370
 5850.00000    9.34290    9.34290   11.82220    9.85650  101.45630   52.36830   52.36830   15.50170   15.50170  101.45630   71.23330  -20.80590  -10.61590   71.23330
 5900.00000    9.21640    9.21640    3.01260    4.22500  236.68790   51.08250   51.08250   18.24810   18.24810  236.68790  126.43610  -32.73600  -21.54370  126.43610
 5950.00000    9.01320    9.01320   13.38560   11.97270   83.52340   52.83640   52.83640   18.61120   18.61120   83.52340   72.13830  -21.95390   -9.75930   72.13830
 6000.00000    8.10800    8.10800   57.51350   55.39430   18.05240   52.81700   52.81700   24.64710   24.64710   18.05240   88.67320  -90.23760  -77.04080   88.67320
 6050.00000    9.44080    9.44080   25.90400   25.22920   39.79770   49.08690   49.08690   15.08280   15.08280   39.79770   91.17050  -93.78990  -79.59590   91.17050
 6100.00000    9.24820    9.24820    2.26180    2.40510  415.78650   48.08430   48.08430   18.91850   18.91850  415.78650  150.98010  -65.90550  -50.70410  150.98010
 6150.00000    8.03250    8.03250   30.32260   29.20170   34.24460   52.59180   52.59180   19.67930   19.67930   34.24460   95.93200 -136.47560 -120.27200   95.93200
 6200.00000    9.29530    9.29530    6.55500    6.30810  158.52620   49.76290   49.76290   17.96410   17.96410  158.52620  106.02780  -93.18630  -75.98040  106.02780
 6250.00000    9.48470    9.48470    8.48280    6.85800  145.81410   49.79680   49.79680   19.13770   19.13770  145.81410   83.44220  -70.51890  -52.31070   83.44220
 6300.00000    9.08860    9.08860   13.24220   11.89690   84.15510   50.58130   50.58130   22.17020   22.17020   84.15510   95.44460  -81.60530  -62.39990   95.44460
 6350.00000    7.69670    7.69670   71.58080   69.06220   14.47970   55.56850   55.56850   19.65450   19.65450   14.47970   80.11730 -151.75060 -131.53790   80.11730
 6400.00000    8.17440    8.17440   64.96970   64.28430   15.55590   53.71300   53.71300   25.17260   25.17260   15.55590   71.86060 -132.46760 -111.25260   71.86060
 6450.00000    9.24980    9.24980   55.72340   50.93360   19.63340   51.48980   51.48980   21.99470   21.99470   19.63340   40.97060  -81.63400  -59.41670   40.97060
 6500.00000   10.38670   10.38670  202.41810  202.41810    4.94030   65.21620   65.21620   80.01500   80.01500    4.72720    7.77610  -63.98840  -40.76890    7.77610
 6550.00000    7.53950    7.53950   17.81740   18.36510   54.48740   52.29300   52.29300   29.80340   29.80340   54.48740  104.90300 -111.62680  -87.41000  104.90300
 6600.00000    8.19970    8.19970   25.50800   23.32010   42.88140   47.32200   47.32200   33.00000   33.00000   42.88140   69.37930 -125.00690  -99.78280   69.37930
 6650.00000    8.49190    8.49190   32.21860   31.24940   32.00060   50.46380   50.46380   25.67030   25.67030   32.00060   54.31790 -107.19530  -80.96890   54.31790
 6700.00000    9.18550    9.18550  161.11440  166.07430    6.02140   59.74750   59.74750   41.73800   41.73800    6.02140    9.65420  -91.58600  -64.35740    9.65420
 6750.00000    9.05690    9.05690   36.66030   34.19800   29.24150   55.46390   55.46390   45.57750   45.57750   29.24150   29.42390  -39.00180  -10.77090   29.42390
 6800.00000    9.22640    9.22640   75.21590   72.27780   13.83590   61.85220   61.85220   58.19900   58.19900   13.83590   17.42200  -39.81090  -10.58270   17.42200
 6850.00000   14.95820   14.95820  262.11860  262.11860    3.81510   93.01070   93.01070   73.25530   73.25530    3.83500    4.61120  -55.21130  -24.97580    4.61120
 6900.00000   14.39950   14.39950  252.17540  252.17540    3.96550   83.30050   83.30050   65.84290   65.84290    3.88640    4.24450  -41.68900  -10.45130    4.24450
 6950.00000   13.13060   13.13060  203.19170  203.19170    4.92150   75.26240   75.26240   66.89730   66.89730    4.79680    5.48030  -41.77110   -9.53110    5.48030
 7000.00000   12.19220   12.19220  211.95840  211.95840    4.71790   72.68860   72.68860   53.33800   53.33800    4.68130    6.30970  -45.37640  -12.13410    6.30970
 7050.00000    9.11070    9.11070   85.53960   82.71710   12.09580   65.66170   65.66170   33.92160   33.92160   12.09580   15.25510  -49.11990  -14.88030   15.25510
 7100.00000    9.62720    9.62720  121.27880  121.30030    8.24400   53.72280   53.72280   25.99610   25.99610    8.24400   12.40460  -43.20180   -7.95500   12.40460
 7150.00000   14.46920   14.46920  283.23850  283.23850    3.53060   84.46260   84.46260   36.11360   36.11360    3.53170    4.77150  -70.15310  -35.01660    4.77150
 7200.00000   12.92110   12.92110  204.21060  204.21060    4.89690   67.95220   67.95220   61.15590   61.15590    4.95410    5.65430  -61.39550  -27.39640    5.65430
 7250.00000   15.58710   15.58710  233.53480  233.53480    4.28200   97.80720   97.80720   61.53400   61.53400    4.10520    4.55560  -50.30540  -17.44360    4.55560
 7300.00000   14.81730   14.81730  256.01950  256.01950    3.90610   98.50750   98.50750   74.89110   74.89110    3.88260    4.79860  -69.95270  -38.22250    4.79860
 7350.00000    9.77850    9.77850  105.60110  101.15420    9.88590   58.76060   58.76060   61.03710   61.03710    9.88590   12.59220  -41.51990  -10.93280   12.59220
 7400.00000    9.56800    9.56800  113.16680  111.14820    8.99700   67.80470   67.80470   30.28460   30.28460    8.99700   12.38030  -39.37480   -9.92500   12.38030
 7450.00000    8.65560    8.65560  101.44690   98.13160   10.19040   65.01130   65.01130   51.44800   51.44800   10.19040   12.46760  -47.01410  -18.70160   12.46760
 7500.00000    8.77590    8.77590  129.92670  130.02720    7.69070   90.19940   90.19940   52.34180   52.34180    7.69070    9.65830  -49.25010  -22.07500    9.65830
 7550.00000    8.98700    8.98700  207.10010  207.10010    4.82880   75.05430   75.05430   92.70350   92.70350    4.59910    5.24840  -65.77670  -39.73320    5.24840
 7600.00000    9.62740    9.62740  258.88290  258.88290    3.86280   79.92450   79.92450   81.52830   81.52830    3.83650    5.24590  -57.68240  -32.78190    5.24590
 7650.00000    9.06930    9.06930  181.89630  191.46080    5.22300   57.17380   57.17380   59.58590   59.58590    5.22300    7.41160  -53.44530  -29.68220    7.41160
 7700.00000    8.78980    8.78980  187.35350  194.35970    5.14510   72.41780   72.41780   54.47210   54.47210    5.14510    7.93210  -49.21330  -26.58750    7.93210
 7750.00000    9.18960    9.18960   64.00610   62.09140   16.10530   61.52040   61.52040   29.63830   29.63830   16.10530   21.26630  -26.36040   -4.87200   21.26630
 7800.00000    8.79580    8.79580   35.03220   35.21920   28.39410   57.11450   57.11450   20.61390   20.61390   28.39410   32.12100  -24.85430   -4.49750   32.12100
 7850.00000   12.56040   12.56040  216.51930  216.51930    4.61850   75.61020   75.61020   75.28720   75.28720    4.38420    6.01890  -40.94870  -21.73490    6.01890
 7900.00000   12.62930   12.62930  194.40980  194.40980    5.14380   69.42110   69.42110   88.46720   88.46720    4.97300    6.08330  -37.30400  -19.22760    6.08330
 7950.00000    9.04560    9.04560   36.02150   36.47010   27.41970   54.73560   54.73560   46.05960   46.05960   27.41970   35.85290  -21.92450   -4.98540   35.85290
 8000.00000    9.62650    9.62650   76.25010   73.22900   13.65580   70.72990   70.72990   70.39360   70.39360   13.65580   19.67930  -26.11270  -10.31090   19.67930
 8050.00000   10.13100   10.13100   95.98920   91.92200   10.89110   60.42750   60.42750   57.15350   57.15350   10.89110   13.20250  -23.94110   -9.27100   13.20250
 8100.00000    9.53780    9.53780  101.74220   97.28570   10.27900   67.76190   67.76190   63.05230   63.05230   10.27900   14.74140  -20.74050   -7.21340   14.74140
 8150.00000    8.89330    8.89330    4.05020    5.60440  178.43190   51.36970   51.36970   28.22400   28.22400  178.43190  109.98230  -23.28670  -10.89700  109.98230
 8200.00000    8.88460    8.88460   29.01410   28.94550   34.54770   57.29200   57.29200   45.21020   45.21020   34.54770   42.80860  -15.60220   -4.34980   42.80860
