~Version ---------------------------------------------------
VERS.      2.0 : CWLS log ASCII Standard -VERSION 2.0
WRAP.       NO : One line per depth step
CREA. 09/30/14 : LAS Creation Date
~Well ------------------------------------------------------
STRT.FT                      1000.0 : START DEPTH
STOP.FT                      9700.0 : STOP DEPTH
STEP.FT                    50.00000 : STEP LENGTH
NULL.                       -999.25 : NULL VALUE
COMP. HUDSON'S BAY OIL & GAS CO LTD : COMPANY
WELL.         HB MEEKWAP 11-8-66-18 : WELL
FLD .                               : FIELD
LOC .                               : LOCATION
CTRY.                        CANADA : COUNTRY
SRVC.                  Schlumberger : SERVICE COMPANY
DATE.                   20-Feb-1976 : LOGDATE
PROV.                       Alberta : PROVINCE
UWI .              100110806618W500 : UNIQUE WELL ID
SLAT.WGS84                 54.70024 : SURFACE LATITUDE
SLON.WGS84                -116.6871 : SURFACE LONGITUDE
~Curve Information -----------------------------------------
DEPT   .FT    : Depth Curve
CALD   .IN    : CALIPER FROM DENSITY LOG
CALS   .IN    : CALIPER FROM SONIC LOG
CILD   .MMHO  : CONDUCTIVITY FROM RESISTIVITY LOG
DPHI_LS.DEC   : DENSITY POROSITY LIMESTONE [M=2.71,F=1.0] FROM DENSITY LOG
DPHI_SS.DEC   : DENSITY POROSITY SANDSTONE [M=2.65,F=1.0] FROM DENSITY LOG
DRHO   .G/C3  : BULK DENSITY CORRECTION FROM DENSITY LOG
DT     .US/F  : DELTA-T FROM SONIC LOG
GRD    .GAPI  : GAMMA RAY FROM DENSITY LOG
GRS    .GAPI  : GAMMA RAY FROM SONIC LOG
ILD    .OHMM  : DEEP INDUCTION FROM RESISTIVITY LOG
ILM    .OHMM  : MEDIUM INDUCTION FROM RESISTIVITY LOG
LL8    .OHMM  : LATEROLOG 8 FROM RESISTIVITY LOG
NPHI_LS.DEC   : NEUTRON POROSITY LIMESTONE FROM DENSITY LOG
NPHI_SS.DEC   : NEUTRON POROSITY SANDSTONE FROM DENSITY LOG
RHOB   .G/C3  : BULK DENSITY FROM DENSITY LOG
SPR    .MV    : SPONTANEOUS POTENTIAL FROM RESISTIVITY LOG
~Params ----------------------------------------------------
PD  .                     GL : PERMANENT DATUM
EPD .FT                 2674 : ELEVATION PERMANENT DATUM
LMF .                     KB : LOG MEASURED FROM
DAPD.FT                 16.8 : FEET ABOVE PERMANENT DATUM
EKB .FT               2690.8 : KELLY BUSHING
EGL .FT                 2674 : GROUND LEVEL
DATE.               02/20/76 : RUN DATE
RUN .                      1 : RUN NUMBER
DD  .FT                 9730 : DEPTH DRILLER
DL  .FT                 9732 : DEPTH LOGGER
BLI .FT                 9726 : BOTTOM LOG INTERVAL
TLI .FT                  995 : TOP LOG INTERVAL
CBD .FT                  995 : CASING BOTTOM DRILLER
CBL .FT                  995 : CASING BOTTOM LOGGER
BS  .IN                 8.75 : BIT SIZE
BSD .FT                 9730 : BIT SIZE AT DEPTH
DFT .                    GEL : DRILLING FLUID TYPE
DFD .                    9.6 : DRILLING FLUID DENSITY
DFV .                    120 : DRILLING FLUID VISCOSITY
DFPH.                      9 : DRILLING FLUID PH
DFL .                     10 : DRILLING FLUID LOSS
MSS .               FLOWLINE : MUD SAMPLE SOURCE
RMS .OHMM               0.68 : RESISTIVITY MUD SAMPLE
MST .DEGF                199 : MUD SAMPLE TEMPERATURE
RMF .OHMM                1.9 : RESISTIVITY MUD FILTRATE SAMPLE
MFST.DEGF                 60 : MUD FILTRATE SAMPLE TEMPERATURE
RMB .OHMM               0.57 : RESISTIVITY MUD AT BHT
LUN .                   7800 : LOGGING UNIT NUMBER
LUL .                    EDM : LOGGING UNIT LOCATION
ENGI.               BERNLSKY : RECORDING ENGINEER
WITN.                HARDMAN : WITNESSED BY
CLNT.                A2DTECH : CLIENT CODE
ORIG.            2" 5" PRINT : ORIGIN OF DATA
UWI .       100110806618W500 : UNIQUE WELL ID
DICO. A2D Technologies, Inc. : DIGITIZING COMPANY
~Other -----------------------------------------------------
~ASCII -----------------------------------------------------
# ...
 7450.00000    9.48810    9.07470    -999.25    0.01410    -999.25    0.12110   51.48820   10.91530   11.13360   53.55260   49.66560  296.65210    0.01610    -999.25    2.70210 -228.76850
 7500.00000   11.83530    9.63220    -999.25    0.01530    -999.25    0.25180   50.10860   15.14140   15.91930  363.97920  171.22530  828.96180    0.00480    -999.25    2.71220 -239.87170
 7550.00000    9.60790    9.18430    -999.25   -0.01230    -999.25    0.07060   50.94560   15.96980   13.56530   83.34980   77.47740  187.38520    0.00570    -999.25    2.75490 -262.85420
 7600.00000   11.11700    9.61740    -999.25    0.02680    -999.25    0.25820   49.68930   13.44850   14.74530  359.07450  185.96520 1399.80680    0.00440    -999.25    2.66100 -286.13740
 7650.00000   11.12910    9.52330    -999.25    0.01400    -999.25    -999.25   50.08510   13.80660   13.22880  166.94920  153.65660  787.00930    0.00410    -999.25    2.65010 -285.98530
 7700.00000    8.16100    8.12920    -999.25    0.07550    -999.25    -999.25   53.99900   16.39280   16.73270   36.60430   20.30890  136.76490    0.06640    -999.25    2.57020 -282.45540
 7750.00000   11.31630    9.51110    -999.25    0.08200    -999.25    0.22730   49.75530   15.26400   14.56130  295.73090  232.15880 1472.42640    0.00500    -999.25    2.56330 -251.27630
 7800.00000    9.34650    9.35610    -999.25   -0.06080    -999.25    0.07240   48.25980   17.85090   18.66860   66.35170   53.96550  158.03480    0.05460    -999.25    2.81430 -235.39340
 7850.00000    9.69920    9.03200    -999.25   -0.07100    -999.25    0.16560   53.10280   26.33000   33.07620   30.68650   23.02090  491.36890    0.07280    -999.25    2.85670 -239.61030
 7900.00000   12.57440    9.48610    -999.25    0.30660    -999.25    -999.25   52.71030   18.91530   22.44610  127.41160   79.27140  259.55330    0.07070    -999.25    2.24620 -291.09790
 7950.00000   10.53850    9.28430    -999.25   -0.04180    -999.25    0.17970   55.51970   29.64620   32.16410   10.02300   11.81600   21.48020    0.07750    -999.25    2.79660 -255.11880
 8000.00000    9.84000    9.11370    -999.25   -0.01390    -999.25    0.02530   51.06500   26.29470   28.83900  147.56540  116.98050  284.78530    0.00950    -999.25    2.72500 -169.81130
 8050.00000   10.24290    9.45790    -999.25   -0.00820    -999.25    0.05560   55.99970   43.48100   43.98410   36.46600   34.82680   53.43500    0.02500    -999.25    2.72870 -124.01950
 8100.00000   10.05370    9.32870    -999.25    0.00830    -999.25    0.05240   55.99020   24.17920   18.45900   81.85660   61.29960  127.58760    0.03250    -999.25    2.71580 -186.30580
 8150.00000    9.77080    9.14120    -999.25   -0.02620    -999.25    0.05340   50.97760   15.53810   12.28790  204.98850  160.80680  623.08260    0.00530    -999.25    2.73630 -216.77910
 8200.00000   10.24210    9.52220    -999.25   -0.03390    -999.25    0.16290   61.14450   50.28610   48.42950   13.42460   12.02560   15.40480    0.06950    -999.25    2.75090 -196.67200
 8250.00000   11.55500   10.18830    -999.25    0.07850    -999.25    0.25800   69.14860   66.55370   66.88730    6.87110    6.08780   11.27790    0.14380    -999.25    2.43770 -183.61840
 8300.00000   12.65660   10.66710    -999.25    0.11910    -999.25    0.25140   72.30990   71.51580   82.23910    6.07610    5.50790    6.57960    0.19750    -999.25    2.50330 -149.31490
 8350.00000    -999.25   12.61090    -999.25    0.33250    -999.25    0.25590   83.05950   96.31260   85.94450    3.51100    3.32470    4.43950    0.34170    -999.25    2.12080 -115.51250
 8400.00000    -999.25   12.63420    -999.25    0.15820    -999.25    0.25740   80.19330   98.82430   87.97350    3.89750    3.62560    4.79340    0.30060    -999.25    2.45470  -73.62060
 8450.00000    -999.25   12.70350    -999.25    0.21190    -999.25    0.21610   79.70630   82.12490   76.89550    3.99830    3.83400    4.96190    0.33080    -999.25    2.32240 -122.09230
 8500.00000    -999.25   13.09650    -999.25    -999.25    -999.25    0.22340   83.41100   78.42270   77.40830    3.82670    3.65180    4.66610    0.40940    -999.25    1.84140 -168.79720
 8550.00000    -999.25   13.14560    -999.25    0.21490    -999.25    -999.25   83.32250   72.68750   86.60170    3.63860    3.46240    4.79100    0.37590    -999.25    2.35630 -176.21120
 8600.00000    -999.25   13.35900    -999.25    0.34250    -999.25    -999.25   83.01130   76.04970   83.03480    3.87760    3.58220    5.10670    0.43760    -999.25    2.13250 -134.58190
 8650.00000    -999.25   13.53260    -999.25    0.43440    -999.25    0.18300   87.52240   82.24510   77.91910    4.12390    3.79840    5.60800    0.40190    -999.25    1.82100 -103.10850
 8700.00000    9.37650    8.95020    -999.25   -0.03960    -999.25    0.05110   63.88950   63.21940   62.99200   11.39680   10.26410   13.89260    0.10730    -999.25    2.72790  -92.21020
 8750.00000    9.36060    8.94790    -999.25   -0.00840    -999.25    0.04930   66.95680   77.06070   79.71570   10.66020    9.20900   13.26220    0.14120    -999.25    2.70770  -94.65830
 8800.00000    9.18610    8.98860    -999.25   -0.01580    -999.25    0.05970   68.78180   78.84780   77.52420    9.06070    8.12450   11.13830    0.15040    -999.25    2.74960 -135.19940
 8850.00000    9.35830    8.99890    -999.25   -0.04220    -999.25    0.15150   68.35390   75.31510   84.46920    9.26820    8.09480   13.27340    0.17650    -999.25    2.76930 -201.95060
 8900.00000    9.34040    8.96700    -999.25   -0.04090    -999.25    0.07750   70.75600   94.80290   92.49610    7.76940    7.18890   10.15600    0.16820    -999.25    2.75100 -256.14360
 8950.00000   10.00980    9.18960    -999.25    0.00100    -999.25    0.24430   76.73700   99.14150  105.04680    6.48190    5.64520    8.59640    0.23050    -999.25    2.68960 -242.86640
 9000.00000    9.62650    8.98710    -999.25   -0.03170    -999.25    0.23360   73.07780   83.84570   89.45820    6.74860    6.04720    8.23760    0.16450    -999.25    2.79550 -309.56450
 9050.00000    9.42220    8.90250    -999.25   -0.02860    -999.25    0.20150   71.99470   75.94650   84.10210    8.14870    7.28060   10.99040    0.18780    -999.25    2.71300 -396.32010
 9100.00000    9.38980    8.86380    -999.25    0.00980    -999.25    0.03780   70.53340   74.04080   79.88150    8.37390    7.68440   11.44850    0.16160    -999.25    2.69020 -282.11940
 9150.00000    9.12850    8.83680    -999.25    0.07080    -999.25    0.05860   77.25950  111.28550  125.48970  146.50520  130.18930  254.73320    0.16870    -999.25    2.56060 -271.69800
 9200.00000    9.18160    8.83410    -999.25   -0.02370    -999.25    0.07650   63.71620   50.78880   58.23330   17.47750   15.14220   23.79880    0.11170    -999.25    2.71100 -176.66260
 9250.00000    9.35050    9.14240    -999.25    0.02870    -999.25    0.22210   76.66790   96.63100  108.00020    9.24830    8.65340   11.79570    0.18330    -999.25    2.67440 -121.52270
 9300.00000    9.17180    8.80040    -999.25   -0.03530    -999.25    0.09240   60.37130   54.01020   59.66930   17.15860   15.82360   31.41480    0.12930    -999.25    2.73530 -116.61210
 9350.00000    9.23040    8.79290    -999.25   -0.03200    -999.25    0.07400   51.85410   19.80720   22.22110  118.37460   73.35340  884.30460    0.00910    -999.25    2.74300 -276.40490
 9400.00000    9.17880    8.76770    -999.25   -0.01320    -999.25    0.07870   53.44960   31.24520   33.39830   51.36220   46.85770   54.40190    0.05620    -999.25    2.76170 -309.60710
 9450.00000    9.16560    8.79120    -999.25   -0.01260    -999.25    0.08120   65.41120   56.34870   64.74850   20.60660   18.26490   29.69570    0.10680    -999.25    2.74850 -217.80770
 9500.00000    8.99090    8.77850    -999.25    0.01770    -999.25    0.07510   58.33620   38.56950   47.01720   43.76840   40.64020   53.92040    0.09310    -999.25    2.70040 -389.80390
 9550.00000    9.08440    8.78740    -999.25   -0.00890    -999.25    0.09340   57.79520   36.71920   37.66920   45.65340   35.36370  172.57410    0.06000    -999.25    2.75360 -343.44780
