~Version ---------------------------------------------------
VERS.      2.0 : CWLS log ASCII Standard -VERSION 2.0
WRAP.       NO : One line per depth step
CREA. 11/03/17 : LAS Creation Date
~Well ------------------------------------------------------
STRT.FT                    1000.0 : START DEPTH
STOP.FT                    9800.0 : STOP DEPTH
STEP.FT                  50.00000 : STEP LENGTH
NULL.                     -999.25 : NULL VALUE
COMP.      FRONTIER PRODUCING INC : COMPANY
WELL. FRONT BA KAYBOB 10-31-63-17 : WELL
FLD .                             : FIELD
LOC .                             : LOCATION
CTRY.                      CANADA : COUNTRY
SRVC.                Schlumberger : SERVICE COMPANY
DATE.                 21-Feb-1966 : LOGDATE
PROV.                     Alberta : PROVINCE
UWI .            100103106317W500 : UNIQUE WELL ID
SLAT.WGS84               54.49605 : SURFACE LATITUDE
SLON.WGS84              -116.5551 : SURFACE LONGITUDE
~Curve Information -----------------------------------------
DEPT  .FT    : Depth Curve
CALSED.IN    : CALIPERFROM SONIC LOG [ADJ. TO RESISTIVITY LOG]
CALWS .IN    : CALIPER [CALSED]
CILDED.MMHO  : CONDUCTIVITY FROM RESISTIVITY LOG
CONDWS.MMHO  : CONDUCTIVITY [1000/DRESWS]
DRESWS.OHMM  : DEEP RESISTIVITY [1000/CILDED, IF ILDED<5, ILDED]
DTED  .US/F  : DELTA TIME FROM SONIC LOG [ADJ. TO RESISTIVITY LOG]
DTWS  .US/F  : COMPRESSIONAL SONIC [DTED]
GRSED .GAPI  : GAMMA RAY FROM SONIC LOG [ADJ. TO RESISTIVITY LOG]
GRWS  .GAPI  : GAMMA RAY [GRSED]
ILDED .OHMM  : DEEP INDUCTION RESISTIVITY FROM RESISTIVITY LOG
SNED  .OHMM  : SHORT NORMAL 16" RESISTIVITY FROM RESISTIVITY LOG
SPRED .MV    : SPONTANEOUS POTENTIAL FROM RESISTIVITY LOG
SPWS  .MV    : SPONTANEOUS POTENTIAL [BASELINE 0 MV, SPRED]
SRESWS.OHMM  : SHALLOW RESISTIVITY [SNED]
~Params ----------------------------------------------------
PD  .                     GL : PERMANENT DATUM
EPD .FT                 2653 : ELEVATION PERMANENT DATUM
LMF .                     KB : LOG MEASURED FROM
DAPD.FT                   13 : FEET ABOVE PERMANENT DATUM
EKB .FT                 2666 : KELLY BUSHING
EGL .FT                 2653 : GROUND LEVEL
DATE.               02/21/66 : RUN DATE
RUN .                      1 : RUN NUMBER
DD  .FT                 9820 : DEPTH DRILLER
DL  .FT                 9821 : DEPTH LOGGER
BLI .FT                 9820 : BOTTOM LOG INTERVAL
TLI .FT                  996 : TOP LOG INTERVAL
CBD .FT                  996 : CASING BOTTOM DRILLER
CBL .FT                  996 : CASING BOTTOM LOGGER
BS  .IN                7.875 : BIT SIZE
BSD .FT                 9820 : BIT SIZE AT DEPTH
DFT .            CAUSTIC GEL : DRILLING FLUID TYPE
DFD .                    9.7 : DRILLING FLUID DENSITY
DFV .                    110 : DRILLING FLUID VISCOSITY
DFPH.                     10 : DRILLING FLUID PH
DFL .                    8.2 : DRILLING FLUID LOSS
RMS .OHMM               2.59 : RESISTIVITY MUD SAMPLE
MST .DEGF                 46 : MUD SAMPLE TEMPERATURE
RMF .OHMM               1.16 : RESISTIVITY MUD FILTRATE SAMPLE
MFST.DEGF                 46 : MUD FILTRATE SAMPLE TEMPERATURE
RMC .OHMM                2.7 : RESISTIVITY MUD CAKE
MCST.DEGF                 46 : MUD CAKE SAMPLE TEMPERATURE
TCS .HRS                   3 : TIME CIRCULATED STOPPED
LUN .                   3534 : LOGGING UNIT NUMBER
LUL .                    WCT : LOGGING UNIT LOCATION
ENGI.               THOMPSON : RECORDING ENGINEER
WITN.                   YONT : WITNESSED BY
CLNT.                A2DTECH : CLIENT CODE
ORIG.            2" 5" PRINT : ORIGIN OF DATA
UWI .       100103106317W500 : UNIQUE WELL ID
DICO. A2D Technologies, Inc. : DIGITIZING COMPANY
~Other -----------------------------------------------------
IEL-SONIC TOOL RUN
CALS DARK PART @ 9800'-FR HAS TAKEN FROM SMALL SECTION
RESISTIVITY LOG (TOP TO 4630') AND SONIC LOG (1356'-1480') FROM SMALL SECTION
~ASCII -----------------------------------------------------
# ...
 5900.00000    8.60910    8.60910   10.47550    5.36060  186.54620   61.78760   61.78760  239.86040  239.86040  186.54620  209.62930 -132.45410  -75.53490  209.62930
 5950.00000    8.89630    8.89630    9.93080    4.49340  222.54770   80.18850   80.18850  239.84920  239.84920  222.54770  151.67690 -140.29870  -83.39260  151.67690
 6000.00000    9.18400    9.18400  151.02330  151.02330    6.62150   64.83680   64.83680   76.91490   76.91490    6.23210   11.02150 -132.34860  -75.45560   11.02150
 6050.00000    7.92780    7.92780  144.62290  144.62290    6.91450   52.84090   52.84090   16.21180   16.21180    6.70550   31.29960 -197.14700 -140.26710   31.29960
 6100.00000    7.70560    7.70560  263.61870  263.61870    3.79340   54.34110   54.34110   15.92580   15.92580    3.18760   32.37290 -225.16290 -168.29620   32.37290
 6150.00000    8.18470    8.18470  114.99120  114.99120    8.69630   54.64650   54.64650   14.68040   14.68040    8.74650   49.64180 -200.89700 -144.04340   49.64180
 6200.00000    9.03670    9.03670   31.28470   29.12980   34.32910   54.97930   54.97930   53.87330   53.87330   34.32910   55.70760 -125.32750  -68.48710   55.70760
 6250.00000    8.56090    8.56090  202.82500  177.65780    5.62880   51.21350   51.21350   26.05210   26.05210    5.62880   28.76750 -189.14090 -132.31350   28.76750
 6300.00000    9.02200    9.02200   11.12180    8.69810  114.96770   52.24130   52.24130   19.18370   19.18370  114.96770  128.04390 -143.91240  -87.09810  128.04390
 6350.00000    9.55170    9.55170  102.58820  110.99640    9.00930   59.45310   59.45310   31.41280   31.41280    9.00930   40.20970 -162.85950 -106.05840   40.20970
 6400.00000    9.19290    9.19290    8.73030    5.91420  169.08530   50.91410   50.91410    9.01280    9.01280  169.08530  218.37730 -177.05150 -120.26350  218.37730
 6450.00000    8.88930    8.88930   48.11930   43.79070   22.83590   50.59290   50.59290   12.68850   12.68850   22.83590   83.90190 -217.16350 -160.38870   83.90190
 6500.00000    8.84350    8.84350   22.65370   18.40520   54.33240   49.36850   49.36850   12.22000   12.22000   54.33240   90.01800 -200.88040 -144.11860   90.01800
 6550.00000    8.94950    8.94950   71.44200   63.12890   15.84060   53.11860   53.11860   32.44650   32.44650   15.84060   26.40830 -129.13630  -72.38760   26.40830
 6600.00000    9.13420    9.13420  146.32490  146.32490    6.83410   58.76070   58.76070   79.77760   79.77760    6.71950   11.99960 -126.08130  -69.34580   11.99960
 6650.00000    9.19460    9.19460  372.88390  372.88390    2.68180   63.15250   63.15250   55.01480   55.01480    2.18090    5.76570 -138.11400  -81.39160    5.76570
 6700.00000    9.02090    9.02090   25.95490   20.73190   48.23490   51.51750   51.51750   22.56590   22.56590   48.23490   65.69380 -102.42060  -45.71140   65.69380
 6750.00000   10.90520   10.90520   87.41110   89.96370   11.11560   73.00900   73.00900   81.11370   81.11370   11.11560   23.70730 -119.48000  -62.78390   23.70730
 6800.00000    8.45450    8.45450   19.59340   14.87560   67.22420   52.19770   52.19770   26.84700   26.84700   67.22420   81.42670 -114.23020  -57.54710   81.42670
 6850.00000    8.53570    8.53570   11.68950    8.05560  124.13730   52.45530   52.45530   29.62320   29.62320  124.13730  121.31950 -138.11860  -81.44870  121.31950
 6900.00000    8.63140    8.63140    8.80580    5.36830  186.27900   50.90400   50.90400   21.66990   21.66990  186.27900  145.98610 -157.85760 -101.20080  145.98610
 6950.00000    8.65650    8.65650   10.14750    7.20170  138.85620   51.17500   51.17500   23.78920   23.78920  138.85620  124.95530 -148.52960  -91.88600  124.95530
 7000.00000    8.73700    8.73700   10.48870    7.28470  137.27420   53.04300   53.04300   40.14460   40.14460  137.27420  107.69240 -112.06950  -55.43900  107.69240
 7050.00000    8.75080    8.75080    4.46730    1.81270  551.65410   54.19890   54.19890   32.42650   32.42650  551.65410  231.42420 -124.66620  -68.04870  231.42420
 7100.00000    8.93350    8.93350   14.44910   12.28910   81.37300   54.97850   54.97850   47.66700   47.66700   81.37300   89.22200 -106.05520  -49.45090   89.22200
 7150.00000    9.08710    9.08710   69.14970   66.03540   15.14340   57.48760   57.48760   71.81940   71.81940   15.14340   26.41880 -126.84310  -70.25190   26.41880
 7200.00000    8.32810    8.32810   11.34620    6.28810  159.03100   49.47590   49.47590   27.97500   27.97500  159.03100  154.88320 -126.00700  -69.42900  154.88320
 7250.00000    8.35000    8.35000    7.94070    4.17940  239.26650   48.76300   48.76300   13.50700   13.50700  239.26650  184.50480 -187.56600 -131.00110  184.50480
 7300.00000    8.34150    8.34150    6.58250    3.26470  306.30370   47.60300   47.60300   15.54470   15.54470  306.30370  188.79580 -179.81100 -123.25920  188.79580
 7350.00000    8.43160    8.43160    8.51860    4.36710  228.98730   47.97210   47.97210   12.20440   12.20440  228.98730  183.23210 -203.68340 -147.14470  183.23210
 7400.00000    8.20170    8.20170    7.24290    4.08510  244.79210   47.71870   47.71870   14.52830   14.52830  244.79210  167.76930 -175.55550 -119.02990  167.76930
 7450.00000    8.20810    8.20810    7.75020    7.08660  141.11200   47.08470   47.08470    6.91390    6.91390  141.11200  121.50100 -200.22380 -143.71140  121.50100
 7500.00000    7.49210    7.49210   18.73610   15.43910   64.77050   55.08020   55.08020   10.21430   10.21430   64.77050  128.90540 -216.64580 -160.14650  128.90540
 7550.00000    7.98280    7.98280   13.93610   11.86480   84.28300   50.26930   50.26930   11.19530   11.19530   84.28300  122.24190 -201.85390 -145.36770  122.24190
 7600.00000    8.32660    8.32660    9.65850    6.59730  151.57760   50.47460   50.47460   12.00650   12.00650  151.57760  158.70270 -196.98900 -140.51590  158.70270
 7650.00000    8.30360    8.30360    9.07590    5.42510  184.32910   49.78880   49.78880   13.81550   13.81550  184.32910  136.51300 -204.19620 -147.73620  136.51300
 7700.00000    8.19710    8.19710    8.37950    3.71750  269.00030   49.07110   49.07110   17.17390   17.17390  269.00030  169.54530 -198.78630 -142.33950  169.54530
 7750.00000    8.03600    8.03600   12.23210    8.77120  114.00990   49.94200   49.94200   10.36320   10.36320  114.00990  107.78960 -218.15760 -161.72390  107.78960
 7800.00000    8.20290    8.20290   26.09840   24.53350   40.76060   47.82850   47.82850   10.03160   10.03160   40.76060  103.17830 -239.39890 -182.97830  103.17830
 7850.00000    7.70820    7.70820   62.64330   60.56130   16.51220   52.11220   52.11220    9.20840    9.20840   16.51220   77.10790 -250.38970 -193.98220   77.10790
 7900.00000    8.16390    8.16390    9.87060    7.01910  142.46840   49.44150   49.44150   16.74250   16.74250  142.46840  123.05590 -189.53500 -133.14060  123.05590
 7950.00000    7.99890    7.99890   13.92440    5.57320  179.43170   48.18180   48.18180   10.82460   10.82460  179.43170   96.73440 -166.99950 -110.61830   96.73440
 8000.00000    7.63510    7.63510    9.04820    5.55430  180.04060   45.80930   45.80930   16.37310   16.37310  180.04060  162.99500 -205.21800 -148.84990  162.99500
 8050.00000    8.54310    8.54310   16.85010   16.85240   59.33870   48.71780   48.71780   27.33500   27.33500   59.33870   45.42480 -174.96960 -118.61460   45.42480
 8100.00000    8.54790    8.54790   11.74040    9.29620  107.57130   49.55800   49.55800   22.23930   22.23930  107.57130  120.71710 -117.25430  -60.91240  120.71710
 8150.00000    8.42890    8.42890    7.29580    4.34650  230.06830   48.79400   48.79400   15.72260   15.72260  230.06830  170.93050 -105.63530  -49.30650  170.93050
 8200.00000    8.54090    8.54090   31.92790   30.36870   32.92860   54.58110   54.58110   35.88070   35.88070   32.92860   46.65160  -96.70680  -40.39120   46.65160
 8250.00000    9.17590    9.17590   70.59210   70.59210   14.16590   61.70360   61.70360   51.63630   51.63630   12.53470   22.19070  -77.67890  -21.37640   22.19070
 8300.00000    9.61920    9.61920  136.28030  136.28030    7.33780   67.65580   67.65580   60.45870   60.45870    7.16930   12.65830  -85.85140  -29.56200   12.65830
