~Version ---------------------------------------------------
VERS.      2.0 : CWLS log ASCII Standard -VERSION 2.0
WRAP.       NO : One line per depth step
CREA. 08/01/17 : LAS Creation Date
~Well ------------------------------------------------------
STRT.FT                           1450.0 : START DEPTH
STOP.FT                          10150.0 : STOP DEPTH
STEP.FT                         50.00000 : STEP LENGTH
NULL.                            -999.25 : NULL VALUE
COMP.               CHEVRON STANDARD LTD : COMPANY
WELL. CHEVRON GULF PASS CREEK 6-10-61-17 : WELL
FLD .                                    : FIELD
LOC .                                    : LOCATION
CTRY.                             CANADA : COUNTRY
SRVC.                       Schlumberger : SERVICE COMPANY
DATE.                        29-Nov-1977 : LOGDATE
PROV.                            Alberta : PROVINCE
UWI .                   100061006117W500 : UNIQUE WELL ID
SLAT.WGS84                      54.25885 : SURFACE LATITUDE
SLON.WGS84                     -116.4678 : SURFACE LONGITUDE
~Curve Information -----------------------------------------
DEPT    .FT    : Depth Curve
CALDED  .IN    : CALIPER FROM DENSITY LOG [ADJ TO GRSED]
CALSED  .IN    : CALIPER FROM SONIC LOG
CALWS   .IN    : CALIPER [CALSED]
CONDWS  .MMHO  : CONDUCTIVITY [1000/DRESWS]
DCORWS  .G/C3  : DENSITY CORRECTION [DRHOED]
DENWS   .G/C3  : BULK DENSITY RHOBED]
DPHILSED.V/V   : DENSITY POROSITY [M=2.71, F=1.00] FROM DENSITY LOG [ADJ TO GRSED]
DPHISSED.V/V   : DENSITY POROSITY [M=2.65, F=1.00] FROM DENSITY LOG [ADJ TO GRSED]
DPOLSWS .V/V   : DENSITY POROSITY [M=2.71, F=1.00] [CALCULATED FROM DENWS]
DRESWS  .OHMM  : DEEP RESISTIVITY [ILDED]
DRHOED  .G/C3  : DENSITY CORRECTION FROM DENSITY LOG[ADJ TO GRSED]
DTED    .US/F  : DELTA TIME FROM SONIC LOG
DTWS    .US/F  : DELTA TIME [DTED]
GRDED   .GAPI  : GAMMA RAY FROM DENSITY LOG[ADJ TO GRSED]
GRSED   .GAPI  : GAMMA RAY FROM SONIC LOG
GRWS    .GAPI  : GAMMA RAY [GRSED, CSG <1537']
ILDED   .OHMM  : INDUCTION LOG DEEP RESISTIVITY
ILMED   .OHMM  : INDUCTION LOG MEDIUM RESISTIVITY
LL8ED   .OHMM  : 8 INCH LATEROLOG RESISTIVITY
MRESWS  .OHMM  : MEDIUM RESISTIVITY [ILMED]
NPHILSED.V/V   : NEUTRON POROSITY LIMESTONE FROM DENSITY LOG [ADJ TO GRSED]
NPHISSED.V/V   : NEUTRON POROSITY SANDSTONE FROM DENSITY LOG [ADJ TO GRSED]
NPOLSWS .V/V   : NEUTRON POROSITY LIMESTONE [CONVERTED NPHISSED TO LIMESTONE SPL WITH NPHILSED @9598']
RHOBED  .G/C3  : BULK DENSITY FROM DENSITY LOG [ADJ TO GRSED]
SPRED   .MV    : SPONTANEOUS POTENTIAL FROM RESISTIVITY LOG
SPWS    .MV    : SPONTANEOUS POTENTIAL [BASELINE 0 MV] [SPRED]
SRESWS  .OHMM  : SHALLOW RESISTIVITY [LL8ED]
TENDED  .LBF   : TENSION FROM DENSITY LOG [ADJ TO GRSED]
TENSED  .LBF   : TENSION FROM SONIC LOG
~Params ----------------------------------------------------
PD  .                     GL : PERMANENT DATUM
LMF .                     GL : LOG MEASURED FROM
EKB .FT                 2726 : KELLY BUSHING
DATE.               11/29/77 : RUN DATE
RUN .                      1 : RUN NUMBER
DFD .                    9.7 : DRILLING FLUID DENSITY
DFV .                    145 : DRILLING FLUID VISCOSITY
DFPH.                    9.5 : DRILLING FLUID PH
DFL .                    7.6 : DRILLING FLUID LOSS
MSS .               FLOWLINE : MUD SAMPLE SOURCE
TCS .HRS                 7.5 : TIME CIRCULATED STOPPED
ENGI.              BIGG GUNN : RECORDING ENGINEER
WITN.               WILLIAMS : WITNESSED BY
CLNT.                A2DTECH : CLIENT CODE
ORIG.            2" 5" PRINT : ORIGIN OF DATA
UWI .       100061006117W500 : UNIQUE WELL ID
DICO. A2D Technologies, Inc. : DIGITIZING COMPANY
~Other -----------------------------------------------------
~ASCII -----------------------------------------------------
# ...
 3950.00000    -999.25   14.64610   14.64610  167.00740    -999.25    -999.25    -999.25    -999.25    -999.25    5.98780    -999.25   98.46880   98.46880    -999.25   91.55150   91.55150    5.98780    6.31150    6.57610    6.31150    -999.25    -999.25    -999.25    -999.25  -43.34380   -1.74550    6.57610    -999.25 1413.77110
 4000.00000    -999.25   10.53010   10.53010  185.37400    -999.25    -999.25    -999.25    -999.25    -999.25    5.39450    -999.25   95.26240   95.26240    -999.25  101.19230  101.19230    5.39450    6.12310    6.97060    6.12310    -999.25    -999.25    -999.25    -999.25  -46.13280   -4.71640    6.97060    -999.25 1793.90260
 4050.00000    -999.25   12.22090   12.22090  138.29540    -999.25    -999.25    -999.25    -999.25    -999.25    7.23090    -999.25   85.95180   85.95180    -999.25   98.54650   98.54650    7.23090    7.47930    8.26470    7.47930    -999.25    -999.25    -999.25    -999.25  -45.45060   -4.21700    8.26470    -999.25 1631.18970
 4100.00000    -999.25   12.92310   12.92310  146.59750    -999.25    -999.25    -999.25    -999.25    -999.25    6.82140    -999.25   87.95190   87.95190    -999.25  112.82560  112.82560    6.82140    7.14090    7.42700    7.14090    -999.25    -999.25    -999.25    -999.25  -42.47930   -1.42850    7.42700    -999.25 1645.54280
 4150.00000    -999.25   11.81010   11.81010  106.28690    -999.25    -999.25    -999.25    -999.25    -999.25    9.40850    -999.25   80.46500   80.46500    -999.25   97.86320   97.86320    9.40850    8.74600    8.34100    8.74600    -999.25    -999.25    -999.25    -999.25  -42.24540   -1.37740    8.34100    -999.25 1833.98260
 4200.00000    -999.25   12.71360   12.71360  122.56730    -999.25    -999.25    -999.25    -999.25    -999.25    8.16290    -999.25   89.81470   89.81470    -999.25  107.84530  107.84530    8.16290    7.99060    8.11260    7.99060    -999.25    -999.25    -999.25    -999.25  -43.50490   -2.78160    8.11260    -999.25 1841.70160
 4250.00000    -999.25   11.11570   11.11570  136.65680    -999.25    -999.25    -999.25    -999.25    -999.25    7.31760    -999.25   85.49960   85.49960    -999.25  108.19690  108.19690    7.31760    7.69630    8.21370    7.69630    -999.25    -999.25    -999.25    -999.25  -47.41850   -6.82050    8.21370    -999.25 2008.37660
 4300.00000    -999.25   11.97970   11.97970  132.22270    -999.25    -999.25    -999.25    -999.25    -999.25    7.56300    -999.25   82.37430   82.37430    -999.25  106.41630  106.41630    7.56300    7.81350    9.07780    7.81350    -999.25    -999.25    -999.25    -999.25  -47.34930   -6.87710    9.07780    -999.25 1991.60560
 4350.00000    -999.25   13.20940   13.20940  146.62110    -999.25    -999.25    -999.25    -999.25    -999.25    6.82030    -999.25   82.88470   82.88470    -999.25  105.34360  105.34360    6.82030    7.31060    7.95940    7.31060    -999.25    -999.25    -999.25    -999.25  -45.79880   -5.45250    7.95940    -999.25 2017.30910
 4400.00000    -999.25   13.94690   13.94690  162.36140    -999.25    -999.25    -999.25    -999.25    -999.25    6.15910    -999.25   94.12550   94.12550    -999.25  122.35010  122.35010    6.15910    6.35280    7.38810    6.35280    -999.25    -999.25    -999.25    -999.25  -44.95640   -4.73600    7.38810    -999.25 1959.19850
 4450.00000    -999.25   11.91580   11.91580  125.15270    -999.25    -999.25    -999.25    -999.25    -999.25    7.99040    -999.25   91.99830   91.99830    -999.25  117.92740  117.92740    7.99040    8.30490   10.15040    8.30490    -999.25    -999.25    -999.25    -999.25  -45.33190   -5.23800   10.15040    -999.25 2137.74940
 4500.00000    -999.25   10.71340   10.71340  126.65120    -999.25    -999.25    -999.25    -999.25    -999.25    7.89570    -999.25   92.03010   92.03010    -999.25  127.98010  127.98010    7.89570    8.81130   10.68730    8.81130    -999.25    -999.25    -999.25    -999.25  -45.28450   -5.31590   10.68730    -999.25 2145.77500
 4550.00000    -999.25    9.93430    9.93430   81.86320    -999.25    -999.25    -999.25    -999.25    -999.25   12.21550    -999.25   88.38930   88.38930    -999.25  129.68500  129.68500   12.21550   12.95700   14.23290   12.95700    -999.25    -999.25    -999.25    -999.25  -43.99100   -4.14820   14.23290    -999.25 2202.73250
 4600.00000    -999.25    9.59030    9.59030   98.06420    -999.25    -999.25    -999.25    -999.25    -999.25   10.19740    -999.25   92.44790   92.44790    -999.25  137.65700  137.65700   10.19740   11.48970   14.57150   11.48970    -999.25    -999.25    -999.25    -999.25  -44.51290   -4.79600   14.57150    -999.25 2286.95010
 4650.00000    -999.25   10.52310   10.52310  118.07210    -999.25    -999.25    -999.25    -999.25    -999.25    8.46940    -999.25   90.16000   90.16000    -999.25  119.70620  119.70620    8.46940    9.02750   10.96370    9.02750    -999.25    -999.25    -999.25    -999.25  -42.73560   -3.14460   10.96370    -999.25 2465.86070
 4700.00000    -999.25    9.69140    9.69140   93.95020    -999.25    -999.25    -999.25    -999.25    -999.25   10.64980    -999.25   97.15280   97.15280    -999.25  163.60270  163.60270   10.64980   11.16490   16.24890   11.16490    -999.25    -999.25    -999.25    -999.25  -43.94010   -4.47560   16.24890    -999.25 2426.12910
 4750.00000    -999.25   10.10710   10.10710  138.90240    -999.25    -999.25    -999.25    -999.25    -999.25    7.19930    -999.25   83.33810   83.33810    -999.25   90.87130   90.87130    7.19930    7.90350    8.62720    7.90350    -999.25    -999.25    -999.25    -999.25  -45.55920   -6.21990    8.62720    -999.25 2578.75050
 4800.00000    -999.25   13.29160   13.29160  182.60170    -999.25    -999.25    -999.25    -999.25    -999.25    5.47640    -999.25   86.81180   86.81180    -999.25  104.96450  104.96450    5.47640    5.86470    6.91960    5.86470    -999.25    -999.25    -999.25    -999.25  -42.65140   -3.43800    6.91960    -999.25 2487.41120
 4850.00000    -999.25   10.63190   10.63190  153.39780    -999.25    -999.25    -999.25    -999.25    -999.25    6.51900    -999.25   83.08660   83.08660    -999.25  125.44160  125.44160    6.51900    7.35920    7.64580    7.35920    -999.25    -999.25    -999.25    -999.25  -44.11380   -5.02630    7.64580    -999.25 2576.60640
 4900.00000    -999.25   12.64300   12.64300  168.41250    -999.25    -999.25    -999.25    -999.25    -999.25    5.93780    -999.25   85.59560   85.59560    -999.25  105.04910  105.04910    5.93780    6.27340    7.26460    6.27340    -999.25    -999.25    -999.25    -999.25  -43.02760   -4.06600    7.26460    -999.25 2720.78410
 4950.00000    -999.25   12.64200   12.64200  138.56890    -999.25    -999.25    -999.25    -999.25    -999.25    7.21740    -999.25   81.65450   81.65450    -999.25  109.37780  109.37780    7.21740    7.86840    8.15680    7.86840    -999.25    -999.25    -999.25    -999.25  -42.34040   -3.50530    8.15680    -999.25 2655.26970
 5000.00000    -999.25   11.66940   11.66940  162.44840    -999.25    -999.25    -999.25    -999.25    -999.25    6.15580    -999.25   82.05370   82.05370    -999.25  111.74390  111.74390    6.15580    7.20270    7.84830    7.20270    -999.25    -999.25    -999.25    -999.25  -42.41790   -3.70800    7.84830    -999.25 2797.35790
 5050.00000    -999.25   13.73850   13.73850  176.27360    -999.25    -999.25    -999.25    -999.25    -999.25    5.67300    -999.25   88.68280   88.68280    -999.25  107.41280  107.41280    5.67300    6.13360    7.14880    6.13360    -999.25    -999.25    -999.25    -999.25  -41.60250   -3.01850    7.14880    -999.25 2872.66920
 5100.00000    -999.25   12.43020   12.43020  269.28770    -999.25    -999.25    -999.25    -999.25    -999.25    3.71350    -999.25   96.72010   96.72010    -999.25  117.08930  117.08930    3.71350    4.00680    5.03460    4.00680    -999.25    -999.25    -999.25    -999.25  -40.23910   -1.78100    5.03460    -999.25 1290.44090
 5150.00000    -999.25   14.72420   14.72420  414.30170    -999.25    -999.25    -999.25    -999.25    -999.25    2.41370    -999.25  106.95040  106.95040    -999.25   80.21900   80.21900    2.41370    2.50880    3.48200    2.50880    -999.25    -999.25    -999.25    -999.25  -39.77220   -1.43990    3.48200    -999.25 1216.62730
