~Version ---------------------------------------------------
VERS.      2.0 : CWLS log ASCII Standard -VERSION 2.0
WRAP.       NO : One line per depth step
CREA. 10/26/17 : LAS Creation Date
~Well ------------------------------------------------------
STRT.FT                        1500.0 : START DEPTH
STOP.FT                       15000.0 : STOP DEPTH
STEP.FT                      50.00000 : STEP LENGTH
NULL.                         -999.25 : NULL VALUE
COMP.         UNO-TEX PETROLEUM CORP. : COMPANY
WELL. UNO-TEX NUMAC ANCONA 7-25-40-12 : WELL
FLD .                                 : FIELD
LOC .                                 : LOCATION
CTRY.                          CANADA : COUNTRY
SRVC.                         Unknown : SERVICE COMPANY
DATE.                     31-Dec-1970 : LOGDATE
PROV.                         Alberta : PROVINCE
UWI .                100072504012W500 : UNIQUE WELL ID
SLAT.WGS84                   52.47006 : SURFACE LATITUDE
SLON.WGS84                  -115.5904 : SURFACE LONGITUDE
~Curve Information -----------------------------------------
DEPT    .FT    : Depth Curve
CALDED  .IN    : CALIPER FROM DENSITY LOG [ADJ. TO RESISTIVITY LOG]
CALSED  .IN    : CALIPER FROM SONIC LOG [ADJ. TO RESISTIVITY LOG]
CALWS   .IN    : CALIPER [CALSED]
CILDED  .MMHO  : CONDUCTIVITY FROM RESISTIVITY LOG
DCORED  .G/C3  : DENSITY CORRECTION  FROM DENSITY LOG [ADJ. TO RESISTIVITY LOG]
DCORWS  .G/C3  : DENSITY CORRECTION [DCORED]
DENWS   .G/C3  : FORMATION BULK DENSITY [RHOBED]
DPHILSED.V/V   : DENSITY POROSITY LIMESTONE [M=2.71, F=1.00] FROM DENSITY LOG [ADJ. TO RESISTIVITY LOG]
DPOLSWS .V/V   : DENSITY POROSITY LIMESTONE [CALC. FROM DENWS,M=2.71, F=1.00]
DRESWS  .OHMM  : DEEP RESISTIVITY [1000/CILDED IF ILDED <=1, ILDED, SPL. TO ILDED @ 10781']
DTED    .US/F  : DELTA TIME FROM SONIC LOG [ADJ. TO RESISTIVITY LOG]
DTWS    .US/F  : COMPRESSIONAL SONIC [DTED]
GRDED   .GAPI  : GAMMA RAY FROM DENSITY LOG [ADJ. TO RESISTIVITY LOG]
GRSED   .GAPI  : GAMMA RAY FROM SONIC LOG [ADJ. TO RESISTIVITY LOG]
GRWS    .GAPI  : GAMMA RAY [GRDED]
ILDED   .OHMM  : DEEP INDUCTION RESISTIVITY FROM RESISTIVITY LOG
ILMED   .OHMM  : MEDIUM INDUCTION RESISTIVITY FROM RESISTIVITY LOG
LL8ED   .OHMM  : LATEROLOG-8 RESISTIVITY FROM RESISTIVITY LOG
MRESWS  .OHMM  : MEDIUM RESISTIVITY [ILMED]
RHOBED  .G/C3  : BULK DENSITY FROM DENSITY LOG [ADJ. TO RESISTIVITY LOG]
SNED    .OHMM  : SHORT NORMAL 16" FROM RESISTIVITY LOG
SPRED   .MV    : SPONTANEOUS POTENTIAL FROM RESISTIVITY LOG
SPWS    .MV    : SPONTANEOUS POTENTIAL [BASELINE 0 MV, SPRED]
SRESWS  .OHMM  : SHALLOW RESISTIVITY [LL8ED]
~Params ----------------------------------------------------
PD  .                     GL : PERMANENT DATUM
EPD .FT                 3930 : ELEVATION PERMANENT DATUM
LMF .                     KB : LOG MEASURED FROM
DAPD.FT                   19 : FEET ABOVE PERMANENT DATUM
EKB .FT                 3949 : KELLY BUSHING
EGL .FT                 3930 : GROUND LEVEL
DATE.               12/31/70 : RUN DATE
RUN .                      2 : RUN NUMBER
DD  .FT                15010 : DEPTH DRILLER
DL  .FT                15009 : DEPTH LOGGER
BLI .FT                15003 : BOTTOM LOG INTERVAL
TLI .FT                13473 : TOP LOG INTERVAL
CBD .FT                13473 : CASING BOTTOM DRILLER
CBL .FT                13473 : CASING BOTTOM LOGGER
BS  .IN                5.968 : BIT SIZE
BSD .FT                15010 : BIT SIZE AT DEPTH
DFT .                    GEL : DRILLING FLUID TYPE
DFD .                   11.3 : DRILLING FLUID DENSITY
DFV .                     55 : DRILLING FLUID VISCOSITY
DFPH.                   10.5 : DRILLING FLUID PH
DFL .                   11.5 : DRILLING FLUID LOSS
MSS .               FLOWLINE : MUD SAMPLE SOURCE
RMS .OHMM               0.84 : RESISTIVITY MUD SAMPLE
MST .DEGF                 68 : MUD SAMPLE TEMPERATURE
RMF .OHMM               0.47 : RESISTIVITY MUD FILTRATE SAMPLE
MFST.DEGF                 70 : MUD FILTRATE SAMPLE TEMPERATURE
RMC .OHMM               0.13 : RESISTIVITY MUD CAKE
MCST.DEGF                259 : MUD CAKE SAMPLE TEMPERATURE
TCS .HRS                   3 : TIME CIRCULATED STOPPED
LUN .                7002 RD : LOGGING UNIT NUMBER
ENGI.                 TALBOT : RECORDING ENGINEER
WITN.        BINNIE LEVEILLE : WITNESSED BY
CLNT.                A2DTECH : CLIENT CODE
ORIG.            2" 5" PRINT : ORIGIN OF DATA
UWI .       100072504012W500 : UNIQUE WELL ID
DICO. A2D Technologies, Inc. : DIGITIZING COMPANY
~Other -----------------------------------------------------
DIL-FDC-BHC TOO RUN
SP NOT RECORDED DUE TO SERIOUS DRIFTING HENCE BOTTOM PORTION DELETED
SP BASELINE QUESTIONABLE
SOME RESISTIVITY, SONIC CURVES ARE IN SMALL SCALE AND SOME ARE AT LARGE SCALE AT DIFFERENT DEPTHS
AND DCORED TOP TO BOTTOM FROM SMALL SECTION
~ASCII -----------------------------------------------------
# ...
 10200.00000    -999.25   12.39250   12.39250  233.27170    -999.25    -999.25    -999.25    -999.25    -999.25    4.29200   84.72000   84.72000    -999.25   62.33080    -999.25    4.29200    -999.25    -999.25    -999.25    -999.25    -999.25    -999.25    -999.25    -999.25
 10250.00000    -999.25   12.32810   12.32810   79.07930    -999.25    -999.25    -999.25    -999.25    -999.25   13.18330   67.99650   67.99650    -999.25   40.66410    -999.25   13.18330    -999.25    -999.25    -999.25    -999.25    -999.25    -999.25    -999.25    -999.25
 10300.00000    -999.25   12.32710   12.32710  163.15290    -999.25    -999.25    -999.25    -999.25    -999.25    5.96050   76.25960   76.25960    -999.25   63.09620    -999.25    5.96050    -999.25    -999.25    -999.25    -999.25    -999.25    -999.25    -999.25    -999.25
 10350.00000    -999.25   12.56570   12.56570   74.79140    -999.25    -999.25    -999.25    -999.25    -999.25   13.65140   70.69460   70.69460    -999.25   31.46920    -999.25   13.65140    -999.25    -999.25    -999.25    -999.25    -999.25    -999.25    -999.25    -999.25
 10400.00000    -999.25   12.30590   12.30590   77.17290    -999.25    -999.25    -999.25    -999.25    -999.25   13.16140   68.65600   68.65600    -999.25   38.99130    -999.25   13.16140    -999.25    -999.25    -999.25    -999.25    -999.25    -999.25    -999.25    -999.25
 10450.00000    -999.25   12.14130   12.14130   68.52010    -999.25    -999.25    -999.25    -999.25    -999.25   14.50380   95.44530   95.44530    -999.25   57.76560    -999.25   14.50380    -999.25    -999.25    -999.25    -999.25    -999.25    -999.25    -999.25    -999.25
 10500.00000    -999.25   12.28310   12.28310  138.18280    -999.25    -999.25    -999.25    -999.25    -999.25    7.40600   73.42980   73.42980    -999.25   64.54730    -999.25    7.40600    -999.25    -999.25    -999.25    -999.25    -999.25    -999.25    -999.25    -999.25
 10550.00000    -999.25   12.26920   12.26920   88.43150    -999.25    -999.25    -999.25    -999.25    -999.25   11.43640   68.41170   68.41170    -999.25   50.83130    -999.25   11.43640    -999.25    -999.25    -999.25    -999.25    -999.25    -999.25    -999.25    -999.25
 10600.00000    -999.25   12.28920   12.28920   90.71900    -999.25    -999.25    -999.25    -999.25    -999.25   11.26960   70.15890   70.15890    -999.25   47.60530    -999.25   11.26960    -999.25    -999.25    -999.25    -999.25    -999.25    -999.25    -999.25    -999.25
 10650.00000    -999.25   12.30420   12.30420   58.67130    -999.25    -999.25    -999.25    -999.25    -999.25   17.52150   73.62880   73.62880    -999.25   46.67530    -999.25   17.52150    -999.25    -999.25    -999.25    -999.25    -999.25    -999.25    -999.25    -999.25
 10700.00000    -999.25   11.72860   11.72860    9.27900    -999.25    -999.25    -999.25    -999.25    -999.25  104.25940  152.20860  152.20860    -999.25   14.89620    -999.25  104.25940    -999.25    -999.25    -999.25    -999.25    -999.25    -999.25    -999.25    -999.25
 10750.00000    -999.25   12.24730   12.24730   77.38140    -999.25    -999.25    -999.25    -999.25    -999.25   13.00040   67.50010   67.50010    -999.25   38.23430    -999.25   13.00040    -999.25    -999.25    -999.25    -999.25    -999.25    -999.25    -999.25    -999.25
 10800.00000    9.45500    8.87120    8.87120    -999.25   -0.17220   -0.17220    2.46470    0.14560    0.14350   11.25300   70.39040   70.39040   66.24890   62.69470   66.24890   11.25300    9.95260   12.81800    9.95260    2.46470   17.71030    4.27770   -8.63200   12.81800
 10850.00000    9.25890    8.59760    8.59760    -999.25   -0.01630   -0.01630    2.72540   -0.01750   -0.00900   19.58190   65.95670   65.95670   49.01290   42.81290   49.01290   19.58190   17.10280   16.27040   17.10280    2.72540   19.32250    0.07570  -10.74570   16.27040
 10900.00000    9.13930    8.54540    8.54540    -999.25   -0.02840   -0.02840    2.55410    0.08450    0.09120   23.28720   65.22950   65.22950   66.67390   52.61600   66.67390   23.28720   18.99680   27.39820   18.99680    2.55410   21.04770    2.02540   -4.29990   27.39820
 10950.00000    9.19480    8.90660    8.90660    -999.25   -0.17900   -0.17900    2.38060    0.21190    0.19260   12.99300   72.00660   72.00660   61.55620   56.28260   61.55620   12.99300   10.15580   10.30900   10.15580    2.38060   15.08880   -4.87700   -7.24530   10.30900
 11000.00000    9.12520    8.25770    8.25770    -999.25   -0.01330   -0.01330    2.54110    0.08320    0.09880   37.75040   65.08580   65.08580   40.58770   36.67950   40.58770   37.75040   40.90640   47.07370   40.90640    2.54110   37.79380  -11.16490  -11.13890   47.07370
 11050.00000   12.33330   10.11110   10.11110    -999.25   -0.02440   -0.02440    2.09170    0.29780    0.36160    5.62030   76.76000   76.76000   58.07790   61.92370   58.07790    5.62030    7.48180    9.69860    7.48180    2.09170   11.08080   -5.22790   -1.75530    9.69860
 11100.00000   11.69400    8.66780    8.66780    -999.25   -0.17020   -0.17020    2.42390    0.17080    0.16730   12.78500   71.15900   71.15900   75.02320   70.10700   75.02320   12.78500   12.43760   13.95020   12.43760    2.42390   16.47110   -6.33950   -1.95980   13.95020
 11150.00000   10.00660    8.33240    8.33240    -999.25   -0.16380   -0.16380    2.24890    0.27910    0.26960    9.89910   74.97020   74.97020   71.76320   77.29290   71.76320    9.89910   12.37970   11.42590   12.37970    2.24890   15.43970  -10.12490   -5.12070   11.42590
 11200.00000   11.72460    8.78210    8.78210    -999.25   -0.10830   -0.10830    2.29350    0.25280    0.24360    6.44360   80.64180   80.64180   84.35560   87.68860   84.35560    6.44360    5.66580    7.46090    5.66580    2.29350    8.91150   -8.17300   -3.96900    7.46090
 11250.00000   10.91940    8.43500    8.43500    -999.25   -0.03640   -0.03640    2.12560    0.30010    0.34180    5.86130   77.79630   77.79630   69.76660   70.95010   69.76660    5.86130    5.07420    7.98290    5.07420    2.12560   11.07180   -8.32690   -9.53090    7.98290
 11300.00000   12.61840    8.53130    8.53130    -999.25   -0.04590   -0.04590    2.07770    0.29970    0.36980    4.45450   76.66440   76.66440   65.49590   72.34620   65.49590    4.45450    5.93370    7.80380    5.93370    2.07770    7.39670    0.56050   -3.53050    7.80380
 11350.00000    8.44960    8.20580    8.20580    -999.25   -0.06030   -0.06030    2.42190    0.17900    0.16850   10.33270   61.26010   61.26010   37.35950   35.94080   37.35950   10.33270   14.55700   11.56580   14.55700    2.42190   29.80630    2.50560   -0.37860   11.56580
 11400.00000    8.34400    8.19070    8.19070    -999.25   -0.08720   -0.08720    2.54480    0.09200    0.09660  926.58670   52.93410   52.93410   33.53040   32.83780   33.53040  926.58670 1047.07510 1418.90230 1047.07510    2.54480  153.91440  -47.37910  -48.80840 1418.90230
 11450.00000    8.42520    8.48290    8.48290    -999.25   -0.05450   -0.05450    2.76030   -0.03790   -0.02940   65.57520   58.34380   58.34380   28.60680   16.24010   28.60680   65.57520   45.59960   38.71330   45.59960    2.76030   43.15690  -67.00550  -66.96850   38.71330
 11500.00000    7.77510    8.00360    8.00360    -999.25   -0.10260   -0.10260    2.48380    0.12760    0.13230  154.28520   58.01630   58.01630    9.99000    7.84590    9.99000  154.28520  182.53890  109.82560  182.53890    2.48380   88.80420  -65.84310  -64.34950  109.82560
 11550.00000   11.74630    9.06430    9.06430    -999.25   -0.11190   -0.11190    2.35610    0.20740    0.20700  102.63890   52.32630   52.32630   30.80370   28.72050   30.80370  102.63890   56.31590   82.40870   56.31590    2.35610   83.01820  -25.02370  -22.07350   82.40870
 11600.00000    8.33510    8.53310    8.53310    -999.25   -0.04750   -0.04750    2.83640   -0.07810   -0.07390 1802.24710   51.51680   51.51680   40.22170   39.04470   40.22170 1802.24710 1543.88120  287.43840 1543.88120    2.83640  113.92390   -8.32120   -4.50850  287.43840
