~Version ---------------------------------------------------
VERS.      2.0 : CWLS log ASCII Standard -VERSION 2.0
WRAP.       NO : One line per depth step
CREA. 12/12/17 : LAS Creation Date
~Well ------------------------------------------------------
STRT.FT                        1050.0 : START DEPTH
STOP.FT                       10050.0 : STOP DEPTH
STEP.FT                      50.00000 : STEP LENGTH
NULL.                         -999.25 : NULL VALUE
COMP.        SKELLY OIL OF CANADA LTD : COMPANY
WELL. SKELLY A3 TWO CREEK 10-17-62-16 : WELL
FLD .                                 : FIELD
LOC .                                 : LOCATION
CTRY.                          CANADA : COUNTRY
SRVC.                         Unknown : SERVICE COMPANY
DATE.                     26-Aug-1976 : LOGDATE
PROV.                         Alberta : PROVINCE
UWI .                100101706216W500 : UNIQUE WELL ID
SLAT.WGS84                   54.36596 : SURFACE LATITUDE
SLON.WGS84                   -116.357 : SURFACE LONGITUDE
~Curve Information -----------------------------------------
DEPT    .FT    : Depth Curve
CALDED  .IN    : CALIPER FROM DENSITY LOG [ADJ. TO RESISTIVITY LOG]
CALSED  .IN    : CALIPER FROM SONIC LOG [ADJ. TO RESISTIVITY LOG]
CALWS   .IN    : CALIPER [CALSED SPL. TO CALDED @ 10018']
CILDED  .MMHO  : CONDUCTIVITY FROM RESISTIVITY LOG
CONDWS  .MMHO  : CONDUCTIVITY [1000/DRESWS]
DCORWS  .G/C3  : DENSITY CORRECTION [DRHOED]
DENWS   .G/C3  : FORMATION BULK DENSITY [RHOBED]
DPHILSED.V/V   : DENSITY POROSITY LIMESTONE [MATRIX ASSUMED, M=2.71, F=1.00] FROM DENSITY  [ADJ. TO RESISTIVITY LOG]
DPHISSED.V/V   : DENSITY POROSITY SANDSTONE [MATRIX ASSUMED, M=2.65, F=1.00] FROM DENSITY LOG [ADJ. TO RESISTIVITY LOG]
DPOLSWS .V/V   : DENSITY POROSITY LIMESTONE [CALC. FROM DENWS, M=2.71, F=1.00]
DRESWS  .OHMM  : DEEP RESUISTIVITY [1000/CILDED IF ILDED < 1, ILDED & SPL. TO ILDED @ 3970']
DRHOED  .G/C3  : DENSITY CORRECTION  FROM DENSITY LOG [ADJ. TO RESISTIVITY LOG]
DTED    .US/F  : DELTA-TIME FROM SONIC LOG [ADJ. TO RESISTIVITY LOG]
DTWS    .US/F  : COMPRESSIONAL SONIC [DTED]
GRDED   .GAPI  : GAMMA RAY FROM DENSITY LOG [ADJ. TO RESISTIVITY LOG]
GRSED   .GAPI  : GAMMA RAY FROM SONIC LOG [ADJ. TO RESISTIVITY LOG]
GRWS    .GAPI  : GAMMA RAY [GRSED SPL. TO GRDED @ 10023']
ILDED   .OHMM  : DEEP INDUCTION RESISTIVITY FROM RESISTIVITY LOG
ILMED   .OHMM  : MEDIUM INDUCTION RESISTIVITY FROM RESISTIVITY LOG
LL8ED   .OHMM  : LATEROLOG 8 RESISTIVITY FROM RESISTIVITY LOG
MRESWS  .OHMM  : MEDIUM RESISTIVITY [ILMED]
NPHILSED.V/V   : NEUTRON POROSITY LIMESTONE FROM DENSITY LOG [ADJ. TO RESISTIVITY LOG]
NPHISSED.V/V   : NEUTRON POROSITY SANDSTONE FROM DENSITY LOG [ADJ. TO RESISTIVITY LOG]
NPOLSWS .V/V   : NEUTRON POROSITY LIMESTONE [NPHISSED MATRIX CONVERSION FOR LIMESTONE, SPL. TO NPHILSED @ 6448']
RHOBED  .G/C3  : BULK DENSITY FROM DENSITY LOG [ADJ. TO RESISTIVITY LOG]
SPRED   .MV    : SPONTANEOUS POTENTIAL FROM RESISTIVITY LOG
SPWS    .MV    : SPONTANEOUS POTENTIAL [BASELINE 0 MV, SPRED]
SRESWS  .OHMM  : SHALLOW RESISTIVITY [LL8ED]
~Params ----------------------------------------------------
PD  .                     GL : PERMANENT DATUM
EPD .FT               3020.5 : ELEVATION PERMANENT DATUM
LMF .                     KB : LOG MEASURED FROM
DAPD.FT                 14.9 : FEET ABOVE PERMANENT DATUM
EKB .FT               3035.4 : KELLY BUSHING
EGL .FT               3020.5 : GROUND LEVEL
DATE.               08/26/76 : RUN DATE
RUN .                      1 : RUN NUMBER
DD  .FT                10065 : DEPTH DRILLER
DL  .FT                10059 : DEPTH LOGGER
BLI .FT                10053 : BOTTOM LOG INTERVAL
TLI .FT                 1048 : TOP LOG INTERVAL
CBD .FT                 1047 : CASING BOTTOM DRILLER
CBL .FT                 1048 : CASING BOTTOM LOGGER
BS  .IN                7.875 : BIT SIZE
BSD .FT                10065 : BIT SIZE AT DEPTH
DFT .               GEL CHEM : DRILLING FLUID TYPE
DFD .                    9.9 : DRILLING FLUID DENSITY
DFV .                    2.2 : DRILLING FLUID VISCOSITY
DFPH.                      9 : DRILLING FLUID PH
DFL .                    6.2 : DRILLING FLUID LOSS
MSS .             CIRCULATED : MUD SAMPLE SOURCE
RMS .OHMM               2.55 : RESISTIVITY MUD SAMPLE
MST .DEGF                 57 : MUD SAMPLE TEMPERATURE
RMF .OHMM               2.27 : RESISTIVITY MUD FILTRATE SAMPLE
MFST.DEGF                 60 : MUD FILTRATE SAMPLE TEMPERATURE
RMC .OHMM               2.87 : RESISTIVITY MUD CAKE
MCST.DEGF                 55 : MUD CAKE SAMPLE TEMPERATURE
RMB .OHMM               0.77 : RESISTIVITY MUD AT BHT
TCS .HRS                   3 : TIME CIRCULATED STOPPED
LUN .                   7691 : LOGGING UNIT NUMBER
LUL .                    WCT : LOGGING UNIT LOCATION
ENGI.              CROCKFORD : RECORDING ENGINEER
WITN.                   BALL : WITNESSED BY
CLNT.                A2DTECH : CLIENT CODE
ORIG.        2" 5" 10" PRINT : ORIGIN OF DATA
UWI .       100101706216W500 : UNIQUE WELL ID
DICO. A2D Technologies, Inc. : DIGITIZING COMPANY
~Other -----------------------------------------------------
DIL-LL-CNL-FDC-BCS LOG RUN
~ASCII -----------------------------------------------------
# ...
 2300.00000    -999.25    8.61380    8.61380  205.09950  199.35810    -999.25    -999.25    -999.25    -999.25    -999.25    5.01610    -999.25   94.86340   94.86340    -999.25   71.02060   71.02060    5.01610    -999.25    4.41710    -999.25    -999.25    -999.25    -999.25    -999.25 -135.65280   -4.20800    4.41710
 2350.00000    -999.25    9.59050    9.59050  205.27280  217.79850    -999.25    -999.25    -999.25    -999.25    -999.25    4.59140    -999.25   94.36370   94.36370    -999.25   75.76370   75.76370    4.59140    -999.25    4.28070    -999.25    -999.25    -999.25    -999.25    -999.25 -135.73290   -4.40980    4.28070
 2400.00000    -999.25   14.01580   14.01580  530.55300  739.09830    -999.25    -999.25    -999.25    -999.25    -999.25    1.35300    -999.25  127.29000  127.29000    -999.25   47.34760   47.34760    1.35300    -999.25    2.27390    -999.25    -999.25    -999.25    -999.25    -999.25 -136.02780   -4.82560    2.27390
 2450.00000    -999.25    7.71240    7.71240   76.24550   73.38320    -999.25    -999.25    -999.25    -999.25    -999.25   13.67620    -999.25  100.04650  100.04650    -999.25   45.18000   45.18000   13.67620    -999.25   12.35300    -999.25    -999.25    -999.25    -999.25    -999.25 -143.62360  -12.54310   12.35300
 2500.00000    -999.25    8.26110    8.26110   70.93980   68.12730    -999.25    -999.25    -999.25    -999.25    -999.25   14.67840    -999.25   95.84700   95.84700    -999.25   49.90040   49.90040   14.67840    -999.25   11.82710    -999.25    -999.25    -999.25    -999.25    -999.25 -148.46720  -17.50770   11.82710
 2550.00000    -999.25    8.25150    8.25150   99.77830   98.94430    -999.25    -999.25    -999.25    -999.25    -999.25   10.10670    -999.25   96.85610   96.85610    -999.25   52.05210   52.05210   10.10670    -999.25    8.77470    -999.25    -999.25    -999.25    -999.25    -999.25 -144.02270  -13.18410    8.77470
 2600.00000    -999.25   10.54250   10.54250  191.11810  192.01600    -999.25    -999.25    -999.25    -999.25    -999.25    5.20790    -999.25   96.17020   96.17020    -999.25   64.82330   64.82330    5.20790    -999.25    4.90650    -999.25    -999.25    -999.25    -999.25    -999.25 -131.61980   -0.90290    4.90650
 2650.00000    -999.25   11.44690   11.44690  234.31540  234.14270    -999.25    -999.25    -999.25    -999.25    -999.25    4.27090    -999.25  112.78380  112.78380    -999.25   62.58380   62.58380    4.27090    -999.25    3.75460    -999.25    -999.25    -999.25    -999.25    -999.25 -133.82400   -3.41940    3.75460
 2700.00000    -999.25    7.91360    7.91360   60.61550   60.36780    -999.25    -999.25    -999.25    -999.25    -999.25   16.57360    -999.25   92.40460   92.40460    -999.25   47.86060   47.86060   16.57360    -999.25   13.49220    -999.25    -999.25    -999.25    -999.25    -999.25 -144.31380  -14.38370   13.49220
 2750.00000    -999.25    8.77360    8.77360  164.33710  166.16820    -999.25    -999.25    -999.25    -999.25    -999.25    6.01800    -999.25   92.64970   92.64970    -999.25   55.59130   55.59130    6.01800    -999.25    5.41800    -999.25    -999.25    -999.25    -999.25    -999.25 -134.79190   -5.33310    5.41800
 2800.00000    -999.25    8.72020    8.72020  219.07250  231.98630    -999.25    -999.25    -999.25    -999.25    -999.25    4.31060    -999.25   90.60610   90.60610    -999.25   62.17650   62.17650    4.31060    -999.25    3.92050    -999.25    -999.25    -999.25    -999.25    -999.25 -131.63890   -2.65150    3.92050
 2850.00000    -999.25    7.88390    7.88390   61.99720   58.57820    -999.25    -999.25    -999.25    -999.25    -999.25   17.07120    -999.25   92.26290   92.26290    -999.25   48.53330   48.53330   17.07120    -999.25   14.83970    -999.25    -999.25    -999.25    -999.25    -999.25 -145.37540  -16.86250   14.83970
 2900.00000    -999.25    8.87540    8.87540  173.35150  175.33710    -999.25    -999.25    -999.25    -999.25    -999.25    5.70330    -999.25   93.61740   93.61740    -999.25   70.82010   70.82010    5.70330    -999.25    5.13400    -999.25    -999.25    -999.25    -999.25    -999.25 -132.95680   -4.91530    5.13400
 2950.00000    -999.25    8.74530    8.74530  275.71930  305.15940    -999.25    -999.25    -999.25    -999.25    -999.25    3.28940    -999.25   92.71360   92.71360    -999.25   62.38670   62.38670    3.28940    -999.25    4.08210    -999.25    -999.25    -999.25    -999.25    -999.25 -130.57090   -3.00390    4.08210
 3000.00000    -999.25    9.91630    9.91630  182.32080  187.10120    -999.25    -999.25    -999.25    -999.25    -999.25    5.34470    -999.25   94.51100   94.51100    -999.25   60.56420   60.56420    5.34470    -999.25    4.87610    -999.25    -999.25    -999.25    -999.25    -999.25 -131.23790   -4.00550    4.87610
 3050.00000    -999.25   10.07260   10.07260  204.30510  212.24660    -999.25    -999.25    -999.25    -999.25    -999.25    4.71150    -999.25   88.25150   88.25150    -999.25   62.83990   62.83990    4.71150    -999.25    4.30340    -999.25    -999.25    -999.25    -999.25    -999.25 -130.80980   -3.77870    4.30340
 3100.00000    -999.25    8.16510    8.16510   75.09800   75.08180    -999.25    -999.25    -999.25    -999.25    -999.25   13.31880    -999.25   85.93580   85.93580    -999.25   49.04070   49.04070   13.31880    -999.25   14.32390    -999.25    -999.25    -999.25    -999.25    -999.25 -148.92100  -22.20020   14.32390
 3150.00000    -999.25    8.12730    8.12730   40.69270   38.21480    -999.25    -999.25    -999.25    -999.25    -999.25   26.16790    -999.25   69.96080   69.96080    -999.25   44.97180   44.97180   26.16790    -999.25   33.85390    -999.25    -999.25    -999.25    -999.25    -999.25 -145.19200  -18.89070   33.85390
 3200.00000    -999.25    9.96160    9.96160  186.99290  205.08350    -999.25    -999.25    -999.25    -999.25    -999.25    4.87760    -999.25   86.61700   86.61700    -999.25   64.37780   64.37780    4.87760    -999.25    5.73550    -999.25    -999.25    -999.25    -999.25    -999.25 -129.65560   -3.77650    5.73550
 3250.00000    -999.25    8.78050    8.78050   85.97020   85.91210    -999.25    -999.25    -999.25    -999.25    -999.25   11.63980    -999.25   86.51290   86.51290    -999.25   45.10990   45.10990   11.63980    -999.25   11.60140    -999.25    -999.25    -999.25    -999.25    -999.25 -138.11200  -12.65240   11.60140
 3300.00000    -999.25    9.28810    9.28810  221.94350  251.04810    -999.25    -999.25    -999.25    -999.25    -999.25    3.98330    -999.25   95.40280   95.40280    -999.25   66.64560   66.64560    3.98330    -999.25    4.39270    -999.25    -999.25    -999.25    -999.25    -999.25 -129.38320   -4.34310    4.39270
 3350.00000    -999.25    8.86880    8.86880  187.62100  205.96050    -999.25    -999.25    -999.25    -999.25    -999.25    4.85530    -999.25   87.35760   87.35760    -999.25   75.41740   75.41740    4.85530    -999.25    5.71540    -999.25    -999.25    -999.25    -999.25    -999.25 -128.88360   -4.26570    5.71540
 3400.00000    -999.25    9.03140    9.03140  135.52180  135.58220    -999.25    -999.25    -999.25    -999.25    -999.25    7.37560    -999.25   94.75870   94.75870    -999.25   91.43150   91.43150    7.37560    -999.25    6.91640    -999.25    -999.25    -999.25    -999.25    -999.25 -133.67780   -9.47940    6.91640
 3450.00000    -999.25    9.96170    9.96170  120.14800  120.19000    -999.25    -999.25    -999.25    -999.25    -999.25    8.32020    -999.25   89.72560   89.72560    -999.25   91.84480   91.84480    8.32020    -999.25    7.73260    -999.25    -999.25    -999.25    -999.25    -999.25 -131.89540   -8.11920    7.73260
 3500.00000    -999.25    9.42040    9.42040  149.80060  142.93470    -999.25    -999.25    -999.25    -999.25    -999.25    6.99620    -999.25   96.32030   96.32030    -999.25  100.04570  100.04570    6.99620    -999.25    6.36590    -999.25    -999.25    -999.25    -999.25    -999.25 -133.65160  -10.29490    6.36590
