~Version ---------------------------------------------------
VERS.      2.0 : CWLS log ASCII Standard -VERSION 2.0
WRAP.       NO : One line per depth step
CREA. 12/21/17 : LAS Creation Date
~Well ------------------------------------------------------
STRT.FT                 1500.0 : START DEPTH
STOP.FT                10050.0 : STOP DEPTH
STEP.FT               50.00000 : STEP LENGTH
NULL.                  -999.25 : NULL VALUE
COMP.     CHEVRON STANDARD LTD : COMPANY
WELL. CHEVRON PEMBINA 6-3-51-7 : WELL
FLD .                          : FIELD
LOC .                          : LOCATION
CTRY.                   CANADA : COUNTRY
SRVC.             Schlumberger : SERVICE COMPANY
DATE.              05-Jul-1978 : LOGDATE
PROV.                  Alberta : PROVINCE
UWI .         100060305107W500 : UNIQUE WELL ID
SLAT.WGS84            53.37366 : SURFACE LATITUDE
SLON.WGS84           -114.9508 : SURFACE LONGITUDE
~Curve Information -----------------------------------------
DEPT    .FT    : Depth Curve
CALDED  .IN    : CALIPER FROM DENSITY LOG [ADJ.TO RESISTIVITY LOG]
CALSED  .IN    : CALIPER FROM SONIC LOG [ADJ.TO RESISTIVITY LOG]
CALWS   .IN    : CALIPER [CALDED]
CONDWS  .MMHO  : CONDUCTIVITY [1000/DRESWS]
DCORED  .G/C3  : DENSITY CORRECTION FROM DENSITY LOG [ADJ.TO RESISTIVITY LOG]
DCORWS  .G/C3  : DENSITY CORRECTION [DCORED]
DENWS   .G/C3  : FORMATION BULK DENSITY [RHOBED]
DPHILSED.V/V   : DENSITY POROSITY LIMESTONE [M=2.71,F=1.0] FROM DENSITY LOG [RESISTIVITY LOG]
DPHISSED.V/V   : DENSITY POROSITY SANDSTONE [M=2.65,F=1.0] FROM DENSITY LOG [RESISTIVITY LOG]
DPOLSWS .V/V   : DENSITY POROSITY LIMESTONE [CALC FROM DENWS,M=2.71, F=1.00]]
DRESWS  .OHMM  : DEEP RESISTIVITY [ILDED]
DTED    .US/F  : DELTA TIME FROM SONIC LOG [ADJ.TO RESISTIVITY LOG]
DTWS    .US/F  : COMPRESSIONAL SONIC [DTED]
GRDED   .GAPI  : GAMMA RAY FROM DENSITY LOG [ADJ.TO RESISTIVITY LOG]
GRSED   .GAPI  : GAMMA RAY FROM SONIC LOG [ADJ.TO RESISTIVITY LOG]
GRWS    .GAPI  : GAMMA RAY [GRSED SPL.TO GRDED @ 1554.5']
ILDED   .OHMM  : DEEP INDUCTION FROM RESISTIVITY LOG
ILMED   .OHMM  : MEDIUM INDUCTION FROM RESISTIVITY LOG
MRESWS  .OHMM  : MEDIUM RESISTIVITY [ILMED]
NPHILSED.V/V   : NEUTRON POROSITY LIMESTONE FROM DENSITY LOG [RESISTIVITY LOG]
NPHISSED.V/V   : NEUTRON POROSITY SANDSTONE FROM DENSITY LOG [RESISTIVITY LOG]
NPOLSWS .V/V   : NEUTRON POROSITY LIMESTONE [NPHISSED MATRIX SLB CONVERSION FOR LIMESTONE, SPL.TO NPHILSED @ 6010']
RHOBED  .G/C3  : BULK DENSITY FROM DENSITY LOG [ADJ.TO RESISTIVITY LOG]
SFLED   .OHMM  : SPHERICALLY FOCUSED FROM RESISTIVITY LOG
SPRED   .MV    : SPONTANEOUS POTENTIAL FROM RESISTIVITY LOG
SPWS    .MV    : SPONTANEOUS POTENTIAL [BASELINE 0 MV, SPRED]
SRESWS  .OHMM  : SHALLOW RESISTIVITY [SFLED]
~Params ----------------------------------------------------
PD  .                     GL : PERMANENT DATUM
EPD .FT               2688.6 : ELEVATION PERMANENT DATUM
LMF .                     KB : LOG MEASURED FROM
DAPD.FT                 17.4 : FEET ABOVE PERMANENT DATUM
EKB .FT                 2706 : KELLY BUSHING
EGL .FT               2688.6 : GROUND LEVEL
DATE.                0705/78 : RUN DATE
RUN .                      1 : RUN NUMBER
DD  .FT              3066.28 : DEPTH DRILLER
DL  .FT              3065.67 : DEPTH LOGGER
BLI .FT              3064.76 : BOTTOM LOG INTERVAL
TLI .FT               473.96 : TOP LOG INTERVAL
CBD .FT               473.96 : CASING BOTTOM DRILLER
CBL .FT               472.44 : CASING BOTTOM LOGGER
BS  .IN                 8.75 : BIT SIZE
BSD .FT              3066.28 : BIT SIZE AT DEPTH
DFT .                    GEL : DRILLING FLUID TYPE
DFD .                    110 : DRILLING FLUID DENSITY
DFV .                     75 : DRILLING FLUID VISCOSITY
DFPH.                    9.5 : DRILLING FLUID PH
MSS .            CIRCULATION : MUD SAMPLE SOURCE
RMS .OHMM               0.33 : RESISTIVITY MUD SAMPLE
MST .DEGF                 58 : MUD SAMPLE TEMPERATURE
RMF .OHMM               0.14 : RESISTIVITY MUD FILTRATE SAMPLE
MFST.DEGF                 68 : MUD FILTRATE SAMPLE TEMPERATURE
RMC .OHMM               0.15 : RESISTIVITY MUD CAKE
MCST.DEGF                 68 : MUD CAKE SAMPLE TEMPERATURE
TCS .HRS                   8 : TIME CIRCULATED STOPPED
LUN .                   7738 : LOGGING UNIT NUMBER
LUL .                    EDM : LOGGING UNIT LOCATION
ENGI.                ALVAREZ : RECORDING ENGINEER
WITN.                SPRAGUE : WITNESSED BY
CLNT.                A2DTECH : CLIENT CODE
ORIG.            2" 5" PRINT : ORIGIN OF DATA
UWI .       100060305107W500 : UNIQUE WELL ID
DICO. A2D Technologies, Inc. : DIGITIZING COMPANY
~Other -----------------------------------------------------
~ASCII -----------------------------------------------------
 1500.00000    -999.25    -999.25    -999.25    -999.25    -999.25    -999.25    -999.25    -999.25    -999.25    -999.25    -999.25    -999.25    -999.25    -999.25   48.27650   48.27650    -999.25    -999.25    -999.25    -999.25    -999.25    -999.25    -999.25    -999.25    -999.25    -999.25    -999.25
 1550.00000    -999.25    -999.25    -999.25    -999.25    -999.25    -999.25    -999.25    -999.25    -999.25    -999.25    -999.25    -999.25    -999.25   44.63820   46.33340   46.33340    -999.25    -999.25    -999.25    -999.25    0.42420    0.38180    -999.25    -999.25    -999.25    -999.25    -999.25
 1600.00000    9.13430    8.10400    9.13430  254.11020   -0.03790   -0.03790    2.27400    -999.25    0.23350    0.25500    3.93530   98.60000   98.60000   73.99640   83.00680   73.99640    3.93530    3.69350    3.69350    -999.25    0.37380    0.33040    2.27400    3.52780  -76.40370   -1.93200    3.52780
 1650.00000    8.97620    8.26290    8.97620  170.23590   -0.01850   -0.01850    2.28060    -999.25    0.22590    0.25110    5.87420   96.84120   96.84120   89.88150   98.46010   89.88150    5.87420    5.51270    5.51270    -999.25    0.36120    0.31770    2.28060    5.35120  -77.78550   -4.68150    5.35120
 1700.00000    9.92770    8.34980    9.92770  112.61510   -0.02510   -0.02510    2.38060    -999.25    0.16750    0.19260    8.87980   84.85090   84.85090   59.79120   64.47250   59.79120    8.87980    8.12790    8.12790    -999.25    0.27210    0.22810    2.38060    9.37320  -76.66200   -6.74020    9.37320
 1750.00000   10.62080    8.78700   10.62080  223.18940   -0.01460   -0.01460    2.27430    -999.25    0.23140    0.25480    4.48050  109.10160  109.10160   89.88800   90.12300   89.88800    4.48050    4.60380    4.60380    -999.25    0.40360    0.36080    2.27430    4.04000  -75.02130   -2.62430    4.04000
 1800.00000   11.23170    8.72650   11.23170  177.61990   -0.04860   -0.04860    2.32650    -999.25    0.19870    0.22430    5.63000   96.40470   96.40470   82.25830   86.01230   82.25830    5.63000    5.11500    5.11500    -999.25    0.36350    0.32000    2.32650    4.89670  -75.02790   -3.32720    4.89670
 1850.00000   13.25740    9.08580   13.25740  199.17940   -0.02990   -0.02990    2.29480    -999.25    0.21890    0.24280    5.02060   92.08890   92.08890   76.77710   81.10310   76.77710    5.02060    4.57860    4.57860    -999.25    0.32560    0.28170    2.29480    3.94320  -71.96280   -0.96300    3.94320
 1900.00000   11.72100    8.55980   11.72100  237.82910   -0.01880   -0.01880    2.26540    -999.25    0.23170    0.26000    4.20470  102.80550  102.80550   91.22090   92.69560   91.22090    4.20470    3.83840    3.83840    -999.25    0.34390    0.30020    2.26540    3.24350  -73.62960   -2.68170    3.24350
 1950.00000    9.86370    9.04090    9.86370  217.75580    0.06580    0.06580    1.95200    -999.25    0.43030    0.44330    4.59230   98.92890   98.92890   81.34470   90.42210   81.34470    4.59230    4.24490    4.24490    -999.25    0.41070    0.36800    1.95200    4.25480  -74.69530   -2.85820    4.25480
 2000.00000    8.98920    7.93880    8.98920   83.86240   -0.04210   -0.04210    2.32780    -999.25    0.19940    0.22350   11.92430   80.23400   80.23400   49.22560   53.15470   49.22560   11.92430   11.52770   11.52770    -999.25    0.28780    0.24380    2.32780   11.13940  -79.43950   -6.74470   11.13940
 2050.00000   10.02510    8.44530   10.02510  152.71140   -0.00820   -0.00820    2.32740    -999.25    0.19820    0.22370    6.54830   92.07090   92.07090   89.89760   94.21580   89.89760    6.54830    5.74710    5.74710    -999.25    0.33730    0.29350    2.32740    6.29800  -77.28480   -3.88560    6.29800
 2100.00000   10.69940    8.49610   10.69940  196.06690    0.00220    0.00220    2.31700    -999.25    0.19990    0.22980    5.10030   94.79580   94.79580   76.99650   82.33160   76.99650    5.10030    4.89770    4.89770    -999.25    0.30790    0.26390    2.31700    4.31070  -75.41910   -1.31090    4.31070
 2150.00000   12.55300    8.50210   12.55300  359.78990    0.00420    0.00420    2.10950    -999.25    0.32850    0.35120    2.77940  106.05010  106.05010  112.24070  118.59770  112.24070    2.77940    2.58080    2.58080    -999.25    0.41180    0.36910    2.10950    2.38720  -75.98390   -1.76380    2.38720
 2200.00000   11.68560    8.44180   11.68560  201.36530    0.12430    0.12430    2.22960    -999.25    0.26010    0.28100    4.96610   94.11450   94.11450   85.28210   90.57310   85.28210    4.96610    4.93280    4.93280    -999.25    0.34230    0.29850    2.22960    4.79660  -76.71440   -2.67410    4.79660
 2250.00000   11.43940    8.57390   11.43940  127.97870   -0.01160   -0.01160    2.30560    -999.25    0.21190    0.23650    7.81380   87.21350   87.21350   92.62980  100.08480   92.62980    7.81380    9.53640    9.53640    -999.25    0.26480    0.22080    2.30560    8.93870  -77.21690   -3.35530    8.93870
 2300.00000   10.93700    8.33430   10.93700  260.54560    0.02490    0.02490    2.15870    -999.25    0.29870    0.32240    3.83810   98.48050   98.48050   83.53860   90.17160   83.53860    3.83810    3.58890    3.58890    -999.25    0.35570    0.31220    2.15870    3.20340  -75.99100   -2.30800    3.20340
 2350.00000    9.73780    8.97910    9.73780  244.72620   -0.04090   -0.04090    2.29420    -999.25    0.22160    0.24320    4.08620  109.16400  109.16400   89.90010  105.58720   89.90010    4.08620    3.79180    3.79180    -999.25    0.36990    0.32650    2.29420    3.20250  -74.90100   -1.39780    3.20250
 2400.00000   10.10550    8.50490   10.10550   93.00160   -0.01070   -0.01070    2.31800    -999.25    0.20330    0.22920   10.75250   82.51530   82.51530   57.76100   63.19140   57.76100   10.75250   10.43100   10.43100    -999.25    0.27970    0.23570    2.31800    9.95380  -77.38340   -4.65800    9.95380
 2450.00000    9.72190    9.56430    9.72190  245.19420    0.05770    0.05770    2.22760    -999.25    0.26150    0.28210    4.07840   94.46570   94.46570   78.10750   93.41860   78.10750    4.07840    3.79190    3.79190    -999.25    0.42010    0.37760    2.22760    3.78530  -73.09990   -1.48020    3.78530
 2500.00000   10.30680    8.68250   10.30680  116.50530    0.00030    0.00030    2.23810    -999.25    0.25530    0.27600    8.58330   88.02970   88.02970   75.87100   84.36210   75.87100    8.58330    8.02380    8.02380    -999.25    0.33970    0.29600    2.23810    6.24150  -73.72810   -3.20700    6.24150
 2550.00000   10.13620    8.78990   10.13620  351.91440    0.00410    0.00410    1.96970    -999.25    0.41130    0.43290    2.84160  124.74330  124.74330   86.04280   88.93160   86.04280    2.84160    2.41950    2.41950    -999.25    0.52400    0.48540    1.96970    2.02620  -69.73120   -0.30860    2.02620
 2600.00000   10.02130    8.66080   10.02130  160.54710   -0.01630   -0.01630    2.30780    -999.25    0.20510    0.23520    6.22870   83.87510   83.87510   67.75930   78.04620   67.75930    6.22870    5.58320    5.58320    -999.25    0.32970    0.28580    2.30780    6.50630  -69.94230   -2.44520    6.50630
 2650.00000   10.17150    8.88110   10.17150  204.67900    0.05260    0.05260    2.10680    -999.25    0.32980    0.35270    4.88570   99.54020   99.54020   68.23580   73.76340   68.23580    4.88570    4.55580    4.55580    -999.25    0.41640    0.37390    2.10680    4.08750  -67.02680   -2.06040    4.08750
 2700.00000    9.43880    8.53860    9.43880  251.65460   -0.01290   -0.01290    2.13390    -999.25    0.31420    0.33690    3.97370  114.79660  114.79660   80.42450   83.68470   80.42450    3.97370    3.51190    3.51190    -999.25    0.46410    0.42280    2.13390    3.28180  -64.86740   -2.44840    3.28180
 2750.00000    9.78190    8.74870    9.78190  154.58580   -0.03920   -0.03920    2.35040    -999.25    0.18990    0.21030    6.46890   88.96250   88.96250   61.95910   73.32510   61.95910    6.46890    6.11500    6.11500    -999.25    0.36280    0.31930    2.35040    5.72710  -62.80030   -2.91200    5.72710
