~Version ---------------------------------------------------
VERS.      2.0 : CWLS log ASCII Standard -VERSION 2.0
WRAP.       NO : One line per depth step
CREA. 12/13/17 : LAS Creation Date
~Well ------------------------------------------------------
STRT.FT                          650.0 : START DEPTH
STOP.FT                         5850.0 : STOP DEPTH
STEP.FT                       50.00000 : STEP LENGTH
NULL.                          -999.25 : NULL VALUE
COMP.   APACHE EXPLORATION CORPORATION : COMPANY
WELL. APACHE ET AL ATIKAMEG 7-32-78-10 : WELL
FLD .                                  : FIELD
LOC .                                  : LOCATION
CTRY.                           CANADA : COUNTRY
SRVC.                     Schlumberger : SERVICE COMPANY
DATE.                      04-Feb-1973 : LOGDATE
PROV.                          Alberta : PROVINCE
UWI .                 100073207810W500 : UNIQUE WELL ID
SLAT.WGS84                    55.80063 : SURFACE LATITUDE
SLON.WGS84                   -115.5085 : SURFACE LONGITUDE
~Curve Information -----------------------------------------
DEPT  .FT    : Depth Curve
CALSED.IN    : CALIPER FROM SONIC LOG [ADJ. TO RESISTIVITY LOG]
CALWS .IN    : CALIPER [CALSED]
CILDED.MMHO  : DEEP INDUCTION CONDUCTIVITY FROM RESISTIVITY LOG
CONDWS.MMHO  : CONDUCTIVITY [1000/DRESWS]
DRESWS.OHMM  : DEEP RESISTIVITY [1000/CILDED,IF ILDED<2,ILDED]
DTED  .US/F  : DELTA TIME FROM SONIC LOG [ADJ. TO RESISTIVITY LOG]
DTWS  .US/F  : COMPRESSIONAL SONIC [DTED]
GRSED .GAPI  : GAMMA RAY FROM SONIC LOG [ADJ. TO RESISTIVITY LOG]
GRWS  .GAPI  : GAMMA RAY [GRSED]
ILDED .OHMM  : DEEP INDUCTION RESISTIVITY FROM RESISTIVITY LOG
SNED  .OHMM  : 16 INCH  SHORT NORMAL RESISTIVITY FROM RESISTIVITY LOG
SPRED .MV    : SPONTANEOUS POTENTIAL FROM RESISTIVITY LOG
SPWS  .MV    : SPONTANEOUS POTENTIAL [BASELINE 0 MV SPRED]
SRESWS.OHMM  : SHALLOW RESISTIVITY [SNED]
~Params ----------------------------------------------------
PD  .                     GL : PERMANENT DATUM
EPD .FT               2132.3 : ELEVATION PERMANENT DATUM
LMF .                     KB : LOG MEASURED FROM
DAPD.FT                 11.7 : FEET ABOVE PERMANENT DATUM
EKB .FT                 2144 : KELLY BUSHING
EGL .FT               2132.3 : GROUND LEVEL
DATE.               02/04/73 : RUN DATE
RUN .                      1 : RUN NUMBER
DD  .FT                 5897 : DEPTH DRILLER
DL  .FT                 5902 : DEPTH LOGGER
BLI .FT                 5895 : BOTTOM LOG INTERVAL
TLI .FT                  682 : TOP LOG INTERVAL
CBD .FT                  680 : CASING BOTTOM DRILLER
CBL .FT                  682 : CASING BOTTOM LOGGER
BS  .IN                7.875 : BIT SIZE
BSD .FT                 5897 : BIT SIZE AT DEPTH
DFT .               GEL CHEM : DRILLING FLUID TYPE
DFD .                    9.5 : DRILLING FLUID DENSITY
DFV .                     95 : DRILLING FLUID VISCOSITY
DFPH.                    9.5 : DRILLING FLUID PH
DFL .                   10.5 : DRILLING FLUID LOSS
RMS .OHMM               1.16 : RESISTIVITY MUD SAMPLE
MST .DEGF                 52 : MUD SAMPLE TEMPERATURE
RMF .OHMM               0.78 : RESISTIVITY MUD FILTRATE SAMPLE
MFST.DEGF                 60 : MUD FILTRATE SAMPLE TEMPERATURE
RMC .OHMM                1.6 : RESISTIVITY MUD CAKE
MCST.DEGF                 60 : MUD CAKE SAMPLE TEMPERATURE
RMB .OHMM               0.53 : RESISTIVITY MUD AT BHT
TCS .HRS                   5 : TIME CIRCULATED STOPPED
LUN .                   7636 : LOGGING UNIT NUMBER
LUL .                    EDM : LOGGING UNIT LOCATION
ENGI.                 CALVIN : RECORDING ENGINEER
WITN.   CAMPBELL DANIELEWICZ : WITNESSED BY
CLNT.                A2DTECH : CLIENT CODE
ORIG.            2" 5" PRINT : ORIGIN OF DATA
UWI .       100073207810W500 : UNIQUE WELL ID
DICO. A2D Technologies, Inc. : DIGITIZING COMPANY
~Other -----------------------------------------------------
~ASCII -----------------------------------------------------
  650.00000    -999.25    -999.25    -999.25    -999.25    -999.25    -999.25    -999.25   76.62540   76.62540    -999.25    -999.25    -999.25    -999.25    -999.25
  700.00000   12.73820   12.73820  225.72320  214.19700    4.66860  166.23000  166.23000   87.06550   87.06550    4.66860    2.73870 -131.93950  -40.20230    2.73870
  750.00000   15.39970   15.39970  164.75930  145.39960    6.87760  158.58000  158.58000   75.12530   75.12530    6.87760    2.84350 -130.92340  -39.18620    2.84350
  800.00000   11.74390   11.74390  216.15710  204.51470    4.89020  189.45000  189.45000   94.15340   94.15340    4.89020    2.94790 -128.46210  -36.72490    2.94790
  850.00000   13.59290   13.59290  193.56260  176.32020    5.67150  173.60000  173.60000   88.53240   88.53240    5.67150    2.44690 -116.70820  -24.97100    2.44690
  900.00000   10.96660   10.96660  216.83390  195.41560    5.11730  196.65000  196.65000   78.77740   78.77740    5.11730    2.56350 -116.52230  -24.78510    2.56350
  950.00000   11.54760   11.54760  337.27710  312.87150    3.19620  152.97000  152.97000  148.34280  148.34280    3.19620    2.20010 -113.03710  -21.29990    2.20010
 1000.00000   15.46170   15.46170  344.57690  327.97640    3.04900  151.51000  151.51000   96.93410   96.93410    3.04900    1.74720 -110.66210  -18.92490    1.74720
 1050.00000   11.96850   11.96850  301.53130  280.45090    3.56570  132.23000  132.23000  103.10390  103.10390    3.56570    1.89870 -110.42480  -18.68760    1.89870
 1100.00000   12.74090   12.74090  325.98940  308.47060    3.24180  136.89000  136.89000  100.91430  100.91430    3.24180    2.04530 -108.67780  -16.94060    2.04530
 1150.00000   14.67830   14.67830  454.14650  414.04440    2.41520  170.94000  170.94000   76.43930   76.43930    2.41520    1.51910 -102.22530  -10.78510    1.51910
 1200.00000   15.58010   15.58010  200.10220  187.85690    5.32320  159.18000  159.18000   68.61930   68.61930    5.32320    1.99270 -115.78510  -25.15630    1.99270
 1250.00000    8.03560    8.03560  179.54640  160.67100    6.22390  123.29000  123.29000   71.79000   71.79000    6.22390    5.10330 -134.79040  -44.96760    5.10330
 1300.00000    8.00630    8.00630  200.61860  188.75760    5.30480  126.41000  126.41000   90.59850   90.59850    5.30480    4.58820 -122.11970  -33.10300    4.58820
 1350.00000    8.33780    8.33780  218.04350  207.46890    4.82000  118.98000  118.98000   91.25790   91.25790    4.82000    3.54810 -122.21180  -34.00650    3.54810
 1400.00000    8.08480    8.08480  155.77160  135.69990    7.36920  116.02000  116.02000   82.11860   82.11860    7.36920    4.35410 -128.71940  -41.32020    4.35410
 1450.00000    8.74740    8.74740  262.90350  247.61670    4.03850  111.18000  111.18000   82.98590   82.98590    4.03850    3.24820 -119.45000  -32.86220    3.24820
 1500.00000    8.41800    8.41800  288.82860  268.03900    3.73080  121.70000  121.70000   87.60500   87.60500    3.73080    2.64820 -115.90700  -30.12530    2.64820
 1550.00000    8.85410    8.85410  290.42260  277.32930    3.60590  123.57500  123.57500   90.57300   90.57300    3.60590    2.77560 -117.44980  -32.47410    2.77560
 1600.00000    8.42330    8.42330  164.89860  145.92360    6.85290  111.29000  111.29000   82.66360   82.66360    6.85290    5.27980 -126.90760  -42.74330    5.27980
 1650.00000    8.55350    8.55350  234.56100  216.97150    4.60890  117.52000  117.52000   93.65850   93.65850    4.60890    3.10220 -117.09390  -33.73570    3.10220
 1700.00000    8.48190    8.48190  154.95890  138.78480    7.20540   96.98000   96.98000   79.55260   79.55260    7.20540    8.38770 -124.47020  -41.92340    8.38770
 1750.00000    8.97010    8.97010  247.17990  230.84030    4.33200  114.63000  114.63000   91.89080   91.89080    4.33200    3.36620 -114.02430  -32.28360    3.36620
 1800.00000    9.79840    9.79840  224.46530  209.45760    4.77440  114.06500  114.06500   86.23300   86.23300    4.77440    2.87580 -110.46820  -29.53360    2.87580
 1850.00000    9.82410    9.82410  237.31760  220.04620    4.54450  118.72000  118.72000   88.50040   88.50040    4.54450    2.76760 -110.77370  -30.65040    2.76760
 1900.00000    9.10290    9.10290  227.80520  210.40670    4.75270  111.47000  111.47000   89.98530   89.98530    4.75270    3.69630 -113.95060  -34.63340    3.69630
 1950.00000    8.43510    8.43510  111.08730   99.68600   10.03150   71.92000   71.92000   80.53230   80.53230   10.03150   46.80980 -112.76340  -34.25760   46.80980
 2000.00000   15.65030   15.65030  602.11610  602.11610    1.66080  178.00000  178.00000   70.00370   70.00370    1.79870    1.10480  -97.45180  -19.75210    1.10480
 2050.00000    8.68550    8.68550   22.21830   20.62810   48.48940   88.19500   88.19500   71.79160   71.79160   48.48940   21.86520 -114.38500  -37.49140   21.86520
 2100.00000    8.60470    8.60470   26.07820   24.48650   40.83880  107.23000  107.23000   49.29050   49.29050   40.83880   19.44790 -118.68520  -42.60300   19.44790
 2150.00000    8.25170    8.25170   25.67210   22.84650   43.77040   93.42000   93.42000   43.85920   43.85920   43.77040   39.83150 -124.22530  -48.94910   39.83150
 2200.00000    9.37940    9.37940  208.41730  193.86610    5.15820   98.50000   98.50000   66.23120   66.23120    5.15820    3.30060 -106.58400  -32.11920    3.30060
 2250.00000    8.07750    8.07750    7.06790    3.54970  281.71530   60.03000   60.03000   38.12290   38.12290  281.71530  356.65100 -127.69490  -54.03620  356.65100
 2300.00000    8.06620    8.06620   11.47210    8.82740  113.28380   61.81000   61.81000   42.19710   42.19710  113.28380  217.64530 -129.91800  -57.06540  217.64530
 2350.00000   15.63380   15.63380  120.13810  106.58590    9.38210  188.89000  188.89000   72.15430   72.15430    9.38210    1.45090 -102.18940  -30.14820    1.45090
 2400.00000    8.97100    8.97100   29.14060   24.52530   40.77430   75.76000   75.76000   68.85480   68.85480   40.77430   11.12350 -107.71260  -36.47750   11.12350
 2450.00000    8.57530    8.57530   27.04030   25.61920   39.03320   80.22000   80.22000   68.09160   68.09160   39.03320    5.28620 -101.09010  -30.66630    5.28620
 2500.00000    8.58410    8.58410   23.10580   24.99650   40.00560   74.52000   74.52000   56.02170   56.02170   40.00560    8.11590  -97.36140  -27.74370    8.11590
 2550.00000    8.40920    8.40920   22.06450   19.49150   52.64760   66.29500   66.29500   51.07840   51.07840   52.64760    7.06900  -96.70540  -27.89380    7.06900
 2600.00000    8.32750    8.32750   16.85550   14.94260   66.92270   64.96000   64.96000   49.52200   49.52200   66.92270   21.69510  -88.93130  -20.93110   21.69510
 2650.00000    8.29750    8.29750   13.43660   10.36370   96.49110   58.05000   58.05000   42.75320   42.75320   96.49110   36.92010 -106.33210  -39.13800   36.92010
 2700.00000    8.88030    8.88030   64.10810   61.71430   16.20370   87.86000   87.86000   75.82710   75.82710   16.20370    2.73080  -89.56400  -23.18130    2.73080
 2750.00000    8.73970    8.73970   46.13450   43.34310   23.07170   99.11000   99.11000   61.73180   61.73180   23.07170    4.70420  -81.93440  -16.35770    4.70420
 2800.00000    8.80100    8.80100   42.29970   41.09090   24.35420   80.83500   80.83500   55.54130   55.54130   24.35420    4.95460  -78.83790  -14.06730    4.95460
 2850.00000    8.65180    8.65180   42.00280   41.47980   24.10810   77.25000   77.25000   55.42180   55.42180   24.10810    5.01450  -80.57120  -16.61200    5.01450
 2900.00000    8.20120    8.20120   25.32900   20.68770   48.33800   61.45000   61.45000   53.78850   53.78850   48.33800    9.72180  -94.84330  -31.69020    9.72180
 2950.00000    8.34410    8.34410   89.54640   77.14440   12.96270   66.15000   66.15000   56.30610   56.30610   12.96270    9.18700  -82.63160  -20.28990    9.18700
 3000.00000   13.09320   13.09320  141.68980  122.10310    8.18980  101.37000  101.37000   71.81640   71.81640    8.18980    1.97160  -80.72570  -19.19010    1.97160
 3050.00000    9.84070    9.84070   54.16970   52.58330   19.02130   85.57400   85.57400   68.04460   68.04460   19.02130    3.06280  -72.69700  -11.93750    3.06280
