~Version ---------------------------------------------------
VERS.      2.0 : CWLS log ASCII Standard -VERSION 2.0
WRAP.       NO : One line per depth step
CREA. 12/12/17 : LAS Creation Date
~Well ------------------------------------------------------
STRT.FT                    750.0 : START DEPTH
STOP.FT                   6850.0 : STOP DEPTH
STEP.FT                 50.00000 : STEP LENGTH
NULL.                    -999.25 : NULL VALUE
COMP.       SHELL CANADA LIMITED : COMPANY
WELL. SHELL WESTLOCK 10-33-61-27 : WELL
FLD .                            : FIELD
LOC .                            : LOCATION
CTRY.                     CANADA : COUNTRY
SRVC.               Schlumberger : SERVICE COMPANY
DATE.                01-Feb-1966 : LOGDATE
PROV.                    Alberta : PROVINCE
UWI .           100103306127W400 : UNIQUE WELL ID
SLAT.WGS84              54.32129 : SURFACE LATITUDE
SLON.WGS84             -113.9838 : SURFACE LONGITUDE
~Curve Information -----------------------------------------
DEPT   .FT    : Depth Curve
CALDED .IN    : CALIPER FROM DENSITY LOG [ADJ. TO DIL LOG]
CALWS  .IN    : CALIPER [CALDED]
CILDED .MMHO  : CONDUCTIVITY FROM IEL LOG [ADJ. TO DIL LOG]
CONDWS .MMHO  : CONDUCTIVITY [1000/DRESWS]
DCORWS .G/C3  : DENSITY CORRECTION [DRHOED]
DENWS  .G/C3  : FORMATION BULK DENSITY [RHOBED]
DPOLSWS.V/V   : DENSITY POROSITY LIMESTONE [CALC FROM DENWS, M=2.71, F=1.00 ASSUMED]
DRESWS .OHMM  : DEEP RESISTIVITY [ILDED]
DRHOED .G/C3  : DENSITY CORRECTION FROM DENSITY LOG [ADJ. TO DIL LOG]
DTED   .US/F  : DELTA TIME FROM SONIC LOG [ADJ. TO DIL LOG]
DTWS   .US/F  : COMPRESSIONAL SONIC [DTED]
GRDED  .GAPI  : GAMMA RAY FROM DENSITY LOG [ADJ. TO DIL LOG]
GRSED  .GAPI  : GAMMA RAY FROM SONIC LOG [ADJ. TO DIL LOG]
GRWS   .GAPI  : GAMMA RAY [GRDED]
ILD1ED .OHMM  : DEEP INDUCTION LOG RESISTIVITY FROM IEL LOG [ADJ. TO DIL LOG]
ILDED  .OHMM  : DEEP INDUCTION LOG RESISTIVITY FROM DIL LOG (ILD SPL. TO ILD_2 @ 6068'-6572')
ILMED  .OHMM  : MEDIUM INDUCTION LOG RESISTIVITY FROM DIL LOG (ILM SPL. TO ILM_2 @ 6068'-6576')
LL8ED  .OHMM  : 8 INCH LATEROLOG RESISTIVITY FROM DIL LOG (LL8 SPL. TO LL8_2 @ 6068'-6506')
MRESWS .OHMM  : MEDIUM RESISTIVITY [ILMED]
RHOBED .G/C3  : BULK DENSITY FROM DENSITY LOG [ADJ. TO DIL LOG]
SNED   .OHMM  : 16 INCH SHORT NORMAL RESISTIVITY FROM IEL LOG [ADJ. TO DIL LOG]
SPR1ED .MV    : SPONTANEOUS POTENTIAL FROM IEL LOG [ADJ. TO DIL LOG]
SPRED  .MV    : SPONTANEOUS POTENTIAL FROM DIL LOG (SPR SPL. TO SPR_2 @ 6068'-6577')
SPWS   .MV    : SPONTANEOUS POTENTIAL [BASELINE 0 MV, SPRED]
SRESWS .OHMM  : SHALLOW RESISTIVITY [LL8ED]
~Params ----------------------------------------------------
PD  .                     GL : PERMANENT DATUM
EPD .FT               2008.9 : ELEVATION PERMANENT DATUM
LMF .                     KB : LOG MEASURED FROM
DAPD.FT                 13.8 : FEET ABOVE PERMANENT DATUM
EKB .FT               2022.7 : KELLY BUSHING
EGL .FT               2008.9 : GROUND LEVEL
DATE.               02/01/66 : RUN DATE
RUN .                      2 : RUN NUMBER
DD  .FT                 6850 : DEPTH DRILLER
DL  .FT                 6850 : DEPTH LOGGER
BLI .FT                 6846 : BOTTOM LOG INTERVAL
TLI .FT                 2900 : TOP LOG INTERVAL
CBD .FT                  724 : CASING BOTTOM DRILLER
CBL .FT                  724 : CASING BOTTOM LOGGER
BS  .IN                7.875 : BIT SIZE
BSD .FT                 6850 : BIT SIZE AT DEPTH
DFT .                    GEL : DRILLING FLUID TYPE
DFD .                    9.9 : DRILLING FLUID DENSITY
DFV .                     80 : DRILLING FLUID VISCOSITY
DFPH.                     11 : DRILLING FLUID PH
DFL .                    6.2 : DRILLING FLUID LOSS
RMS .OHMM               0.15 : RESISTIVITY MUD SAMPLE
MST .DEGF                 62 : MUD SAMPLE TEMPERATURE
RMF .OHMM               0.07 : RESISTIVITY MUD FILTRATE SAMPLE
MFST.DEGF                122 : MUD FILTRATE SAMPLE TEMPERATURE
RMC .OHMM               0.18 : RESISTIVITY MUD CAKE
MCST.DEGF                 68 : MUD CAKE SAMPLE TEMPERATURE
RMB .OHMM               0.09 : RESISTIVITY MUD AT BHT
TCS .HRS                   2 : TIME CIRCULATED STOPPED
LUN .                   2547 : LOGGING UNIT NUMBER
LUL .                     SL : LOGGING UNIT LOCATION
ENGI.                  CRAIN : RECORDING ENGINEER
WITN.                PHERSON : WITNESSED BY
CLNT.                A2DTECH : CLIENT CODE
ORIG.            2" 5" PRINT : ORIGIN OF DATA
UWI .       100103306127W400 : UNIQUE WELL ID
DICO. A2D Technologies, Inc. : DIGITIZING COMPANY
~Other -----------------------------------------------------
DIL-IEL-FDC-BCS TOOL RUN
~ASCII -----------------------------------------------------
# ...
 3550.00000    7.27860    7.27860  569.78440  601.48240    0.03450    2.47650    0.13650    1.66470    0.03450   70.61330   70.61330    9.31460   12.26250    9.31460    1.87020    1.66470    2.08810    4.05370    2.08810    2.47650    3.33240  -70.96150  -40.98370  -29.10800    4.05370
 3600.00000    7.68810    7.68810  313.05120  288.87540    0.00430    2.60520    0.06130    3.46170    0.00430   65.78760   65.78760   60.77390   54.43440   60.77390    3.70330    3.46170    4.20470   11.28310    4.20470    2.60520    8.37060  -61.74660  -33.72500  -21.24150   11.28310
 3650.00000    7.33340    7.33340  759.61290  606.35460    0.06540    2.44910    0.15260    1.64920    0.06540   69.17530   69.17530   29.05440   28.22300   29.05440    1.73860    1.64920    2.37320   11.75550    2.37320    2.44910    8.85340  -74.60220  -49.99930  -36.91190   11.75550
 3700.00000    8.69440    8.69440   68.93140   67.26800    0.08320    2.61740    0.05420   14.86590    0.08320   61.15280   61.15280   23.27540   22.50750   23.27540   14.37230   14.86590   10.88390   30.86010   10.88390    2.61740   20.33750  -73.57500  -54.72640  -41.03120   30.86010
 3750.00000    8.10190    8.10190  135.34070  121.34450   -0.01750    2.63770    0.04230    8.24100   -0.01750   59.71880   59.71880   42.94830   42.52060   42.94830    8.07720    8.24100    8.56340   17.91580    8.56340    2.63770    8.52140  -55.99660  -41.61940  -27.32030   17.91580
 3800.00000    8.14880    8.14880   96.35480   97.04940   -0.00530    2.61750    0.05410   10.30460   -0.00530   64.00770   64.00770   58.25240   54.64760   58.25240   10.34130   10.30460    7.43290   13.06260    7.43290    2.61750   12.07520  -55.52090  -41.83880  -26.93580   13.06260
 3850.00000    8.26420    8.26420   97.24730   97.31700   -0.00610    2.61000    0.05850   10.27570   -0.00610   65.91440   65.91440   52.68040   50.80950   52.68040   10.40190   10.27570    7.52150   12.67050    7.52150    2.61000   11.16320  -53.89770  -40.77140  -25.26060   12.67050
 3900.00000    8.15110    8.15110   66.95010   52.06710   -0.01170    2.66220    0.02790   19.20600   -0.01170   62.18170   62.18170   41.99360   40.09980   41.99360   17.04890   19.20600   11.85560   23.28380   11.85560    2.66220   16.84310  -49.34990  -36.65720  -20.54250   23.28380
 3950.00000    8.19800    8.19800  155.52040  167.49020    0.01890    2.62030    0.05250    5.97050    0.01890   77.82740   77.82740   73.40710   72.10820   73.40710    6.42070    5.97050    5.83210    9.92080    5.83210    2.62030   10.89230  -47.30570  -34.06140  -17.33890    9.92080
 4000.00000    8.48360    8.48360   99.82620   84.02800   -0.02650    2.63550    0.04360   11.90080   -0.02650   60.57960   60.57960   35.69830   32.07750   35.69830   11.26430   11.90080   16.89940   38.55260   16.89940    2.63550    9.21060  -39.40610  -25.93900   -8.61260   38.55260
 4050.00000    8.48310    8.48310  112.33070  121.76730   -0.00970    2.61740    0.05420    8.24200   -0.00970   61.00490   61.00490   42.80850   36.11270   42.80850    8.69200    8.24200   10.50730   56.68700   10.50730    2.61740    8.26020  -33.74060  -19.38460   -2.32450   56.68700
 4100.00000   10.01670   10.01670  136.63480  152.30200    0.20130    2.42880    0.16440    6.56590    0.20130   77.06830   77.06830   62.31870   56.73790   62.31870    7.19910    6.56590    6.80900   10.10900    6.80900    2.42880    8.33230  -39.63620  -24.89230   -8.21780   10.10900
 4150.00000   11.68790   11.68790  294.67940  291.38380    0.13640    2.04830    0.38700    3.43190    0.13640   99.92650   99.92650   81.43810   79.78120   81.43810    3.60910    3.43190    2.84570    5.05830    2.84570    2.04830    4.75150  -40.31590  -26.38310  -10.09180    5.05830
 4200.00000    8.10670    8.10670   61.73340   59.70040   -0.02140    2.64930    0.03550   16.75030   -0.02140   63.85690   63.85690   45.47640   40.68570   45.47640   16.28460   16.75030   10.36320   19.61820   10.36320    2.64930   14.83220  -44.87070  -30.40940  -14.50380   19.61820
 4250.00000   13.09740   13.09740  202.66110  197.04430    0.17090    1.91590    0.46440    5.07500    0.17090   85.77770   85.77770   62.26210   61.03340   62.26210    5.29520    5.07500    4.32650    5.39620    4.32650    1.91590    5.80220  -39.98640  -24.49030   -8.96780    5.39620
 4300.00000   13.34700   13.34700  222.32710  227.62510    0.18970    1.93580    0.45270    4.39470    0.18970   83.42910   83.42910   62.15200   56.36740   62.15200    4.71760    4.39470    5.01010    6.63090    5.01010    1.93580    5.18250  -38.87770  -23.77010   -8.63080    6.63090
 4350.00000   12.29050   12.29050  294.39770  317.13810    0.17550    1.98070    0.42650    3.15320    0.17550   86.33570   86.33570   64.28790   57.26310   64.28790    3.58640    3.15320    3.52020    7.20460    3.52020    1.98070    6.14300  -36.87350  -25.64170  -10.88800    7.20460
 4400.00000    8.04250    8.04250   30.80720   22.66410   -0.02460    2.63870    0.04170   44.12260   -0.02460   57.21890   57.21890   29.02090   27.64470   29.02090   32.72490   44.12260   16.31730   51.03060   16.31730    2.63870   24.45400  -43.02720  -35.67380  -21.30330   51.03060
 4450.00000    8.14440    8.14440   72.16110   68.89900    0.00150    2.60660    0.06050   14.51400    0.00150   67.84250   67.84250   67.65410   61.39590   67.65410   13.76160   14.51400   10.03590   14.89480   10.03590    2.60660   15.32890  -40.74630  -33.15810  -19.17320   14.89480
 4500.00000    8.12310    8.12310   74.23720   73.35200    0.01450    2.66550    0.02600   13.63290    0.01450   63.09770   63.09770   34.99380   35.91700   34.99380   13.80350   13.63290    9.87340   22.41050    9.87340    2.66550   12.86720  -36.35680  -30.84510  -17.24340   22.41050
 4550.00000   10.79810   10.79810  172.50380  190.38930    0.20130    2.02170    0.40250    5.25900    0.20130   82.61270   82.61270   59.89800   55.05500   59.89800    5.79340    5.25900    4.79440    8.09740    4.79440    2.02170    6.60070  -32.69530  -25.13760  -11.91900    8.09740
 4600.00000    8.18300    8.18300   64.39240   60.07740    0.01800    2.68860    0.01250   16.64520    0.01800   62.84190   62.84190   37.87160   36.40340   37.87160   15.83330   16.64520    9.98990   22.77710    9.98990    2.68860   14.71260  -35.37660  -28.74820  -15.91530   22.77710
 4650.00000    8.29560    8.29560   61.95130   66.21640    0.02140    2.54800    0.09470   15.10200    0.02140   64.06620   64.06620   49.54030   42.69720   49.54030   16.04080   15.10200    9.78280   28.47700    9.78280    2.54800   17.16560  -36.84290  -31.00260  -18.55290   28.47700
 4700.00000    8.20390    8.20390  100.63680   99.71780   -0.01430    2.63910    0.04150   10.02830   -0.01430   67.13460   67.13460   51.87140   49.46840   51.87140   10.02450   10.02830    7.79600   14.29370    7.79600    2.63910   11.59670  -34.87730  -27.51770  -15.45360   14.29370
 4750.00000    8.23530    8.23530   84.79730   79.54310   -0.00510    2.66430    0.02680   12.57180   -0.00510   64.78670   64.78670   46.70010   44.52570   46.70010   12.20340   12.57180    8.52620   17.64430    8.52620    2.66430   12.25010  -34.14430  -29.00800  -17.32710   17.64430
 4800.00000   12.38410   12.38410  296.59190  303.19360    0.18230    2.24420    0.27240    3.30740    0.18230   86.34700   86.34700   82.10690   74.71170   82.10690    3.61340    3.30740    2.74040    7.60750    2.74040    2.24420    5.07430  -29.55600  -23.15220  -11.85440    7.60750
 4850.00000   13.26980   13.26980  310.31540  313.24400    0.18220    2.22850    0.28160    3.19240    0.18220   95.78070   95.78070   91.55740   83.75860   91.55740    3.38480    3.19240    2.64240    6.93740    2.64240    2.22850    3.82350  -24.07450  -14.58860   -3.67650    6.93740
 4900.00000    9.56720    9.56720  166.81910  176.87220    0.13130    2.39100    0.18650    5.65380    0.13130   98.61140   98.61140  120.75890  109.38330  120.75890    6.38830    5.65380    5.35910   10.02520    5.35910    2.39100    8.37640  -28.71590  -21.60580  -10.53170   10.02520
