~Version ---------------------------------------------------
VERS.      2.0 : CWLS log ASCII Standard -VERSION 2.0
WRAP.       NO : One line per depth step
CREA. 12/21/17 : LAS Creation Date
~Well ------------------------------------------------------
STRT.FT                         1250.0 : START DEPTH
STOP.FT                        12650.0 : STOP DEPTH
STEP.FT                       50.00000 : STEP LENGTH
NULL.                          -999.25 : NULL VALUE
COMP. AMOCO CANADA PETROLEUM CO., LTD. : COMPANY
WELL. AMOCO A-1 DEEP VALLEY 6-32-61-23 : WELL
FLD .                                  : FIELD
LOC .                                  : LOCATION
CTRY.                           CANADA : COUNTRY
SRVC.           Schlumberger of Canada : SERVICE COMPANY
DATE.                      06-Sep-1970 : LOGDATE
PROV.                          Alberta : PROVINCE
UWI .                 100063206123W500 : UNIQUE WELL ID
SLAT.WGS84                    54.31655 : SURFACE LATITUDE
SLON.WGS84                   -117.4164 : SURFACE LONGITUDE
~Curve Information -----------------------------------------
DEPT    .FT    : Depth Curve
CALDED  .IN    : CALIPER FROM DENSITY LOG [ADJ. TO RESISTIVITY LOG]
CALNED  .IN    : CALIPER FROM SNP LOG [ADJ. TO RESISTIVITY LOG]
CALSED  .IN    : CALIPER FROM SONIC LOG
CALWS   .IN    : CALIPER [CALSED]
CONDWS  .MMHO  : CONDUCTIVITY [1000/DRESWS]
CORRED  .G/C3  : DENSITY CORRECTION FROM DENSITY LOG [ADJ. TO RESISTIVITY LOG]
DCORWS  .G/C3  : DENSITY CORRECTION [CORRED]
DENWS   .G/C3  : FORMATION BULK DENSITY [RHOBED]
DPHILSED.V/V   : DENSITY POROSITY LIMESTONE [M=2.71, F=1.00] FROM DENSITY LOG [ADJ. TO RESISTIVITY LOG]
DPOLSWS .V/V   : DENSITY POROSITY LIMESTONE [CALC FROM DENWS,M=2.71, F=1.00]
DRESWS  .OHMM  : DEEP RESISTIVITY [ILDED]
DTED    .US/F  : DELTA-T FROM SONIC LOG [ADJ. TO RESISTIVITY LOG]
DTWS    .US/F  : COMPRESSIONAL SONIC [DTED]
GRDED   .GAPI  : GAMMA RAY FROM DENSITY LOG [ADJ. TO RESISTIVITY LOG]
GRNED   .GAPI  : GAMMA RAY FROM SNP LOG [ADJ. TO RESISTIVITY LOG]
GRSED   .GAPI  : GAMMA RAY FROM SONIC LOG
GRWS    .GAPI  : GAMMA RAY [GRSED SPL. TO GRDED @ 1502'& SPL. TO GRNED @ 12657']
ILDED   .OHMM  : DEEP INDUCTION RESISTIVITY FROM RESISTIVITY LOG
ILMED   .OHMM  : MEDIUM INDUCTION FROM RESISTIVITY LOG
LL8ED   .OHMM  : LATEROLOG 8 FROM RESISTIVITY LOG
MRESWS  .OHMM  : MEDIUM RESISTIVITY [ILMED]
NPHILSED.V/V   : NEUTRON POROSITY LIMESTONE FROM SNP LOG [ADJ. TO RESISTIVITY LOG]
NPOLSWS .V/V   : NEUTRON POROSITY LIMESTONE [NPHILSED]
RHOBED  .G/C3  : BULK DENSITY FROM DENSITY LOG [ADJ. TO RESISTIVITY LOG]
SPRED   .MV    : SPONTANEOUS POTENTIAL FROM RESISTIVITY LOG
SPWS    .MV    : SPONTANEOUS POTENTIAL [BASELINE 0 MV,SPRED]
SRESWS  .OHMM  : SHALLOW RESISTIVITY [LLBED]
~Params ----------------------------------------------------
PD  .                     GL : PERMANENT DATUM
EPD .FT                 3450 : ELEVATION PERMANENT DATUM
LMF .                     KB : LOG MEASURED FROM
DAPD.FT                   14 : FEET ABOVE PERMANENT DATUM
EKB .FT                 3464 : KELLY BUSHING
EGL .FT                 3450 : GROUND LEVEL
DATE.               11/06/70 : RUN DATE
RUN .                      1 : RUN NUMBER
DD  .FT                12700 : DEPTH DRILLER
DL  .FT                12697 : DEPTH LOGGER
BLI .FT                12691 : BOTTOM LOG INTERVAL
TLI .FT                 1513 : TOP LOG INTERVAL
CBD .FT                 1514 : CASING BOTTOM DRILLER
CBL .FT                 1513 : CASING BOTTOM LOGGER
BS  .IN                 8.75 : BIT SIZE
BSD .FT                12700 : BIT SIZE AT DEPTH
DFT .                    GEL : DRILLING FLUID TYPE
DFD .                    9.1 : DRILLING FLUID DENSITY
DFV .                     85 : DRILLING FLUID VISCOSITY
DFPH.                    8.5 : DRILLING FLUID PH
DFL .                   11.8 : DRILLING FLUID LOSS
MSS .               MEASURED : MUD SAMPLE SOURCE
RMS .OHMM               2.56 : RESISTIVITY MUD SAMPLE
MST .DEGF                 59 : MUD SAMPLE TEMPERATURE
RMF .OHMM               2.14 : RESISTIVITY MUD FILTRATE SAMPLE
MFST.DEGF                 58 : MUD FILTRATE SAMPLE TEMPERATURE
RMC .OHMM               2.35 : RESISTIVITY MUD CAKE
MCST.DEGF                 62 : MUD CAKE SAMPLE TEMPERATURE
TCS .HRS                 500 : TIME CIRCULATED STOPPED
TLAB.HRS                  30 : TIME LOGGER AT BOTTOM
LUN .                   7501 : LOGGING UNIT NUMBER
LUL .                    EDM : LOGGING UNIT LOCATION
ENGI.                HAYWOOD : RECORDING ENGINEER
WITN.                   DION : WITNESSED BY
CLNT.                A2DTECH : CLIENT CODE
ORIG.            2" 5" PRINT : ORIGIN OF DATA
UWI .       100063206123W500 : UNIQUE WELL ID
DICO. A2D Technologies, Inc. : DIGITIZING COMPANY
~Other -----------------------------------------------------
DIL-LAT,FDC-SNP-BCS LOG RAN
~ASCII -----------------------------------------------------
# ...
 3850.00000    -999.25    -999.25   10.53950   10.53950  226.74710    -999.25    -999.25    -999.25    -999.25    -999.25    4.41020   95.05190   95.05190    -999.25    -999.25   66.25930   66.25930    4.41020    4.31840    4.10940    4.31840    -999.25    -999.25    -999.25  -53.27250   -6.10420    4.10940
 3900.00000    -999.25    -999.25    8.74660    8.74660   38.38390    -999.25    -999.25    -999.25    -999.25    -999.25   26.05260   77.46210   77.46210    -999.25    -999.25   35.58230   35.58230   26.05260   23.73420   19.56910   23.73420    -999.25    -999.25    -999.25  -70.18560  -23.01730   19.56910
 3950.00000    -999.25    -999.25   10.27850   10.27850  142.14440    -999.25    -999.25    -999.25    -999.25    -999.25    7.03510   83.45710   83.45710    -999.25    -999.25   61.55890   61.55890    7.03510    6.78320    8.50760    6.78320    -999.25    -999.25    -999.25  -52.72580   -5.55160    8.50760
 4000.00000    -999.25    -999.25   10.87970   10.87970   95.25350    -999.25    -999.25    -999.25    -999.25    -999.25   10.49830   78.56170   78.56170    -999.25    -999.25   56.77130   56.77130   10.49830    9.99390    9.29540    9.99390    -999.25    -999.25    -999.25  -54.04910   -6.28250    9.29540
 4050.00000    -999.25    -999.25   10.36660   10.36660  178.49810    -999.25    -999.25    -999.25    -999.25    -999.25    5.60230   99.13400   99.13400    -999.25    -999.25   71.84740   71.84740    5.60230    5.18210    4.92970    5.18210    -999.25    -999.25    -999.25  -53.35740   -4.99850    4.92970
 4100.00000    -999.25    -999.25   11.00630   11.00630   67.86380    -999.25    -999.25    -999.25    -999.25    -999.25   14.73540   82.37430   82.37430    -999.25    -999.25   46.33510   46.33510   14.73540   15.50150   14.55250   15.50150    -999.25    -999.25    -999.25  -59.90960  -10.95830   14.55250
 4150.00000    -999.25    -999.25   10.51560   10.51560  207.66280    -999.25    -999.25    -999.25    -999.25    -999.25    4.81550   89.26590   89.26590    -999.25    -999.25   57.24490   57.24490    4.81550    4.65430    4.26640    4.65430    -999.25    -999.25    -999.25  -52.79770   -3.25410    4.26640
 4200.00000    -999.25    -999.25   10.52350   10.52350  177.63250    -999.25    -999.25    -999.25    -999.25    -999.25    5.62960   87.87360   87.87360    -999.25    -999.25   65.30160   65.30160    5.62960    5.46870    5.52680    5.46870    -999.25    -999.25    -999.25  -54.63010   -4.49420    5.52680
 4250.00000    -999.25    -999.25   10.02520   10.02520   68.10920    -999.25    -999.25    -999.25    -999.25    -999.25   14.68230   81.11110   81.11110    -999.25    -999.25   43.38300   43.38300   14.68230   14.97730   13.36320   14.97730    -999.25    -999.25    -999.25  -57.95320   -7.22490   13.36320
 4300.00000    -999.25    -999.25   11.40700   11.40700  191.72150    -999.25    -999.25    -999.25    -999.25    -999.25    5.21590   89.41650   89.41650    -999.25    -999.25   66.40100   66.40100    5.21590    4.98810    5.62760    4.98810    -999.25    -999.25    -999.25  -54.38350   -3.06290    5.62760
 4350.00000    -999.25    -999.25   10.28690   10.28690  199.39780    -999.25    -999.25    -999.25    -999.25    -999.25    5.01510   99.18790   99.18790    -999.25    -999.25   63.97670   63.97670    5.01510    4.91130    4.64110    4.91130    -999.25    -999.25    -999.25  -57.89990   -5.96520    4.64110
 4400.00000    -999.25    -999.25    8.73520    8.73520   36.77850    -999.25    -999.25    -999.25    -999.25    -999.25   27.18980   80.23230   80.23230    -999.25    -999.25   36.10870   36.10870   27.18980   28.85820   25.59560   28.85820    -999.25    -999.25    -999.25  -76.66090  -23.40900   25.59560
 4450.00000    -999.25    -999.25    9.16850    9.16850  150.00150    -999.25    -999.25    -999.25    -999.25    -999.25    6.66660  112.68100  112.68100    -999.25    -999.25   65.16750   65.16750    6.66660    6.20070   10.93400    6.20070    -999.25    -999.25    -999.25  -56.78020   -2.21110   10.93400
 4500.00000    -999.25    -999.25   10.72990   10.72990  174.33450    -999.25    -999.25    -999.25    -999.25    -999.25    5.73610  137.07900  137.07900    -999.25    -999.25   60.88560   60.88560    5.73610    5.45390    6.70000    5.45390    -999.25    -999.25    -999.25  -63.82970   -7.94340    6.70000
 4550.00000    -999.25    -999.25   10.40610   10.40610  144.74080    -999.25    -999.25    -999.25    -999.25    -999.25    6.90890   86.68260   86.68260    -999.25    -999.25   64.37880   64.37880    6.90890    6.68310    7.71850    6.68310    -999.25    -999.25    -999.25  -67.11970   -9.91620    7.71850
 4600.00000    -999.25    -999.25   10.92610   10.92610  161.62920    -999.25    -999.25    -999.25    -999.25    -999.25    6.18700   81.59760   81.59760    -999.25    -999.25   66.19290   66.19290    6.18700    5.88710    5.53240    5.88710    -999.25    -999.25    -999.25  -65.91840   -7.39770    5.53240
 4650.00000    -999.25    -999.25   10.33890   10.33890  165.63970    -999.25    -999.25    -999.25    -999.25    -999.25    6.03720   86.36980   86.36980    -999.25    -999.25   69.80630   69.80630    6.03720    5.83260    6.51610    5.83260    -999.25    -999.25    -999.25  -63.34700   -3.50910    6.51610
 4700.00000    -999.25    -999.25   10.72880   10.72880  118.44970    -999.25    -999.25    -999.25    -999.25    -999.25    8.44240   83.93600   83.93600    -999.25    -999.25   91.14990   91.14990    8.44240    8.26740    7.82810    8.26740    -999.25    -999.25    -999.25  -72.24410  -11.08900    7.82810
 4750.00000    -999.25    -999.25   10.81010   10.81010  114.57900    -999.25    -999.25    -999.25    -999.25    -999.25    8.72760   85.47660   85.47660    -999.25    -999.25   88.21790   88.21790    8.72760    8.53620    9.04140    8.53620    -999.25    -999.25    -999.25  -71.81240   -9.34010    9.04140
 4800.00000    -999.25    -999.25   11.08660   11.08660  128.60580    -999.25    -999.25    -999.25    -999.25    -999.25    7.77570   84.52060   84.52060    -999.25    -999.25   94.11280   94.11280    7.77570    7.61020    8.68950    7.61020    -999.25    -999.25    -999.25  -69.23740   -5.44790    8.68950
 4850.00000    -999.25    -999.25   10.35820   10.35820  127.18120    -999.25    -999.25    -999.25    -999.25    -999.25    7.86280   94.14150   94.14150    -999.25    -999.25  126.97200  126.97200    7.86280    7.69890    9.30560    7.69890    -999.25    -999.25    -999.25  -69.80170   -4.65620    9.30560
 4900.00000    -999.25    -999.25   10.57650   10.57650   65.56730    -999.25    -999.25    -999.25    -999.25    -999.25   15.25150   77.19390   77.19390    -999.25    -999.25   83.61080   83.61080   15.25150   14.68450   17.46700   14.68450    -999.25    -999.25    -999.25  -82.02750  -15.51600   17.46700
 4950.00000    -999.25    -999.25   10.96100   10.96100   91.84250    -999.25    -999.25    -999.25    -999.25    -999.25   10.88820   86.40750   86.40750    -999.25    -999.25   97.09900   97.09900   10.88820   10.32780   11.68980   10.32780    -999.25    -999.25    -999.25  -81.02080  -13.14300   11.68980
 5000.00000    -999.25    -999.25   11.19050   11.19050  108.84240    -999.25    -999.25    -999.25    -999.25    -999.25    9.18760   85.94120   85.94120    -999.25    -999.25  107.40000  107.40000    9.18760    8.96540   10.18940    8.96540    -999.25    -999.25    -999.25  -82.05230  -12.80840   10.18940
 5050.00000    -999.25    -999.25   11.77310   11.77310  138.42940    -999.25    -999.25    -999.25    -999.25    -999.25    7.22390   88.69900   88.69900    -999.25    -999.25  101.82910  101.82910    7.22390    7.04390    8.14860    7.04390    -999.25    -999.25    -999.25  -81.81480  -11.20500    8.14860
 5100.00000    -999.25    -999.25   11.69670   11.69670  129.60420    -999.25    -999.25    -999.25    -999.25    -999.25    7.71580   85.25550   85.25550    -999.25    -999.25  101.23830  101.23830    7.71580    7.47820    8.28660    7.47820    -999.25    -999.25    -999.25  -82.08500  -10.10890    8.28660
