~Version ---------------------------------------------------
VERS. 2.0 : CWLS log ASCII Standard -VERSION 2.0
WRAP.  NO : ONE LINE PER DEPTH STEP
~Well ------------------------------------------------------
STRT.F                      557.7428 : START DEPTH
STOP.F                    10838.7428 : STOP DEPTH
STEP.F                       0.50000 : STEP LENGTH
NULL.                        -999.25 : NULL VALUE
COMP.           PETROFINA CANADA LTD : COMPANY
WELL. FINA AMOCO HB FOXCK 6-35-60-18 : WELL
FLD .                                : FIELD
LOC .                                : LOCATION
CTRY.                         CANADA : COUNTRY
SRVC.         Schlumberger of Canada : SERVICE COMPANY
DATE.                    29-Aug-1976 : LOGDATE
PROV.                        Alberta : PROVINCE
UWI .               100063506018W500 : UNIQUE WELL ID
SLAT.WGS84                  54.22952 : SURFACE LATITUDE
SLON.WGS84                 -116.5928 : SURFACE LONGITUDE
~Curve Information -----------------------------------------
DEPT   .F                 : 
SPR    .MV                : SPONTANEOUS POTENTIAL FROM RESISTIVITY
ILD    .OHMM              : DEEP INDUCTION RESISTIVITY
ILM    .OHMM              : INDUCTION MEDIUM RESISTIVITY
LL8    .OHMM              : LATEROLOG-8 RESISTIVITY
CALD   .IN   70 280 01 00 : CALIPER
DCOR   .G/C3 45 356 01 00 : DENSITY CORRECTION
GRD    .GAPI 45 310 01 00 : GAMMA RAY FROM DENSITY LOG
RHOB   .G/C3 45 350 01 00 : BULK DENSITY
DPOR_SS.DEC               : DENSITY POROSITY SANDSTONE
NPOR_S .DEC               : ENCHANCED THERMAL NEUTRON POROSITY IN SELECTED LITHOLOGY SANDSTONE
DPOR_LS.DEC               : DENSITY POROSITY LIMESTONE
NPOR_LS.DEC               : ENCHANCED THERMAL NEUTRON POROSITY IN SELECTED LITHOLOGY SANDSTONE
DT     .US/F 60 520 00 00 : ACOUSTIC TRANSIT TIME SLOWNESS, DELTA T
CALS   .IN                : 
GRS    .GAPI              : GAMMA RAY FROM SONIC LOG
GR     .GAPI              : GAMMA RAY
~Params ----------------------------------------------------
PD  .                     GL : PERMANENT DATUM
EPD .FT                 3085 : ELEVATION PERMANENT DATUM
LMF .                     KB : LOG MEASURED FROM
DAPD.FT                 15.7 : FEET ABOVE PERMANENT DATUM
EKB .FT               3100.9 : KELLY BUSHING
EDF .FT               3085.2 : DRILLING FLOOR
EGL .FT               3085.5 : GROUND LEVEL
DATE.               08/29/76 : RUN DATE
RUN .                      1 : RUN NUMBER
DD  .FT                10843 : DEPTH DRILLER
DL  .FT                10840 : DEPTH LOGGER
BLI .FT                10834 : BOTTOM LOG INTERVAL
TLI .FT                 1119 : TOP LOG INTERVAL
CBD .FT                 1119 : CASING BOTTOM DRILLER
CBL .FT                 1119 : CASING BOTTOM LOGGER
BS  .IN                 8.75 : BIT SIZE
BSD .FT                10843 : BIT SIZE AT DEPTH
DFT .               GEL CHEM : DRILLING FLUID TYPE
DFD .                    9.3 : DRILLING FLUID DENSITY
DFV .                    150 : DRILLING FLUID VISCOSITY
DFPH.                   10.5 : DRILLING FLUID PH
DFL .                    7.0 : DRILLING FLUID LOSS
MSS .            CIRCULATION : MUD SAMPLE SOURCE
RMS .OHMM               2.43 : RESISTIVITY MUD SAMPLE
MST .DEGF                 76 : MUD SAMPLE TEMPERATURE
RMF .OHMM               2.33 : RESISTIVITY MUD FILTRATE SAMPLE
MFST.DEGF                 73 : MUD FILTRATE SAMPLE TEMPERATURE
RMC .OHMM               2.22 : RESISTIVITY MUD CAKE
MCST.DEGF                 67 : MUD CAKE SAMPLE TEMPERATURE
RMB .OHMM               0.86 : RESISTIVITY MUD AT BHT
TCS .HRS                   3 : TIME CIRCULATED STOPPED
LUN .                   7691 : LOGGING UNIT NUMBER
LUL .                    WCT : LOGGING UNIT LOCATION
ENGI.              CROCKFORD : RECORDING ENGINEER
WITN.                 HALKOW : WITNESSED BY
CLNT.                A2DTECH : CLIENT CODE
ORIG.            2" 5" PRINT : ORIGIN OF DATA
UWI .       100063506018W500 : UNIQUE WELL ID
DICO. A2D Technologies, Inc. : DIGITIZING COMPANY
~Other -----------------------------------------------------
~ASCII -----------------------------------------------------
# ...
 8899.74280 -145.54260 1106.64100 1299.44690 1497.58940    8.85630    0.09210   13.94620    2.79070    -999.25    -999.25   -0.08220    0.00930   50.14660    8.87580   10.67400    -999.25
 8900.24280 -147.19360 1211.69750 1204.54370 1494.28740    8.62800    0.08420   13.35900    2.76160    -999.25    -999.25   -0.06080    0.00960   49.48520    8.87230   11.75910    -999.25
 8900.74280 -149.01150 1307.88950 1114.21640 1491.19510    8.64260    0.05230   13.06590    2.75130    -999.25    -999.25   -0.03870    0.00900   48.90590    8.86870   12.56570    -999.25
 8901.24280 -151.01840 1193.11450 1030.64250 1488.11070    8.74180    0.02890   13.35640    2.77060    -999.25    -999.25   -0.02870    0.00800   48.68350    8.86510   13.35570    -999.25
 8901.74280 -152.81400  868.96840  889.67200 1474.95520    8.69950    0.04290   13.84310    2.80340    -999.25    -999.25   -0.02920    0.00690   48.77030    8.86150   14.14580    -999.25
 8902.24280 -154.06460  539.52780  645.51870 1436.23550    8.58140    0.06120   14.15850    2.82000    -999.25    -999.25   -0.04570    0.00590   48.91950    8.85790   14.87600    -999.25
 8902.74280 -154.89860  370.95040  410.91990 1185.36040    8.55700    0.06520   14.26730    2.81990    -999.25    -999.25   -0.06420    0.00500   48.89510    8.85430   15.51650    -999.25
 8903.24280 -155.51630  313.88160  286.60340  775.30540    8.59620    0.05940   14.34680    2.81970    -999.25    -999.25   -0.07150    0.00460   48.79740    8.84780   15.80740    -999.25
 8903.74280 -155.94850  323.51260  234.49360  514.89660    8.63540    0.05220   14.35000    2.81960    -999.25    -999.25   -0.06700    0.00460   48.92150    8.83360   15.19660    -999.25
 8904.24280 -156.10470  386.08390  216.84840  407.78480    8.67460    0.04290   14.28520    2.81800    -999.25    -999.25   -0.06910    0.00460   49.03380    8.81480   14.12390    -999.25
 8904.74280 -156.09260  440.54450  257.05480  379.51480    8.69650    0.03140   14.72720    2.81870    -999.25    -999.25   -0.06940    0.00500   48.93160    8.79600   13.42600    -999.25
 8905.24280 -156.12140  456.00800  348.37680  430.11180    8.69790    0.02240   15.56270    2.81300    -999.25    -999.25   -0.06710    0.00590   48.78140    8.78120   13.36290    -999.25
 8905.74280 -156.09620  436.15610  405.66310  597.41150    8.69720    0.02120   16.42340    2.82310    -999.25    -999.25   -0.06370    0.00680   48.57890    8.77580   13.62420    -999.25
 8906.24280 -155.94490  404.55970  400.04590  897.32320    8.69650    0.02710   17.65450    2.84640    -999.25    -999.25   -0.06390    0.00760   48.45470    8.77590   13.89420    -999.25
 8906.74280 -155.69690  371.72780  362.97490 1160.35460    8.69580    0.03070   19.39410    2.86300    -999.25    -999.25   -0.07800    0.00850   48.50990    8.77370   14.28860    -999.25
 8907.24280 -155.35380  336.80850  304.27290 1154.02970    8.69520    0.02920   21.67300    2.86980    -999.25    -999.25   -0.08960    0.01160   48.44990    8.76740   14.65260    -999.25
 8907.74280 -154.82630  291.30400  249.89980  944.33440    8.69450    0.02490   22.27350    2.85390    -999.25    -999.25   -0.09910    0.01770   48.27380    8.75960   15.02070    -999.25
 8908.24280 -154.18010  236.93620  205.24120  650.17400    8.69380    0.01820   20.56950    2.82680    -999.25    -999.25   -0.09780    0.02480   48.22010    8.75170   15.49990    -999.25
 8908.74280 -153.67700  200.38660  168.54700  403.46890    8.69310    0.01010   18.78740    2.81300    -999.25    -999.25   -0.08030    0.02990   48.37480    8.74390   16.09480    -999.25
 8909.24280 -153.37000  179.67610  138.41890  316.11830    8.69250    0.00600   17.66550    2.81750    -999.25    -999.25   -0.06500    0.02880   48.73760    8.73610   16.96520    -999.25
 8909.74280 -153.03720  164.43930  117.31540  323.24350    8.69180    0.01080   17.30000    2.83620    -999.25    -999.25   -0.06260    0.02220   48.78280    8.72670   18.14590    -999.25
 8910.24280 -152.47430  154.94820  110.79320  372.96140    8.69110    0.02000   17.53830    2.85670    -999.25    -999.25   -0.07330    0.01530   48.38580    8.71500   19.45460    -999.25
 8910.74280 -151.53730  152.43700  120.48190  425.49240    8.69040    0.02800   18.01890    2.87710    -999.25    -999.25   -0.08800    0.01200   48.50000    8.70290   20.86530    -999.25
 8911.24280 -150.38440  162.83310  143.11980  474.23710    8.68980    0.02400   18.07650    2.87700    -999.25    -999.25   -0.10090    0.01170   48.98290    8.69180   21.99310    -999.25
 8911.74280 -149.25720  195.88680  184.65980  543.73380    8.68910    0.02120   17.55120    2.87770    -999.25    -999.25   -0.10660    0.01240   49.34880    8.68540   21.90460    -999.25
 8912.24280 -148.22080  245.73160  250.18230  638.35110    8.68840    0.02950   17.24200    2.89920    -999.25    -999.25   -0.10140    0.01370   49.71980    8.68280   20.38580    -999.25
 8912.74280 -147.39260  304.63280  339.01520  761.03430    8.68770    0.03270   18.10950    2.89650    -999.25    -999.25   -0.10730    0.01540   49.92490    8.68020   18.72030    -999.25
 8913.24280 -146.60260  336.95200  401.93540  938.45750    8.68700    0.04050   19.84030    2.87350    -999.25    -999.25   -0.11990    0.01910   49.88570    8.67760   17.93550    -999.25
 8913.74280 -145.75810  318.70200  334.72040 1023.74970    8.68640    0.05100   21.37440    2.84860    -999.25    -999.25   -0.11020    0.02490   49.62980    8.67760   17.78610    -999.25
 8914.24280 -144.77260  280.22680  216.19150  818.92030    8.68570    0.05160   21.14510    2.83060    -999.25    -999.25   -0.08910    0.03110   49.30880    8.68390   17.78080    -999.25
 8914.74280 -143.70440  240.37840  174.10310  491.64200    8.68500    0.04160   19.50600    2.82470    -999.25    -999.25   -0.07670    0.03730   48.98930    8.69390   17.52170    -999.25
 8915.24280 -142.79660  207.88220  160.38330  292.26350    8.68430    0.02310   18.40640    2.80040    -999.25    -999.25   -0.07200    0.04250   48.70580    8.70400   17.09060    -999.25
 8915.74280 -141.92480  184.29630  140.61520  230.37730    8.68390    0.00470   17.89510    2.75830    -999.25    -999.25   -0.06450    0.04490   48.42130    8.71400   17.04880    -999.25
 8916.24280 -141.05970  171.58740  132.56690  229.25830    8.68460   -0.00430   17.80700    2.73350    -999.25    -999.25   -0.04840    0.04270   48.23480    8.72410   17.63000    -999.25
 8916.74280 -140.01480  167.21700  143.66520  243.00000    8.68640   -0.00010   18.37450    2.72510    -999.25    -999.25   -0.02750    0.03730   48.49150    8.73420   18.72700    -999.25
 8917.24280 -138.99150  165.35340  162.91870  267.00010    8.68820    0.00730   19.71350    2.72270    -999.25    -999.25   -0.01430    0.03140   49.01120    8.74420   19.96000    -999.25
 8917.74280 -137.94530  163.51050  184.75140  300.44600    8.68990    0.00310   22.08280    2.72950    -999.25    -999.25   -0.00780    0.02520   49.42910    8.75430   20.71050    -999.25
 8918.24280 -136.68140  152.31830  202.81150  337.08350    8.69170   -0.00480   26.31810    2.73150    -999.25    -999.25   -0.00500    0.01920   49.82010    8.76430   20.16920    -999.25
 8918.74280 -135.28640  126.60620  192.29730  376.34790    8.69350   -0.00420   32.10030    2.73260    -999.25    -999.25   -0.01100    0.01610   50.11720    8.77440   18.42290    -999.25
 8919.24280 -133.55780   98.17950  148.01930  439.10780    8.69530    0.00420   37.58020    2.74240    -999.25    -999.25   -0.01270    0.01920   50.21850    8.78440   16.64470    -999.25
 8919.74280 -131.62180   75.71970  102.01020  465.57690    8.69700    0.01610   40.82790    2.75510    -999.25    -999.25   -0.01480    0.02940   50.23040    8.79450   16.50320    -999.25
 8920.24280 -129.70980   61.22490   70.28340  333.81540    8.69880    0.02600   41.20380    2.77320    -999.25    -999.25   -0.02340    0.04310   50.06010    8.80450   18.07100    -999.25
 8920.74280 -128.07370   52.55170   48.44910  152.07120    8.70060    0.02550   39.91340    2.77830    -999.25    -999.25   -0.03340    0.05690   49.54170    8.81460   20.00440    -999.25
