~Version ---------------------------------------------------
VERS.      2.0 : CWLS log ASCII Standard -VERSION 2.0
WRAP.       NO : One line per depth step
CREA. 09/26/17 : LAS Creation Date
~Well ------------------------------------------------------
STRT.FT                             300.0 : START DEPTH
STOP.FT                           13500.0 : STOP DEPTH
STEP.FT                          50.00000 : STEP LENGTH
NULL.                             -999.25 : NULL VALUE
COMP.          TEXACO EXPLORATION COMPANY : COMPANY
WELL. TEXACO H.B. DISMAL CREEK 6-28-47-14 : WELL
FLD .                                     : FIELD
LOC .                                     : LOCATION
CTRY.                              CANADA : COUNTRY
SRVC.              Schlumberger of Canada : SERVICE COMPANY
DATE.                         09-May-1961 : LOGDATE
PROV.                             Alberta : PROVINCE
UWI .                    100062804714W500 : UNIQUE WELL ID
SLAT.WGS84                       53.08145 : SURFACE LATITUDE
SLON.WGS84                      -115.9911 : SURFACE LONGITUDE
~Curve Information -----------------------------------------
DEPT  .FT         : Depth Curve
CALWS .IN         : CALIPER [MCALED]
CILDED.MMHO       : CONDUCTIVITY FROM IEL LOG
CLLDED.MMHO       : CONDUCTIVITY FROM DLL LOG
CONDWS.MMHO       : CONDUCTIVITY [1000/DRESWS]
DRESWS.OHMM       : DEEP RESISTIVITY [1000/CILDED IF ILDED<1, ILDED &  SPL. TO 1000/CLLED IF LLED<1, LLED @ 11615']
DTED  .US/F       : DELTA-T FROM SONIC LOG [ADJ. TO RESISTIVITY LOG]
DTWS  .US/F       : COMPRESSIONAL SONIC [DTED]
GRED  .GAPI       : GAMMA RAY (CASING & COLLARS) FROM SBL LOG [ADJ. TO RESISTIVITY LOG]
GRNED .UgRa-Eq/T  : GAMMA RAY (CASING & COLLARS) FROM GRN LOG [ADJ. TO RESISTIVITY LOG]
GRSED .UgRa-Eq/T  : GAMMA RAY FROM SONIC LOG [ADJ. TO RESISTIVITY LOG]
GRWS  .GAPI       : GAMMA RAY [GRED SPL. TO GRSED*16.5 @ 1002' & GRNED*16.5 @ 11622']
ILDED .OHMM       : DEEP INDUCTION RESISTIVITY FROM IEL LOG
LLED  .OHMM       : FOCUSED LATEROLOG RESISTIVITY FROM DLL LOG
MCALED.IN         : MICROCALIPER FROM MICROLOG [ADJ. TO RESISTIVITY LOG]
NEUTED.SCPS       : NEUTRON (CASING & COLLARS) FROM GRN LOG [ADJ. TO RESISTIVITY LOG]
NEUTWS.SCPS       : NEUTRON [NEUTED]
SNED  .OHMM       : SHORT NORMAL RESISTIVITY FROM IEL LOG
SPRED .MV         : SPONTANEOUS POTENTIAL FROM IEL LOG
SPWS  .MV         : SPONTANEOUS POTENTIAL [BASELINE 0 MV, SPRED]
SRESWS.OHMM       : SHALLOW RESISTIVITY [SNED]
~Params ----------------------------------------------------
LMF .                     KB : LOG MEASURED FROM
DMF .                     KB : DRILLING MEASURED FROM
EKB .FT                 3712 : KELLY BUSHING
EGL .FT                 3696 : GROUND LEVEL
DATE.               05/09/61 : RUN DATE
RUN .                      1 : RUN NUMBER
DD  .FT                13533 : DEPTH DRILLER
DL  .FT                11643 : DEPTH LOGGER
BLI .FT                11638 : BOTTOM LOG INTERVAL
TLI .FT                10032 : TOP LOG INTERVAL
CBD .FT                10039 : CASING BOTTOM DRILLER
CBL .FT                10032 : CASING BOTTOM LOGGER
BS  .IN                8.375 : BIT SIZE
BSD .FT                13533 : BIT SIZE AT DEPTH
DFT .              LIME BASE : DRILLING FLUID TYPE
DFD .                   10.1 : DRILLING FLUID DENSITY
DFV .                     85 : DRILLING FLUID VISCOSITY
DFPH.                   13.5 : DRILLING FLUID PH
DFL .                    4.2 : DRILLING FLUID LOSS
RMS .OHMM               0.35 : RESISTIVITY MUD SAMPLE
MST .DEGF                 75 : MUD SAMPLE TEMPERATURE
RMF .OHMM               0.24 : RESISTIVITY MUD FILTRATE SAMPLE
MFST.DEGF                 66 : MUD FILTRATE SAMPLE TEMPERATURE
RMC .OHMM               0.84 : RESISTIVITY MUD CAKE
MCST.DEGF                 56 : MUD CAKE SAMPLE TEMPERATURE
RMB .OHMM               0.13 : RESISTIVITY MUD AT BHT
TCS .HRS                   3 : TIME CIRCULATED STOPPED
LUN .                   2765 : LOGGING UNIT NUMBER
LUL .                    SKW : LOGGING UNIT LOCATION
ENGI.                PRATHER : RECORDING ENGINEER
WITN.                 RAKACH : WITNESSED BY
CLNT.                A2DTECH : CLIENT CODE
ORIG.        2" 5" 10" PRINT : ORIGIN OF DATA
UWI .       100062804714W500 : UNIQUE WELL ID
DICO. A2D Technologies, Inc. : DIGITIZING COMPANY
~Other -----------------------------------------------------
GRN-IEL-LL-ML-BCS LOG RAN
UNABLE TO RECORD SP DUE TO SEVERE DRIFTING CONDITION
LL GIVEN OVER A COMPRESSED SCALE COULD BE VERIFIED FROM 1000/CLLED
TOOL MOMENTARILY STUCK IN HOLE ON FIRST RUN @ 1800' & 2717'.
CNL-LDT IS TVD LOG, NO DATA AVAILABLE
~ASCII -----------------------------------------------------
# ...
 9050.00000   12.44460   81.55470    -999.25   80.24590   12.46170   68.56730   68.56730    -999.25    -999.25    3.58230   59.10800   12.46170    -999.25   12.44460    -999.25    -999.25    9.89070  -57.39460  -26.00990    9.89070
 9100.00000   14.34880  107.56570    -999.25  102.96750    9.71180   73.53910   73.53910    -999.25    -999.25    4.49270   74.12960    9.71180    -999.25   14.34880    -999.25    -999.25    8.79590  -51.33350  -19.53100    8.79590
 9150.00000   12.98000   95.78020    -999.25   94.74720   10.55440   69.59670   69.59670    -999.25    -999.25    4.10930   67.80340   10.55440    -999.25   12.98000    -999.25    -999.25    9.90870  -50.99240  -18.77480    9.90870
 9200.00000   12.44920   36.63500    -999.25   28.88300   34.62250   56.68180   56.68180    -999.25    -999.25    2.71880   44.86020   34.62250    -999.25   12.44920    -999.25    -999.25   16.14800  -49.71220  -17.07680   16.14800
 9250.00000   14.47500   87.69900    -999.25   78.44000   12.74860  101.11010  101.11010    -999.25    -999.25    3.87010   63.85660   12.74860    -999.25   14.47500    -999.25    -999.25   12.77430  -40.94940   -7.89900   12.77430
 9300.00000   15.54850   56.36660    -999.25   45.48410   21.98570  117.64670  117.64670    -999.25    -999.25    3.12700   51.59630   21.98570    -999.25   15.54850    -999.25    -999.25   16.77990  -37.74920   -4.28370   16.77990
 9350.00000   12.63990   83.95000    -999.25   82.22870   12.16120   70.73860   70.73860    -999.25    -999.25    3.68030   60.72500   12.16120    -999.25   12.63990    -999.25    -999.25   10.77950  -43.78310   -9.89980   10.77950
 9400.00000   12.63740   68.14040    -999.25   65.32400   15.30830   64.70260   64.70260    -999.25    -999.25    2.74450   45.28430   15.30830    -999.25   12.63740    -999.25    -999.25   12.22900  -53.87240  -19.57410   12.22900
 9450.00000   13.40580   72.13700    -999.25   69.53860   14.38050   66.51390   66.51390    -999.25    -999.25    4.48670   74.03140   14.38050    -999.25   13.40580    -999.25    -999.25   11.19290  -45.64210  -10.92600   11.19290
 9500.00000   14.24530   45.09860    -999.25   36.51700   27.38450   67.40590   67.40590    -999.25    -999.25    2.99260   49.37710   27.38450    -999.25   14.24530    -999.25    -999.25   16.79490  -58.88390  -23.75270   16.79490
 9550.00000   14.91760   56.47990    -999.25   49.04390   20.38990   73.61770   73.61770    -999.25    -999.25    3.80250   62.74120   20.38990    -999.25   14.91760    -999.25    -999.25   14.92630  -41.23780   -5.69160   14.92630
 9600.00000   13.82970   33.05350    -999.25   25.09510   39.84840   64.22690   64.22690    -999.25    -999.25    3.00290   49.54780   39.84840    -999.25   13.82970    -999.25    -999.25   17.12350  -39.11850   -3.15450   17.12350
 9650.00000   14.25700   22.35570    -999.25   14.45370   69.18640   67.75420   67.75420    -999.25    -999.25    2.90620   47.95230   69.18640    -999.25   14.25700    -999.25    -999.25   31.09490  -40.92750   -4.54850   31.09490
 9700.00000   13.20730   24.99450    -999.25   17.91340   55.82410   60.20640   60.20640    -999.25    -999.25    3.39840   56.07360   55.82410    -999.25   13.20730    -999.25    -999.25   24.21550  -41.08540   -4.28860   24.21550
 9750.00000   14.72470   50.77840    -999.25   43.25090   23.12090   75.68300   75.68300    -999.25    -999.25    4.85690   80.13880   23.12090    -999.25   14.72470    -999.25    -999.25   15.81890  -38.28960   -1.07770   15.81890
 9800.00000   13.73860   34.83200    -999.25   25.73090   38.86380   69.05720   69.05720    -999.25    -999.25    3.17530   52.39160   38.86380    -999.25   13.73860    -999.25    -999.25   18.92490  -42.11520   -4.48830   18.92490
 9850.00000   12.95380   55.72810    -999.25   50.37630   19.85060   68.00940   68.00940    -999.25    -999.25    2.79660   46.14390   19.85060    -999.25   12.95380    -999.25    -999.25   15.55580  -70.88820  -32.84350   15.55580
 9900.00000   14.45180  101.77240    -999.25   89.63790   11.15600   70.04770   70.04770    -999.25    -999.25    4.72900   78.02850   11.15600    -999.25   14.45180    -999.25    -999.25   16.04100  -44.61640   -6.37780   16.04100
 9950.00000   12.30700   25.66840    -999.25   16.87880   59.24600   56.12110   56.12110    -999.25    -999.25    1.99430   32.90590   59.24600    -999.25   12.30700    -999.25    -999.25   54.41660  -66.15680  -27.91820   54.41660
 10000.00000   12.32340   19.86620    -999.25   10.90380   91.71100   52.83130   52.83130    -999.25    -999.25    2.44990   40.42250   91.71100    -999.25   12.32340    -999.25    -999.25    -999.25    -999.25    -999.25    -999.25
 10050.00000   11.29370   76.88260    0.15420   79.47170   12.58310   47.57070   47.57070    -999.25    -999.25    3.17600   52.40400   12.58310  651.95530   11.29370    -999.25    -999.25   13.33440    -999.25    -999.25   13.33440
 10100.00000    9.60320   52.57710   23.80650   51.68120   19.34940   56.16360   56.16360    -999.25    -999.25    2.82120   46.54980   19.34940   37.73920    9.60320    -999.25    -999.25   15.50470    -999.25    -999.25   15.50470
 10150.00000    9.46300   20.96230    3.22860   17.26560   57.91860   53.03010   53.03010    -999.25    -999.25    3.36860   55.58190   57.91860  316.79100    9.46300    -999.25    -999.25   29.25400    -999.25    -999.25   29.25400
 10200.00000    9.74830   39.95910   12.70760   39.19790   25.51160   59.44640   59.44640    -999.25    -999.25    5.24800   86.59200   25.51160   76.83690    9.74830    -999.25    -999.25   28.23820    -999.25    -999.25   28.23820
 10250.00000    9.71950   44.31010    6.83480   42.18340   23.70600   51.58630   51.58630    -999.25    -999.25    0.88000   14.52000   23.70600  228.79250    9.71950    -999.25    -999.25   24.23840    -999.25    -999.25   24.23840
 10300.00000    9.84250    1.53650   -0.07400    1.21820  820.87290   53.46490   53.46490    -999.25    -999.25    0.80040   13.20660  820.87290  719.22760    9.84250    -999.25    -999.25   31.81450    -999.25    -999.25   31.81450
 10350.00000    8.83650   17.71150    6.21810   14.99930   66.66970   51.48370   51.48370    -999.25    -999.25    1.04990   17.32340   66.66970  146.48510    8.83650    -999.25    -999.25   30.49700    -999.25    -999.25   30.49700
 10400.00000    9.35010    9.68000    1.12450    6.28200  159.18600   51.93240   51.93240    -999.25    -999.25    0.91040   15.02160  159.18600  417.47080    9.35010    -999.25    -999.25   31.12830    -999.25    -999.25   31.12830
 10450.00000    9.30570   48.93810   15.23950   49.09810   20.36740   55.36540   55.36540    -999.25    -999.25    5.66390   93.45440   20.36740   66.28430    9.30570    -999.25    -999.25   19.53870    -999.25    -999.25   19.53870
 10500.00000    8.59650  145.03780   63.53310  135.21550    7.39560   57.47550   57.47550    -999.25    -999.25    2.46830   40.72700    7.39560   15.07520    8.59650    -999.25    -999.25   10.46900    -999.25    -999.25   10.46900
 10550.00000    8.85150   14.38820    3.71550   12.65060   79.04740   56.93240   56.93240    -999.25    -999.25    5.49530   90.67240   79.04740  177.95980    8.85150    -999.25    -999.25   22.30030    -999.25    -999.25   22.30030
 10600.00000   10.24200   33.98610    7.95030   33.50540   29.84590   60.90220   60.90220    -999.25    -999.25    5.53170   91.27300   29.84590  115.29740   10.24200    -999.25    -999.25   21.10110    -999.25    -999.25   21.10110
 10650.00000    9.00950    5.06150    1.11130    2.78620  358.90750   54.55320   54.55320    -999.25    -999.25    3.28870   54.26360  358.90750  460.71080    9.00950    -999.25    -999.25   33.65390    -999.25    -999.25   33.65390
 10700.00000    9.78050   39.64520   12.52080   39.11480   25.56580   59.89820   59.89820    -999.25    -999.25    4.77620   78.80810   25.56580   79.52810    9.78050    -999.25    -999.25   17.25180    -999.25    -999.25   17.25180
 10750.00000    9.39270   12.68530    3.48920   11.28840   88.58680   56.91450   56.91450    -999.25    -999.25    2.39080   39.44820   88.58680  250.41010    9.39270    -999.25    -999.25   24.44970    -999.25    -999.25   24.44970
