~Version ---------------------------------------------------
VERS. 2.0 : CWLS log ASCII Standard -VERSION 2.0
WRAP.  NO : ONE LINE PER DEPTH STEP
~Well ------------------------------------------------------
STRT.F                             1200.0 : START DEPTH
STOP.F                            10150.0 : STOP DEPTH
STEP.F                           50.00000 : STEP LENGTH
NULL.                             -999.25 : NULL VALUE
COMP.               CANADIAN FINA OIL LTD : COMPANY
WELL. FINA PAN AM HB HEAVYSOUND 2-6-62-16 : WELL
FLD .                                     : FIELD
LOC .                                     : LOCATION
CTRY.                              CANADA : COUNTRY
SRVC.              Schlumberger of Canada : SERVICE COMPANY
DATE.                         03-Mar-1959 : LOGDATE
PROV.                             Alberta : PROVINCE
UWI .                    100020606216W500 : UNIQUE WELL ID
SLAT.WGS84                       54.32879 : SURFACE LATITUDE
SLON.WGS84                       -116.385 : SURFACE LONGITUDE
~Curve Information -----------------------------------------
DEPT.F      0   1   0  0 : 1 MEASURED DEPTH
CILD.MMHO   05 110 46 00 : INDUCTION DEEP CONDUCTIVITY
ILD .OHMM   05 120 46 00 : INDUCTION DEEP RESISTIVITY
SN  .OHMM   05 040 16 00 : SHORT NORMAL RESISTIVITY
SPR .MV     05 010 01 00 : SPONTANEOUS POTENTIAL FROM RESISTIVITY LOG
LL7 .OHMM   10 220 07 00 : LATEROLOG 7
GRS .MG/TON 60 310 01 00 : GAMMA RAY FROM SONIC LOG
DT  .US/F   60 500 33 00 : DELTA-T (INTERVAL TRANSIT TIME)
MLL .OHMM   20 270 04 00 : MICRO FOCUSED LATEROLOG RESISTIVITY
CALM.IN     20 280 01 00 : CALIPER FROM MICROLATEROLOG
~Params ----------------------------------------------------
LMF .                     KB : LOG MEASURED FROM
DMF .                     KB : DRILLING MEASURED FROM
EKB .FT               2992.4 : KELLY BUSHING
DATE.               03/03/59 : RUN DATE
RUN .                      1 : RUN NUMBER
DD  .FT                10185 : DEPTH DRILLER
DL  .FT                10186 : DEPTH LOGGER
BLI .FT                10182 : BOTTOM LOG INTERVAL
TLI .FT                 3000 : TOP LOG INTERVAL
BS  .IN                    9 : BIT SIZE
BSD .FT                10185 : BIT SIZE AT DEPTH
DFT .               OIL EMUL : DRILLING FLUID TYPE
DFD .                    9.8 : DRILLING FLUID DENSITY
DFV .                    145 : DRILLING FLUID VISCOSITY
DFPH.                    9.5 : DRILLING FLUID PH
DFL .                    6.4 : DRILLING FLUID LOSS
RMS .OHMM                  3 : RESISTIVITY MUD SAMPLE
MST .DEGF                 58 : MUD SAMPLE TEMPERATURE
RMB .OHMM               0.95 : RESISTIVITY MUD AT BHT
TCS .HRS                   6 : TIME CIRCULATED STOPPED
LUN .                   1573 : LOGGING UNIT NUMBER
LUL .                     WC : LOGGING UNIT LOCATION
ENGI.               SHERRIFF : RECORDING ENGINEER
WITN.                   TODD : WITNESSED BY
CLNT.                A2DTECH : CLIENT CODE
ORIG.           5" 25" PRINT : ORIGIN OF DATA
UWI .       100020606216W500 : UNIQUE WELL ID
DICO. A2D Technologies, Inc. : DIGITIZING COMPANY
~Other -----------------------------------------------------
~ASCII -----------------------------------------------------
# ...
 4850.00000  138.74430    6.91250    9.29070  -75.63920   10.71110    5.93130   84.80110    -999.25    -999.25
 4900.00000  164.68820    5.59990    7.94510  -74.04150    9.30460    6.36870   87.23540    -999.25    -999.25
 4950.00000  138.85990    6.89680    9.48590  -74.58370   11.85260    6.19360   87.63290    -999.25    -999.25
 5000.00000  188.30060    4.71080    6.74580  -75.00040    8.16680    6.16550   91.35250    -999.25    -999.25
 5050.00000  186.73250    4.70500    7.34240  -73.41270    8.71150    6.66460   92.29620    -999.25    -999.25
 5100.00000  314.58160    2.57750    4.67890  -71.05600    5.46720    8.53770  101.67270    -999.25    -999.25
 5150.00000  340.09120    2.02970    4.16850  -71.30530    5.51640    5.91970   90.55130    -999.25    -999.25
 5200.00000  271.02870    2.95310    4.52600  -71.81470    5.16860    6.49960   98.28760    -999.25    -999.25
 5250.00000  214.83130    4.28170    6.61890  -70.65990    6.57550    5.94650   89.58670    -999.25    -999.25
 5300.00000  117.97960    8.46270   10.24390  -74.90340   10.84900    5.39940   85.43480    -999.25    -999.25
 5350.00000  131.68880    7.30340   10.33350  -71.87050   11.80350    5.28540   85.67860    -999.25    -999.25
 5400.00000  102.53070    9.92480   12.98430  -79.97930   17.07680    3.40130   77.80920    -999.25    -999.25
 5450.00000   85.13260   12.68440   16.98950  -97.17640   20.40900    2.92710   81.98370    -999.25    -999.25
 5500.00000   88.40250   11.90700   16.69720  -70.07890   18.87860    4.63770   74.49280    -999.25    -999.25
 5550.00000  128.92190    7.75220   14.24870  -67.56260   22.63640    5.30960   82.43640    -999.25    -999.25
 5600.00000  116.35560    8.61890   11.98600  -64.97280   16.24050    5.12260   73.11820    -999.25    -999.25
 5650.00000   86.57920   12.52210   20.94430  -65.39020   21.71040    5.16260  105.12270    -999.25    -999.25
 5700.00000   68.28960   16.35570   20.60370  -54.39030   31.87640    4.89860  114.18170    -999.25    -999.25
 5750.00000   90.33170   11.70830   21.53570  -83.02950   23.27320    3.58790   71.02120    -999.25    -999.25
 5800.00000   91.82050   11.47820   20.04640  -78.90120   23.28300    3.85230   79.56340    -999.25    -999.25
 5850.00000  147.30090    6.53650   14.40400  -93.86220   15.98870    3.65500   79.27490    -999.25    -999.25
 5900.00000   97.91000   10.58480   13.91040  -52.80980   15.56000    5.50410   77.53280    -999.25    -999.25
 5950.00000  272.00370    3.05870    5.06500  -54.62880    4.68420    5.06720  110.75100    -999.25    -999.25
 6000.00000   98.62250   10.20980   12.59540  -54.00970   13.89220    5.52410   77.24850    -999.25    -999.25
 6050.00000   72.01400   15.29130   22.55710  -67.14770   26.38670    3.69450   72.02990    -999.25    -999.25
 6100.00000  114.32280    8.58730   19.51360 -103.34350   17.42100    2.38730   73.89870    -999.25    -999.25
 6150.00000   97.67480   10.60610   22.96460  -79.67160   31.77620    3.92710   75.10520    -999.25    -999.25
 6200.00000  248.53040    3.28930    4.91970  -45.18050    5.71650    6.35140  100.36820    -999.25    -999.25
 6250.00000  174.89960    5.24230    8.13010  -43.13230    9.44840    5.80560   92.76290    -999.25    -999.25
 6300.00000  119.06800    8.45760   14.37340  -39.99680   15.28980    5.66740   82.97300    -999.25    -999.25
 6350.00000   88.47570   12.10530   16.31410  -41.30230   29.23250    4.80190   89.48070    -999.25    -999.25
 6400.00000   10.30580  405.59610  142.70890  -97.25230 1266.65490    3.00450   60.84990    -999.25    -999.25
 6450.00000   29.58270   45.25490   36.43130  -81.98300   52.23430    5.21600   64.88670   44.60120    8.99480
 6500.00000   87.93430   12.27650   26.16480  -95.72580   36.20130    4.32350   69.20230   46.13240    9.02000
 6550.00000  303.03110    2.49780   30.10780 -194.83270   31.79290    3.10240   67.04520   12.33390    8.04570
 6600.00000  166.98130    5.67200   13.25490  -77.15760   12.36810    3.94390   63.44200   20.32750    9.00720
 6650.00000   75.43340   15.04670   36.43850 -106.80060   59.93880    3.01470   59.47680   76.07080    9.12280
 6700.00000  116.49480    8.58040   25.61930 -108.60240   33.94430    3.33020   61.51320   34.03830    9.20520
 6750.00000   11.13690  333.74770  141.87410 -191.50930 2042.25180    2.65920   52.73200  430.84590    8.94030
 6800.00000   32.71490   37.05350  100.32600 -272.47130  371.47460    2.55420   53.32600   43.28040    8.25220
 6850.00000   74.04590   14.86030   78.87760 -226.51960  152.38500    2.80850   59.44820   10.07380    7.69880
 6900.00000  129.10050    7.52780   10.30860  -58.91970   12.67040    6.58060   65.26370   28.93230    9.00210
 6950.00000  107.52330    9.86000   15.96430  -70.78510   13.53940    6.06730   63.35240   27.94590    8.95490
 7000.00000  225.40500    4.09160   11.43670 -100.78430   10.55790    4.26830   65.41750   97.53500    8.99380
 7050.00000  116.39470    8.73580   20.53870 -107.64080   40.51930    3.10340   62.62090   32.72180    8.98990
 7100.00000    9.97050  132.95560  113.74280 -142.78030  373.54750    0.97890   53.11910  173.68210    8.26780
 7150.00000   26.19440   42.87910   48.26910  -77.09280   76.38810    3.95400   58.01650   74.09490    8.99940
 7200.00000    8.95150  155.61350  107.86220 -142.95170  347.88800    2.50680   53.44330  280.77400    9.01860
 7250.00000    7.54130  189.59900    -999.25 -119.68740  383.55900    2.69940   53.91710  184.33930    9.00350
 7300.00000   10.78870  112.61670   93.82900  -81.71660  218.62750    3.37820   55.43520  198.08090    9.01720
 7350.00000    6.96270  235.29630  132.12000 -106.61030  719.42550    3.59530   53.08920  309.58450    9.00770
 7400.00000    6.40600  329.49160  127.52220  -97.45940  643.86870    3.13280   57.43140  494.74000    9.01570
 7450.00000   55.20540   18.31080   22.91680  -94.11090   29.59560    5.39440   63.31840   25.83310    9.05480
 7500.00000   11.79310   96.01990   98.47630   -9.82790  193.35930    2.71010   55.46110  120.07140    9.16000
 7550.00000    8.28330  180.13160  128.25070  -67.36240  599.54160    0.94780   51.65160   95.71140    9.66520
 7600.00000    8.71430  162.12210  116.63750  -70.28900  334.76820    1.09970   51.55180   49.67030    9.23940
 7650.00000   14.25180   84.17080    -999.25  -79.62590  438.44200    0.95450   51.76930  374.42750    9.49630
 7700.00000    6.85550  230.82550  113.01450  -59.13180  443.97940    0.98640   50.55900  179.88750    9.32320
 7750.00000    5.83380  298.33050  125.16200  -86.82570  664.40310    1.10030   56.37560   17.19170    9.67550
 7800.00000   56.47710   18.16430   86.43060 -136.99420  205.51820    0.90320   55.46250    9.15470    7.63440
 7850.00000    9.09680  145.00020  102.57110  -93.59510  543.51950    1.13000   50.31810   40.86410    9.35440
 7900.00000   15.20360   74.27560   75.44800  -83.09480  164.85480    1.01880   52.99100  371.72090    9.00470
 7950.00000   12.59360   99.65340   79.45480  -78.36030  197.51370    1.18760   51.05560   73.93930    9.51170
 8000.00000    8.16710  156.04110   89.61090  -75.85280  335.71800    1.10640   50.73920  242.30620    9.03610
 8050.00000   15.17560   73.62670    -999.25 -112.18800  225.92990    1.04470   53.52620  284.11840    9.49540
 8100.00000   21.28770   52.23000    -999.25 -175.69670  291.08310    0.88580   53.37700   98.77260    8.67540
 8150.00000   34.54560   31.01920    -999.25 -186.05100  317.12930    1.13800   55.18630   49.13230    8.81010
 8200.00000   10.35820  102.95660   92.75750 -137.79820  315.03660    1.12140   54.06430  187.86790    8.77340
 8250.00000  116.48630    8.03580   18.96530 -108.52990   20.06390    2.43190   55.93120  383.23680    8.69530
 8300.00000    4.16110  486.32510  116.26090 -139.13800 1192.05990    1.36300   51.93810  267.10690    8.93490
 8350.00000   15.57240   75.44190   68.89640 -125.32530  156.51600    2.08260   52.07910   14.84950    9.65470
 8400.00000   30.11660   34.90660   39.82550 -116.57210   72.03040    1.67920   51.26000   17.42220    9.50480
 8450.00000   17.67540   65.92250   69.95660  -36.32860  137.35800    2.44840   55.24710   95.30600    9.04780
