~Version ---------------------------------------------------
VERS.      2.0 : CWLS log ASCII Standard -VERSION 2.0
WRAP.      YES : Multiple lines per depth step
CREA. 09/09/14 : LAS Creation Date
~Well ------------------------------------------------------
STRT.M                       300.0 : START DEPTH
STOP.M                      3750.0 : STOP DEPTH
STEP.M                    50.00000 : STEP LENGTH
NULL.                      -999.25 : NULL VALUE
COMP.                   SUNCOR INC : COMPANY
WELL. SUNCOR PINE CREEK 9-29-55-18 : WELL
FLD .                              : FIELD
LOC .                              : LOCATION
CTRY.                       CANADA : COUNTRY
SRVC.                 Schlumberger : SERVICE COMPANY
DATE.                  17-Dec-1995 : LOGDATE
PROV.                      Alberta : PROVINCE
UWI .             100092905518W500 : UNIQUE WELL ID
SLAT.WGS84                53.78394 : SURFACE LATITUDE
SLON.WGS84               -116.6319 : SURFACE LONGITUDE
~Curve Information -----------------------------------------
DEPT    .M      : Depth METER
AIBDED  .MM     : CALIER FROM RESISTIVITY LOG
AT10ED  .OHMM   : 10 INCH RESISTIVITY TWO FOOT RESOLUTION FROM AIT LOG
AT20ED  .OHMM   : 20 INCH RESISTIVITY TWO FOOT RESOLUTION FROM AIT LOG
AT30ED  .OHMM   : 30 INCH RESISTIVITY TWO FOOT RESOLUTION FROM AIT LOG
AT60ED  .OHMM   : 60 INCH RESISTIVITY TWO FOOT RESOLUTION FROM AIT LOG
AT90ED  .OHMM   : 90 INCH RESISTIVITY TWO FOOT RESOLUTION FROM AIT LOG
ATRTED  .OHMM   : ARRAY INDUCTION TWO FOOT RT
ATRXED  .OHMM   : ARRAY INDUCTION TWO FOOT RXO
CALDED  .MM     : CALIPER FROM FDC LOG [DEPTH ADJ. TO GRR]
CALWS   .MM     : CALIPER [AIBED]
CONDWS  .MMHO   : CONDUCTIVITY [1000/DRESWS]
DCORWS  .KG/M3  : DENSITY CORRECTION [DRHOED,SPL DRHED @2615-2636M]
DENWS   .KG/M3  : BULK DENSITY [CALCULATED FROM DPOSSWS]
DPHISSED.V/V    : DENSITY POROSITY SANDSTONE FROM FDC LOG [DEPTH ADJ. TO GRS]
DPOSSED .V/V    : LDS DENSITY POROSITY SANDSTONE
DPOSSWS .V/V    : DENSITY POROSITY M=2710 F=1000] [DPHISSED,SPL DPOED @2615-2636M]
DRESWS  .OHMM   : DEEP RESISTIVITY [AT90ED]
DRHED   .KG/M3  : DENSITY CORRECTION FROM DENSITY LOG
DRHOED  .KG/M3  : DENSITY CORRECTION FROM FDC LOG [DEPTH ADJ. TO GRR]
DTED    .US/M   : DELTA TIME FROM SONIC LOG
DTWS    .US/M   : DELTA TIME [DTED]
GRDED   .GAPI   : GAMMA RAY FROM FDC LOG [DEPTH ADJ. TO GRR]
GRED    .GAPI   : GAMMA RAY IN CASE HOLE LOG [DEPTH ADJ. TO GRR]
GRRED   .GAPI   : GAMMA RAY FROM RESISTIVITY LOG
GRSED   .GAPI   : GAMMA RAY FROM SONIC LOG [DEPTH ADJ. TO GRR]
GRWS    .GAPI   : GAMMA RAY [GRRED,SPL GRED TOP-565.2M+20]
HDED    .MM     : HOLE DIAMETER FROM SONIC LOG
LCALDED .MM     : DENSITY CALIPER/LOWER CALIPER FROM FDC
MRESWS  .OHMM   : SHALLOW LATERAL RESISTIVITY [AT60ED]
NPORSSED.V/V    : NEUTRON POROSITY SANDSTONE FROM DENSITY LOG
NPOSSWS .V/V    : NEUTRON POROSITY [NPHISSED]
PEFED   .B/E    : PHOTO ELECTROL LOG FROM FDC LOG [DEPTH ADJ. TO GRR]
PEFLED  .B/E    : HRDD STANDARD RESOLUTION FORMATION PHOTOELECTRIC FACTOR
PEFWS   .B/E    : PHOTO ELECTROL [PEFED]
RHOBED  .KG/M3  : BULK DENSITY FROM FDC LOG [DEPTH ADJ. TO GRR]
RHOMED  .KG/M3  : CORRECTED BULK DENSITY
SRESWS  .OHMM   : SHALLOW RESISTIVITY [AT10ED]
TENDED  .N      : TENSION FROM FDC LOG [DEPTH ADJ. TO GRR]
TENRED  .N      : TENSION FROM RESISTIVITY LOG
TENSED  .N      : TENSTION FROM SONIC LOG
~Params ----------------------------------------------------
PD  .                         GL : PERMANENT DATUM
EPD .M                    1050.6 : ELEVATION PERMANENT DATUM
LMF .                         KB : LOG MEASURED FROM
DAPD.M                       7.4 : FEET ABOVE PERMANENT DATUM
DMF .                         KB : DRILLING MEASURED FROM
EKB .M                      1058 : KELLY BUSHING
EDF .M                    1057.7 : DRILLING FLOOR
EGL .M                    1050.6 : GROUND LEVEL
DATE.                   12/17/96 : RUN DATE
RUN .                          1 : RUN NUMBER
DD  .M                      3785 : DEPTH DRILLER
DL  .M                      3780 : DEPTH LOGGER
BLI .M                    3774.5 : BOTTOM LOG INTERVAL
TLI .M                       606 : TOP LOG INTERVAL
CS  .MM                    244.5 : CASING SIZE
CBD .M                       606 : CASING BOTTOM DRILLER
CBL .M                       606 : CASING BOTTOM LOGGER
BS  .MM                      222 : BIT SIZE
BSD .M                      3785 : BIT SIZE AT DEPTH
DFT .                     INVERT : DRILLING FLUID TYPE
DFD .                       1050 : DRILLING FLUID DENSITY
DFV .                         48 : DRILLING FLUID VISCOSITY
TCS .HRS                     900 : TIME CIRCULATED STOPPED
TLAB.HRS                    1850 : TIME LOGGER AT BOTTOM
LUN .                       2012 : LOGGING UNIT NUMBER
LUL .                   NISKU ES : LOGGING UNIT LOCATION
ENGI.                      PISIO : RECORDING ENGINEER
WITN.                      YAGER : WITNESSED BY
CLNT.                    A2DTECH : CLIENT CODE
ORIG. 6.5"/100M 16.5"/100M PRINT : ORIGIN OF DATA
UWI .           100092905518W500 : UNIQUE WELL ID
DICO.     A2D Technologies, Inc. : DIGITIZING COMPANY
~Other -----------------------------------------------------
MUD DENSITY 1050 PPM.
~ASCII -----------------------------------------------------
# ...
 1200.00000  241.50200    4.37870    4.53440    4.60690    4.92880    5.17910    5.28400    4.43890    -999.25  241.50200  193.08370    -999.25    -999.25    -999.25    -999.25    -999.25    5.17910    -999.25    -999.25  287.44080  287.44080    -999.25   68.84000   81.96730   80.94590   81.96730  241.57450    -999.25    4.60690    -999.25    -999.25    -999.25    -999.25    -999.25    -999.25    -999.25    4.37870    -999.25 10461.80370 10425.08200
 1250.00000  247.55820   11.19270   12.01180   12.30670   12.98220   14.89810   14.76970   11.34400    -999.25  247.55820   67.12270    -999.25    -999.25    -999.25    -999.25    -999.25   14.89810    -999.25    -999.25  228.76940  228.76940    -999.25   43.00240   60.70460   60.30700   60.70460  244.58130    -999.25   12.30670    -999.25    -999.25    -999.25    -999.25    -999.25    -999.25    -999.25   11.19270    -999.25 10617.69340 10581.41890
 1300.00000  218.34250   16.46460   18.65930   19.60920   17.36970   20.30340   19.88860   18.03620    -999.25  218.34250   49.25280    -999.25    -999.25    -999.25    -999.25    -999.25   20.30340    -999.25    -999.25  250.06230  250.06230    -999.25   33.81540   61.59890   61.98060   61.59890  219.19810    -999.25   19.60920    -999.25    -999.25    -999.25    -999.25    -999.25    -999.25    -999.25   16.46460    -999.25 10684.37300 10620.14450
 1350.00000  263.64700    7.30940    7.59590    7.83130    8.25350    8.72010    9.19040    7.44280    -999.25  263.64700  114.67760    -999.25    -999.25    -999.25    -999.25    -999.25    8.72010    -999.25    -999.25  264.39130  264.39130    -999.25   46.37400   75.72210   75.87560   75.72210  261.61660    -999.25    7.83130    -999.25    -999.25    -999.25    -999.25    -999.25    -999.25    -999.25    7.30940    -999.25 11006.36620 10937.72660
 1400.00000  231.56590   21.08820   30.84760   36.94400   32.83420   41.19940   37.56140   20.77070    -999.25  231.56590   24.27220    -999.25    -999.25    -999.25    -999.25    -999.25   41.19940    -999.25    -999.25  232.40850  232.40850    -999.25   28.50630   46.68670   46.28780   46.68670  231.75930    -999.25   36.94400    -999.25    -999.25    -999.25    -999.25    -999.25    -999.25    -999.25   21.08820    -999.25 11144.60160 11106.67970
 1450.00000  243.72780    5.73260    5.91350    6.09270    6.37430    6.83120    6.76730    5.75820    -999.25  243.72780  146.38720    -999.25    -999.25    -999.25    -999.25    -999.25    6.83120    -999.25    -999.25  285.44920  285.44920    -999.25   46.43620   84.74320   84.22780   84.74320  241.95210    -999.25    6.09270    -999.25    -999.25    -999.25    -999.25    -999.25    -999.25    -999.25    5.73260    -999.25 11428.50590 11350.58010
 1500.00000  241.92860   10.08110   10.54120   10.87600   11.16070   11.96600   11.93070   10.55270    -999.25  241.92860   83.57010    -999.25    -999.25    -999.25    -999.25    -999.25   11.96600    -999.25    -999.25  251.13200  251.13200    -999.25   40.97800   60.90420   60.94030   60.90420  242.34680    -999.25   10.87600    -999.25    -999.25    -999.25    -999.25    -999.25    -999.25    -999.25   10.08110    -999.25 11589.19920 11614.15230
 1550.00000  220.99400   15.45390   19.97440   16.62100   18.46380   23.13630   21.07220   18.01730    -999.25  220.99400   43.22210    -999.25    -999.25    -999.25    -999.25    -999.25   23.13630    -999.25    -999.25  292.64590  292.64590    -999.25   29.21130   45.02760   47.91220   45.02760  227.68490    -999.25   16.62100    -999.25    -999.25    -999.25    -999.25    -999.25    -999.25    -999.25   15.45390    -999.25 11851.62700 11799.26460
 1600.00000  240.11890   11.95560   12.00120   12.32890   12.41690   13.06960   13.24680   11.71740    -999.25  240.11890   76.51340    -999.25    -999.25    -999.25    -999.25    -999.25   13.06960    -999.25    -999.25  254.81350  254.81350    -999.25   61.29970   92.37190   92.16070   92.37190  240.70350    -999.25   12.32890    -999.25    -999.25    -999.25    -999.25    -999.25    -999.25    -999.25   11.95560    -999.25 12168.98240 12117.72560
 1650.00000  239.22980   11.41380   11.77530   12.04440   11.97640   12.84750   12.86440   11.54060    -999.25  239.22980   77.83620    -999.25    -999.25    -999.25    -999.25    -999.25   12.84750    -999.25    -999.25  250.32520  250.32520    -999.25   49.32600  102.87640  102.34410  102.87640  238.31360    -999.25   12.04440    -999.25    -999.25    -999.25    -999.25    -999.25    -999.25    -999.25   11.41380    -999.25 12357.73930 12359.55660
 1700.00000  234.51110   13.04290   13.56070   13.91810   14.22350   14.68950   14.80960   12.94410    -999.25  234.51110   68.07580    -999.25    -999.25    -999.25    -999.25    -999.25   14.68950    -999.25    -999.25  265.98790  265.98790    -999.25   57.16710  103.14910  102.99420  103.14910  234.04260    -999.25   13.91810    -999.25    -999.25    -999.25    -999.25    -999.25    -999.25    -999.25   13.04290    -999.25 12550.19340 12445.94730
 1750.00000  234.61930    6.53410    6.53400    6.68470    6.81190    7.14160    7.10190    6.40280    -999.25  234.61930  140.02460    -999.25    -999.25    -999.25    -999.25    -999.25    7.14160    -999.25    -999.25  275.69910  275.69910    -999.25   73.99730  114.26640  113.74920  114.26640  234.25210    -999.25    6.68470    -999.25    -999.25    -999.25    -999.25    -999.25    -999.25    -999.25    6.53410    -999.25 12778.14360 12729.51170
 1800.00000  239.94720   11.02040   11.26100   11.53950   11.54830   11.90050   11.94930   11.01780    -999.25  239.94720   84.03010    -999.25    -999.25    -999.25    -999.25    -999.25   11.90050    -999.25    -999.25  245.50120  245.50120    -999.25   60.32100   93.67700   93.46600   93.67700  239.57140    -999.25   11.53950    -999.25    -999.25    -999.25    -999.25    -999.25    -999.25    -999.25   11.02040    -999.25 12977.02730 13000.99020
 1850.00000  236.14500    6.12020    6.38250    6.56270    6.40810    6.59570    6.70100    6.22650  225.20630  236.14500  151.61390    3.85660 2607.76000    0.02560    0.03000    0.02560    6.59570  -21.34550    3.85660  272.38730  272.38730  113.69500   62.06030  115.58760  115.54630  115.58760  235.71810  231.12680    6.56270    0.31230    0.31230    3.61430    3.19500    3.61430 2605.57890 2608.48750    6.12020 15269.37400 13348.98930 13296.59670
 1900.00000  235.66520   15.50950   16.24730   16.52360   15.93100   17.13060   16.47280   15.91540  227.08710  235.66520   58.37510   -5.25970 2606.44000    0.02640    0.02840    0.02640   17.13060  -19.61520   -5.25970  234.68130  234.68130  101.84680   53.52060   97.44990   96.96620   97.44990  235.21260  230.57110   16.52360    0.20450    0.20450    2.88600    2.67430    2.88600 2607.40280 2602.64040   15.50950 15423.55570 13476.42770 13418.92870
 1950.00000  230.48630    9.98570   10.19810   10.42340   10.23390   10.42370   10.60520    9.92840  224.56130  230.48630   95.93520   -1.82970 2609.24500    0.02470    0.01770    0.02470   10.42370   -3.24540   -1.82970  250.01750  250.01750  116.11100   55.85280  113.07070  112.62370  113.07070  230.47450  223.62520   10.42340    0.23250    0.23250    2.80030    2.76890    2.80030 2611.65410 2620.69820    9.98570 15752.34180 13672.09570 13668.55860
 2000.00000  235.91260    8.91100    9.30750    9.47010    9.34380    9.64900    9.64750    8.98000  221.99290  235.91260  103.63770   -0.89730 2569.48000    0.04880    0.04680    0.04880    9.64900   -8.78210   -0.89730  287.20430  287.20430  123.42560   83.21590  133.67340  132.15450  133.67340  235.26180  231.01730    9.47010    0.33790    0.33790    3.23500    2.92500    3.23500 2568.55080 2570.70630    8.91100 15990.55370 13639.13770 13654.30470
 2050.00000  226.87140   11.90510   12.15060   12.36170   12.27890   12.68600   12.67210   11.89830  222.10220  226.87140   78.82710    7.23090 2579.05000    0.04300    0.04760    0.04300   12.68600   -7.50360    7.23090  287.77370  287.77370  119.83760   76.84570  126.63490  126.42500  126.63490  226.92970  226.89750   12.36170    0.32870    0.32870    3.84580    3.37190    3.84580 2579.33350 2573.92580   11.90510 15945.47170 14001.91210 13898.78420
