~Version ---------------------------------------------------
VERS.      2.0 : CWLS log ASCII Standard -VERSION 2.0
WRAP.       NO : One line per depth step
CREA. 01/05/18 : LAS Creation Date
~Well ------------------------------------------------------
STRT.FT                              300.0 : START DEPTH
STOP.FT                            15450.0 : STOP DEPTH
STEP.FT                           50.00000 : STEP LENGTH
NULL.                              -999.25 : NULL VALUE
COMP.                        BANFF OIL LTD : COMPANY
WELL. BANFF AQUIT CHIEFCO WAWA 11-20-42-13 : WELL
FLD .                                      : FIELD
LOC .                                      : LOCATION
CTRY.                               CANADA : COUNTRY
SRVC.               Schlumberger of Canada : SERVICE COMPANY
DATE.                          07-Apr-1970 : LOGDATE
PROV.                              Alberta : PROVINCE
UWI .                     100112004213W500 : UNIQUE WELL ID
SLAT.WGS84                        52.63304 : SURFACE LATITUDE
SLON.WGS84                       -115.8375 : SURFACE LONGITUDE
~Curve Information -----------------------------------------
DEPT    .FT    : Depth Curve
CALDED  .IN    : CALIPER FROM DENSITY LOG [ADJ. TO RESISTIVITY LOG]
CALNED  .IN    : CALIPER FROM SNP LOG [ADJ. TO RESISTIVITY LOG]
CALSED  .IN    : CALIPER FROM SONIC LOG [ADJ. TO RESISTIVITY LOG]
CALWS   .IN    : CALIPER [CALSED]
CONDWS  .MMHO  : CONDUCTIVITY [1000/DRESWS]
CORRED  .G/C3  : DENSITY CORRECTION FROM DENSITY LOG [ADJ. TO RESISTIVITY LOG]
DCORWS  .G/C3  : DENSITY CORRECTION [CORRED]
DENWS   .G/C3  : FORMATION BULK DENSITY [RHOBED]
DPHILSED.V/V   : DENSITY POROSITY LIMESTONE FROM DENSITY LOG [ADJ. TO RESISTIVITY LOG]
DPOLSWS .V/V   : DENSITY POROSITY LIMESTONE [CALC. FROM DENWS, M=2.71 F=1.00]
DRESWS  .OHMM  : DEEP RESISTIVITY [ILDED]
DTED    .US/F  : DELTA T FROM SONIC LOG [ADJ. TO RESISTIVITY LOG]
DTWS    .US/F  : COMPRESSIONAL SONIC [DTED]
GRDED   .GAPI  : GAMMA RAY FROM DENSITY LOG [ADJ. TO RESISTIVITY LOG]
GRDRED  .GAPI  : GAMMA RAY (REPEAT) FROM DENSITY LOG
GRNED   .GAPI  : GAMMA RAY FROM SNP LOG [ADJ. TO RESISTIVITY LOG]
GRSED   .GAPI  : GAMMA RAY FROM SONIC LOG [ADJ. TO RESISTIVITY LOG]
GRWS    .GAPI  : GAMMA RAY [GRSED]
ILDED   .OHMM  : DEEP INDUCTION RESISTIVITY FROM RESISTIVITY LOG
ILMED   .OHMM  : MEDIUM INDUCTION RESISTIVITY FROM RESISTIVITY LOG
ILMRED  .OHMM  : MEDIUM INDUCTION RESISTIVITY(REPEAT) FROM RESISTIVITY LOG [ADJ. TO ILDED]
LL8ED   .OHMM  : LATEROLOG 8 RESISTIVITY FROM RESISTIVITY LOG
MRESWS  .OHMM  : MEDIUM RESISTIVITY [ILMED SPL. TO ILMRED @ 15233']
NPOLSWS .V/V   : NEUTRON POROSITY LIMESTONE [SNPLSED]
RHOBED  .G/C3  : BULK DENSITY FROM DENSITY LOG [ADJ. TO RESISTIVITY LOG]
SNPLSED .V/V   : SIDEWALL NEUTRON POROSITY LIMESTONE FROM SNP LOG [ADJ. TO RESISTIVITY LOG]
SPRED   .MV    : SPONTANEOUS POTENTIAL FROM RESISTIVITY LOG
SPRRED  .MV    : SPONTANEOUS POTENTIAL(REPEAT) FROM RESISTIVITY LOG [ADJ. TO ILDED]
SPWS    .MV    : SPONTANEOUS POTENTIAL [BASELINE 0 MV, SPRED SPL. TO SPRRED @ 15223']
SRESWS  .OHMM  : SHALLOW RESISTIVITY [LL8ED]
~Params ----------------------------------------------------
PD  .                     GL : PERMANENT DATUM
EPD .FT                 4345 : ELEVATION PERMANENT DATUM
LMF .                     KB : LOG MEASURED FROM
DAPD.FT                   14 : FEET ABOVE PERMANENT DATUM
EKB .FT                 4359 : KELLY BUSHING
EGL .FT                 4345 : GROUND LEVEL
DATE.               06/04/70 : RUN DATE
RUN .                      3 : RUN NUMBER
DD  .FT                15476 : DEPTH DRILLER
DL  .FT                15473 : DEPTH LOGGER
BLI .FT                15471 : BOTTOM LOG INTERVAL
TLI .FT                14327 : TOP LOG INTERVAL
CBD .FT                12360 : CASING BOTTOM DRILLER
CBL .FT                12355 : CASING BOTTOM LOGGER
BS  .IN                    6 : BIT SIZE
BSD .FT                15476 : BIT SIZE AT DEPTH
DFT .               GEL CHEM : DRILLING FLUID TYPE
DFD .                    8.9 : DRILLING FLUID DENSITY
DFV .                     47 : DRILLING FLUID VISCOSITY
DFPH.                     11 : DRILLING FLUID PH
DFL .                   12.4 : DRILLING FLUID LOSS
MSS .               FLOWLINE : MUD SAMPLE SOURCE
RMS .OHMM               2.62 : RESISTIVITY MUD SAMPLE
TCS .HRS                   4 : TIME CIRCULATED STOPPED
LUN .                  CSU C : LOGGING UNIT NUMBER
LUL .                 364 RD : LOGGING UNIT LOCATION
ENGI.                 MEGSON : RECORDING ENGINEER
WITN.                BRINKER : WITNESSED BY
CLNT.                A2DTECH : CLIENT CODE
ORIG.        2" 5" 10" PRINT : ORIGIN OF DATA
UWI .       100112004213W500 : UNIQUE WELL ID
DICO. A2D Technologies, Inc. : DIGITIZING COMPANY
~Other -----------------------------------------------------
~ASCII -----------------------------------------------------
# ...
 5100.00000    -999.25    -999.25    9.12170    9.12170   67.72820    -999.25    -999.25    -999.25    -999.25    -999.25   14.76490   77.25990   77.25990    -999.25    -999.25    -999.25   59.16430   59.16430   14.76490   12.32880    -999.25   14.39960   12.32880    -999.25    -999.25    -999.25 -754.66400    -999.25  -30.00960   14.39960
 5150.00000    -999.25    -999.25    9.42390    9.42390   61.54000    -999.25    -999.25    -999.25    -999.25    -999.25   16.24960   77.61740   77.61740    -999.25    -999.25    -999.25   72.39510   72.39510   16.24960   14.46420    -999.25   12.85890   14.46420    -999.25    -999.25    -999.25 -767.10880    -999.25  -42.51810   12.85890
 5200.00000    -999.25    -999.25   10.33350   10.33350   99.67800    -999.25    -999.25    -999.25    -999.25    -999.25   10.03230   78.12630   78.12630    -999.25    -999.25    -999.25   77.96260   77.96260   10.03230    8.92550    -999.25    8.19170    8.92550    -999.25    -999.25    -999.25 -750.20940    -999.25  -25.68200    8.19170
 5250.00000    -999.25    -999.25    9.37900    9.37900   74.08010    -999.25    -999.25    -999.25    -999.25    -999.25   13.49890   77.17970   77.17970    -999.25    -999.25    -999.25   83.00750   83.00750   13.49890   12.61760    -999.25   10.33900   12.61760    -999.25    -999.25    -999.25 -749.17570    -999.25  -24.71210   10.33900
 5300.00000    -999.25    -999.25    9.02330    9.02330   52.15970    -999.25    -999.25    -999.25    -999.25    -999.25   19.19370   68.33850   68.33850    -999.25    -999.25    -999.25   69.82370   69.82370   19.19370   17.28520    -999.25   21.29610   17.28520    -999.25    -999.25    -999.25 -750.89240    -999.25  -26.49180   21.29610
 5350.00000    -999.25    -999.25    9.32050    9.32050  121.66040    -999.25    -999.25    -999.25    -999.25    -999.25    8.21960   81.30060   81.30060    -999.25    -999.25    -999.25   83.69710   83.69710    8.21960    7.45680    -999.25    7.96130    7.45680    -999.25    -999.25    -999.25 -742.23250    -999.25  -17.89580    7.96130
 5400.00000    -999.25    -999.25    9.70100    9.70100  129.40130    -999.25    -999.25    -999.25    -999.25    -999.25    7.72790   82.15610   82.15610    -999.25    -999.25    -999.25   76.85480   76.85480    7.72790    6.08990    -999.25    8.81140    6.08990    -999.25    -999.25    -999.25 -740.89870    -999.25  -16.62570    8.81140
 5450.00000    -999.25    -999.25    9.24610    9.24610   94.17880    -999.25    -999.25    -999.25    -999.25    -999.25   10.61810   87.57960   87.57960    -999.25    -999.25    -999.25   73.32460   73.32460   10.61810    9.82190    -999.25    9.85020    9.82190    -999.25    -999.25    -999.25 -740.73270    -999.25  -16.52300    9.85020
 5500.00000    -999.25    -999.25    9.16150    9.16150   87.34540    -999.25    -999.25    -999.25    -999.25    -999.25   11.44880   78.54230   78.54230    -999.25    -999.25    -999.25   78.96530   78.96530   11.44880   10.72570    -999.25    9.81210   10.72570    -999.25    -999.25    -999.25 -740.39400    -999.25  -16.24810    9.81210
 5550.00000    -999.25    -999.25    9.34690    9.34690  107.49400    -999.25    -999.25    -999.25    -999.25    -999.25    9.30780   95.54110   95.54110    -999.25    -999.25    -999.25   94.94020   94.94020    9.30780    8.54420    -999.25   10.73850    8.54420    -999.25    -999.25    -999.25 -740.14040    -999.25  -16.05750   10.73850
 5600.00000    -999.25    -999.25    9.25550    9.25550   51.81400    -999.25    -999.25    -999.25    -999.25    -999.25   19.29980   77.85740   77.85740    -999.25    -999.25    -999.25   69.87800   69.87800   19.29980   17.91440    -999.25   21.09600   17.91440    -999.25    -999.25    -999.25 -746.85010    -999.25  -22.83120   21.09600
 5650.00000    -999.25    -999.25    9.81510    9.81510   72.42180    -999.25    -999.25    -999.25    -999.25    -999.25   13.80800   73.35400   73.35400    -999.25    -999.25    -999.25   62.47250   62.47250   13.80800   11.33170    -999.25   16.97630   11.33170    -999.25    -999.25    -999.25 -741.23020    -999.25  -17.27500   16.97630
 5700.00000    -999.25    -999.25    9.44970    9.44970   63.40310    -999.25    -999.25    -999.25    -999.25    -999.25   15.77210   75.49550   75.49550    -999.25    -999.25    -999.25   67.01420   67.01420   15.77210   13.58130    -999.25   13.95910   13.58130    -999.25    -999.25    -999.25 -740.02790    -999.25  -16.13600   13.95910
 5750.00000    -999.25    -999.25    9.73160    9.73160   76.84090    -999.25    -999.25    -999.25    -999.25    -999.25   13.01390   81.24070   81.24070    -999.25    -999.25    -999.25   82.02610   82.02610   13.01390   11.86460    -999.25   14.59440   11.86460    -999.25    -999.25    -999.25 -737.37140    -999.25  -13.54320   14.59440
 5800.00000    -999.25    -999.25    9.60650    9.60650  115.10840    -999.25    -999.25    -999.25    -999.25    -999.25    8.68760   81.71150   81.71150    -999.25    -999.25    -999.25   78.45780   78.45780    8.68760    7.87950    -999.25    8.84800    7.87950    -999.25    -999.25    -999.25 -740.91490    -999.25  -17.14980    8.84800
 5850.00000    -999.25    -999.25    9.47700    9.47700   64.96710    -999.25    -999.25    -999.25    -999.25    -999.25   15.39240   69.61330   69.61330    -999.25    -999.25    -999.25   59.07000   59.07000   15.39240   14.38630    -999.25   26.97390   14.38630    -999.25    -999.25    -999.25 -739.45310    -999.25  -15.75190   26.97390
 5900.00000    -999.25    -999.25    9.82230    9.82230  106.22250    -999.25    -999.25    -999.25    -999.25    -999.25    9.41420   80.29260   80.29260    -999.25    -999.25    -999.25   79.23570   79.23570    9.41420    8.75840    -999.25    8.83450    8.75840    -999.25    -999.25    -999.25 -738.11890    -999.25  -14.48140    8.83450
 5950.00000    -999.25    -999.25   10.04110   10.04110   50.09620    -999.25    -999.25    -999.25    -999.25    -999.25   19.96160   68.41870   68.41870    -999.25    -999.25    -999.25   43.63770   43.63770   19.96160   16.92270    -999.25   25.32340   16.92270    -999.25    -999.25    -999.25 -741.20830    -999.25  -17.63410   25.32340
 6000.00000    -999.25    -999.25    9.24520    9.24520  103.34210    -999.25    -999.25    -999.25    -999.25    -999.25    9.67660   91.59070   91.59070    -999.25    -999.25    -999.25   76.69240   76.69240    9.67660    9.07860    -999.25    7.27550    9.07860    -999.25    -999.25    -999.25 -737.29950    -999.25  -13.78910    7.27550
 6050.00000    -999.25    -999.25    9.43890    9.43890   70.91570    -999.25    -999.25    -999.25    -999.25    -999.25   14.11910   75.02890   75.02890    -999.25    -999.25    -999.25   79.60650   79.60650   14.11910   12.16050    -999.25   13.42990   12.16050    -999.25    -999.25    -999.25 -738.72630    -999.25  -15.27890   13.42990
 6100.00000    -999.25    -999.25    9.81360    9.81360   50.25450    -999.25    -999.25    -999.25    -999.25    -999.25   19.89870   76.29810   76.29810    -999.25    -999.25    -999.25   43.23310   43.23310   19.89870   18.97750    -999.25   27.00340   18.97750    -999.25    -999.25    -999.25 -740.21180    -999.25  -16.82840   27.00340
 6150.00000    -999.25    -999.25    9.73570    9.73570   80.10890    -999.25    -999.25    -999.25    -999.25    -999.25   12.48300   77.04910   77.04910    -999.25    -999.25    -999.25   62.93170   62.93170   12.48300   11.35530    -999.25   13.15300   11.35530    -999.25    -999.25    -999.25 -740.78470    -999.25  -17.46490   13.15300
 6200.00000    -999.25    -999.25    9.65460    9.65460   83.28060    -999.25    -999.25    -999.25    -999.25    -999.25   12.00760   75.55760   75.55760    -999.25    -999.25    -999.25   79.86900   79.86900   12.00760   10.99070    -999.25   10.43980   10.99070    -999.25    -999.25    -999.25 -742.21210    -999.25  -18.95560   10.43980
 6250.00000    -999.25    -999.25    9.52460    9.52460   63.40830    -999.25    -999.25    -999.25    -999.25    -999.25   15.77080   70.50900   70.50900    -999.25    -999.25    -999.25   59.24740   59.24740   15.77080   14.85250    -999.25   17.47900   14.85250    -999.25    -999.25    -999.25 -737.12490    -999.25  -13.93220   17.47900
