~Version ---------------------------------------------------
VERS.      2.0 : CWLS log ASCII Standard -VERSION 2.0
WRAP.       NO : One line per depth step
CREA. 07/27/17 : LAS Creation Date
~Well ------------------------------------------------------
STRT.FT                           800.0 : START DEPTH
STOP.FT                         10500.0 : STOP DEPTH
STEP.FT                        50.00000 : STEP LENGTH
NULL.                           -999.25 : NULL VALUE
COMP.        THE CALIFORNIA STANDARD CO : COMPANY
WELL. CALSTAN BA KAYBOB WEST 2-28-63-20 : WELL
FLD .                                WC : FIELD
LOC .                                   : LOCATION
CTRY.                            CANADA : COUNTRY
SRVC.            Schlumberger of Canada : SERVICE COMPANY
DATE.                       31-Dec-1960 : LOGDATE
PROV.                           Alberta : PROVINCE
UWI .                  100022806320W500 : UNIQUE WELL ID
SLAT.WGS84                     54.47443 : SURFACE LATITUDE
SLON.WGS84                    -116.9579 : SURFACE LONGITUDE
~Curve Information -----------------------------------------
DEPT  .FT         : Depth Curve
CALWS .IN         : CALIPER [MCALED]
CILDED.MMHO       : INDUCTION DEEP CONDUCTIVITY FROM IEL LOG
CONDWS.MMHO       : CONDUCTIVITY [1000/DRESWS]
DRESWS.OHMM       : DEEP RESISTIVITY [CALC FROM 1000/CILDED, IF ILDED<1, ILDED]
DTED  .US/F       : COMPRESSIONAL DELTA-T (INTERVAL TRANSIT TIME) FROM SONIC LOG
DTWS  .US/F       : COMPRESSIONAL SONIC [DTED]
GRSED .UgRa-Eq/T  : GAMMA RAY FROM SONIC LOG FROM SONIC LOG
GRWS  .GAPI       : GAMMA RAY [GRSED*16.5 CONVERTED TO API UNIT]
ILDED .OHMM       : DEEP INDUCTION FROM IEL LOG
MCALED.IN         : MLT (MICROLOG) CALIPER FROM ML LOG
SNED  .OHMM       : SHORT NORMAL INDUCTION FROM IEL LOG
SPRED .MV         : SPONTANEOUS POTENTIAL FROM IEL LOG
SPWS  .MV         : SPONTANEOUS POTENTIAL [BASELINE 0 MV, SPRED]
SRESWS.OHMM       : SHALLOW RESISTIVITY [SNED]
~Params ----------------------------------------------------
LMF .                     KB : LOG MEASURED FROM
DMF .                     KB : DRILLING MEASURED FROM
EKB .FT                 2582 : KELLY BUSHING
EGL .FT                 2568 : GROUND LEVEL
DATE.               12/31/60 : RUN DATE
RUN .                      2 : RUN NUMBER
DD  .FT                10548 : DEPTH DRILLER
DL  .FT                10549 : DEPTH LOGGER
BLI .FT                10548 : BOTTOM LOG INTERVAL
TLI .FT                 6778 : TOP LOG INTERVAL
BSD .FT                10548 : BIT SIZE AT DEPTH
DFT .               OIL EMUL : DRILLING FLUID TYPE
DFD .                   10.1 : DRILLING FLUID DENSITY
DFV .                    109 : DRILLING FLUID VISCOSITY
DFPH.                     10 : DRILLING FLUID PH
DFL .                   10.2 : DRILLING FLUID LOSS
MSS .             CIRCULATED : MUD SAMPLE SOURCE
RMS .OHMM                5.2 : RESISTIVITY MUD SAMPLE
MST .DEGF                 58 : MUD SAMPLE TEMPERATURE
RMF .OHMM               1.64 : RESISTIVITY MUD FILTRATE SAMPLE
MFST.DEGF                 74 : MUD FILTRATE SAMPLE TEMPERATURE
RMC .OHMM               2.22 : RESISTIVITY MUD CAKE
MCST.DEGF                 74 : MUD CAKE SAMPLE TEMPERATURE
RMB .OHMM               0.75 : RESISTIVITY MUD AT BHT
TCS .HRS                 2.5 : TIME CIRCULATED STOPPED
LUN .                   1534 : LOGGING UNIT NUMBER
LUL .                     WC : LOGGING UNIT LOCATION
ENGI.                   GRAY : RECORDING ENGINEER
WITN.               MALOWANY : WITNESSED BY
CLNT.                A2DTECH : CLIENT CODE
ORIG.            2" 5" PRINT : ORIGIN OF DATA
UWI .       100022806320W500 : UNIQUE WELL ID
DICO. A2D Technologies, Inc. : DIGITIZING COMPANY
~Other -----------------------------------------------------
~ASCII -----------------------------------------------------
# ...
 8150.00000   11.54520    4.53560    1.67060  598.58640   52.63270   52.63270    6.27220  103.49130  598.58640   11.54520  242.36130 -118.90500 -104.98070  242.36130
 8200.00000   10.78920    7.17440    4.28150  233.56390   50.88530   50.88530    6.38970  105.43010  233.56390   10.78920  123.60910 -138.25010 -124.53280  123.60910
 8250.00000   10.28930    8.05400    6.26560  159.60180   51.38900   51.38900    5.50260   90.79290  159.60180   10.28930  140.81870 -160.20440 -146.69280  140.81870
 8300.00000   10.66870    3.74040    1.67120  598.36750   51.08120   51.08120    6.17830  101.94200  598.36750   10.66870  173.68950 -146.83640 -133.53040  173.68950
 8350.00000   10.42980    4.81310    3.24650  308.02830   51.43330   51.43330    6.05120   99.84480  308.02830   10.42980  137.45620 -155.33510 -142.23610  137.45620
 8400.00000   10.76380    4.92380    3.98500  250.94010   54.17300   54.17300    5.85890   96.67190  250.94010   10.76380  149.76010 -153.16440 -140.27110  149.76010
 8450.00000   10.91410    1.78990    1.67020  598.71910   51.73820   51.73820    5.79090   95.54980  598.71910   10.91410  194.14160 -131.31630 -118.63000  194.14160
 8500.00000   10.72060    7.81950    4.86580  205.51810   51.06270   51.06270    5.88490   97.10080  205.51810   10.72060   95.46490 -125.56470 -113.08400   95.46490
 8550.00000   10.44310   15.02070    9.63900  103.74570   51.28800   51.28800    5.75390   94.94020  103.74570   10.44310   78.86430 -127.58230 -115.30730   78.86430
 8600.00000    8.92360   42.50480   34.69980   28.81860   53.49150   53.49150    5.42310   89.48120   28.81860    8.92360   95.99300 -187.94650 -175.87850   95.99300
 8650.00000    8.55230   20.14840   12.49530   80.02980   54.72490   54.72490    5.48170   90.44800   80.02980    8.55230  113.58200 -158.18490 -146.32250  113.58200
 8700.00000    8.89590   18.56960   11.29460   88.53790   52.95970   52.95970    6.39950  105.59170   88.53790    8.89590   81.79780  -94.54950  -82.89410   81.79780
 8750.00000    7.96830   39.30280   30.47910   32.80940   58.61750   58.61750    5.58820   92.20530   32.80940    7.96830   80.73830  -98.02890  -86.57920   80.73830
 8800.00000    9.05470  154.84810  149.89130    6.67150   58.06980   58.06980    6.63140  109.41810    6.67150    9.05470   11.83760  -64.26060  -53.01650   11.83760
 8850.00000    9.12680   16.55070    7.87410  126.99830   53.45270   53.45270    5.99780   98.96370  126.99830    9.12680   87.21830  -34.37540  -23.33830   87.21830
 8900.00000    9.32200    8.29630    1.71330  583.66550   51.69350   51.69350    5.88730   97.14040  583.66550    9.32200  148.36080  -27.33780  -16.50640  148.36080
 8950.00000    9.11130   43.62090   35.89490   27.85910   56.64420   56.64420    6.56750  108.36380   27.85910    9.11130   34.13540  -53.77120  -43.14680   34.13540
 9000.00000    9.68750   31.80060   23.72960   42.14150   59.67600   59.67600    6.26940  103.44510   42.14150    9.68750   48.89190  -54.02310  -43.60430   48.89190
 9050.00000    9.13770   61.72540   55.82600   17.91280   63.77990   63.77990    6.91680  114.12720   17.91280    9.13770   28.72830  -48.13790  -37.92480   28.72830
 9100.00000    9.71880  132.57530  128.90580    7.75760   70.36520   70.36520    8.16640  134.74560    7.75760    9.71880   12.64040  -70.04850  -60.04240   12.64040
 9150.00000   10.16340  156.07590  153.66650    6.50760   74.74870   74.74870    8.82680  145.64140    6.50760   10.16340   11.08900  -75.30480  -65.50430   11.08900
 9200.00000   10.96430  185.60700  185.95660    5.37760   75.29680   75.29680    7.76210  128.07460    5.37760   10.96430   10.37200  -97.75670  -88.16320   10.37200
 9250.00000    9.76600  174.37350  171.13320    5.84340   72.47800   72.47800    7.18820  118.60530    5.84340    9.76600   11.73420 -105.25640  -95.86860   11.73420
 9300.00000    9.40360  200.11610  200.21620    4.99460   72.75940   72.75940    7.51700  124.02970    4.99460    9.40360   10.18000  -75.28320  -66.10100   10.18000
 9350.00000    9.10180  111.34640  118.13910    8.46460   74.92050   74.92050    7.92890  130.82690    8.46460    9.10180   13.42070  -53.94640  -44.97120   13.42070
 9400.00000   12.19250  423.65070  375.89750    2.66030   83.58720   83.58720    8.57320  141.45780    2.66030   12.19250    3.64180  -56.79860  -48.02910    3.64180
 9450.00000   12.09240  401.85750  373.46880    2.67760   83.16780   83.16780    7.57410  124.97260    2.67760   12.09240    3.60550  -53.46520  -44.90270    3.60550
 9500.00000   14.80680  418.97290  382.24840    2.61610   86.08620   86.08620    7.33640  121.05060    2.61610   14.80680    3.21050  -70.95750  -62.60060    3.21050
 9550.00000   15.17860  432.87580  391.75740    2.55260   85.18290   85.18290    7.39030  121.94080    2.55260   15.17860    3.40480  -85.53020  -77.37900    3.40480
 9600.00000    9.24180  119.28340  118.76200    8.42020   67.77530   67.77530    7.50960  123.90840    8.42020    9.24180   12.45860  -55.47600  -47.53180   12.45860
 9650.00000    9.30150  184.89750  196.63750    5.08550   70.11930   70.11930    7.53120  124.26480    5.08550    9.30150    7.98270  -44.01230  -36.27370    7.98270
 9700.00000    9.24110  141.36030  148.47370    6.73520   69.09100   69.09100    7.44860  122.90190    6.73520    9.24110   10.16890  -40.56010  -33.02850   10.16890
 9750.00000    9.25810  216.64590  242.78330    4.11890   73.27850   73.27850    8.47450  139.82930    4.11890    9.25810    6.97470  -51.22200  -43.89600    6.97470
 9800.00000    9.63880  230.93260  258.93990    3.86190   78.26600   78.26600    8.85520  146.11000    3.86190    9.63880    6.46320  -97.16970  -90.04940    6.46320
 9850.00000    9.41770  165.42720  173.08820    5.77740   70.61680   70.61680    7.45930  123.07850    5.77740    9.41770    8.44300 -109.93880 -103.02550    8.44300
 9900.00000    9.70700  274.72130  297.38010    3.36270   78.77920   78.77920    7.78970  128.53010    3.36270    9.70700    5.36650 -103.22740  -96.51970    5.36650
 9950.00000    9.42560   46.23820   42.03520   23.78960   80.71630   80.71630    9.85560  162.61740   23.78960    9.42560   31.78120  -71.64150  -65.14080   31.78120
 10000.00000    9.40390   27.86550   21.93380   45.59170   81.94350   81.94350   10.69970  176.54510   45.59170    9.40390   47.84270  -38.46490  -32.16990   47.84270
 10050.00000    9.82670   19.72540   14.02140   71.31950   56.97890   56.97890    5.22660   86.23970   71.31950    9.82670   50.37470  -26.50540  -20.41600   50.37470
 10100.00000   14.77950  226.68310  233.36130    4.28520   92.67200   92.67200    9.06760  149.61540    4.28520   14.77950    6.16710  -26.51390  -20.63150    6.16710
 10150.00000   10.04420   25.43670   18.67760   53.54010   63.22240   63.22240    5.91750   97.63870   53.54010   10.04420   40.56290  -27.56570  -21.88900   40.56290
 10200.00000   10.89790   16.38990    9.78180  102.23040   55.07050   55.07050    5.25230   86.66290  102.23040   10.89790   52.69020  -29.83530  -24.36560   52.69020
 10250.00000   10.05560   34.21310   30.13190   33.18740   57.44450   57.44450    5.53160   91.27140   33.18740   10.05560   38.61440  -19.77550  -14.51140   38.61440
 10300.00000    9.54860   24.64980   20.19750   49.51110   59.81080   59.81080    5.93180   97.87390   49.51110    9.54860   45.02340  -38.37530  -33.31690   45.02340
 10350.00000    9.49140    8.67340    3.48740  286.74350   54.17330   54.17330    4.67340   77.11110  286.74350    9.49140   70.97760  -19.30080  -14.44940   70.97760
 10400.00000    9.74810    8.54730    2.95660  338.22090   52.81680   52.81680    4.98900   82.31850  338.22090    9.74810  149.44410  -11.43500   -6.75270  149.44410
 10450.00000    9.93730    2.67910    -999.25    -999.25   53.72450   53.72450    4.37450   72.17930    -999.25    9.93730  199.21330  -41.61250  -36.93020  199.21330
 10500.00000    8.89660   58.32550   59.71330   16.74670   68.36320   68.36320    7.65090  126.23990   16.74670    8.89660   28.88520  -67.70610  -63.02380   28.88520
