~Version ---------------------------------------------------
VERS. 2.0 : CWLS log ASCII Standard -VERSION 2.0
WRAP.  NO : ONE LINE PER DEPTH STEP
~Well ------------------------------------------------------
STRT.M                               380.5 : START DEPTH
STOP.M                              2549.3 : STOP DEPTH
STEP.M                             0.20000 : STEP LENGTH
NULL.                              -999.25 : NULL VALUE
COMP.                DEVON ARL CORPORATION : COMPANY
WELL. DEVON ARL ETAL 7D GVILLEE 7-25-76-23 : WELL
FLD .                                      : FIELD
LOC .                                      : LOCATION
CTRY.                               CANADA : COUNTRY
SRVC.                         Schlumberger : SERVICE COMPANY
DATE.                          06-Mar-2003 : LOGDATE
PROV.                              Alberta : PROVINCE
UWI .                     100072507623W500 : UNIQUE WELL ID
SLAT.WGS84                        55.61368 : SURFACE LATITUDE
SLON.WGS84                       -117.4224 : SURFACE LONGITUDE
~Curve Information -----------------------------------------
DEPT    .M    0   1   0  0 : 1 MEASURED DEPTH
GRS     .GAPI 60 310 01 00 : GAMMA RAY FROM SONIC LOG
HDS     .MM   60 280 00 00 : HOLE DIAMETER FROM SONIC
DT      .US/M 60 500 00 00 : DELTA-T (INTERVAL TRANSIT TIME)
HCALS   .MM   60 280 50 00 : HRCC CALIPER CALIBRATED FROM SONIC LOG
TENS    .N    60 635 00 00 : TENSION FROM SONIC LOG
GRR     .GAPI 06 310 01 00 : GAMMA RAY FROM RESISTIVITY LOG
RXOZ    .OHMM 06 270 04 00 : INVADED FORMATION RESISTIVITY FILTERED AT 18 INCHES
TENR    .N    06 635 00 00 : TENSION FROM RESISTIVITY LOG
SPR     .MV   06 010 01 00 : SPONTANEOUS POTENTIAL FROM RESISTIVITY LOG
AHF30   .OHMM 06 120 30 00 : ARRAY INDUCTION FOUR FOOT RESISTIVITY A30
AHF20   .OHMM 06 120 20 00 : ARRAY INDUCTION FOUR FOOT RESISTIVITY A20
AHF60   .OHMM 06 120 60 00 : ARRAY INDUCTION FOUR FOOT RESISTIVITY A60
GRD     .GAPI 45 310 01 00 : GAMMA RAY FROM DENSITY LOG
NPOR_SAN.DEC  42 890 03 00 : ENHANCED THERMAL NEUTRON POROSITY (SANDSTONE)
HDD     .MM   45 280 60 00 : HOLE DIAMETER
HCALD   .MM   45 280 60 00 : HRCC CALIPER CALIBRATED FROM DENSITY LOG
DPHI_SAN.DEC  45 890 12 00 : DENSITY POROSITY (MATRIX SANDSTONE)
HDRA    .K/M3 45 356 01 00 : HRDD SPINE AND RIBS DENSITY CORRECTION
PEFZ    .B/E  45 358 01 00 : HRDD STANDARD RESOLUTION FORMATION PHOTOELECTRIC FACTOR
TEND    .N    45 635 00 00 : TENSION FROM DENSITY LOG
NPOR_LS .DEC  42 890 01 00 : NEUTRON POROSITY LIMESTONE
DPHI_LS .DEC  45 890 10 00 : DENSITY POROSITY LIMESTONE
RHOZ    .K/M3 45 350 01 00 : HRDD STANDARD RESOLUTION FORMATION DENSITY
~Params ----------------------------------------------------
PD  .                                  GL : PERMANENT DATUM
EPD .M                              551.9 : ELEVATION PERMANENT DATUM
LMF .                                  KB : LOG MEASURED FROM
DAPD.M                                4.7 : FEET ABOVE PERMANENT DATUM
DMF .                                  KB : DRILLING MEASURED FROM
EKB .M                              556.6 : KELLY BUSHING
EDF .M                              556.3 : DRILLING FLOOR
EGL .M                              551.9 : GROUND LEVEL
DATE.                            03/06/03 : RUN DATE
RUN .                                   1 : RUN NUMBER
DD  .M                               2545 : DEPTH DRILLER
DL  .M                               2544 : DEPTH LOGGER
BLI .M                             2538.3 : BOTTOM LOG INTERVAL
TLI .M                                421 : TOP LOG INTERVAL
CS  .MM                             219.1 : CASING SIZE
CBD .M                                421 : CASING BOTTOM DRILLER
CBL .M                              420.5 : CASING BOTTOM LOGGER
BS  .MM                               200 : BIT SIZE
BSD .M                               2545 : BIT SIZE AT DEPTH
DFT .                            GEL CHEM : DRILLING FLUID TYPE
DFD .                                1050 : DRILLING FLUID DENSITY
DFV .                                  83 : DRILLING FLUID VISCOSITY
DFPH.                                10.5 : DRILLING FLUID PH
DFL .                                   7 : DRILLING FLUID LOSS
MSS .                            FLOWLINE : MUD SAMPLE SOURCE
RMS .OHMM                            1.27 : RESISTIVITY MUD SAMPLE
MST .DEGC                              17 : MUD SAMPLE TEMPERATURE
RMF .OHMM                            0.98 : RESISTIVITY MUD FILTRATE SAMPLE
MFST.DEGC                              18 : MUD FILTRATE SAMPLE TEMPERATURE
RMC .OHMM                            1.55 : RESISTIVITY MUD CAKE
MCST.DEGC                              18 : MUD CAKE SAMPLE TEMPERATURE
MFSS.                            MEASURED : MUD FILTRATE SAMPLE SOURCE
MCSS.                             MEAURED : MUD CAKE SAMPLE SOURCE
RMB .OHMM                           0.566 : RESISTIVITY MUD AT BHT
TCS .HRS                              640 : TIME CIRCULATED STOPPED
TLAB.HRS                             1645 : TIME LOGGER AT BOTTOM
LUN .                                2133 : LOGGING UNIT NUMBER
LUL .                      GRANDE PRAIRIE : LOGGING UNIT LOCATION
ENGI.                            STIRLING : RECORDING ENGINEER
WITN.                              MCLEAY : WITNESSED BY
CLNT.                             A2DTECH : CLIENT CODE
ORIG. 6.5"/100M 16.5"/100M 33"/100M PRINT : ORIGIN OF DATA
UWI .                    100072507623W500 : UNIQUE WELL ID
DICO.              A2D Technologies, Inc. : DIGITIZING COMPANY
~Other -----------------------------------------------------
~ASCII -----------------------------------------------------
# ...
 2114.50000   28.05930  199.69140  162.90110  196.45330 19372.54490   32.98820  231.79770 19444.51170 -100.26970   45.60180   47.95280   43.56520   27.78400    -999.25  199.65030  196.73280    -999.25   -8.32360    3.06820 19306.10740    0.07320   -0.02450 2764.02950
 2114.70000   34.72610  199.65130  165.40950  196.30190 19370.53910   36.98580  154.59570 19370.68950 -100.27680   36.99940   39.82200   35.72080   34.65690    -999.25  199.62210  196.52620    -999.25   -3.79610    2.96830 19312.53910    0.08280   -0.01380 2752.14820
 2114.90000   36.75620  199.61030  169.44010  196.15060 19266.53910   36.15570  115.66450 19308.26370 -100.26370   30.01980   32.53300   28.98790   36.57620    -999.25  199.59380  196.31950    -999.25    3.50930    2.88550 19288.30470    0.09420    0.00170 2729.86230
 2115.10000   35.82740  199.56920  172.26700  196.02080 19260.68550   35.80890   82.20440 19290.59380 -100.26930   25.32530   26.57810   24.82090   35.67710    -999.25  199.56550  196.11290    -999.25    2.82310    2.84410 19229.57230    0.09720    0.01440 2701.45510
 2115.30000   36.17880  199.52820  173.57590  196.37220 19214.16210   37.31480   64.25730 19255.82230  -99.83520   22.75490   23.09670   22.29110   35.83550    -999.25  199.53730  195.92830    -999.25   -3.74830    2.83320 19266.66020    0.10370    0.00800 2679.71340
 2115.50000   37.49860  199.48710  173.25220  196.75650 19154.21680   37.52200   74.52850 19158.52150  -99.46630   22.68560   23.27990   22.36070   37.22990    -999.25  199.50900  196.33830    -999.25   -3.16940    2.84490 19159.99220    0.10090   -0.00550 2693.57250
 2115.70000   37.35580  199.44610  171.14090  197.03150 19148.38480   36.94680   68.03670 19141.40040  -98.59750   23.35270   23.80360   22.95270   37.25890    -999.25  199.48070  196.74840    -999.25   -2.12190    2.86270 19184.56450    0.09420   -0.01330 2721.92020
 2115.90000   36.27360  199.40500  169.10240  197.30640 19147.29100   34.94370   63.96290 19192.61520  -97.89600   23.96890   24.30040   23.56040   36.56170    -999.25  199.45250  197.12630    -999.25   -4.47370    2.91140 19112.11910    0.09760   -0.01790 2734.79710
 2116.10000   33.55320  199.36390  167.81410  197.47310 19165.47660   31.50620   63.03430 19217.53520  -97.52810   23.60720   24.25880   23.16000   33.96410    -999.25  199.42560  197.09760    -999.25   -6.41770    2.98850 19109.10740    0.10170   -0.02000 2740.38350
 2116.30000   29.65690  199.34230  167.95200  197.49970 19173.67380   28.43930   57.33080 19242.45510  -96.99670   22.46770   23.05960   22.05490   29.86500    -999.25  199.40910  196.88970    -999.25   -7.08660    3.01090 19135.30270    0.10230   -0.02110 2745.81520
 2116.50000   28.24310  199.35430  167.77320  197.51990 19143.13670   28.89800   45.50700 19238.42970  -96.35720   21.46160   21.74590   21.05340   28.04620    -999.25  199.39250  196.97800    -999.25   -6.26160    3.01950 19237.81450    0.10360   -0.01960 2747.40750
 2116.70000   29.49870  199.36620  167.56840  197.52640 19125.44340   30.39670   39.46190 19203.01370  -96.78470   20.64280   21.18200   20.33700   29.25370    -999.25  199.37600  197.06630    -999.25   -5.59810    3.04400 19132.91990    0.10740   -0.01580 2745.21750
 2116.90000   31.01540  199.37810  168.57950  197.26400 19150.78910   31.50310   35.51370 19270.10350  -97.53970   19.84520   20.64590   19.52840   30.85970    -999.25  199.35950  197.15460    -999.25   -4.85840    3.06570 19219.14260    0.11440   -0.00980 2738.11330
 2117.10000   32.38520  199.34990  170.84590  196.77710 19176.13670   33.48900   44.85280 19168.97460  -98.89130   18.65630   19.53780   18.12660   31.90820    -999.25  199.34300  197.00850    -999.25   -3.79450    2.98090 19135.26760    0.10810   -0.00130 2727.00930
 2117.30000   34.46860  199.27280  172.91100  196.37520 19201.48240   35.30550   64.36350 19187.08590 -100.41400   17.20940   17.97530   16.59480   34.08950    -999.25  199.32650  196.66630    -999.25   -2.91460    2.85290 19179.64260    0.10250    0.00890 2707.69600
 2117.50000   35.36320  199.19560  174.03320  196.23650 19096.97850   34.88150   63.43670 19156.38280 -101.21630   15.91730   16.53780   15.08140   35.15870    -999.25  199.31000  196.34340    -999.25   -2.04190    2.75330 19194.98440    0.11160    0.01530 2685.50630
 2117.70000   34.56810  199.11850  174.11430  196.09790 19106.48440   33.76620   89.80110 19193.85740 -102.02870   14.99710   15.60530   14.35860   34.40900    -999.25  199.29350  196.22530    -999.25   -2.45300    2.73940 19126.58790    0.11550    0.01490 2682.59770
 2117.90000   33.31280  199.08380  173.52300  196.19810 19212.00000   32.08310   90.69820 19243.71290 -102.98280   15.40400   16.43050   14.62340   33.12370    -999.25  199.27690  196.45810    -999.25   -2.73810    2.74700 19190.60740    0.11460    0.00930 2686.10720
 2118.10000   31.75790  199.08650  172.03970  196.96380 19312.72660   31.03870   85.30700 19410.70900 -103.73760   17.39010   18.15310   16.19370   31.53870    -999.25  199.26040  196.37710    -999.25   -0.51370    2.78870 19329.85550    0.10910    0.00060 2693.21700
 2118.30000   30.80140  199.08910  169.54490  197.29210 19292.18750   30.69400   74.09490 19420.03910 -104.12780   21.55730   22.55310   19.84500   30.18630    -999.25  199.24390  196.38030    -999.25   -0.65800    2.87410 19486.28120    0.09980   -0.01200 2707.57520
 2118.50000   30.59840  199.58130  165.34300  196.95920 19182.36330   29.47770   77.73320 19327.46480 -103.96040   27.74160   29.41950   25.43490   29.99970    -999.25  199.22740  196.55720    -999.25   -3.53270    2.99450 19310.22270    0.09190   -0.02840 2733.44120
 2118.70000   28.76920  199.56620  160.32670  196.62620 19109.47460   27.45790  119.97650 19244.24220 -104.15720   35.51500   38.37630   33.79670   28.66120    -999.25  199.21090  197.10030    -999.25   -5.66830    3.09670 19223.20900    0.08130   -0.03770 2761.11250
 2118.90000   26.95990  199.58050  159.07980  196.29320 19078.59960   25.54350  411.34670 19197.41410 -104.54950   43.00860   44.25340   40.48100   26.86870    -999.25  199.19440  196.62570    -999.25   -3.29490    3.12400 19161.26950    0.08060   -0.03840 2775.75900
 2119.10000   25.16300  199.57650  161.14250  195.73850 18998.71880   22.77040  275.03280 19108.26760 -105.32680   46.50760   48.13820   44.98840   25.46430    -999.25  199.17780  196.35580    -999.25    3.74940    3.03820 19113.94530    0.08690   -0.03830 2774.88430
 2119.30000   21.94200  199.36380  163.16800  195.88940 18985.93360   19.95150  138.99150 19019.34180 -105.86760   48.77710   49.81670   46.02290   21.96860    -999.25  199.16130  196.10040    -999.25   12.38760    2.98650 18981.73050    0.09040   -0.04040 2774.64160
 2119.50000   18.98960  199.34920  162.68330  196.71550 18996.56450   18.70850  157.31770 19072.76560 -106.32320   51.24160   54.22540   48.04710   19.00530    -999.25  199.14480  196.05630    -999.25   11.42300    2.96490 18930.39840    0.08410   -0.04500 2778.66330
 2119.70000   18.49620  199.36010  159.94890  197.05360 19007.19530   19.79790  310.14380 19148.41020 -106.07310   57.96780   60.79050   54.58900   18.25570    -999.25  199.12830  196.54920    -999.25    2.16570    2.99290 19110.39650    0.07190   -0.05200 2785.57320
 2119.90000   20.26410  199.37090  157.70070  197.11600 19017.82620   21.64150  432.91930 19174.71680 -105.57210   66.52470   71.17640   62.02150   20.10250    -999.25  199.11180  197.04200    -999.25   -2.00290    3.03020 19131.87300    0.06780   -0.05890 2799.30760
 2120.10000   22.07710  199.38170  156.05120  197.17840 19028.45700   22.07670  301.12740 19143.37890 -105.60720   79.04700   83.16830   70.46600   21.87760    -999.25  199.15120  197.50130    -999.25   -2.86050    3.04970 19083.86130    0.06770   -0.06190 2811.77340
 2120.30000   21.91960  199.39260  155.49580  197.24820 19072.99800   21.09380  281.39220 19133.29690 -105.54450   78.27930   89.50560   70.90990   21.79730    -999.25  199.19140  197.19740    -999.25   -1.38230    3.06920 19031.34570    0.06710   -0.05920 2819.87500
