~Version ---------------------------------------------------
VERS.      2.0 : CWLS log ASCII Standard -VERSION 2.0
WRAP.       NO : One line per depth step
CREA. 08/22/14 : LAS Creation Date
~Well ------------------------------------------------------
STRT.FT                 1143.82546 : START DEPTH
STOP.FT                11159.82546 : STOP DEPTH
STEP.FT                    0.50000 : STEP LENGTH
NULL.                      -999.25 : NULL VALUE
COMP.            TRIAD OIL CO. LTD : COMPANY
WELL. TRIAD PAN AM ANTE 2-27-66-25 : WELL
FLD .                              : FIELD
LOC .                              : LOCATION
CTRY.                       CANADA : COUNTRY
SRVC.                   Lane Wells : SERVICE COMPANY
DATE.                  15-Aug-1967 : LOGDATE
PROV.                      Alberta : PROVINCE
UWI .             100022706625W500 : UNIQUE WELL ID
SLAT.WGS84                54.73614 : SURFACE LATITUDE
SLON.WGS84                 -117.69 : SURFACE LONGITUDE
~Curve Information -----------------------------------------
DEPT.FT    : DEPTH FEET
CALS.IN    : CALIPER FROM SONIC LOG
DT  .US/F  : DELTA TIME FROM SONIC LOG
GRS .GAPI  : GAMMA RAY FROM SONIC LOG
ILD .OHMM  : INDUCTION LOG DEEP RESISTIVITY
SN  .OHMM  : 16 INCH SHORT NORMAL RESISTIVITY FROM IEL
SPR .MV    : SPONTANEOUS POTENTIAL FROM RESISTIVITY LOG
~Params ----------------------------------------------------
PD  .                     GL : PERMANENT DATUM
EPD .FT               2399.7 : ELEVATION PERMANENT DATUM
LMF .                     KB : LOG MEASURED FROM
DAPD.FT                   15 : FEET ABOVE PERMANENT DATUM
DMF .                     KB : DRILLING MEASURED FROM
EKB .FT               2414.7 : KELLY BUSHING
EGL .FT               2399.7 : GROUND LEVEL
DATE.               08/15/67 : RUN DATE
RUN .                      1 : RUN NUMBER
DD  .FT                11172 : DEPTH DRILLER
DL  .FT                11160 : DEPTH LOGGER
BLI .FT                11156 : BOTTOM LOG INTERVAL
TLI .FT                 1144 : TOP LOG INTERVAL
CS  .IN                9.625 : CASING SIZE
CBD .FT                 1145 : CASING BOTTOM DRILLER
CBL .FT                 1144 : CASING BOTTOM LOGGER
BS  .IN                7.625 : BIT SIZE
BSD .FT                11172 : BIT SIZE AT DEPTH
DFT .                MUD GEL : DRILLING FLUID TYPE
DFD .                    9.9 : DRILLING FLUID DENSITY
DFV .                     89 : DRILLING FLUID VISCOSITY
DFPH.                      9 : DRILLING FLUID PH
DFL .                    7.2 : DRILLING FLUID LOSS
MSS .                   CIRC : MUD SAMPLE SOURCE
RMS .OHMM                3.0 : RESISTIVITY MUD SAMPLE
MST .DEGF                 86 : MUD SAMPLE TEMPERATURE
RMF .OHMM                2.4 : RESISTIVITY MUD FILTRATE SAMPLE
MFST.DEGF                 86 : MUD FILTRATE SAMPLE TEMPERATURE
RMC .OHMM                3.2 : RESISTIVITY MUD CAKE
MCST.DEGF                 86 : MUD CAKE SAMPLE TEMPERATURE
MFSS.                   MEAS : MUD FILTRATE SAMPLE SOURCE
MCSS.                   MEAS : MUD CAKE SAMPLE SOURCE
RMB .OHMM                1.2 : RESISTIVITY MUD AT BHT
TCS .HRS                   6 : TIME CIRCULATED STOPPED
LUN .                   1256 : LOGGING UNIT NUMBER
LUL .                    EDM : LOGGING UNIT LOCATION
ENGI.      KOWALCHUK DOMSTAD : RECORDING ENGINEER
WITN.            DANIELEWICZ : WITNESSED BY
CLNT.                A2DTECH : CLIENT CODE
ORIG.            2" 5" PRINT : ORIGIN OF DATA
UWI .       100022706625W500 : UNIQUE WELL ID
DICO. A2D Technologies, Inc. : DIGITIZING COMPANY
~Other -----------------------------------------------------
~ASCII -----------------------------------------------------
# ...
 11123.82546    7.53240   50.75210   34.23230  200.91670  200.55450 -113.90810
 11124.32546    7.54490   50.26700   37.42930  186.13880  193.75920 -111.58280
 11124.82546    7.55110   50.15090   37.39650  178.32360  189.73940 -111.66510
 11125.32546    7.56160   50.61270   38.02080  162.70500  182.44670 -111.62680
 11125.82546    7.56400   51.28100   43.08500  146.70300  174.96800 -108.57100
 11126.32546    7.56400   51.55340   42.27670  139.26560  171.49230 -106.93120
 11126.82546    7.56400   51.99600   39.56200  123.58700  163.84000 -103.78800
 11127.32546    7.56400   51.88450   42.39690  117.60580  160.54080 -104.90160
 11127.82546    7.55300   51.42500   47.88000  104.28900  152.71200 -107.57300
 11128.32546    7.54790   51.30090   49.80940  100.76200  149.83640 -106.35560
 11128.82546    7.53600   51.56000   53.90400   91.75700  142.75900 -102.34500
 11129.32546    7.53120   51.79140   58.59870   88.47950  140.19330 -100.65870
 11129.82546    7.52950   52.27140   64.81330   78.91570  133.85530  -99.39790
 11130.32546    7.53700   52.57770   66.62890   69.04470  130.68420 -100.34910
 11130.82546    7.55540   53.09200   70.77570   46.33860  124.33780 -100.52070
 11131.32546    7.56450   53.34000   73.39390   41.25910  121.16400  -99.24770
 11131.82546    7.58290   53.80180   82.94880   36.15260  114.86540  -96.17710
 11132.32546    7.59170   54.48750   89.37800   33.80720  112.43760  -95.31120
 11132.82546    7.60050   56.52030  105.01540   29.87640  108.62820  -96.51600
 11133.32546    7.59900   57.38780  113.22240   28.12870  106.85860  -97.49240
 11133.82546    7.59240   58.60370  119.97010   24.64360  103.34330  -96.28870
 11134.32546    7.58950   59.63920  121.87450   23.52480  101.58930  -94.61090
 11134.82546    7.58360   61.64680  130.28090   22.26410   98.07880  -93.63160
 11135.32546    7.58060   62.18140  134.76190   21.36520   96.32430  -94.74150
 11135.82546    7.57470   62.83750  142.13660   18.28930   92.84520  -97.90270
 11136.32546    7.56900   63.81200  146.59600   14.36400   88.74500 -101.17000
 11136.82546    7.56590   64.28390  144.47130   12.77280   86.73160 -102.44900
 11137.32546    7.57300   66.87100  137.28500   10.08900   82.28100 -104.91300
 11137.82546    7.57890   67.28240  134.72940    9.52400   80.35960 -107.13880
 11138.32546    7.59300   68.08400  128.21200    9.00700   77.50900 -113.70900
 11138.82546    7.59860   66.96610  124.09250    8.95340   77.53640 -116.50230
 11139.32546    7.61400   62.06200  116.51100    8.82300   80.72800 -122.97900
 11139.82546    7.61880   59.86710  115.51650    8.78020   82.54080 -125.83800
 11140.32546    7.60710   53.91700    -999.25    8.74030   87.03760 -135.61690
 11140.82546    -999.25   51.61100    -999.25    9.11310   89.28360 -141.90900
 11141.32546    -999.25   56.49370    -999.25   11.39900   93.77530 -156.63950
 11141.82546    -999.25   59.39690    -999.25   12.93290   96.02090 -159.73520
 11142.32546    -999.25   60.18720    -999.25   15.98450  100.51130 -156.44490
 11142.82546    -999.25   59.50220    -999.25   17.50710  102.74950 -158.49270
 11143.32546    -999.25   64.93360    -999.25   20.55560  107.24170 -167.48370
 11143.82546    -999.25   68.26670    -999.25   22.06770  109.08570 -169.13710
 11144.32546    -999.25   66.69650    -999.25   24.69400  110.49540 -165.25780
 11144.82546    -999.25   66.33420    -999.25   25.09570  108.16430 -161.73940
 11145.32546    -999.25   70.48000    -999.25   24.27910  100.97200 -156.14220
 11145.82546    -999.25   70.99210    -999.25   23.65210   97.84490 -155.18120
 11146.32546    -999.25   62.15660    -999.25   22.39040   91.58800 -150.98680
 11146.82546    -999.25   61.05800    -999.25   20.90600   85.21200 -142.13700
 11147.32546    -999.25   57.21330    -999.25   19.69540   82.04130 -138.90940
 11147.82546    -999.25   57.10600    -999.25   16.84200   76.26300 -134.97500
 11148.32546    -999.25   55.27450    -999.25   15.67870   69.69760 -133.35700
 11148.82546    -999.25   53.43400    -999.25   14.16700   46.22000 -129.46900
 11149.32546    -999.25   54.74400    -999.25   13.84480   42.39140 -127.92480
 11149.82546    -999.25   53.08580    -999.25   12.96780   38.41500 -125.96180
 11150.32546    -999.25   51.29260    -999.25   12.64400   37.32210 -127.37090
 11150.82546    -999.25   59.10350    -999.25   12.32460   34.60670 -132.09230
 11151.32546    -999.25   60.78940    -999.25   12.27640   33.34250 -134.24750
 11151.82546    -999.25   60.63850    -999.25   12.25540   31.91760 -138.22580
 11152.32546    -999.25    -999.25    -999.25   12.34750   31.60360 -140.20830
 11152.82546    -999.25    -999.25    -999.25   12.45070   31.12370 -144.15420
 11153.32546    -999.25    -999.25    -999.25   12.45000   30.90620 -144.58240
 11153.82546    -999.25    -999.25    -999.25   12.45000   30.47100 -142.63330
 11154.32546    -999.25    -999.25    -999.25   12.45000   30.29390 -141.19600
 11154.82546    -999.25    -999.25    -999.25   12.45000   30.22120 -138.24080
 11155.32546    -999.25    -999.25    -999.25   12.45000   30.24870 -137.29880
 11155.82546    -999.25    -999.25    -999.25   12.45000   30.25000 -136.66530
 11156.32546    -999.25    -999.25    -999.25   12.45000   30.25000 -136.73030
 11156.82546    -999.25    -999.25    -999.25   12.45000   30.25000 -137.01180
 11157.32546    -999.25    -999.25    -999.25   12.45000   30.25000 -137.02100
 11157.82546    -999.25    -999.25    -999.25   12.45000   30.25000 -137.02040
 11158.32546    -999.25    -999.25    -999.25    -999.25    -999.25 -137.02000
 11158.82546    -999.25    -999.25    -999.25    -999.25    -999.25 -137.02000
 11159.32546    -999.25    -999.25    -999.25    -999.25    -999.25 -137.02000
 11159.82546    -999.25    -999.25    -999.25    -999.25    -999.25    -999.25
