~Version ---------------------------------------------------
VERS.      2.0 : CWLS log ASCII Standard -VERSION 2.0
WRAP.       NO : One line per depth step
CREA. 11/10/17 : LAS Creation Date
~Well ------------------------------------------------------
STRT.FT                       1250.0 : START DEPTH
STOP.FT                      11950.0 : STOP DEPTH
STEP.FT                     50.00000 : STEP LENGTH
NULL.                        -999.25 : NULL VALUE
COMP.       DEVON CANADA CORPORATION : COMPANY
WELL. HOME PACIFIC EDSON 10-28-52-16 : WELL
FLD .                             WC : FIELD
LOC .                                : LOCATION
CTRY.                         CANADA : COUNTRY
SRVC.                   Schlumberger : SERVICE COMPANY
DATE.                    01-Nov-1962 : LOGDATE
PROV.                        Alberta : PROVINCE
UWI .               100102805216W500 : UNIQUE WELL ID
SLAT.WGS84             53.5208008195 : SURFACE LATITUDE
SLON.WGS84           -116.2964055425 : SURFACE LONGITUDE
~Curve Information -----------------------------------------
DEPT  .FT    : Depth Curve
CALWS .IN    : CALIPER [MCALED]
CILDED.MMHO  : CONDUCTIVITY FROM RESISTIVITY LOG
CONDWS.MMHO  : CONDCUTIVITY [1000/DRESWS]
DRESWS.OHMM  : DEEP RESISTIVITY [1000/CILDED IF ILDED <=1, ILDED]
DT1ED .US/F  : DELTA-T (1' SPACING)  FROM SONIC LOG
DTED  .US/F  : DELTA-T (3' SPACING) FROM SONIC LOG
DTWS  .US/F  : COMPRESSIONAL SONIC [DTED]
GRSED .GAPI  : GAMMA RAY FROM SONIC LOG
GRWS  .GAPI  : GAMMA RAY [GRSED]
ILDED .OHMM  : DEEP INDUCTION FROM RESISTIVITY LOG
MCALED.IN    : CALIPER FROM MICROLOG
SNED  .OHMM  : SHORT NORMAL FROM RESISTIVITY LOG
SPRED .MV    : SPONTANEOUS POTENTIAL FROM RESISTIVITY LOG
SPWS  .MV    : SPONTANEOUS POTENTIAL [BASELINE 0 MV, SPRED]
SRESWS.OHMM  : SHALLOE RESISTIVITY [SNED]
~Params ----------------------------------------------------
PD  .                     GL : PERMANENT DATUM
EPD .FT               3083.7 : ELEVATION PERMANENT DATUM
LMF .                     KB : LOG MEASURED FROM
DAPD.FT                 13.4 : FEET ABOVE PERMANENT DATUM
EKB .FT               3097.1 : KELLY BUSHING
EGL .FT               3083.7 : GROUND LEVEL
DATE.               11/01/62 : RUN DATE
RUN .                      2 : RUN NUMBER
DD  .FT                11979 : DEPTH DRILLER
DL  .FT                 5878 : DEPTH LOGGER
BLI .FT                11978 : BOTTOM LOG INTERVAL
TLI .FT                 6100 : TOP LOG INTERVAL
CBD .FT                 1249 : CASING BOTTOM DRILLER
BS  .IN                    9 : BIT SIZE
BSD .FT                11979 : BIT SIZE AT DEPTH
DFT .          XP20 SPERSENE : DRILLING FLUID TYPE
DFD .                   10.6 : DRILLING FLUID DENSITY
DFV .                    105 : DRILLING FLUID VISCOSITY
DFPH.                     11 : DRILLING FLUID PH
DFL .                      5 : DRILLING FLUID LOSS
RMS .OHMM               0.83 : RESISTIVITY MUD SAMPLE
MST .DEGF                 55 : MUD SAMPLE TEMPERATURE
RMF .OHMM               0.59 : RESISTIVITY MUD FILTRATE SAMPLE
MFST.DEGF                 58 : MUD FILTRATE SAMPLE TEMPERATURE
RMC .OHMM               1.01 : RESISTIVITY MUD CAKE
MCST.DEGF                 60 : MUD CAKE SAMPLE TEMPERATURE
RMB .OHMM               0.23 : RESISTIVITY MUD AT BHT
TCS .HRS                 2.5 : TIME CIRCULATED STOPPED
LUN .                   1576 : LOGGING UNIT NUMBER
LUL .                     DV : LOGGING UNIT LOCATION
ENGI.                NORQUAY : RECORDING ENGINEER
WITN.           DAWSON GROVE : WITNESSED BY
CLNT.                A2DTECH : CLIENT CODE
ORIG.            2" 5" PRINT : ORIGIN OF DATA
UWI .       100102805216W500 : UNIQUE WELL ID
DICO. A2D Technologies, Inc. : DIGITIZING COMPANY
~Other -----------------------------------------------------
~ASCII -----------------------------------------------------
# ...
 3550.00000   10.38770  155.13840  174.25250    5.73880    -999.25   88.67150   88.67150   82.56650   82.56650    5.73880   10.38770    6.74200 -140.57440   -1.76870    6.74200
 3600.00000    9.15970   29.79610   28.63540   34.92180    -999.25   63.25510   63.25510   46.40850   46.40850   34.92180    9.15970   37.29630 -146.33980   -7.50280   37.29630
 3650.00000   12.01530  165.12400  184.95230    5.40680    -999.25   91.93300   91.93300   90.22540   90.22540    5.40680   12.01530    5.80620 -141.31330   -2.44530    5.80620
 3700.00000    9.03280   25.79390   26.08500   38.33620    -999.25   58.74360   58.74360   61.71490   61.71490   38.33620    9.03280   33.27420 -141.52630   -2.65210   33.27420
 3750.00000   10.96730  198.62910  217.51420    4.59740    -999.25   92.18410   92.18410   90.81700   90.81700    4.59740   10.96730    5.13700 -140.59220   -1.73270    5.13700
 3800.00000   10.47150  137.67740  153.66880    6.50750    -999.25   87.52970   87.52970   66.73700   66.73700    6.50750   10.47150    7.80530 -140.13790   -1.29320    7.80530
 3850.00000    9.47950   97.56060  112.44420    8.89330    -999.25   78.30480   78.30480   64.35440   64.35440    8.89330    9.47950    9.96200 -140.91940   -2.08950    9.96200
 3900.00000    9.83010   96.27440   91.97090   10.87300    -999.25   81.64520   81.64520   66.75210   66.75210   10.87300    9.83010   12.11820 -141.72690   -2.91180   12.11820
 3950.00000   10.23560  127.94280  138.54450    7.21790    -999.25   82.70190   82.70190   59.11890   59.11890    7.21790   10.23560    7.91570 -140.33060   -1.53030    7.91570
 4000.00000   10.49360  110.63550  114.33800    8.74600    -999.25   80.27140   80.27140   60.63520   60.63520    8.74600   10.49360   10.03260 -140.24750   -1.46200   10.03260
 4050.00000   10.83070   77.38000   80.89890   12.36110    -999.25   77.56120   77.56120   77.77080   77.77080   12.36110   10.83070   13.07120 -140.91430   -2.14350   13.07120
 4100.00000   10.87780  269.87060  355.07580    2.81630    -999.25   91.09450   91.09450   96.42530   96.42530    2.81630   10.87780    3.54240 -140.25200   -1.49610    3.54240
 4150.00000    9.05370   37.28870   33.98700   29.42300    -999.25   72.52710   72.52710   47.45490   47.45490   29.42300    9.05370   31.49670 -142.35190   -3.61080   31.49670
 4200.00000    9.14490   45.74370   46.15160   21.66770    -999.25   78.10580   78.10580   44.08740   44.08740   21.66770    9.14490   22.68120 -144.77960   -6.05330   22.68120
 4250.00000    8.94790   33.50520   28.84990   34.66220    -999.25   71.11610   71.11610   46.54700   46.54700   34.66220    8.94790   33.30670 -143.22060   -4.50910   33.30670
 4300.00000   11.05660  107.53770  115.69790    8.64320    -999.25   84.34700   84.34700   62.73530   62.73530    8.64320   11.05660    9.86850 -140.75820   -2.06140    9.86850
 4350.00000   11.15060  105.84890  111.36970    8.97910    -999.25   80.84130   80.84130   60.28890   60.28890    8.97910   11.15060    9.80990 -140.33130   -1.64940    9.80990
 4400.00000   11.43960  109.03110  115.36820    8.66790    -999.25   86.63630   86.63630   57.03360   57.03360    8.66790   11.43960   10.89800 -142.23260   -3.56540   10.89800
 4450.00000   11.41520   88.23940   98.24050   10.17910    -999.25   81.48580   81.48580   54.00070   54.00070   10.17910   11.41520   11.15370 -141.86310   -3.21080   11.15370
 4500.00000    9.26890   74.41870   72.45330   13.80200    -999.25   76.57270   76.57270   54.86500   54.86500   13.80200    9.26890   17.07280 -142.03210   -3.39450   17.07280
 4550.00000   11.30720   93.54070   99.68700   10.03140    -999.25   84.10610   84.10610   60.38160   60.38160   10.03140   11.30720   11.80870 -140.68030   -2.05750   11.80870
 4600.00000   10.94580   90.52550   95.37430   10.48500    -999.25   79.30890   79.30890   59.42790   59.42790   10.48500   10.94580   12.40990 -139.76980   -1.16180   12.40990
 4650.00000    9.72550   74.62700   73.79690   13.55070    -999.25   77.91350   77.91350   52.83610   52.83610   13.55070    9.72550   14.92760 -139.91360   -1.32040   14.92760
 4700.00000    9.35110   71.59550   76.82440   13.01670    -999.25   78.47660   78.47660   57.06260   57.06260   13.01670    9.35110   15.68090 -139.93700   -1.35870   15.68090
 4750.00000    9.10510   32.99320   32.31870   30.94180    -999.25   72.83660   72.83660   40.50460   40.50460   30.94180    9.10510   31.61240 -147.01740   -8.45380   31.61240
 4800.00000    9.03250   71.77710   73.37030   13.62950    -999.25   78.22210   78.22210   53.70780   53.70780   13.62950    9.03250   17.73990 -141.28210   -2.73330   17.73990
 4850.00000    9.45880   26.41780   26.38100   37.90600    -999.25   71.60530   71.60530   43.24010   43.24010   37.90600    9.45880   36.48560 -146.97950   -8.44550   36.48560
 4900.00000   11.02310   98.50160  100.77290    9.92330    -999.25   85.70940   85.70940   63.30630   63.30630    9.92330   11.02310   13.43410 -141.27090   -2.75170   13.43410
 4950.00000   10.14820  110.00420  118.26200    8.45580    -999.25   93.96670   93.96670   63.33270   63.33270    8.45580   10.14820   12.12990 -142.22760   -3.72320   12.12990
 5000.00000    9.41640   71.18520   73.68000   13.57220    -999.25   77.87360   77.87360   59.06080   59.06080   13.57220    9.41640   16.32010 -141.47240   -2.98280   16.32010
 5050.00000    9.59310   67.55020   69.68740   14.34980    -999.25   76.65060   76.65060   63.05440   63.05440   14.34980    9.59310   18.19970 -140.92870   -2.45380   18.19970
 5100.00000    9.61200   69.16960   72.36050   13.81970    -999.25   77.90450   77.90450   75.46390   75.46390   13.81970    9.61200   17.53490 -140.28420   -1.82420   17.53490
 5150.00000    9.71440   64.22190   65.05420   15.37180    -999.25   76.49380   76.49380   80.42010   80.42010   15.37180    9.71440   18.25300 -140.26570   -1.82050   18.25300
 5200.00000    9.46280   64.67090   67.46180   14.82320    -999.25   76.78310   76.78310   91.67790   91.67790   14.82320    9.46280   18.30980 -141.20560   -2.77520   18.30980
 5250.00000    9.45450   58.40130   59.36020   16.84630    -999.25   72.15110   72.15110   88.23600   88.23600   16.84630    9.45450   20.03380 -141.29620   -2.88060   20.03380
 5300.00000    9.73340   52.68020   53.40820   18.72370    -999.25   77.17740   77.17740   82.19070   82.19070   18.72370    9.73340   22.21120 -140.84710   -2.44620   22.21120
 5350.00000   10.05780   63.64350   66.89630   14.94850    -999.25   80.49870   80.49870   90.17630   90.17630   14.94850   10.05780   18.92130 -141.17940   -2.79340   18.92130
 5400.00000    9.62230   56.88720   58.66750   17.04520    -999.25   82.24580   82.24580   92.04570   92.04570   17.04520    9.62230   22.01710 -140.93450   -2.56320   22.01710
 5450.00000    9.57670   75.65730   77.56150   12.89300    -999.25   85.03220   85.03220   98.82930   98.82930   12.89300    9.57670   17.83970 -140.68850   -2.33210   17.83970
 5500.00000    9.34540   50.08920   50.68350   19.73030    -999.25   82.16820   82.16820   87.59390   87.59390   19.73030    9.34540   27.11740 -140.78580   -2.44410   27.11740
 5550.00000    9.49770   76.68900   80.37620   12.44150    -999.25   82.23470   82.23470   85.80600   85.80600   12.44150    9.49770   16.85030 -140.35350   -2.02660   16.85030
 5600.00000    9.55510   88.26110   92.67670   10.79020    -999.25   84.78760   84.78760  104.47000  104.47000   10.79020    9.55510   14.79370 -140.24010   -1.92810   14.79370
 5650.00000    9.39090  105.87230  112.29900    8.90480    -999.25   83.18350   83.18350   85.98540   85.98540    8.90480    9.39090   11.75190 -141.24540   -2.94810   11.75190
 5700.00000    9.77560   95.00570   98.53090   10.14910    -999.25   78.17580   78.17580   80.90580   80.90580   10.14910    9.77560   13.53640 -140.12210   -1.83970   13.53640
 5750.00000    9.89890   91.68450   95.33430   10.48940    -999.25   77.44790   77.44790   78.93010   78.93010   10.48940    9.89890   13.23300 -142.04050   -3.77280   13.23300
 5800.00000    9.56050   77.64160   78.50650   12.73780    -999.25   75.79300   75.79300   82.67810   82.67810   12.73780    9.56050   16.34790 -140.42440   -2.17150   16.34790
