~Version ---------------------------------------------------
VERS.      2.0 : CWLS log ASCII Standard -VERSION 2.0
WRAP.       NO : One line per depth step
CREA. 09/25/17 : LAS Creation Date
~Well ------------------------------------------------------
STRT.FT                               300.0 : START DEPTH
STOP.FT                              8350.0 : STOP DEPTH
STEP.FT                            50.00000 : STEP LENGTH
NULL.                               -999.25 : NULL VALUE
COMP. CANADA CITIES SERVICE PETROLEUM CORP. : COMPANY
WELL.          CITIES SERVICE KEYSTONE 8-15 : WELL
FLD .                                       : FIELD
LOC .                                       : LOCATION
CTRY.                                CANADA : COUNTRY
SRVC.                               Unknown : SERVICE COMPANY
DATE.                           07-May-1956 : LOGDATE
PROV.                               Alberta : PROVINCE
UWI .                      100081504804W500 : UNIQUE WELL ID
SLAT.WGS84                         53.13956 : SURFACE LATITUDE
SLON.WGS84                         -114.492 : SURFACE LONGITUDE
~Curve Information -----------------------------------------
DEPT   .FT         : Depth Curve
CALMED .IN         : CALIPER FROM MICROLATEROLOG [ADJ TO SLB EL LOG]
CALWS  .IN         : CALIPER [MCALED SPL. @6414' TO CALMED]
CONDWS .MMHO       : CONDUCTIVITY [1000/DRESWS]
DRESWS .OHMM       : DEEP RESISTIVITY [LNED]
GRN1ED .UgRa-Eq/T  : GAMMA RAY FROM SLB GRN-RADIATION LOG
GRN2ED .GAPI       : GAMMA RAY FROM GRN LOG [ADJ TO SLB EL LOG]
GRNED  .UR/HR      : GAMMA RAY FROM McCULLOUGH GRN RADIATION LOG
GRWS   .GAPI       : GAMMA RAY [GRNED*10.4 SPL @ 5170' TO GRN1ED*16.50]
LAT9ED .OHMM       : LATERAL 9' FROM HLB EL LOG [ADJ TO SLB EL LOG]
LNED   .OHMM       : LONG NORMAL RESISTIVITY FROM SLB EL LOG
LT16ED .OHMM       : 16 INCH LATERAL  FROM HLB EL LOG [ADJ TO SLB EL LOG]
LT18ED .OHMM       : 18 INCH LATERAL  FROM SLB EL LOG
MCALED .IN         : CALIPER CONTACT TOOL FROM HLB EL LOG
MLLED  .OHMM       : MICRO FOCUSED LATEROLOG RESISTIVITY  FROM MICROLATEROLOG [ADJ TO SLB EL LOG]
NEUT1ED.NAPI       : NEUTRON FROM SLB GRN-RADIATION LOG
NEUT2ED.NAPI       : NEUTRON FROM GRN LOG [ADJ TO SLB EL LOG]
NEUTED .NAPI       : NEUTRON FROM McCULLOUGH GRN RADIATION LOG
NEUTWS .NAPI       : NEUTRON [NEUTED SPL @5182' TO NEUT1ED]
SN1ED  .OHMM       : SHORT NORMAL 18 INCH FROM HLB EL LOG [ADJ TO SLB EL LOG]
SNED   .OHMM       : SHORT NORMAL RESISTIVITY FROM SLB EL LOG
SPR1ED .MV         : SPONTANEOUS POTENTIAL FROM HLB EL LOG [ADJ TO SLB EL LOG]
SPRED  .MV         : SPONTANEOUS POTENTIAL FROM SLB EL LOG
SPWS   .MV         : SPONTANEOUS POTENTIAL [BASELINE 0MV, SPRED]
SRESWS .OHMM       : SHALLOW RESISTIVITY [SNED]
~Params ----------------------------------------------------
LMF .                     KB : LOG MEASURED FROM
DMF .                     KB : DRILLING MEASURED FROM
EKB .FT                 2813 : KELLY BUSHING
DATE.               05/07/56 : RUN DATE
RUN .                      1 : RUN NUMBER
DD  .FT                 8499 : DEPTH DRILLER
DL  .FT                 8499 : DEPTH LOGGER
BLI .FT                 8498 : BOTTOM LOG INTERVAL
TLI .FT                  610 : TOP LOG INTERVAL
CBL .FT                  610 : CASING BOTTOM LOGGER
BS  .IN                    9 : BIT SIZE
BSD .FT                 8499 : BIT SIZE AT DEPTH
DFT .              LIME BASE : DRILLING FLUID TYPE
DFD .                   11.1 : DRILLING FLUID DENSITY
DFV .                     98 : DRILLING FLUID VISCOSITY
DFPH.                     13 : DRILLING FLUID PH
DFL .                     48 : DRILLING FLUID LOSS
RMS .OHMM               0.72 : RESISTIVITY MUD SAMPLE
MST .DEGF                 85 : MUD SAMPLE TEMPERATURE
RMB .OHMM               0.39 : RESISTIVITY MUD AT BHT
TCS .HRS                 2.5 : TIME CIRCULATED STOPPED
LUN .                   2786 : LOGGING UNIT NUMBER
LUL .                    EDM : LOGGING UNIT LOCATION
ENGI.                 TAYLOR : RECORDING ENGINEER
WITN.              ARMSTRONG : WITNESSED BY
CLNT.                A2DTECH : CLIENT CODE
ORIG.            2" 5" PRINT : ORIGIN OF DATA
UWI .       100081504804W500 : UNIQUE WELL ID
DICO. A2D Technologies, Inc. : DIGITIZING COMPANY
~Other -----------------------------------------------------
EL-MLL-GR-NEU LOG RAN
~ASCII -----------------------------------------------------
# ...
 1750.00000    -999.25    -999.25  117.63600    8.50080    -999.25   47.66170    8.88320   92.38530    5.64870    8.50080    4.33780    7.06130    -999.25    -999.25    -999.25  290.67030  357.58710  357.58710    3.48350    5.51150  -24.78990  -45.59680   -5.68430    5.51150
 1800.00000    -999.25    -999.25  119.43150    8.37300    -999.25   50.09460    9.97510  103.74100    5.57230    8.37300    1.00930    4.39900    -999.25    -999.25    -999.25  235.04420  378.58650  378.58650    3.20980    4.41240  -25.92050  -44.16230   -4.01230    4.41240
 1850.00000    -999.25    -999.25  143.30550    6.97810    -999.25   56.53630   10.27450  106.85480    5.42140    6.97810    6.65000   10.70400    -999.25    -999.25    -999.25  213.92540  357.83380  357.83380    3.12740    3.74610  -27.17760  -44.34620   -4.25480    3.74610
 1900.00000    -999.25    -999.25  173.27120    5.77130    -999.25   46.99920    8.21620   85.44850    3.79890    5.77130    4.18800    7.52320    -999.25    -999.25    -999.25  265.36910  429.18440  429.18440    4.30730    5.19520  -27.24300  -44.79170   -4.75860    5.19520
 1950.00000    -999.25    -999.25  153.01750    6.53520    -999.25   52.29650   10.40050  108.16520    5.25120    6.53520    4.28790    6.59310    -999.25    -999.25    -999.25  141.99600  407.24820  407.24820    3.87960    4.94130  -25.27220  -43.89050   -3.91570    4.94130
 2000.00000    -999.25    -999.25  131.48900    7.60520    -999.25   53.16260    8.86840   92.23140    4.51760    7.60520    5.19090    8.95320    -999.25    -999.25    -999.25  232.92360  391.19640  391.19640    5.74720    5.58070  -27.46860  -41.46420   -1.54770    5.58070
 2050.00000    -999.25    -999.25  128.49920    7.80960    -999.25   73.05990   11.28620  117.37650   17.46540    7.80960    5.62110    6.62620    -999.25    -999.25    -999.25  272.34320  319.80510  319.80510    8.64840    8.38420  -31.20810  -46.16330   -6.30480    8.38420
 2100.00000    -999.25    -999.25  129.64280    7.71350    -999.25   55.88020   10.21360  106.22140    5.22720    7.71350    6.02610    9.13650    -999.25    -999.25    -999.25  278.89480  325.43140  325.43140    3.74820    4.60320  -29.79790  -44.80190   -5.00200    4.60320
 2150.00000    -999.25    -999.25  186.50450    5.36180    -999.25   46.74100    9.16880   95.35550    4.29670    5.36180    4.45020    6.84470    -999.25    -999.25    -999.25  259.47110  349.76370  349.76370    3.10230    4.67280  -30.40940  -46.75190   -7.01030    4.67280
 2200.00000    -999.25    -999.25  112.73070    8.87070    -999.25   71.48660   12.32960  128.22780    5.83580    8.87070    0.33320    2.15140    -999.25    -999.25    -999.25  170.02090  276.53960  276.53960    3.91390    5.16560  -25.54060  -43.60350   -3.92010    5.16560
 2250.00000    -999.25    -999.25   62.28980   16.05400    -999.25   49.72270    8.69760   90.45500   10.68660   16.05400    9.31470   13.41410    -999.25    -999.25    -999.25  418.42970  479.84500  479.84500   16.39040   14.70380  -33.77070  -52.80120  -13.17610   14.70380
 2300.00000    -999.25    9.34750  179.24210    5.57910    -999.25   53.09100   10.00310  104.03220    5.57560    5.57910    5.97450    8.87470    9.34750    -999.25    -999.25  151.99550  245.83790  245.83790    2.82030    4.25920  -27.01440  -45.90890   -6.34180    4.25920
 2350.00000    -999.25    9.14470  186.84600    5.35200    -999.25   59.64690   10.54180  109.63470    4.82210    5.35200    3.06360    5.56150    9.14470    -999.25    -999.25  318.28380  482.06170  482.06170    2.75010    4.03400  -28.38760  -45.19570   -5.68720    4.03400
 2400.00000    -999.25    8.99540  230.09660    4.34600    -999.25   56.81910   10.76160  111.92060    4.50510    4.34600    2.81310    4.73110    8.99540    -999.25    -999.25  217.94890  253.89290  253.89290    1.64120    2.81470  -23.99270  -43.71840   -4.26820    2.81470
 2450.00000    -999.25    9.01450  173.50570    5.76350    -999.25   31.48190    7.47710   77.76180    5.77860    5.76350    5.05170    7.91660    9.01450    -999.25    -999.25  319.46410  407.51640  407.51640    5.37300    6.30700  -34.98520  -48.14970   -8.75780    6.30700
 2500.00000    -999.25    -999.25   55.61090   17.98210    -999.25   26.27300    7.09190   73.75580   28.12110   17.98210   14.42090   17.05980    -999.25    -999.25    -999.25  414.12300  483.22840  483.22840   23.21420   17.11880  -42.56340  -52.17610  -12.84250   17.11880
 2550.00000    -999.25    -999.25   54.61400   18.31040    -999.25   35.26430    7.74240   80.52150   14.42950   18.31040   14.34630   17.13460    -999.25    -999.25    -999.25  492.67250  418.11560  418.11560   18.62660   15.97580  -34.88290  -56.53650  -17.26090   15.97580
 2600.00000    -999.25    -999.25  131.40600    7.61000    -999.25   41.22690    8.72220   90.71090    4.67320    7.61000    5.48670    8.76090    -999.25    -999.25    -999.25  394.33950  440.13850  440.13850    5.94390    5.83390  -30.33820  -49.23120  -10.01420    5.83390
 2650.00000    -999.25    -999.25  101.57130    9.84530    -999.25   35.50800    8.45650   87.94760   10.46240    9.84530    4.16550    7.47420    -999.25    -999.25    -999.25  231.46880  341.52510  341.52510    5.39990    6.31480  -22.36850  -45.59010   -6.43140    6.31480
 2700.00000    -999.25    -999.25  132.64010    7.53920    -999.25   33.52300    9.63860  100.24140    8.14300    7.53920    7.36240   11.49130    -999.25    -999.25    -999.25  222.15600  240.20020  240.20020    4.46980    5.65340  -25.90380  -43.29090   -4.19050    5.65340
 2750.00000    -999.25    -999.25  115.24190    8.67740    -999.25   33.46980    7.35870   76.53050    5.39880    8.67740    5.11840    7.29410    -999.25    -999.25    -999.25  302.58660  302.58750  302.58750    6.06860    7.44490  -26.71090  -46.83640   -7.79430    7.44490
 2800.00000    -999.25    -999.25  102.69930    9.73960    -999.25   31.74750    7.95410   82.72260    7.37230    9.73960    7.32170   11.13700    -999.25    -999.25    -999.25  220.26090  255.15940  255.15940    5.72160    7.04500  -28.22230  -46.20060   -7.21650    7.04500
 2850.00000    -999.25    -999.25   92.76780   10.77960    -999.25   36.59660    8.77960   91.30780   19.99800   10.77960    8.05610   14.23710    -999.25    -999.25    -999.25  261.78410  328.69350  328.69350    5.45590    7.30210  -25.48530  -46.39980   -7.47420    7.30210
 2900.00000    -999.25    -999.25   96.59040   10.35300    -999.25   32.02620    7.86510   81.79700   13.49380   10.35300    6.36080   11.27710    -999.25    -999.25    -999.25  207.43620  386.19810  386.19810    5.02880    6.62220  -24.94560  -41.48710   -2.61980    6.62220
 2950.00000    -999.25    -999.25   54.43810   18.36950    -999.25   23.89460    6.93560   72.13020   18.32330   18.36950    9.97620   13.95130    -999.25    -999.25    -999.25  377.42840  394.33500  394.33500   13.91630   14.00290  -27.89950  -51.79040  -12.98140   14.00290
 3000.00000    -999.25    -999.25   74.23960   13.46990    -999.25   21.24770    5.84660   60.80460    9.06690   13.46990    8.52550   13.04340    -999.25    -999.25    -999.25  354.98190  455.92610  455.92610   12.87530   11.12690  -35.57210  -49.54620  -10.79550   11.12690
 3050.00000    -999.25    -999.25   90.68290   11.02990    -999.25   22.73040    7.33600   76.29390    5.89770   11.02990    4.17330    7.28050    -999.25    -999.25    -999.25  361.78190  332.54720  332.54720    7.16850    7.17800  -28.21070  -43.21440   -4.52170    7.17800
 3100.00000    -999.25    -999.25  107.95870    9.26280    -999.25   32.94240    9.02680   93.87870   17.46510    9.26280   10.15670   13.23400    -999.25    -999.25    -999.25  212.96640  274.48640  274.48640    5.16010    6.89090  -27.73980  -42.35400   -3.71990    6.89090
 3150.00000    -999.25    -999.25   97.30560   10.27690    -999.25   28.90730    7.77350   80.84440   14.72810   10.27690    9.94050   13.53670    -999.25    -999.25    -999.25  246.80170  147.29360  147.29360    4.97620    7.12800  -33.84370  -41.74170   -3.16590    7.12800
