~Version ---------------------------------------------------
VERS.      2.0 : CWLS log ASCII Standard -VERSION 2.0
WRAP.       NO : One line per depth step
CREA. 08/01/17 : LAS Creation Date
~Well ------------------------------------------------------
STRT.FT                      1150.0 : START DEPTH
STOP.FT                     11500.0 : STOP DEPTH
STEP.FT                    50.00000 : STEP LENGTH
NULL.                       -999.25 : NULL VALUE
COMP.     ATLANTIC REFINING COMPANY : COMPANY
WELL. ATLANTIC ANTE CREEK 4-7-65-23 : WELL
FLD .                               : FIELD
LOC .                               : LOCATION
CTRY.                        CANADA : COUNTRY
SRVC.                  Schlumberger : SERVICE COMPANY
DATE.                   12-Oct-1962 : LOGDATE
PROV.                       Alberta : PROVINCE
UWI .              100040706523W500 : UNIQUE WELL ID
SLAT.WGS84                 54.60509 : SURFACE LATITUDE
SLON.WGS84                -117.4756 : SURFACE LONGITUDE
~Curve Information -----------------------------------------
DEPT  .FT    : Depth Curve
CALWS .IN    : CALIPER [MCALED]
CILDED.MMHO  : CONDUCTIVITY FROM IEL LOG
CONDWS.MMHO  : CONDUCTIVITY [1000/DRESWS]
DRESWS.OHMM  : DEEP RESISTIVITY [ILDED]
DTED  .US/F  : DELTA-T FROM BCS-GR LOG
DTWS  .US/F  : COMPRESSIONAL SONIC [DTED]
GRSED .GAPI  : GAMMA RAY FROM BCS-GR LOG
GRWS  .GAPI  : GAMMA RAY [GRSED]
ILDED .OHMM  : DEEP INDUCTION FROM IEL LOG
MCALED.IN    : MICRO CALIPER FROM MICRO-CAL LOG
SNED  .OHMM  : SHORT NORMAL FROM IEL LOG
SPRED .MV    : SPONTANEOUS POTENTIAL FROM IEL LOG
SPWS  .MV    : SPONTANEOUS POTENTIAL [BASELINE 0 MV, SPRED]
SRESWS.OHMM  : SHALLOW RESISTIVITY [SNED]
~Params ----------------------------------------------------
PD  .                     GL : PERMANENT DATUM
EPD .FT               2839.9 : ELEVATION PERMANENT DATUM
LMF .                     KB : LOG MEASURED FROM
DAPD.FT                 13.9 : FEET ABOVE PERMANENT DATUM
EKB .FT               2853.8 : KELLY BUSHING
EGL .FT               2839.9 : GROUND LEVEL
DATE.               10/12/62 : RUN DATE
RUN .                      1 : RUN NUMBER
DD  .FT                11540 : DEPTH DRILLER
DL  .FT                11538 : DEPTH LOGGER
BLI .FT                11537 : BOTTOM LOG INTERVAL
TLI .FT                 1157 : TOP LOG INTERVAL
CBD .FT                 1157 : CASING BOTTOM DRILLER
CBL .FT                 1157 : CASING BOTTOM LOGGER
BS  .IN                 8.75 : BIT SIZE
BSD .FT                11540 : BIT SIZE AT DEPTH
DFT .               GEL CHEM : DRILLING FLUID TYPE
DFD .                   10.2 : DRILLING FLUID DENSITY
DFV .                     85 : DRILLING FLUID VISCOSITY
DFPH.                    9.5 : DRILLING FLUID PH
DFL .                    6.6 : DRILLING FLUID LOSS
MSS .                  6FF40 : MUD SAMPLE SOURCE
RMS .OHMM               2.22 : RESISTIVITY MUD SAMPLE
MST .DEGF                 70 : MUD SAMPLE TEMPERATURE
RMF .OHMM                1.8 : RESISTIVITY MUD FILTRATE SAMPLE
MFST.DEGF                 61 : MUD FILTRATE SAMPLE TEMPERATURE
RMC .OHMM                2.1 : RESISTIVITY MUD CAKE
MCST.DEGF                 74 : MUD CAKE SAMPLE TEMPERATURE
RMB .OHMM               0.84 : RESISTIVITY MUD AT BHT
TCS .HRS                   4 : TIME CIRCULATED STOPPED
LUN .                   1573 : LOGGING UNIT NUMBER
LUL .                    WCT : LOGGING UNIT LOCATION
ENGI.                  MILLS : RECORDING ENGINEER
WITN.                  EVANS : WITNESSED BY
CLNT.                A2DTECH : CLIENT CODE
ORIG.            2" 5" PRINT : ORIGIN OF DATA
UWI .       100040706523W500 : UNIQUE WELL ID
DICO. A2D Technologies, Inc. : DIGITIZING COMPANY
~Other -----------------------------------------------------
~ASCII -----------------------------------------------------
 1150.00000    -999.25    -999.25    -999.25    -999.25    -999.25    -999.25   53.78170   53.78170    -999.25    -999.25    -999.25    -999.25    -999.25    -999.25
 1200.00000    9.27780   91.27890   88.20210   11.33760  103.75900  103.75900   80.72340   80.72340   11.33760    9.27780   10.87490  -35.74860  -18.36690   10.87490
 1250.00000   11.13580  245.27860  275.08050    3.63530  111.56850  111.56850   56.00590   56.00590    3.63530   11.13580    4.12560  -23.70430   -5.54700    4.12560
 1300.00000   13.17630  372.16340  354.25060    2.82300  125.94610  125.94610   82.00100   82.00100    2.82300   13.17630    2.62850  -22.81550   -5.42890    2.62850
 1350.00000   15.58310  239.26060  259.61890    3.85180  123.18670  123.18670   90.42250   90.42250    3.85180   15.58310    3.53410  -21.49130   -4.88230    3.53410
 1400.00000   13.88690  288.56330  286.00100    3.49650  133.61570  133.61570   78.91340   78.91340    3.49650   13.88690    3.16980  -20.44210   -4.60380    3.16980
 1450.00000   16.16640  335.18550  320.41010    3.12100  124.67850  124.67850   76.59530   76.59530    3.12100   16.16640    2.82680  -20.17410   -5.11350    2.82680
 1500.00000   16.26710  309.97480  324.27520    3.08380  120.91700  120.91700   73.71000   73.71000    3.08380   16.26710    3.09070  -20.24870   -5.16550    3.09070
 1550.00000   14.99840  292.61610  309.29790    3.23360  140.14020  140.14020   69.60640   69.60640    3.23360   14.99840    3.03060  -19.40240   -4.14680    3.03060
 1600.00000   14.14080  344.52790  348.73580    2.86750  139.76580  139.76580   56.50450   56.50450    2.86750   14.14080    3.07410  -19.08840   -3.65800    3.07410
 1650.00000   12.91500  202.29020  209.68680    4.77450  131.74000  131.74000   82.29820   82.29820    4.77450   12.91500    4.78700  -20.95570   -5.35280    4.78700
 1700.00000   13.45260  452.42770  442.45830    2.26010  119.20450  119.20450   97.89040   97.89040    2.26010   13.45260    2.58960  -19.60450   -3.82690    2.58960
 1750.00000   14.91470  293.10950  284.38980    3.51630  121.38900  121.38900   74.37670   74.37670    3.51630   14.91470    3.19670  -19.39380   -3.44190    3.19670
 1800.00000   10.28260  277.24950  279.75190    3.57770  111.18970  111.18970   81.38020   81.38020    3.57770   10.28260    4.94360  -20.25380   -4.12950    4.94360
 1850.00000   10.99830   98.24890   94.69880   10.55980  103.13250  103.13250   87.89120   87.89120   10.55980   10.99830    8.55510  -20.67640   -4.37730    8.55510
 1900.00000   11.43200  546.38410  575.78940    1.73740  120.19700  120.19700   91.47320   91.47320    1.73740   11.43200    1.91790  -17.97050   -2.00920    1.91790
 1950.00000   11.11470  286.97370  325.63740    3.07090  123.95570  123.95570   73.91090   73.91090    3.07090   11.11470    3.43550  -19.40570   -3.67420    3.43550
 2000.00000   10.67300   87.41600   92.47610   10.81360  104.27180  104.27180   74.72980   74.72980   10.81360   10.67300   10.03180  -29.98440  -14.35430   10.03180
 2050.00000   11.06520  222.56960  242.47550    4.14850   99.84990   99.84990   81.48850   81.48850    4.14850   11.06520    4.86490  -25.56000  -10.03020    4.86490
 2100.00000   13.29590  331.70410  336.70030    2.97000  106.12130  106.12130   80.06090   80.06090    2.97000   13.29590    2.68420  -19.60340   -4.17530    2.68420
 2150.00000   12.89990  198.25070  203.53450    4.91360  138.13840  138.13840   75.55410   75.55410    4.91360   12.89990    4.59570  -21.63570   -6.30810    4.59570
 2200.00000   15.66210  347.84720  375.68560    2.66180  120.02300  120.02300   67.41920   67.41920    2.66180   15.66210    2.87270  -20.40200   -5.17600    2.87270
 2250.00000   14.03780  275.12880  297.53050    3.36100  106.40330  106.40330   95.19430   95.19430    3.36100   14.03780    3.50060  -21.60670   -6.48200    3.50060
 2300.00000   12.18330  304.14560  249.11620    4.01750  136.90260  136.90260   82.75190   82.75190    4.01750   12.18330    2.76970  -20.50460   -5.48030    2.76970
 2350.00000   10.42340   95.94880   84.93580   11.77360   96.79920   96.79920   73.30080   73.30080   11.77360   10.42340    8.87120  -27.30290  -12.38030    8.87120
 2400.00000   12.25100  288.58020  271.23060    3.68690  118.53660  118.53660   72.38120   72.38120    3.68690   12.25100    3.90690  -21.12690   -6.30480    3.90690
 2450.00000   12.71730  267.36930  234.28530    4.26830  140.46420  140.46420   60.46380   60.46380    4.26830   12.71730    3.43630  -19.85520   -5.13470    3.43630
 2500.00000    9.53600   91.74030   78.89110   12.67570   92.59530   92.59530   79.34940   79.34940   12.67570    9.53600    9.60600  -21.73050   -7.11130    9.60600
 2550.00000    9.57890   99.56230   99.62280   10.04580   90.50050   90.50050   68.81870   68.81870   10.04580    9.57890    8.04750  -20.18610   -5.66740    8.04750
 2600.00000   11.22860  367.97420  296.63030    3.37120  139.87580  139.87580   65.78080   65.78080    3.37120   11.22860    2.85140  -18.99790   -4.58080    2.85140
 2650.00000   11.42050  258.74970  257.17890    3.88960  114.38180  114.38180   67.58550   67.58550    3.88960   11.42050    4.36150  -18.86600   -4.54940    4.36150
 2700.00000   10.23820   43.49540   40.71810   24.55910   85.60380   85.60380   51.09480   51.09480   24.55910   10.23820   15.62450  -30.52190  -16.30690   15.62450
 2750.00000   11.32090  117.78370  110.14910    9.07860   79.07850   79.07850   60.62130   60.62130    9.07860   11.32090    6.59410  -20.84870   -6.73500    6.59410
 2800.00000   10.96690   95.80580  101.47400    9.86250   89.55090   89.55090   62.30930   62.30930    9.86250   10.96690   10.24690  -21.57990   -7.56660   10.24690
 2850.00000   11.40760  273.55750  271.62840    3.68150  117.95950  117.95950   69.11620   69.11620    3.68150   11.40760    4.14090  -19.35190   -5.44030    4.14090
 2900.00000   10.55750  264.07900  243.61640    4.11010  121.87610  121.87610   58.12080   58.12080    4.11010   10.55750    4.22030  -19.36430   -5.55310    4.22030
 2950.00000   10.55660  221.36810  219.58720    4.55400   99.99450   99.99450   73.93620   73.93620    4.55400   10.55660    5.06400  -18.97280   -5.26330    5.06400
 3000.00000    8.53500   35.64150   33.68860   29.68360   84.69150   84.69150   39.35210   39.35210   29.68360    8.53500   24.28010  -38.83770  -25.22950   24.28010
 3050.00000   12.61210  304.11130  252.03390    3.96820  128.44060  128.44060   68.61550   68.61550    3.96820   12.61210    3.61570  -18.66110   -5.15340    3.61570
 3100.00000   11.06650  239.00230  191.00740    5.23540  105.73430  105.73430   80.24360   80.24360    5.23540   11.06650    4.69930  -18.70010   -5.29400    4.69930
 3150.00000   12.80470  230.94350  208.70430    4.79330  132.40180  132.40180   78.22950   78.22950    4.79330   12.80470    5.09760  -18.44980   -5.14410    5.09760
 3200.00000   12.73570   77.63890   78.57310   12.72700   81.47400   81.47400   68.00560   68.00560   12.72700   12.73570   13.71630  -29.69570  -16.49180   13.71630
 3250.00000   15.03090  182.77730  175.17430    5.70860  103.26250  103.26250   93.01160   93.01160    5.70860   15.03090    5.07580  -18.23180   -5.12920    5.07580
 3300.00000   15.61940  251.15210  236.43890    4.22990  125.97800  125.97800   88.90950   88.90950    4.22990   15.61940    4.69040  -17.95200   -4.94980    4.69040
 3350.00000   15.59300  147.36730  145.64950    6.86580  103.62720  103.62720   93.38240   93.38240    6.86580   15.59300    6.24310  -20.12810   -7.13250    6.24310
 3400.00000   15.72020  155.45370  151.85450    6.58520  107.59630  107.59630  118.12270  118.12270    6.58520   15.72020    6.27870  -20.44420   -7.27840    6.27870
 3450.00000   15.59750  164.57480  158.64710    6.30330  125.57950  125.57950  102.92410  102.92410    6.30330   15.59750    6.85440  -20.12680   -6.78970    6.85440
 3500.00000   15.47740  107.74170  102.70420    9.73670  101.86130  101.86130  110.61110  110.61110    9.73670   15.47740   10.69180  -19.72810   -6.22060   10.69180
 3550.00000   15.97910  115.49880  113.64780    8.79930  107.82180  107.82180   88.92820   88.92820    8.79930   15.97910    9.64900  -19.24380   -5.56620    9.64900
