~Version ---------------------------------------------------
VERS.      2.0 : CWLS log ASCII Standard -VERSION 2.0
WRAP.       NO : One line per depth step
CREA. 06/14/13 : LAS Creation Date
~Well ------------------------------------------------------
STRT.M                     300.0 : START DEPTH
STOP.M                    3350.0 : STOP DEPTH
STEP.M                  50.00000 : STEP LENGTH
NULL.                    -999.25 : NULL VALUE
COMP.  GULF CANADA RESOURCES INC : COMPANY
WELL. GULF AEC STURLS 6-11-69-26 : WELL
FLD .                            : FIELD
LOC .                            : LOCATION
CTRY.                     CANADA : COUNTRY
SRVC.               Schlumberger : SERVICE COMPANY
DATE.                18-Aug-1983 : LOGDATE
PROV.                    Alberta : PROVINCE
UWI .           100061106926W500 : UNIQUE WELL ID
SLAT.WGS84              54.95913 : SURFACE LATITUDE
SLON.WGS84              -117.858 : SURFACE LONGITUDE
~Curve Information -----------------------------------------
DEPT    .M      : DEPTH METER
C1ED    .MM     : CALIPER 1 FROM DENSITY LOG [ADJ. TO RESISTIVITY LOG]
C2ED    .MM     : CALIPER 2 FROM DENSITY LOG [ADJ. TO RESISTIVITY LOG]
CALSED  .MM     : CALIPER FROM SONIC LOG
CALWS   .MM     : CALIPER [C1ED]
CONDWS  .MMHO   : CONDUCTIVITY [1000/DRESWS]
DCORWS  .KG/M3  : DENSITY CORRECTION [DRHOED]
DENWS   .KG/M3  : FORMATION BULK DENSITY [RHOBED]
DPHILSED.V/V    : DENSITY POROSITY LIMESTONE [M=2710, F=1000] FROM DENSITY LOG [ADJ. TO RESISTIVITY LOG]
DPHISSED.V/V    : DENSITY POROSITY SANDSTONE [M=2650, F=1000] FROM DENSITY LOG [ADJ. TO RESISTIVITY LOG]
DPOLSWS .V/V    : DENSITY POROSITY LIMESTONE [CALC. FROM DENWS, M=2710, F=1000]
DRESWS  .OHMM   : DEEP RESISTIVITY [ILDED]
DRHOED  .KG/M3  : BULK DENSITY CORRECTION FROM DENSITY LOG [ADJ. TO RESISTIVITY LOG]
DTED    .US/M   : DELTA-T FROM SONIC LOG
DTWS    .US/M   : COMPRESSIONAL SONIC [DTED]
GRDED   .GAPI   : GAMMA RAY FROM DENSITY LOG [ADJ. TO RESISTIVITY LOG]
GRSED   .GAPI   : GAMMA RAY FROM SONIC LOG
GRWS    .GAPI   : GAMMA RAY [GRSED]
ILDED   .OHMM   : DEEP INDUCTION RESISTIVITY FROM RESISTIVITY LOG
ILMED   .OHMM   : MEDIUM INDUCTION RESISTIVITY FROM RESISTIVITY LOG
MRESWS  .OHMM   : MEDIUM RESISTIVITY [ILMED]
NPHILSED.V/V    : NEUTRON POROSITY LIMESTONE FROM DENSITY LOG [ADJ. TO RESISTIVITY LOG]
NPHISSED.V/V    : NEUTRON POROSITY SANDSTONE FROM DENSITY LOG [ADJ. TO RESISTIVITY LOG]
NPOLSWS .V/V    : NEUTRON POROSITY LIMESTONE [NPHISSED MATRIX CONVERSION FOR LIMESTONE, SPL. TO NPHILSED @ 1771']
RHOBED  .KG/M3  : BULK DENSITY FROM DENSITY LOG [ADJ. TO RESISTIVITY LOG]
SFLUED  .OHMM   : SHALLOW FOCUSED RESISTIVITY FROM SONIC LOG
SPRED   .MV     : SPONTANEOUS POTENTIAL FROM RESISTIVITY LOG
SPWS    .MV     : SPONTANEOUS POTENTIAL [BASLEINE 0 MV, SPRED]
SRESWS  .OHMM   : SHALLOW RESISTIVITY [SFLUED]
TENDED  .N      : TENSION FROM DENSITY LOG [ADJ. TO RESISTIVITY LOG]
TENRED  .N      : TENSION FROM RESISTIVITY LOG
TENSED  .N      : TENSION FROM SONIC LOG
~Params ----------------------------------------------------
PD  .                         GL : PERMANENT DATUM
EPD .M                    696.75 : ELEVATION PERMANENT DATUM
LMF .                         KB : LOG MEASURED FROM
DAPD.M                      5.25 : FEET ABOVE PERMANENT DATUM
DMF .                         KB : DRILLING MEASURED FROM
EKB .M                       702 : KELLY BUSHING
EGL .M                    696.75 : GROUND LEVEL
DATE.                   08/18/83 : RUN DATE
RUN .                          1 : RUN NUMBER
DD  .M                      3345 : DEPTH DRILLER
DL  .M                      3346 : DEPTH LOGGER
BLI .M                      3344 : BOTTOM LOG INTERVAL
TLI .M                       449 : TOP LOG INTERVAL
CS  .MM                    244.5 : CASING SIZE
CBD .M                       449 : CASING BOTTOM DRILLER
CBL .M                       449 : CASING BOTTOM LOGGER
BS  .MM                      222 : BIT SIZE
BSD .M                      3345 : BIT SIZE AT DEPTH
DFT .                   GEL CHEM : DRILLING FLUID TYPE
DFD .                       1100 : DRILLING FLUID DENSITY
DFV .                         60 : DRILLING FLUID VISCOSITY
DFPH.                        8.5 : DRILLING FLUID PH
DFL .                        8.5 : DRILLING FLUID LOSS
MSS .                   FLOWLINE : MUD SAMPLE SOURCE
RMS .OHMM                   1.49 : RESISTIVITY MUD SAMPLE
MST .DEGC                   22.7 : MUD SAMPLE TEMPERATURE
RMF .OHMM                   1.24 : RESISTIVITY MUD FILTRATE SAMPLE
MFST.DEGC                   22.2 : MUD FILTRATE SAMPLE TEMPERATURE
RMC .OHMM                  0.562 : RESISTIVITY MUD CAKE
MCST.DEGC                     75 : MUD CAKE SAMPLE TEMPERATURE
MFSS.                      PRESS : MUD FILTRATE SAMPLE SOURCE
RMB .OHMM                  0.685 : RESISTIVITY MUD AT BHT
TCS .HRS                     700 : TIME CIRCULATED STOPPED
TLAB.HRS                    1715 : TIME LOGGER AT BOTTOM
LUN .                       8157 : LOGGING UNIT NUMBER
LUL .                         GP : LOGGING UNIT LOCATION
ENGI.                      KUPER : RECORDING ENGINEER
WITN.                      ZAHED : WITNESSED BY
CLNT.                    A2DTECH : CLIENT CODE
ORIG. 6.5"/100M 16.5"/100M PRINT : ORIGIN OF DATA
UWI .           100061106926W500 : UNIQUE WELL ID
DICO.     A2D Technologies, Inc. : DIGITIZING COMPANY
~Other -----------------------------------------------------
CNFD-DIL-SFL-BCS LOG RAN.
FDC DETECTER FAILED @ 1400M, LDT USED TO RECORD BULK DENSITY FROM 1400M. TO CASING.
RHOB FROM SMALL SECTION.
~ASCII -----------------------------------------------------
# ...
 2600.00000  227.72630  244.49630  242.07670  227.72630    0.97480   23.36100 2709.11870    0.00050    -999.25    0.00050 1025.80540   23.36100  166.70300  166.70300   18.06880   18.64670   18.64670 1025.80540 1353.93330 1353.93330    0.00770    -999.25    0.00770 2709.11870 1590.25240 -107.83260  -85.95040 1590.25240 18923.21880 15921.98340 17532.29690
 2650.00000  214.68820  262.51460  235.13850  214.68820    0.49860  -10.89830 2692.13230    0.01090    -999.25    0.01040 2005.57630  -10.89830  160.47080  160.47080   14.41620   16.08690   16.08690 2005.57630 1338.40310 1338.40310    0.00280    -999.25    0.00280 2692.13230 2009.32980 -142.83530 -135.55600 2009.32980 19664.03320 16227.65920 18165.32420
 2700.00000  215.72230  259.00860  235.63180  215.72230    0.56280   -0.06460 2715.56980   -0.00380    -999.25   -0.00330 1776.83030   -0.06460  160.30600  160.30600   13.74570   14.26310   14.26310 1776.83030 1732.17460 1732.17460    0.00500    -999.25    0.00500 2715.56980 1847.61340 -151.61440 -158.93790 1847.61340 19938.85940 16622.16990 18490.14840
 2750.00000  213.71410  312.89450  236.11560  213.71410    0.58250   -4.17460 2694.21950    0.00920    -999.25    0.00920 1716.72770   -4.17460  162.89090  162.89090   18.58730   16.57240   16.57240 1716.72770  911.04860  911.04860    0.01120    -999.25    0.01120 2694.21950 2012.86060 -115.27140 -137.19780 2012.86060 20111.43160 16905.12890 18702.98630
 2800.00000  216.86420  261.67000  238.33310  216.86420   25.60740   21.81370 2672.74220    0.02120    -999.25    0.02180   39.05120   21.81370  169.13330  169.13330   13.41190   11.00090   11.00090   39.05120   39.99190   39.99190    0.02530    -999.25    0.02530 2672.74220   60.84670  -69.58150 -106.11080   60.84670 20233.69730 16959.62110 19064.82810
 2850.00000  219.02340  238.38090  236.02400  219.02340    4.84550    0.22310 2670.60520    0.02190    -999.25    0.02300  206.37890    0.22310  162.56030  162.56030   14.04120   14.32000   14.32000  206.37890  143.15990  143.15990    0.01500    -999.25    0.01500 2670.60520  185.75930  -76.83180 -127.96400  185.75930 20222.60940 17285.89260 19536.23440
 2900.00000  231.53200  210.58410  231.69290  231.53200   15.68330  199.70030 2849.38430   -0.08330    -999.25   -0.08150   63.76210  199.70030  168.95610  168.95610   41.93220   38.21420   38.21420   63.76210   54.87410   54.87410    0.07290    -999.25    0.07290 2849.38430   96.63190  -96.64640 -162.38150   96.63190 20638.99020 17670.07620 19672.66990
 2950.00000  260.10150  214.80260  233.11600  260.10150    2.33590  249.94910 2682.65330    0.01270    -999.25    0.01600  428.10570  249.94910  168.40050  168.40050   22.43280   29.32810   29.32810  428.10570  820.74440  820.74440    0.00870    -999.25    0.00870 2682.65330 1226.65840  -73.09390 -153.43180 1226.65840 21554.57420 17891.12700 20115.24020
 3000.00000  222.67660  219.63140  228.23180  222.67660    5.68240   57.19970 2705.07710    0.00360    -999.25    0.00290  175.98340   57.19970  179.50410  179.50410   36.53250   34.24240   34.24240  175.98340  331.81710  331.81710    0.04080    -999.25    0.04080 2705.07710  354.38430   38.97350  -55.96730  354.38430 21757.06640 18257.26560 20422.62890
 3050.00000  412.10640  307.48050  333.35600  412.10640  281.31770  163.76230 2392.82520    0.19670    -999.25    0.18550    3.55470  163.76230  276.09790  276.09790   90.23270   91.05920   91.05920    3.55470    3.46470    3.46470    0.39380    -999.25    0.39380 2392.82520    3.88670   56.04060  -53.75380    3.88670 21741.03320 18375.46680 20123.38480
 3100.00000  229.27520  224.28400  226.18330  229.27520  135.69990   -1.38740 2671.79640    0.02170    -999.25    0.02230    7.36920   -1.38740  215.08540  215.08540   82.43030   66.47100   66.47100    7.36920    8.13520    8.13520    0.13340    -999.25    0.13340 2671.79640   10.48160   10.50370 -114.33520   10.48160 22742.45120 18787.37300 20868.98050
 3150.00000  230.29680  221.83430  226.04850  230.29680  150.08250  179.44780 2755.58300   -0.02520    -999.25   -0.02670    6.66300  179.44780  218.72860  218.72860   86.35080   80.93900   80.93900    6.66300    7.20640    7.20640    0.16080    -999.25    0.16080 2755.58300    9.22950   75.59670  -64.28670    9.22950 23251.29300 19088.59380 20963.97850
 3200.00000  238.14050  209.35670  227.22000  238.14050    5.69070   96.43580 2760.37160   -0.02300    -999.25   -0.02950  175.72650   96.43580  172.53990  172.53990   22.31980   23.19330   23.19330  175.72650  204.02410  204.02410    0.00990    -999.25    0.00990 2760.37160 1320.13870   61.61590  -85.22200 1320.13870 23058.82620 19472.03520 21181.74800
 3250.00000  222.42580  202.60760  223.52060  222.42580    2.37190   15.93530 2679.88400    0.01550    -999.25    0.01760  421.60230   15.93530  168.80510  168.80510   26.33270   30.76130   30.76130  421.60230 1843.88150 1843.88150    0.01120    -999.25    0.01120 2679.88400 1321.66210  116.45090  -37.74340 1321.66210 23169.79300 19709.67770 21489.70900
 3300.00000  288.27870  207.01200  230.53880  288.27870    0.55480  251.91800 2610.65380    0.06450    -999.25    0.05810 1802.53000  251.91800  164.15860  164.15860   20.69290   19.51320   19.51320 1802.53000 2019.85250 2019.85250    0.00540    -999.25    0.00540 2610.65380 1969.68870   52.70720  -98.55150 1969.68870 23540.77730 20004.97460 21890.69140
 3350.00000    -999.25    -999.25    -999.25    -999.25    -999.25    -999.25    -999.25    -999.25    -999.25    -999.25    -999.25    -999.25    -999.25    -999.25    -999.25    -999.25    -999.25    -999.25    -999.25    -999.25    -999.25    -999.25    -999.25    -999.25    -999.25    -999.25    -999.25    -999.25 17528.38870 17972.07810 17351.19140
