~Version ---------------------------------------------------
VERS.      2.0 : CWLS log ASCII Standard -VERSION 2.0
WRAP.       NO : One line per depth step
CREA. 12/11/17 : LAS Creation Date
~Well ------------------------------------------------------
STRT.FT                        300.0 : START DEPTH
STOP.FT                      10150.0 : STOP DEPTH
STEP.FT                     50.00000 : STEP LENGTH
NULL.                        -999.25 : NULL VALUE
COMP.           PETROFINA CANADA LTD : COMPANY
WELL. FINA AMOCO HB PASSCK 7-2-62-17 : WELL
FLD .                                : FIELD
LOC .                                : LOCATION
CTRY.                         CANADA : COUNTRY
SRVC.                   Schlumberger : SERVICE COMPANY
DATE.                    14-Mar-1978 : LOGDATE
PROV.                        Alberta : PROVINCE
UWI .               100070206217W500 : UNIQUE WELL ID
SLAT.WGS84                  54.33347 : SURFACE LATITUDE
SLON.WGS84                 -116.4328 : SURFACE LONGITUDE
~Curve Information -----------------------------------------
DEPT    .FT    : Depth Curve
CALDED  .IN    : CALIPER FROM DENSITY LOG [ADJ. TO RESISTIVITY LOG]
CALSED  .IN    : CALIPER FROM SONIC LOG
CALWS   .IN    : CALIPER [CALDED SPL. TO CALSED FROM 1027'-2457']
CILDED  .MMHO  : CONDUCTIVITY FROM RESISTIVITY LOG
CONDWS  .MMHO  : CONDUCTIVITY [1000/DRESWS]
DCORWS  .G/C3  : DENSITY CORRECTION [DRHOED]
DENWS   .G/C3  : FORMATION BULK DENSITY [CALC. FROM DPOLSWS, M=2.71, F=1.00]
DPHILSED.V/V   : DENSITY POROSITY LIMESTONE [M=2.71, F=1.00] FROM DENSITY LOG [ADJ. TO RESISTIVITY LOG]
DPHISSED.V/V   : DENSITY POROSITY SANDSTONE [M=2.65, F=1.00] FROM DENSITY LOG [ADJ. TO RESISTIVITY LOG]
DPOLSWS .V/V   : DENSITY POROSITY LIMESTONE [DPHISSED CONVERTED TO LIMESTONE MATRIX, M=2.71, F=1.00 SPL.TO DPHILSED @ 6300']
DRESWS  .OHMM  : DEEP RESISTIVITY [ILDED]
DRHOED  .G/C3  : DENSITY CORRECTION FROM DENSITY LOG [ADJ. TO RESISTIVITY LOG]
DTED    .US/F  : DELTA TIME FROM SONIC LOG
DTWS    .US/F  : COMPRESSIONAL SONIC [DTED]
GRDED   .GAPI  : GAMMA RAY FROM DENSITY LOG [ADJ. TO RESISTIVITY LOG]
GRSED   .GAPI  : GAMMA RAY FROM SONIC LOG
GRWS    .GAPI  : GAMM RAY [GRDED SPL. TO GRSED @ 35'] GRWS IN CSG. (+25 GAPI) FROM (994'-1027')
ILDED   .OHMM  : DEEP INDUCTION LOG RESISTIVITY FROM RESISTIVITY LOG
ILMED   .OHMM  : MEDIUM INDUCTION LOG RESISTIVITY FROM RESISTIVITY LOG
LL8ED   .OHMM  : 8 INCH LATEROLOG RESISTIVITY FROM RESISTIVITY LOG
MRESWS  .OHMM  : MEDIUM RESISTIVITY [ILMED]
NPHILSED.V/V   : NEUTRON POROSITY LIMESTONE FROM DENSITY LOG [ADJ. TO RESISTIVITY LOG]
NPHISSED.V/V   : NEUTRON POROSITY SANDSTONE FROM DENSITY LOG [ADJ. TO RESISTIVITY LOG]
NPOLSWS .V/V   : NEUTRON POROSITY LIMESTONE [NPHISSED MATRIX (SLB) CONVERSION FOR LIMESTONE, SPL.TO NPHILSED @ 6300']
RHOBED  .G/C3  : BULK DENSITY FROM DENSITY LOG [ADJ. TO RESISTIVITY LOG]
SPRED   .MV    : SPONTANEOUS POTENTIAL FROM RESISTIVITY LOG
SPWS    .MV    : SPONTANEOUS POTENTIAL [BASELINE 0 MV, SPRED]
SRESWS  .OHMM  : SHALLOW RESISTIVITY [LL8ED]
~Params ----------------------------------------------------
PD  .                     GL : PERMANENT DATUM
EPD .FT               2914.3 : ELEVATION PERMANENT DATUM
LMF .                     KB : LOG MEASURED FROM
DAPD.FT                 17.6 : FEET ABOVE PERMANENT DATUM
EKB .FT               2931.9 : KELLY BUSHING
EGL .FT               2914.3 : GROUND LEVEL
DATE.               03/14/78 : RUN DATE
RUN .                      2 : RUN NUMBER
DD  .FT                10155 : DEPTH DRILLER
DL  .FT                10163 : DEPTH LOGGER
BLI .FT                10157 : BOTTOM LOG INTERVAL
TLI .FT                 1027 : TOP LOG INTERVAL
CBD .FT                 1028 : CASING BOTTOM DRILLER
CBL .FT                 1027 : CASING BOTTOM LOGGER
BS  .IN                 8.75 : BIT SIZE
BSD .FT                10155 : BIT SIZE AT DEPTH
DFT .               GEL CHEM : DRILLING FLUID TYPE
DFD .                    9.3 : DRILLING FLUID DENSITY
DFV .                     90 : DRILLING FLUID VISCOSITY
DFPH.                     11 : DRILLING FLUID PH
DFL .                    9.0 : DRILLING FLUID LOSS
MSS .               FLOWLINE : MUD SAMPLE SOURCE
RMS .OHMM               1.87 : RESISTIVITY MUD SAMPLE
MST .DEGF                 74 : MUD SAMPLE TEMPERATURE
RMF .OHMM               1.52 : RESISTIVITY MUD FILTRATE SAMPLE
MFST.DEGF                 72 : MUD FILTRATE SAMPLE TEMPERATURE
RMB .OHMM               0.62 : RESISTIVITY MUD AT BHT
TCS .HRS                 3.5 : TIME CIRCULATED STOPPED
LUN .                   7730 : LOGGING UNIT NUMBER
LUL .                    EDM : LOGGING UNIT LOCATION
ENGI.               ACKERMAN : RECORDING ENGINEER
WITN.                 DAVIES : WITNESSED BY
CLNT.                A2DTECH : CLIENT CODE
ORIG.            2" 5" PRINT : ORIGIN OF DATA
UWI .       100070206217W500 : UNIQUE WELL ID
DICO. A2D Technologies, Inc. : DIGITIZING COMPANY
~Other -----------------------------------------------------
DIL-CNFD-BHC TOOLS RUN
DIL AND BHC TOOL CURVES FROM 1024' TO 2452' FROM 2" SCALE SECTION
~ASCII -----------------------------------------------------
  300.00000   13.53410   13.81480   13.53410    -999.25   21.12590    0.09560    2.36060    -999.25    0.17540    0.20430   47.33530    0.09560  103.10850  103.10850   55.48910   50.01830   50.01830   47.33530   46.22110   57.30220   46.22110    -999.25    0.41910    0.37660    2.37040 -158.36440  -10.78790   57.30220
  350.00000   13.23230   13.80680   13.23230    -999.25  153.23320    0.01960    2.19110    -999.25    0.27810    0.30350    6.52600    0.01960  132.19710  132.19710   96.99650   89.87140   89.87140    6.52600    6.78890   10.07210    6.78890    -999.25    0.54430    0.50680    2.20830 -150.15450   -4.87680   10.07210
  400.00000   13.57640   13.84770   13.57640    -999.25  127.90830    0.06970    2.44590    -999.25    0.12370    0.15440    7.81810    0.06970  102.94150  102.94150   85.28460   83.84720   83.84720    7.81810    8.45310   11.27230    8.45310    -999.25    0.41760    0.37510    2.46610 -148.50710   -3.22940   11.27230
  450.00000   13.52710   13.80050   13.52710    -999.25   25.81350    0.03940    2.26650    -999.25    0.23240    0.25930   38.74000    0.03940  121.82080  121.82080   64.41700   63.93480   63.93480   38.74000   40.26740   50.29030   40.26740    -999.25    0.47810    0.43740    2.27840 -156.54820  -12.67030   50.29030
  500.00000   13.62190   13.82580   13.62190    -999.25   99.40560    0.03370    1.73040    -999.25    0.54350    0.57290   10.05980    0.03370  137.75650  137.75650   78.50580   74.73910   74.73910   10.05980   10.49270   20.66110   10.49270    -999.25    0.66280    0.63330    1.73040 -146.29980   -4.59300   20.66110
  550.00000    9.97150   12.14620    9.97150    -999.25   85.08760    0.05670    2.21210    -999.25    0.26540    0.29120   11.75260    0.05670  152.37070  152.37070   68.97010   68.61420   68.61420   11.75260   12.43750   13.93570   12.43750    -999.25    0.47980    0.43910    2.22460 -151.43300  -11.89720   13.93570
  600.00000   13.71410   13.83170   13.71410    -999.25  198.01980    0.04630    2.00950    -999.25    0.38820    0.40970    5.05000    0.04630  137.50340  137.50340   96.89080   94.07930   94.07930    5.05000    4.79800    8.89170    4.79800    -999.25    0.62720    0.59510    1.96430 -138.89710   -1.54670    8.89170
  650.00000   13.58030   13.78710   13.58030    -999.25   51.19800    0.04990    2.23210    -999.25    0.25330    0.27950   19.53200    0.04990  116.46060  116.46060   62.05240   57.18940   57.18940   19.53200   20.28660   21.26300   20.28660    -999.25    0.46250    0.42120    2.24020 -151.33260  -16.15330   21.26300
  700.00000   13.50920   13.81060   13.50920    -999.25   42.55220    0.04350    2.14650    -999.25    0.30520    0.32950   23.50270    0.04350  126.43300  126.43300   64.63020   62.73310   62.73310   23.50270   26.27910   28.35050   26.27910    -999.25    0.48990    0.44960    2.15280 -151.78610  -18.79220   28.35050
  750.00000   13.79730   13.82600   13.79730    -999.25  114.25700    0.07080    2.31830    -999.25    0.20100    0.22900    8.75220    0.07080  105.82180  105.82180   73.66430   71.55990   71.55990    8.75220    9.59040   12.27560    9.59040    -999.25    0.45600    0.41450    2.33310 -135.91380   -5.09090   12.27560
  800.00000   13.71370   13.79060   13.71370    -999.25  283.02150    0.05880    2.15200    -999.25    0.30180    0.32630    3.53330    0.05880  138.04820  138.04820  105.63040   95.01300   95.01300    3.53330    3.97090    5.76190    3.97090    -999.25    0.63710    0.60570    2.16130 -130.69780   -2.04600    5.76190
  850.00000   13.87250   13.84720   13.87250    -999.25  110.76770    0.04460    1.98970    -999.25    0.40020    0.42120    9.02790    0.04460  115.93800  115.93800   89.16560   76.51840   76.51840    9.02790   10.49780   22.18960   10.49780    -999.25    0.56350    0.52720    2.01400 -125.67910   -2.92280   22.18960
  900.00000   13.73000   13.84050   13.73000    -999.25   61.95830    0.04600    1.80900    -999.25    0.52870    0.52690   16.13990    0.04600  127.97870  127.97870   75.35450   70.61780   70.61780   16.13990   20.51950   88.74350   20.51950    -999.25    0.64430    0.61340    1.80900 -118.68170   -5.51680   88.74350
  950.00000   13.78020   13.83000   13.78020    -999.25  126.30540    0.03250    2.25040    -999.25    0.24220    0.26880    7.91830    0.03250  115.43340  115.43340   91.18360   81.02900   81.02900    7.91830    8.34650   13.14800    8.34650    -999.25    0.48400    0.44350    2.25920 -109.30040   -5.79010   13.14800
 1000.00000   13.71010   13.86340   13.71010    -999.25   93.82890    0.07840    2.30480    -999.25    0.20920    0.23690   10.65770    0.07840   94.59630   94.59630   82.45130   52.12360   77.12360   10.65770   11.35340   12.85750   11.35340    -999.25    0.41670    0.37420    2.32130  -98.43050   -4.51160   12.85750
 1050.00000    -999.25    9.56420    9.56420  224.57180  178.52360    -999.25    -999.25    -999.25    -999.25    -999.25    5.60150    -999.25  109.07530  109.07530    -999.25  104.21010  104.21010    5.60150    -999.25    3.37930    -999.25    -999.25    -999.25    -999.25    -999.25 -102.75260   -4.74360    3.37930
 1100.00000    -999.25    9.94140    9.94140  161.77910  159.42610    -999.25    -999.25    -999.25    -999.25    -999.25    6.27250    -999.25   99.23960   99.23960    -999.25   70.16820   70.16820    6.27250    -999.25    4.59810    -999.25    -999.25    -999.25    -999.25    -999.25  -97.92420   -2.40330    4.59810
 1150.00000    -999.25   10.51860   10.51860  254.87770  213.06060    -999.25    -999.25    -999.25    -999.25    -999.25    4.69350    -999.25  109.94440  109.94440    -999.25  100.48010  100.48010    4.69350    -999.25    2.76500    -999.25    -999.25    -999.25    -999.25    -999.25  -97.74370   -4.69460    2.76500
 1200.00000    -999.25   11.96630   11.96630  255.50430  219.12290    -999.25    -999.25    -999.25    -999.25    -999.25    4.56370    -999.25  114.42750  114.42750    -999.25   95.10650   95.10650    4.56370    -999.25    3.13000    -999.25    -999.25    -999.25    -999.25    -999.25  -94.70400   -3.96120    3.13000
 1250.00000    -999.25   10.13890   10.13890  194.42620  156.54350    -999.25    -999.25    -999.25    -999.25    -999.25    6.38800    -999.25  115.95570  115.95570    -999.25   70.35370   70.35370    6.38800    -999.25    4.42320    -999.25    -999.25    -999.25    -999.25    -999.25  -94.30510   -4.77760    4.42320
 1300.00000    -999.25   10.01610   10.01610  126.83220  113.50870    -999.25    -999.25    -999.25    -999.25    -999.25    8.80990    -999.25  105.50090  105.50090    -999.25   83.30790   83.30790    8.80990    -999.25    7.56590    -999.25    -999.25    -999.25    -999.25    -999.25  -97.11690   -8.80470    7.56590
 1350.00000    -999.25   10.77950   10.77950  260.09430  297.60130    -999.25    -999.25    -999.25    -999.25    -999.25    3.36020    -999.25   99.42270   99.42270    -999.25   97.70020   97.70020    3.36020    -999.25    4.53220    -999.25    -999.25    -999.25    -999.25    -999.25  -94.59180   -7.50290    4.53220
 1400.00000    -999.25   10.47170   10.47170  253.73210  230.35110    -999.25    -999.25    -999.25    -999.25    -999.25    4.34120    -999.25  103.99420  103.99420    -999.25   91.43960   91.43960    4.34120    -999.25    3.13260    -999.25    -999.25    -999.25    -999.25    -999.25  -93.40390   -7.53030    3.13260
 1450.00000    -999.25   10.62970   10.62970  228.17560  201.58360    -999.25    -999.25    -999.25    -999.25    -999.25    4.96100    -999.25  114.62440  114.62440    -999.25   94.23030   94.23030    4.96100    -999.25    3.52620    -999.25    -999.25    -999.25    -999.25    -999.25  -89.89980   -5.51130    3.52620
 1500.00000    -999.25   11.01150   11.01150  273.72980  349.22300    -999.25    -999.25    -999.25    -999.25    -999.25    2.86350    -999.25   97.17580   97.17580    -999.25   86.31030   86.31030    2.86350    -999.25    4.14160    -999.25    -999.25    -999.25    -999.25    -999.25  -88.05120   -5.76240    4.14160
