~Version ---------------------------------------------------
VERS.      2.0 : CWLS log ASCII Standard -VERSION 2.0
WRAP.       NO : One line per depth step
CREA. 08/02/17 : LAS Creation Date
~Well ------------------------------------------------------
STRT.FT                        1050.0 : START DEPTH
STOP.FT                       10700.0 : STOP DEPTH
STEP.FT                      50.00000 : STEP LENGTH
NULL.                         -999.25 : NULL VALUE
COMP.            CHEVRON STANDARD LTD : COMPANY
WELL. CHEVRON GULF KAYBOBS 13-8-63-20 : WELL
FLD .                                 : FIELD
LOC .                                 : LOCATION
CTRY.                          CANADA : COUNTRY
SRVC.                    Schlumberger : SERVICE COMPANY
DATE.                     07-Dec-1977 : LOGDATE
PROV.                         Alberta : PROVINCE
UWI .                100130806320W500 : UNIQUE WELL ID
SLAT.WGS84                   54.44033 : SURFACE LATITUDE
SLON.WGS84                   -116.995 : SURFACE LONGITUDE
~Curve Information -----------------------------------------
DEPT    .FT    : Depth Curve
C13ED   .IN    : CALIPER 1-3 PAD ELECTRODE
C24ED   .IN    : CALIPER 2-4 PAD ELECTRODE
CALDED  .IN    : CALIPER FROM DENSITY LOG
CALSED  .IN    : CALIPER FROM SONIC LOG
CALWS   .IN    : CALIPER [CALSED]
CONDWS  .MMHO  : CONDUCTIVITY [1000/DRESWS]
DCORWS  .G/C3  : DENSITY CORRECTION [DRHOED]
DENWS   .G/C3  : BULK DENSITY [RHOBED]
DPHILSED.V/V   : DENSITY POROSITY [M=2.71 F=1.00] FROM DENSITY LOG
DPHISSED.V/V   : DENSITY POROSITY [M=2.65 F=1.00] FROM DENSITY LOG
DPOLSWS .V/V   : DENSITY POROSITY LIMESTONE  {CALCUKLATED FROM RHOBED]
DRESWS  .OHMM  : DEEP RESISTIVITY [ILDED]
DRHOED  .G/C3  : DENSITY CORRECTION FROM DENSITY LOG
DTED    .US/F  : DELTA TIME FROM SONIC LOG
DTWS    .US/F  : DELTA TIME [DTED]
GRDED   .GAPI  : GAMMA RAY FROM DENSITY LOG
GRSED   .GAPI  : GAMMA RAY FROM SONIC LOG
GRWS    .GAPI  : GAMMA RAY [GRSED]
ILDED   .OHMM  : INDUCTION LOG DEEP RESISTIVITY
ILMED   .OHMM  : INDUCTION LOG MEDIUM RESISTIVITY
LL8ED   .OHMM  : 8 INCH LATEROLOG RESISTIVITY
MRESWS  .OHMM  : MEDIUM RESISTIVITY [ILMED]
NPHILSED.V/V   : NEUTRON POROSITY LIMESTONE FROM DENSITY LOG
NPHISSED.V/V   : NEUTRON POROSITY SANDSTONE FROM DENSITY LOG
NPOLSWS .V/V   : NEUTRON POROSITY LIMESTONE [NPHILSED], SPLICED WITH CONVERTED MATRIX FROM SANDSTONE TO LIMESTONE FROM 2180'-6857'
RHOBED  .G/C3  : BULK DENSITY FROM DENSITY LOG
SPRED   .MV    : SPONTANEOUS POTENTIAL FROM RESISTIVITY LOG
SPWS    .MV    : SPONTANEOUS POTENTIAL [BASELINE 0 MV] [SPRED]
SRESWS  .OHMM  : SHALLOW RESISTIVITY [LL8ED]
TENDED  .LBF   : TENSION FROM DENSITY LOG
TENSED  .LBF   : TENSION FROM SONIC LOG
~Params ----------------------------------------------------
PD  .                     GL : PERMANENT DATUM
EPD .FT               2595.6 : ELEVATION PERMANENT DATUM
LMF .                     KB : LOG MEASURED FROM
DAPD.FT                 17.4 : FEET ABOVE PERMANENT DATUM
EKB .FT                 2613 : KELLY BUSHING
EGL .FT               2595.6 : GROUND LEVEL
DATE.               01/05/77 : RUN DATE
RUN .                      2 : RUN NUMBER
DD  .FT                10720 : DEPTH DRILLER
DL  .FT                10709 : DEPTH LOGGER
BLI .FT                10706 : BOTTOM LOG INTERVAL
TLI .FT                 6500 : TOP LOG INTERVAL
CBD .FT                 1090 : CASING BOTTOM DRILLER
CBL .FT                 1091 : CASING BOTTOM LOGGER
BS  .IN                 8.75 : BIT SIZE
BSD .FT                10720 : BIT SIZE AT DEPTH
DFT .         FGM MLGARD OIL : DRILLING FLUID TYPE
DFD .                    9.2 : DRILLING FLUID DENSITY
DFV .                     80 : DRILLING FLUID VISCOSITY
DFPH.                   10.5 : DRILLING FLUID PH
MSS .               FLOWLINE : MUD SAMPLE SOURCE
RMS .OHMM               1.43 : RESISTIVITY MUD SAMPLE
MST .DEGF                 70 : MUD SAMPLE TEMPERATURE
RMF .OHMM               1.08 : RESISTIVITY MUD FILTRATE SAMPLE
MFST.DEGF                 74 : MUD FILTRATE SAMPLE TEMPERATURE
LUN .                   7800 : LOGGING UNIT NUMBER
LUL .                    EDM : LOGGING UNIT LOCATION
ENGI.               FEINGOLD : RECORDING ENGINEER
WITN.             RICHARDSON : WITNESSED BY
CLNT.                A2DTECH : CLIENT CODE
ORIG.            2" 5" PRINT : ORIGIN OF DATA
UWI .       100130806320W500 : UNIQUE WELL ID
DICO. A2D Technologies, Inc. : DIGITIZING COMPANY
~Other -----------------------------------------------------
~ASCII -----------------------------------------------------
# ...
 9100.00000    -999.25    -999.25    -999.25    9.50050    9.50050    2.20970    -999.25    -999.25    -999.25    -999.25    -999.25  471.72480    -999.25   49.08110   49.08110    -999.25   17.64570   17.64570  471.72480  120.04290  173.41180  120.04290    -999.25    -999.25    -999.25    -999.25 -193.09690 -197.03390  173.41180    -999.25 4829.73680
 9150.00000    -999.25    -999.25    -999.25    8.93780    8.93780   20.85950    -999.25    -999.25    -999.25    -999.25    -999.25   47.93980    -999.25   53.43830   53.43830    -999.25   44.88570   44.88570   47.93980   42.21370   77.20430   42.21370    -999.25    -999.25    -999.25    -999.25 -150.79650 -154.69140   77.20430    -999.25 5088.31500
 9200.00000    -999.25    -999.25    -999.25    9.00280    9.00280    4.55370    -999.25    -999.25    -999.25    -999.25    -999.25  220.65130    -999.25   54.45010   54.45010    -999.25   60.20080   60.20080  220.65130  186.60320  239.45200  186.60320    -999.25    -999.25    -999.25    -999.25 -104.32070 -108.17310  239.45200    -999.25 5120.02370
 9250.00000    -999.25    -999.25    -999.25    8.93510    8.93510   11.80090    -999.25    -999.25    -999.25    -999.25    -999.25   84.73960    -999.25   53.75300   53.75300    -999.25   45.16260   45.16260   84.73960  104.21480  304.79600  104.21480    -999.25    -999.25    -999.25    -999.25  -82.58550  -86.39580  304.79600    -999.25 5281.67410
 9300.00000    -999.25    -999.25    -999.25    9.05680    9.05680   57.54140    -999.25    -999.25    -999.25    -999.25    -999.25   17.37880    -999.25   61.38450   61.38450    -999.25   93.19730   93.19730   17.37880   19.36900   27.23650   19.36900    -999.25    -999.25    -999.25    -999.25  -61.48450  -65.25250   27.23650    -999.25 5366.76080
 9350.00000    -999.25    -999.25    -999.25    9.64030    9.64030  145.93320    -999.25    -999.25    -999.25    -999.25    -999.25    6.85600    -999.25   69.15590   69.15590    -999.25   78.64420   78.64420    6.85600    7.69260   11.33230    7.69260    -999.25    -999.25    -999.25    -999.25  -48.27800  -52.00340   11.33230    -999.25 5803.13430
 9400.00000    -999.25    -999.25    -999.25   10.59350   10.59350  219.49080    -999.25    -999.25    -999.25    -999.25    -999.25    4.55600    -999.25   74.95120   74.95120    -999.25   83.63680   83.63680    4.55600    5.05200    8.66880    5.05200    -999.25    -999.25    -999.25    -999.25  -40.91240  -44.59570    8.66880    -999.25 5855.52760
 9450.00000    -999.25    -999.25    -999.25   10.99140   10.99140  255.73160    -999.25    -999.25    -999.25    -999.25    -999.25    3.91040    -999.25   75.53870   75.53870    -999.25   81.44690   81.44690    3.91040    4.43970    7.03840    4.43970    -999.25    -999.25    -999.25    -999.25  -29.51590  -33.15670    7.03840    -999.25 6060.10860
 9500.00000    -999.25    -999.25    -999.25   10.06850   10.06850  218.34060    -999.25    -999.25    -999.25    -999.25    -999.25    4.58000    -999.25   73.04930   73.04930    -999.25   76.81640   76.81640    4.58000    5.17170   10.55340    5.17170    -999.25    -999.25    -999.25    -999.25  -33.15190  -36.75050   10.55340    -999.25 5595.63780
 9550.00000    -999.25    -999.25    -999.25    9.09490    9.09490   82.07620    -999.25    -999.25    -999.25    -999.25    -999.25   12.18380    -999.25   70.24770   70.24770    -999.25   68.44940   68.44940   12.18380   14.11350   18.22300   14.11350    -999.25    -999.25    -999.25    -999.25  -49.84530  -53.40160   18.22300    -999.25 4000.24610
 9600.00000    -999.25    -999.25    -999.25    9.47110    9.47110  279.30190    -999.25    -999.25    -999.25    -999.25    -999.25    3.58240    -999.25   69.41910   69.41910    -999.25   61.72700   61.72700    3.58240    4.08060    4.90770    4.08060    -999.25    -999.25    -999.25    -999.25  -49.64020  -53.15390    4.90770    -999.25 4321.20440
 9650.00000    -999.25    -999.25    -999.25   10.31820   10.31820  325.13980    -999.25    -999.25    -999.25    -999.25    -999.25    3.07560    -999.25   76.90360   76.90360    -999.25   84.08310   84.08310    3.07560    3.75730    4.86270    3.75730    -999.25    -999.25    -999.25    -999.25  -49.11760  -52.58930    4.86270    -999.25 4310.15320
 9700.00000    -999.25    -999.25    -999.25   11.00160   11.00160  383.43560    -999.25    -999.25    -999.25    -999.25    -999.25    2.60800    -999.25   82.22020   82.22020    -999.25   91.77840   91.77840    2.60800    2.92780    3.90460    2.92780    -999.25    -999.25    -999.25    -999.25  -49.42900  -52.85810    3.90460    -999.25 4262.39800
 9750.00000    -999.25    -999.25    -999.25   12.01350   12.01350  434.46150    -999.25    -999.25    -999.25    -999.25    -999.25    2.30170    -999.25   87.28830   87.28830    -999.25  102.60700  102.60700    2.30170    2.50250    3.38330    2.50250    -999.25    -999.25    -999.25    -999.25  -50.29280  -53.67980    3.38330    -999.25 4237.62730
 9800.00000    -999.25    -999.25    -999.25    9.34310    9.34310  166.50570    -999.25    -999.25    -999.25    -999.25    -999.25    6.00580    -999.25   69.60660   69.60660    -999.25   66.70270   66.70270    6.00580    6.99650    9.59360    6.99650    -999.25    -999.25    -999.25    -999.25  -46.68650  -50.03120    9.59360    -999.25 4474.63740
 9850.00000    -999.25    -999.25    -999.25    9.24480    9.24480  190.26700    -999.25    -999.25    -999.25    -999.25    -999.25    5.25590    -999.25   70.64540   70.64540    -999.25   80.23620   80.23620    5.25590    6.07440    7.83080    6.07440    -999.25    -999.25    -999.25    -999.25  -39.65930  -42.96150    7.83080    -999.25 4834.40820
 9900.00000    -999.25    -999.25    9.68030    9.14510    9.14510  123.65830   -0.01300    2.65510    0.02100    -999.25    0.03210    8.08680   -0.01300   65.22220   65.22220   63.33150   64.85230   64.85230    8.08680    9.64240   12.70720    9.64240    0.10600    -999.25    0.10600    2.65510  -40.81550  -44.07550   12.70720 7165.70040 4798.73560
 9950.00000    -999.25    -999.25    9.89330    9.43200    9.43200  230.32600    0.01180    2.69780   -0.00340    -999.25    0.00710    4.34170    0.01180   74.05310   74.05310   98.43130  100.31070  100.31070    4.34170    5.00890    6.83600    5.00890    0.18730    -999.25    0.18730    2.69780  -43.24350  -46.46100    6.83600 7614.15440 5076.19640
 10000.00000    -999.25    -999.25   10.49960    9.58870    9.58870  287.14180    0.14150    2.52660    0.11670    -999.25    0.10730    3.48260    0.14150   82.38500   82.38500   99.94390  110.09700  110.09700    3.48260    4.11140    5.19420    4.11140    0.25210    -999.25    0.25210    2.52660  -41.77490  -44.95030    5.19420 7535.15070 5163.11280
 10050.00000    -999.25    -999.25   11.08870    9.89640    9.89640  280.70960    0.25470    2.66410    0.01160    -999.25    0.02680    3.56240    0.25470   79.93660   79.93660   96.21870   98.53920   98.53920    3.56240    4.01780    4.97450    4.01780    0.19960    -999.25    0.19960    2.66410  -35.09460  -38.22760    4.97450 4932.96850 5449.20290
 10100.00000    -999.25    -999.25    9.61840    9.10810    9.10810  220.50910    0.00150    2.61530    0.04520    -999.25    0.05540    4.53500    0.00150   79.82910   79.82910  104.11550  107.85410  107.85410    4.53500    5.20850    6.98690    5.20850    0.19900    -999.25    0.19900    2.61530  -35.46580  -38.55630    6.98690 3881.91400 5511.59000
 10150.00000    -999.25    -999.25    9.28900    8.90870    8.90870   25.52020   -0.01150    2.55570    0.09810    -999.25    0.09020   39.18460   -0.01150   69.78480   69.78480   93.26420   87.89720   87.89720   39.18460   55.25970  103.60530   55.25970    0.14080    -999.25    0.14080    2.55570  -31.86710  -34.91550  103.60530 4138.06630 5474.56060
 10200.00000    -999.25    -999.25    9.29480    8.84340    8.84340   13.82050   -0.01320    2.44210    0.15570    -999.25    0.15670   72.35630   -0.01320   79.64180   79.64180  138.79570  137.18500  137.18500   72.35630  101.25290  128.92280  101.25290    0.16170    -999.25    0.16170    2.44210  -41.33040  -44.33630  128.92280 4171.39070 5638.49380
