~Version ---------------------------------------------------
VERS.      2.0 : CWLS log ASCII Standard -VERSION 2.0
WRAP.       NO : One line per depth step
CREA. 10/27/17 : LAS Creation Date
~Well ------------------------------------------------------
STRT.FT                           1200.0 : START DEPTH
STOP.FT                          14850.0 : STOP DEPTH
STEP.FT                         50.00000 : STEP LENGTH
NULL.                            -999.25 : NULL VALUE
COMP.   SOCONY MOBIL OIL OF CANADA, LTD. : COMPANY
WELL. MOBIL SCURRY PEM RIVER A6-15-47-16 : WELL
FLD .                                    : FIELD
LOC .                                    : LOCATION
CTRY.                             CANADA : COUNTRY
SRVC.             Schlumberger of Canada : SERVICE COMPANY
DATE.                        26-Jul-1962 : LOGDATE
PROV.                            Alberta : PROVINCE
UWI .                   102061504716W500 : UNIQUE WELL ID
SLAT.WGS84                      53.05247 : SURFACE LATITUDE
SLON.WGS84                     -116.2582 : SURFACE LONGITUDE
~Curve Information -----------------------------------------
DEPT  .FT    : Depth Curve
CALWS .IN    : CALIPER [MCALED]
CILDED.MMHO  : DEEP INDUCTION CONDUCTIVITY FROM RESISTIVITY LOG [ADJ. TO ILDED]
CONDWS.MMHO  : CONDUCTIVITY [1000/DRESWS]
DRESWS.OHMM  : DEEP RESISTIVITY [1000/CILDED,IF ILDED<5,ILDED]
DT1ED .US/F  : DELTA TIME (3' SPACING- 1' PICKUP SPAN) FROM SONIC LOG
DTED  .US/F  : DELTA TIME (3' SPACING- 3' PICKUP SPAN) FROM SONIC LOG
DTWS  .US/F  : COMPRESSIONAL SONIC [DTED]
GRNED .GAPI  : GAMMA RAY GRN LOG
GRSED .GAPI  : GAMMA RAY FROM SONIC LOG
GRWS  .GAPI  : GAMMA RAY [SPLICED GRSED/GRNED FROM 11818' TO 12795']
ILDED .OHMM  : DEEP INDUCTION RESISTIVITY FROM RESISTIVITY LOG
MCALED.IN    : CALIPER FROM MICRO LOG
NEUTED.NAPI  : NEUTRON FROM GRN LOG
NEUTWS.NAPI  : NEUTRON [NEUTED]
SNED  .OHMM  : 16 INCH  SHORT NORMAL FROM RESISTIVITY LOG
SPRED .MV    : SPONTANEOUS POTENTIAL FROM RESISTIVITY LOG
SPWS  .MV    : SPONTANEOUS POTENTIAL [BASELINE 0 MV,SPRED]
SRESWS.OHMM  : SHALLOW RESISTIVITY [SNED]
~Params ----------------------------------------------------
PD  .                     GL : PERMANENT DATUM
LMF .                     KB : LOG MEASURED FROM
EKB .FT                 4176 : KELLY BUSHING
DATE.               07/26/62 : RUN DATE
RUN .                      3 : RUN NUMBER
DD  .FT                14885 : DEPTH DRILLER
DL  .FT                14889 : DEPTH LOGGER
BLI .FT                14888 : BOTTOM LOG INTERVAL
TLI .FT                12790 : TOP LOG INTERVAL
CBD .FT                12971 : CASING BOTTOM DRILLER
CBL .FT                12790 : CASING BOTTOM LOGGER
BS  .IN                    9 : BIT SIZE
BSD .FT                14885 : BIT SIZE AT DEPTH
DFT .              LIME BASE : DRILLING FLUID TYPE
DFD .                   14.7 : DRILLING FLUID DENSITY
DFV .                     50 : DRILLING FLUID VISCOSITY
DFPH.                     14 : DRILLING FLUID PH
DFL .                      4 : DRILLING FLUID LOSS
RMS .OHMM               0.44 : RESISTIVITY MUD SAMPLE
MST .DEGF                 71 : MUD SAMPLE TEMPERATURE
RMF .OHMM               0.24 : RESISTIVITY MUD FILTRATE SAMPLE
MFST.DEGF                 76 : MUD FILTRATE SAMPLE TEMPERATURE
RMC .OHMM                1.1 : RESISTIVITY MUD CAKE
MCST.DEGF                 77 : MUD CAKE SAMPLE TEMPERATURE
RMB .OHMM               0.12 : RESISTIVITY MUD AT BHT
TCS .HRS                   3 : TIME CIRCULATED STOPPED
LUN .                   1576 : LOGGING UNIT NUMBER
LUL .                     DV : LOGGING UNIT LOCATION
ENGI.               HATLELID : RECORDING ENGINEER
WITN.                 CARSON : WITNESSED BY
CLNT.                A2DTECH : CLIENT CODE
ORIG.            2" 5" PRINT : ORIGIN OF DATA
UWI .       102061504716W500 : UNIQUE WELL ID
DICO. A2D Technologies, Inc. : DIGITIZING COMPANY
~Other -----------------------------------------------------
GRN-IEL-ML-SONIC USED
NO SP RECORDED DUE TO EXCESSIVE TELLURIC CURRENTS, SP BELOW 3610M IS NOT LOOK VALID
~ASCII -----------------------------------------------------
# ...
 9000.00000   10.35880   74.27890   78.40190   12.75480    -999.25   73.20030   73.20030    -999.25   86.30090   86.30090   12.75480   10.35880    -999.25    -999.25    9.69700  -21.44770   -7.44380    9.69700
 9050.00000    9.90040   96.96300  105.50530    9.47820    -999.25   80.48400   80.48400    -999.25   89.66340   89.66340    9.47820    9.90040    -999.25    -999.25    8.14170  -23.43150  -10.37330    8.14170
 9100.00000    9.97400  102.46530  114.26290    8.75180    -999.25   85.42120   85.42120    -999.25   96.98330   96.98330    8.75180    9.97400    -999.25    -999.25    7.67680  -18.08150   -5.97380    7.67680
 9150.00000   11.70670  104.58320  114.14740    8.76060    -999.25   88.40100   88.40100    -999.25   97.42710   97.42710    8.76060   11.70670    -999.25    -999.25    7.81280  -18.18020   -6.86760    7.81280
 9200.00000   11.23250   85.26670   92.17920   10.84920    -999.25   83.73860   83.73860    -999.25  103.37970  103.37970   10.84920   11.23250    -999.25    -999.25    9.96080  -21.06160  -10.44230    9.96080
 9250.00000   10.75760   74.46920   79.26440   12.61600    -999.25   80.07400   80.07400    -999.25   87.93860   87.93860   12.61600   10.75760    -999.25    -999.25    9.47670  -18.06390   -8.13100    9.47670
 9300.00000   10.54480   84.72580   90.41510   11.06010    -999.25   87.05360   87.05360    -999.25   97.48750   97.48750   11.06010   10.54480    -999.25    -999.25    9.03570  -18.81250   -9.56940    9.03570
 9350.00000   11.44940   92.25490  101.73850    9.83270    -999.25   91.57730   91.57730    -999.25   92.81840   92.81840    9.83270   11.44940    -999.25    -999.25    8.45740  -20.21290  -11.66300    8.45740
 9400.00000   12.23610   76.48020   80.92450   12.35720    -999.25   84.87240   84.87240    -999.25   86.96000   86.96000   12.35720   12.23610    -999.25    -999.25   10.07280  -17.66000   -9.79660   10.07280
 9450.00000   12.36060   59.04250   64.66210   15.50680    -999.25   80.67790   80.67790    -999.25   86.85080   86.85080   15.50680   12.36060    -999.25    -999.25   11.27800  -16.90080   -9.73060   11.27800
 9500.00000   13.47390   86.66770   95.84330   10.43370    -999.25   88.85130   88.85130    -999.25   87.64700   87.64700   10.43370   13.47390    -999.25    -999.25    8.90150  -17.41120  -10.92740    8.90150
 9550.00000   14.68880  121.73730  141.21500    7.08140    -999.25   89.34460   89.34460    -999.25   87.46970   87.46970    7.08140   14.68880    -999.25    -999.25    6.43900  -10.07930   -4.28530    6.43900
 9600.00000   14.92860   84.40030   88.68360   11.27710    -999.25  103.56120  103.56120    -999.25   86.63030   86.63030   11.27710   14.92860    -999.25    -999.25    8.44310   -9.87720   -4.77660    8.44310
 9650.00000   13.13880  128.27050  139.04530    7.19190    -999.25   78.52620   78.52620    -999.25   84.11920   84.11920    7.19190   13.13880    -999.25    -999.25    6.85030  -15.15620  -10.74190    6.85030
 9700.00000   11.76330   69.13320   76.49800   13.19910    -999.25   72.99150   72.99150    -999.25   69.34410   69.34410   13.19910   11.76330    -999.25    -999.25    9.92430  -18.12550  -14.40450    9.92430
 9750.00000   13.71910  118.31730  132.96810    7.52060    -999.25   80.88880   80.88880    -999.25   85.97810   85.97810    7.52060   13.71910    -999.25    -999.25    6.17780  -15.46670  -12.43210    6.17780
 9800.00000   14.34770  108.79580  121.13430    8.25530    -999.25   82.28240   82.28240    -999.25   79.03100   79.03100    8.25530   14.34770    -999.25    -999.25    6.28290  -11.18190   -8.83710    6.28290
 9850.00000   13.74090  130.53990  145.76510    6.86040    -999.25   84.81760   84.81760    -999.25   89.60360   89.60360    6.86040   13.74090    -999.25    -999.25    5.70890  -10.30240   -8.65090    5.70890
 9900.00000   12.22220  138.55730  147.65380    6.77260    -999.25   84.09160   84.09160    -999.25  108.27080  108.27080    6.77260   12.22220    -999.25    -999.25    5.32730   -6.20460   -5.51880    5.32730
 9950.00000   11.69670  243.59390  283.13790    3.53350    -999.25   89.92870   89.92870    -999.25   97.06890   97.06890    3.53350   11.69670    -999.25    -999.25    3.81470   -3.39240   -4.43980    3.81470
 10000.00000   11.83850  198.82910  233.26340    4.28700    -999.25   88.70660   88.70660    -999.25   95.02180   95.02180    4.28700   11.83850    -999.25    -999.25    4.92940   -5.36690   -6.29540    4.92940
 10050.00000   11.17450  160.86830  194.45790    5.14250    -999.25   81.25730   81.25730    -999.25   83.35200   83.35200    5.14250   11.17450    -999.25    -999.25    5.64040   -8.61980   -9.25660    5.64040
 10100.00000   10.16090   90.80720   95.44710   10.47830    -999.25   75.47980   75.47980    -999.25   66.72120   66.72120   10.47830   10.16090    -999.25    -999.25    7.81870  -10.64340  -10.98700    7.81870
 10150.00000   10.56810  104.28160  113.19000    8.83470    -999.25   78.76540   78.76540    -999.25   78.43680   78.43680    8.83470   10.56810    -999.25    -999.25    9.76760  -10.01140  -10.06480    9.76760
 10200.00000   11.39130   87.87980   91.57520   10.92010    -999.25  103.63330  103.63330    -999.25   84.57940   84.57940   10.92010   11.39130    -999.25    -999.25   11.16290   -6.95290   -6.71310   11.16290
 10250.00000   10.22040   51.12930   52.07410   19.20340    -999.25   64.10280   64.10280    -999.25   61.61910   61.61910   19.20340   10.22040    -999.25    -999.25   14.51900  -14.25130  -13.72120   14.51900
 10300.00000   12.83270   76.97590   79.52540   12.57460    -999.25   73.06240   73.06240    -999.25   71.14860   71.14860   12.57460   12.83270    -999.25    -999.25    9.14080   -4.46000   -3.63820    9.14080
 10350.00000   11.25900   52.37790   48.04440   20.86150    -999.25   65.47940   65.47940    -999.25   66.09750   66.09750   20.86150   11.25900    -999.25    -999.25    8.99180   -4.99070   -3.87580    8.99180
 10400.00000   10.42510   59.25550   56.65370   17.65110    -999.25   73.26520   73.26520    -999.25   71.07960   71.07960   17.65110   10.42510    -999.25    -999.25   11.88930  -11.79290  -10.38770   11.88930
 10450.00000   10.50110   52.27990   48.93980   20.45970    -999.25   64.62910   64.62910    -999.25   74.88450   74.88450   20.45970   10.50110    -999.25    -999.25   15.77710  -10.95010   -9.25170   15.77710
 10500.00000   10.42900   92.08230   95.44720   10.47700    -999.25   74.48970   74.48970    -999.25   71.75560   71.75560   10.47700   10.42900    -999.25    -999.25   12.78700  -11.82330   -9.83470   12.78700
 10550.00000   11.36300   85.92110   83.24250   12.01310    -999.25   76.51720   76.51720    -999.25   78.23300   78.23300   12.01310   11.36300    -999.25    -999.25   10.80400   -7.80280   -5.52250   10.80400
 10600.00000   10.03990   30.92710   29.25580   34.21950    -999.25   65.73680   65.73680    -999.25   43.88770   43.88770   34.21950   10.03990    -999.25    -999.25   19.50530  -15.00940  -15.28120   19.50530
 10650.00000   10.14060   60.19900   60.80140   16.44700    -999.25   68.55800   68.55800    -999.25   76.93350   76.93350   16.44700   10.14060    -999.25    -999.25   13.86220   -9.86680  -13.15960   13.86220
 10700.00000    9.43490   23.22340   22.85700   43.75320    -999.25   60.53140   60.53140    -999.25   47.41500   47.41500   43.75320    9.43490    -999.25    -999.25   19.05190   -7.17470  -13.51880   19.05190
 10750.00000    9.36060    2.27860    2.00340  499.14460    -999.25   53.21110   53.21110    -999.25   20.32560   20.32560  499.14460    9.36060    -999.25    -999.25   30.53900   -1.70650   -4.15410   30.53900
 10800.00000    9.26430   18.31940   18.11130   55.21400    -999.25   65.35040   65.35040    -999.25   76.27830   76.27830   55.21400    9.26430    -999.25    -999.25   22.80230  -11.36940   -7.75130   22.80230
 10850.00000    9.54480   33.60630   32.99690   30.30690    -999.25   79.94580   79.94580    -999.25   98.31040   98.31040   30.30690    9.54480    -999.25    -999.25   20.24010   -8.17890   -2.03860   20.24010
 10900.00000    9.43550   22.29600   22.82280   43.81580    -999.25   68.29570   68.29570    -999.25   63.14780   63.14780   43.81580    9.43550    -999.25    -999.25   21.52970  -10.89090   -6.70620   21.52970
