~Version ---------------------------------------------------
VERS.      2.0 : CWLS log ASCII Standard -VERSION 2.0
WRAP.       NO : One line per depth step
CREA. 08/22/14 : LAS Creation Date
~Well ------------------------------------------------------
STRT.FT                 1143.82546 : START DEPTH
STOP.FT                11159.82546 : STOP DEPTH
STEP.FT                    0.50000 : STEP LENGTH
NULL.                      -999.25 : NULL VALUE
COMP.            TRIAD OIL CO. LTD : COMPANY
WELL. TRIAD PAN AM ANTE 2-27-66-25 : WELL
FLD .                              : FIELD
LOC .                              : LOCATION
CTRY.                       CANADA : COUNTRY
SRVC.                   Lane Wells : SERVICE COMPANY
DATE.                  15-Aug-1967 : LOGDATE
PROV.                      Alberta : PROVINCE
UWI .             100022706625W500 : UNIQUE WELL ID
SLAT.WGS84                54.73614 : SURFACE LATITUDE
SLON.WGS84                 -117.69 : SURFACE LONGITUDE
~Curve Information -----------------------------------------
DEPT.FT    : DEPTH FEET
CALS.IN    : CALIPER FROM SONIC LOG
DT  .US/F  : DELTA TIME FROM SONIC LOG
GRS .GAPI  : GAMMA RAY FROM SONIC LOG
ILD .OHMM  : INDUCTION LOG DEEP RESISTIVITY
SN  .OHMM  : 16 INCH SHORT NORMAL RESISTIVITY FROM IEL
SPR .MV    : SPONTANEOUS POTENTIAL FROM RESISTIVITY LOG
~Params ----------------------------------------------------
PD  .                     GL : PERMANENT DATUM
EPD .FT               2399.7 : ELEVATION PERMANENT DATUM
LMF .                     KB : LOG MEASURED FROM
DAPD.FT                   15 : FEET ABOVE PERMANENT DATUM
DMF .                     KB : DRILLING MEASURED FROM
EKB .FT               2414.7 : KELLY BUSHING
EGL .FT               2399.7 : GROUND LEVEL
DATE.               08/15/67 : RUN DATE
RUN .                      1 : RUN NUMBER
DD  .FT                11172 : DEPTH DRILLER
DL  .FT                11160 : DEPTH LOGGER
BLI .FT                11156 : BOTTOM LOG INTERVAL
TLI .FT                 1144 : TOP LOG INTERVAL
CS  .IN                9.625 : CASING SIZE
CBD .FT                 1145 : CASING BOTTOM DRILLER
CBL .FT                 1144 : CASING BOTTOM LOGGER
BS  .IN                7.625 : BIT SIZE
BSD .FT                11172 : BIT SIZE AT DEPTH
DFT .                MUD GEL : DRILLING FLUID TYPE
DFD .                    9.9 : DRILLING FLUID DENSITY
DFV .                     89 : DRILLING FLUID VISCOSITY
DFPH.                      9 : DRILLING FLUID PH
DFL .                    7.2 : DRILLING FLUID LOSS
MSS .                   CIRC : MUD SAMPLE SOURCE
RMS .OHMM                3.0 : RESISTIVITY MUD SAMPLE
MST .DEGF                 86 : MUD SAMPLE TEMPERATURE
RMF .OHMM                2.4 : RESISTIVITY MUD FILTRATE SAMPLE
MFST.DEGF                 86 : MUD FILTRATE SAMPLE TEMPERATURE
RMC .OHMM                3.2 : RESISTIVITY MUD CAKE
MCST.DEGF                 86 : MUD CAKE SAMPLE TEMPERATURE
MFSS.                   MEAS : MUD FILTRATE SAMPLE SOURCE
MCSS.                   MEAS : MUD CAKE SAMPLE SOURCE
RMB .OHMM                1.2 : RESISTIVITY MUD AT BHT
TCS .HRS                   6 : TIME CIRCULATED STOPPED
LUN .                   1256 : LOGGING UNIT NUMBER
LUL .                    EDM : LOGGING UNIT LOCATION
ENGI.      KOWALCHUK DOMSTAD : RECORDING ENGINEER
WITN.            DANIELEWICZ : WITNESSED BY
CLNT.                A2DTECH : CLIENT CODE
ORIG.            2" 5" PRINT : ORIGIN OF DATA
UWI .       100022706625W500 : UNIQUE WELL ID
DICO. A2D Technologies, Inc. : DIGITIZING COMPANY
~Other -----------------------------------------------------
~ASCII -----------------------------------------------------
# ...
 5830.32546    9.60020   87.27390   63.64180   14.39900   35.37060 -137.98190
 5830.82546    9.60960   86.92360   64.78560   14.19980   35.16540 -136.64830
 5831.32546    9.61530   85.79800   66.97530   13.79100   34.44190 -133.98030
 5831.82546    9.61540   85.82010   66.00000   13.58740   33.93470 -132.64640
 5832.32546    9.61530   85.93790   65.94520   13.17980   32.86730 -129.97850
 5832.82546    9.61540   85.63470   66.65670   12.97610   32.28030 -128.64460
 5833.32546    9.61530   85.01070   65.42930   12.56870   30.93370 -125.97670
 5833.82546    9.61530   84.81290   64.94930   12.36460   30.37560 -124.64950
 5834.32546    9.63570   84.87010   68.20900   11.95650   29.58460 -122.14190
 5834.82546    9.66100   85.25000   69.50500   11.53300   28.74900 -120.29900
 5835.32546    9.66460   84.92470   68.20680   11.42010   28.42010 -119.57480
 5835.82546    9.67600   84.17300   69.61700   11.16400   27.66900 -117.68500
 5836.32546    9.69770   83.87370   69.14140   11.05930   27.32280 -116.62110
 5836.82546    9.75600   84.65000   70.91400   10.79700   26.37400 -113.95900
 5837.32546    9.77760   84.42020   72.27940   10.69800   26.01660 -113.24300
 5837.82546    9.83100   83.68830   75.47900   10.45790   25.20960 -111.85770
 5838.32546    9.86810   83.26710   76.66200   10.33730   24.94940 -111.46280
 5838.82546    9.94810   82.65420   78.49020   10.09340   24.49610 -111.42790
 5839.32546    9.98860   82.42900   77.74100   10.07240   24.33080 -111.59300
 5839.82546   10.06840   82.01360   75.46760   10.13970   24.10820 -111.92110
 5840.32546   10.10910   82.25920   75.46190   10.18480   24.05000 -112.08240
 5840.82546   10.18040   82.13250   75.66670   10.27530   24.28100 -112.82000
 5841.32546   10.16550   81.96170   75.04770   10.32060   24.51520 -113.49000
 5841.82546   10.08800   83.00620   74.35540   10.41120   24.98330 -115.00680
 5842.32546   10.08530   84.14940   74.77110   10.45610   25.21530 -115.76690
 5842.82546   10.13140   85.65810   73.74080   10.54600   25.82110 -117.28650
 5843.32546   10.15710   85.53900   73.03430   10.59160   26.12570 -118.04700
 5843.82546   10.20230   84.59220   72.72360   10.68220   26.48490 -119.57060
 5844.32546   10.16100   83.35000   70.10300   10.82500   26.59700 -121.04900
 5844.82546   10.13440   83.22350   71.13150   10.79340   26.57800 -121.06860
 5845.32546   10.07700   84.36500   73.69100   10.72200   26.52100 -121.07000
 5845.82546   10.06740   83.87100   73.03960   10.69140   26.49340 -120.90050
 5846.32546   10.07900   81.25100   74.42300   10.61900   26.43100 -120.14500
 5846.82546   10.08870   79.99770   73.60930   10.58940   26.43500 -119.78110
 5847.32546   10.11300   79.15000   71.34500   10.51600   26.62200 -118.86600
 5847.82546   10.12270   79.97830   71.59190   10.48800   26.71770 -118.52340
 5848.32546   10.14550   81.27330   73.17050   10.42060   26.94880 -118.07000
 5848.82546   10.16520   81.23110   73.75710   10.38670   26.99780 -118.20310
 5849.32546   10.22290   82.61310   73.15960   10.31840   27.04130 -118.61800
 5849.82546   10.21300   81.90460   72.34480   10.28480   27.05840 -118.82710
 5850.32546   10.16130   82.63960   71.46590   10.21710   27.10510 -119.48550
 5850.82546   10.13610   83.37180   72.42890   10.18340   27.18500 -119.95290
 5851.32546   10.08400   83.27210   75.43400   10.15200   27.39640 -120.94510
 5851.82546   10.07400   83.67990   76.91290   10.17860   27.50270 -121.44190
 5852.32546   10.07400   85.27900   76.28090   10.26650   27.71530 -122.43530
 5852.82546   10.07400   85.35270   75.65680   10.31050   27.82160 -122.93200
 5853.32546   10.07400   84.74220   76.05270   10.39910   28.00100 -123.91980
 5853.82546   10.07780   84.99890   75.66110   10.44340   28.06360 -124.34080
 5854.32546   10.09230   86.31120   73.60160   10.53130   28.16460 -124.76580
 5854.82546   10.10800   86.55600   75.00900   10.62000   28.16900 -124.91400
 5855.32546   10.11490   86.23720   75.98570   10.66160   28.15200 -124.98840
 5855.82546   10.13400   85.08700   74.27600   10.75300   28.11500 -124.83600
 5856.32546   10.13880   84.76560   74.63570   10.77450   28.08090 -124.67080
 5856.82546   10.15800   85.65000   73.32900   10.69900   27.86100 -124.28100
 5857.32546   10.16650   85.22140   74.21070   10.64680   27.75270 -124.12340
 5857.82546   10.15300   85.16100   72.59800   10.51400   27.31000 -123.72600
 5858.32546   10.14120   85.81530   72.68210   10.46470   27.06910 -123.57660
 5858.82546   10.11490   86.18550   72.80330   10.34320   26.48710 -123.21390
 5859.32546   10.10040   86.57320   71.95850   10.28260   26.22950 -122.94780
 5859.82546   10.07760   86.95740   72.73700   10.16190   25.86000 -122.28310
 5860.32546   10.09200   86.52490   73.63610   10.10110   25.76850 -121.92560
 5860.82546   10.14240   85.94010   73.35760    9.97820   25.76540 -121.20930
 5861.32546   10.16910   86.21440   72.76910    9.94480   25.81180 -120.85070
 5861.82546   10.18300   86.04770   75.01110    9.99810   26.02760 -120.12980
 5862.32546   10.16690   85.55000   75.21030   10.06320   26.17680 -119.80030
 5862.82546   10.12350   84.62880   75.28030   10.19910   26.47650 -119.99320
 5863.32546   10.10800   84.41220   74.75170   10.26690   26.55610 -120.43250
 5863.82546   10.08630   84.71590   71.92350   10.40210   26.54650 -121.00440
 5864.32546   10.07480   85.08440   72.57940   10.47000   26.52480 -121.07270
 5864.82546   10.06630   85.85800   74.52360   10.60520   26.64610 -121.07990
 5865.32546   10.11800   86.64800   77.52500   10.72500   27.08900 -121.02300
 5865.82546   10.14940   87.01740   75.70910   10.88560   27.39260 -120.44410
 5866.32546   10.21900   87.15000   73.28400   11.31500   28.07300 -119.37600
 5866.82546   10.23210   86.13380   74.82200   11.51510   28.33450 -118.95900
 5867.32546   10.20000   82.83300   77.55200   11.98600   28.92400 -117.97600
 5867.82546   10.17630   84.10300   76.79450   12.17510   29.11990 -117.36020
 5868.32546   10.11500   86.81300   74.19000   12.65700   29.61900 -114.87100
 5868.82546   10.10590   86.00670   74.14740   12.83550   29.82040 -113.79190
 5869.32546   10.08530   84.32780   76.42540   13.28620   30.32670 -110.30830
 5869.82546   10.08700   84.70150   79.89830   13.36910   30.66630 -108.11730
 5870.32546   10.11700   87.20310   88.16850   13.36710   31.99950 -103.04480
 5870.82546   10.13800   87.13320   92.03370   13.33840   32.84990 -100.19340
 5871.32546   10.18470   88.81840   98.37290   13.62060   33.64490  -94.36820
 5871.82546   10.22670   89.80060  100.14940   13.89880   33.48000  -91.45950
 5872.32546   10.34660   91.37600  103.16410   14.47850   33.06860  -85.93620
 5872.82546   10.43220   92.52280  106.16220   14.76920   33.27650  -84.27640
 5873.32546   10.62570   92.53540  112.14890   15.34980   33.97730  -82.09710
 5873.82546   10.72440   91.33030  112.00850   15.63880   34.19550  -81.73940
 5874.32546   10.92110   90.62080  107.60830   16.20740   34.37090  -82.50010
 5874.82546   10.98560   89.90670  106.48380   16.52090   34.27000  -82.79940
 5875.32546   11.01440   84.50650  106.00150   17.19800   33.76010  -82.59800
 5875.82546   10.91200   81.65000  102.45100   17.87600   32.99200  -81.98200
 5876.32546   10.91640   81.82180  103.89770   18.07280   32.51160  -81.81020
 5876.82546   10.93800   77.35000  108.67700   17.07100   31.06000  -81.71700
 5877.32546   10.94390   78.97510  111.33120   16.40730   30.35720  -81.96310
 5877.82546   10.96600   81.85000  114.61000   14.84700   28.69400  -83.13900
 5878.32546   10.97780   80.94760  115.27660   14.33200   28.03640  -83.70110
 5878.82546   10.97000   78.45700  113.41800   13.54800   26.62700  -85.15100
 5879.32546   10.95780   77.68480  110.24580   13.67570   26.72510  -85.24690
 5879.82546   10.93350   79.40100  103.37230   13.97270   27.12540  -84.03880
 5880.32546   10.92650   79.20150  100.38700   13.88080   27.24590  -82.92350
 5880.82546   10.91710   82.82830   97.94820   13.51960   27.02170  -80.61370
 5881.32546   10.90760   87.20130   98.69080   13.61220   27.00500  -79.81410
