~Version ---------------------------------------------------
VERS.      2.0 : CWLS log ASCII Standard -VERSION 2.0
WRAP.       NO : One line per depth step
CREA. 09/11/14 : LAS Creation Date
~Well ------------------------------------------------------
STRT.M                         600.0 : START DEPTH
STOP.M                        4700.0 : STOP DEPTH
STEP.M                      50.00000 : STEP LENGTH
NULL.                        -999.25 : NULL VALUE
COMP.      GULF CANADA RESOURCES INC : COMPANY
WELL. GULF ET AL MITCHELL 3-26-49-20 : WELL
FLD .                                : FIELD
LOC .                                : LOCATION
CTRY.                         CANADA : COUNTRY
SRVC.                   Schlumberger : SERVICE COMPANY
DATE.                    19-Feb-1984 : LOGDATE
PROV.                        Alberta : PROVINCE
UWI .               100032604920W500 : UNIQUE WELL ID
SLAT.WGS84                  53.25412 : SURFACE LATITUDE
SLON.WGS84                 -116.8205 : SURFACE LONGITUDE
~Curve Information -----------------------------------------
DEPT    .M      : Depth Curve
C1ED    .MM     : CALIPER 1 FROM DENSITY LOG
C2ED    .MM     : CALIPER 2 FROM DENSITY LOG
CALDED  .MM     : CALIPER FROM DENSITY LOG
CALSED  .MM     : CALIPER FROM SONIC LOG
CALWS   .MM     : CALIPER [CALSED SPL. TO CALDED @ 4695.7 M]
CONDWS  .MMHO   : CONDUCTIVITY [1000/DRESWS]
DCORWS  .KG/M3  : DENSITY CORRECTION [DRHOED]
DENWS   .KG/M3  : FORMATION BULK DENSITY [CALC. FROM DPOLSWS,M=2710,F=1000]
DPHILSED.V/V    : DENSITY POROSITY LIMESTONE [M=2710, F=1000] FROM DENSITY LOG
DPHISSED.V/V    : DENSITY POROSITY SANDSTONE [M=2650, F=1000] FROM DENSITY LOG
DPOLSWS .V/V    : DENSITY POROSITY LIMESTONE [DPHISSED CONVERTED TO LIMSTONE MATRIX,M=2710,F=1000 & SPL. TO DPHILSED @ 3525 M]
DRESWS  .OHMM   : DEEP RESISTIVITY [ILDED]
DRHOED  .KG/M3  : BULK DENSITY CORRECTION FROM DENSITY LOG
DTED    .US/M   : DELTA-T FROM SONIC LOG
DTWS    .US/M   : COMPRESSIONAL SONIC [DTED]
GRDED   .GAPI   : GAMMA RAY FROM DENSITY LOG
GRSED   .GAPI   : GAMMA RAY FROM SONIC LOG
GRWS    .GAPI   : GAMMA RAY [GRSED SPL. TO GRDED @ 4691.3 M &  GRWS IN CSG @ (3107.98 M-3127 M) +15 GAPI ]
ILDED   .OHMM   : DEEP INDUCTION RESISTIVITY FROM RESISTIVITY LOG
ILMED   .OHMM   : MEDIUM INDUCTION RESISTIVITY FROM RESISTIVITY LOG
MRESWS  .OHMM   : MEDIUM RESISTIVITY [ILMED]
NPHILSED.V/V    : NEUTRON POROSITY LIMESTONE FROM DENSITY LOG
NPHISSED.V/V    : NEUTRON POROSITY SANDSTONE FROM DENSITY LOG
NPOLSWS .V/V    : NEUTRON POROSITY LIMESTONE [NPHISSED CONVERSION FOR LIMESTONE MATRIX,SPL. TO NPHILSED @ 3525.4 M]
RHOBED  .KG/M3  : BULK DENSITY FROM DENSITY LOG
SFLUED  .OHMM   : SHALLOW FOCUSED RESISTIVITY FROM RESISTIVITY LOG
SPRED   .MV     : SPONTANEOUS POTENTIAL FROM RESISTIVITY LOG
SPWS    .MV     : SPONTANEOUS POTENTIAL [BASELINE 0 MV,SPRED]
SRESWS  .OHMM   : SHALLOW RESISTIVITY [SFLUED]
TENDED  .N      : TENSION [KG*9.80665002864] FROM DENSITY LOG
TENSED  .N      : TENSION [KG*9.80665002864] FROM SONIC LOG
~Params ----------------------------------------------------
PD  .                         GL : PERMANENT DATUM
EPD .M                      1136 : ELEVATION PERMANENT DATUM
LMF .                         KB : LOG MEASURED FROM
DAPD.M                      7.65 : FEET ABOVE PERMANENT DATUM
DMF .                         KB : DRILLING MEASURED FROM
EKB .M                   1144.35 : KELLY BUSHING
EGL .M                    1136.7 : GROUND LEVEL
DATE.                   02/19/84 : RUN DATE
RUN .                          2 : RUN NUMBER
DD  .M                      4712 : DEPTH DRILLER
DL  .M                      4718 : DEPTH LOGGER
BLI .M                      4717 : BOTTOM LOG INTERVAL
TLI .M                      3127 : TOP LOG INTERVAL
CS  .MM                      244 : CASING SIZE
CBD .M                      3120 : CASING BOTTOM DRILLER
CBL .M                      3127 : CASING BOTTOM LOGGER
BS  .MM                      216 : BIT SIZE
BSD .M                      4712 : BIT SIZE AT DEPTH
DFT .                   GEL CHEM : DRILLING FLUID TYPE
DFD .                       1185 : DRILLING FLUID DENSITY
DFV .                        180 : DRILLING FLUID VISCOSITY
DFPH.                         11 : DRILLING FLUID PH
DFL .                        8.8 : DRILLING FLUID LOSS
MSS .                   FLOWLINE : MUD SAMPLE SOURCE
RMS .OHMM                    1.1 : RESISTIVITY MUD SAMPLE
MST .DEGC                     24 : MUD SAMPLE TEMPERATURE
RMF .OHMM                   0.81 : RESISTIVITY MUD FILTRATE SAMPLE
MFST.DEGC                     22 : MUD FILTRATE SAMPLE TEMPERATURE
RMC .OHMM                  0.236 : RESISTIVITY MUD CAKE
MCST.DEGC                     28 : MUD CAKE SAMPLE TEMPERATURE
MFSS.                      PRESS : MUD FILTRATE SAMPLE SOURCE
MCSS.                      PRESS : MUD CAKE SAMPLE SOURCE
RMB .OHMM                  0.335 : RESISTIVITY MUD AT BHT
TCS .HRS                    2315 : TIME CIRCULATED STOPPED
TLAB.HRS                    2100 : TIME LOGGER AT BOTTOM
LUN .                       8210 : LOGGING UNIT NUMBER
LUL .                        EDM : LOGGING UNIT LOCATION
ENGI.                   ACKERMAN : RECORDING ENGINEER
WITN.                   STEPHENS : WITNESSED BY
CLNT.                    A2DTECH : CLIENT CODE
ORIG. 6.5"/100M 16.5"/100M PRINT : ORIGIN OF DATA
UWI .           100032604920W500 : UNIQUE WELL ID
DICO.     A2D Technologies, Inc. : DIGITIZING COMPANY
~Other -----------------------------------------------------
~ASCII -----------------------------------------------------
  600.00000    -999.25    -999.25    -999.25    -999.25    -999.25    -999.25    -999.25    -999.25    -999.25    -999.25    -999.25    -999.25    -999.25    -999.25    -999.25    -999.25   30.89590   30.89590    -999.25    -999.25    -999.25    -999.25    -999.25    -999.25    -999.25    -999.25    -999.25    -999.25    -999.25    -999.25    -999.25
  650.00000  391.26830  352.17450    -999.25  375.54930  375.54930   85.21880   13.64810 1683.76000    -999.25    0.58560    0.60010   11.73450   13.64810  395.66970  395.66970   62.26570   80.47940   80.47940   11.73450    6.74360    6.74360    -999.25    0.58880    0.56410 1692.33420   21.09630  -15.99130   -2.17210   21.09630    -999.25    -999.25
  700.00000  413.51220  330.14550    -999.25  370.71520  370.71520   45.04480   11.31470 1519.09000    -999.25    0.68540    0.69640   22.20010   11.31470  373.10360  373.10360   45.49720   68.52360   68.52360   22.20010   16.20500   16.20500    -999.25    0.66710    0.64980 1545.28610   26.27770  -38.19460  -21.31790   26.27770    -999.25    -999.25
  750.00000  357.42560  312.35950    -999.25  347.54250  347.54250   37.88740   34.36780 2381.54500    -999.25    0.16270    0.19210   26.39400   34.36780  252.76050  252.76050   52.96120   56.35880   56.35880   26.39400   24.96490   24.96490    -999.25    0.39800    0.35280 2386.41600   30.90020  -49.36720  -29.43300   30.90020    -999.25    -999.25
  800.00000  473.42740  337.20040    -999.25  349.63240  349.63240  316.68620    5.84920 1602.25000    -999.25    0.63500    0.64780    3.15770    5.84920  396.31300  396.31300   85.79690  105.54630  105.54630    3.15770    2.72240    2.72240    -999.25    0.56310    0.53580 1611.95920    3.30660  -30.68040  -10.44450    3.30660    -999.25    -999.25
  850.00000  402.99290  316.72840    -999.25  342.35110  342.35110   88.03750  137.12360 1913.93500    -999.25    0.44610    0.46550   11.35880  137.12360  267.24980  267.24980   69.10640   64.57560   64.57560   11.35880    9.59810    9.59810    -999.25    0.48530    0.44950 1913.56180    8.24400  -36.03020  -15.94120    8.24400    -999.25    -999.25
  900.00000  350.89470  302.72350    -999.25  344.28590  344.28590  176.67840   52.78710 2343.43000    -999.25    0.18580    0.21440    5.66000   52.78710  343.62410  343.62410   72.15640   82.21120   82.21120    5.66000    4.72340    4.72340    -999.25    0.47030    0.43280 2325.31640    4.79560  -33.02090  -13.07880    4.79560    -999.25    -999.25
  950.00000  377.40070  305.95500    -999.25  323.17650  323.17650  186.66120   30.66560 2449.52500    -999.25    0.12150    0.15230    5.35730   30.66560  274.96660  274.96660   81.94060   88.11260   88.11260    5.35730    4.72250    4.72250    -999.25    0.41580    0.37220 2452.57030    6.71670  -29.12330   -9.32810    6.71670    -999.25    -999.25
 1000.00000  345.56430  307.32420    -999.25  348.84520  348.84520   37.19860   43.78920 2447.71000    -999.25    0.12260    0.15340   26.88270   43.78920  242.33320  242.33320   51.30350   53.47570   53.47570   26.88270   24.17060   24.17060    -999.25    0.23820    0.18570 2453.44530   21.32970  -33.47680  -13.33350   21.32970    -999.25    -999.25
 1050.00000  337.65580  319.15510    -999.25  354.49730  354.49730   94.11410   30.91340 2437.81000    -999.25    0.12860    0.15920   10.62540   30.91340  278.76980  278.76980   91.66360   71.64280   71.64280   10.62540    9.56860    9.56860    -999.25    0.34150    0.29210 2446.11160   10.91870  -36.41470  -15.54690   10.91870    -999.25    -999.25
 1100.00000  329.93700  302.05980    -999.25  352.13060  352.13060  106.79650   76.81030 2337.82000    -999.25    0.18920    0.21760    9.36360   76.81030  253.50370  253.50370  100.19450  108.37120  108.37120    9.36360    8.57050    8.57050    -999.25    0.33550    0.28580 2365.40580    9.95460  -35.79940  -14.20710    9.95460    -999.25    -999.25
 1150.00000  457.91120  267.02160    -999.25  357.04720  357.04720  101.19920   95.32400 2211.26500    -999.25    0.26590    0.29170    9.88150   95.32400  272.51150  272.51150   66.30670   76.36040   76.36040    9.88150    8.45600    8.45600    -999.25    0.35080    0.30200 2208.12920   12.12960  -27.74970   -5.43300   12.12960    -999.25    -999.25
 1200.00000  404.20000  289.14510    -999.25  350.90430  350.90430   47.05510   53.88040 2457.11500    -999.25    0.11690    0.14790   21.25170   53.88040  240.47220  240.47220   69.96240   67.52090   67.52090   21.25170   19.97630   19.97630    -999.25    0.27240    0.22000 2457.13920   18.42030  -38.80500  -16.46560   18.42030    -999.25    -999.25
 1250.00000  319.19120  291.92350    -999.25  311.70880  311.70880   24.14460   66.59380 2393.59000    -999.25    0.15540    0.18500   41.41720   66.59380  245.64940  245.64940   64.43570   67.44170   67.44170   41.41720   38.77080   38.77080    -999.25    0.28870    0.23690 2395.16600   42.39080  -66.32790  -45.36510   42.39080    -999.25    -999.25
 1300.00000  321.27600  309.99660    -999.25  318.14440  318.14440   33.51960  128.74180 2389.13500    -999.25    0.15810    0.18760   29.83330  128.74180  225.54910  225.54910   58.04000   54.13590   54.13590   29.83330   27.37430   27.37430    -999.25    0.30500    0.25380 2428.40550   30.28230  -36.89950  -17.31340   30.28230    -999.25    -999.25
 1350.00000  355.77250  273.36120    -999.25  337.08130  337.08130  117.43710   64.42590 2335.34500    -999.25    0.19070    0.21910    8.51520   64.42590  287.83680  287.83680   86.32990   93.59070   93.59070    8.51520    7.99940    7.99940    -999.25    0.36970    0.32220 2345.47460    9.24390  -20.64180   -2.43240    9.24390    -999.25    -999.25
 1400.00000  347.17340  321.14320    -999.25  333.17650  333.17650  177.42770  114.01810 2083.72000    -999.25    0.34320    0.36620    5.63610  114.01810  296.04480  296.04480   93.23100   98.40580   98.40580    5.63610    5.29190    5.29190    -999.25    0.44470    0.40420 2102.84810    6.36750  -26.78160   -9.42090    6.36750    -999.25    -999.25
 1450.00000  385.07070  308.56850    -999.25  329.91200  329.91200  122.81840  138.25180 2029.10500    -999.25    0.37630    0.39820    8.14210  138.25180  262.56910  262.56910   73.57340   72.14000   72.14000    8.14210    7.38210    7.38210    -999.25    0.36650    0.31880 2117.99780    9.38370  -21.16880   -3.09520    9.38370    -999.25    -999.25
 1500.00000  334.36920  314.22580    -999.25  316.53740  316.53740   16.52940   63.65820 2169.35500    -999.25    0.29130    0.31620   60.49810   63.65820  216.53940  216.53940   44.54080   43.97150   43.97150   60.49810   50.62040   50.62040    -999.25    0.29750    0.24600 2162.42630   47.59350  -41.65970  -22.87310   47.59350    -999.25    -999.25
 1550.00000  374.78600  318.40390    -999.25  328.91960  328.91960  104.73070  185.19310 2201.36500    -999.25    0.27190    0.29740    9.54830  185.19310  257.98300  257.98300   81.29310   79.96100   79.96100    9.54830    8.97840    8.97840    -999.25    0.40300    0.35820 2148.05810    8.91050  -23.39940   -5.22490    8.91050    -999.25    -999.25
 1600.00000  345.38200  327.58070    -999.25  342.86700  342.86700  101.50430  158.31930 2190.64000    -999.25    0.27840    0.30370    9.85180  158.31930  252.79410  252.79410   95.48350  109.56620  109.56620    9.85180    8.63600    8.63600    -999.25    0.39350    0.34790 2180.34620    7.91670  -24.68320   -7.52730    7.91670    -999.25    -999.25
 1650.00000  354.70250  348.53630    -999.25  349.23770  349.23770   84.75010  153.00800 2148.56500    -999.25    0.30390    0.32830   11.79940  153.00800  258.82420  258.82420   90.11710   96.85520   96.85520   11.79940   11.35480   11.35480    -999.25    0.43140    0.38940 2158.18970   10.76420  -24.14590   -8.00850   10.76420    -999.25    -999.25
 1700.00000  341.72900  318.47630    -999.25  324.63040  324.63040  114.36410  125.28100 1993.79500    -999.25    0.39770    0.41880    8.74400  125.28100  245.96130  245.96130   95.09990   97.55460   97.55460    8.74400    8.10480    8.10480    -999.25    0.41920    0.37600 2044.47180   11.76180  -23.24140   -8.12260   11.76180    -999.25    -999.25
