~Version ---------------------------------------------------
VERS.      2.0 : CWLS log ASCII Standard -VERSION 2.0
WRAP.       NO : One line per depth step
CREA. 08/17/13 : LAS Creation Date
~Well ------------------------------------------------------
STRT.M                        400.0 : START DEPTH
STOP.M                       2850.0 : STOP DEPTH
STEP.M                     50.00000 : STEP LENGTH
NULL.                       -999.25 : NULL VALUE
COMP.        DOME PETROLEUM LIMITED : COMPANY
WELL. DOME ET AL MEEKWAP 9-29-65-15 : WELL
FLD .                               : FIELD
LOC .                               : LOCATION
CTRY.                        CANADA : COUNTRY
SRVC.                       Unknown : SERVICE COMPANY
DATE.                   31-Mar-1984 : LOGDATE
PROV.                       Alberta : PROVINCE
UWI .              100092906515W500 : UNIQUE WELL ID
SLAT.WGS84                 54.65763 : SURFACE LATITUDE
SLON.WGS84                -116.2239 : SURFACE LONGITUDE
~Curve Information -----------------------------------------
DEPT    .M      : DEPTH METER
CALDED  .MM     : CALIPER FROM DENSITY LOG [ADJ. TO RESISTIVITY LOG]
CALSED  .MM     : CALIPER FROM SONIC LOG
CALWS   .MM     : CALIPER [CALDED]
CONDWS  .MMHO   : CONDUCTIVITY [1000/DRESWS]
DCORWS  .KG/M3  : DENSITY CORRECTION [DRHOED]
DENWS   .KG/M3  : FORMATION BULK DENSITY [CALC FROM DPOLSWS, M=2710,F=1000]
DPHILSED.V/V    : DENSITY POROSITY LIMESTONE [M=2710,F=1000] FROM DENSITY LOG [ADJ. TO RESISTIVITY LOG]
DPHISSED.V/V    : DENSITY POROSITY SANDSTONE [M=2650,F=1000] FROM DENSITY LOG [ADJ. TO RESISTIVITY LOG]
DPOLSWS .V/V    : DENSITY POROSITY LIMESTONE [DPHISSED MATRIX CONVERTED TO LS & SPL. TO DPHILSED @ 1675M]
DRESWS  .OHMM   : DEEP RESISTIVITY [ILDED]
DRHOED  .KG/M3  : DENSITY CORRECTION FROM DENSITY LOG [ADJ. TO RESISTIVITY LOG]
DTED    .US/M   : DELTA TIME FROM SONIC LOG
DTWS    .US/M   : COMPRESSIONAL SONIC [DTED]
GRDED   .GAPI   : GAMMA RAY FROM DENSITY LOG [ADJ. TO RESISTIVITY LOG]
GRRED   .GAPI   : GAMMA RAY FROM RESISTIVITY LOG
GRWS    .GAPI   : GAMMA RAY [GRRED SPL. TO GRDED @ 2868M]
ILDED   .OHMM   : DEEP INDUCTION RESISTIVITY FROM RESISTIVITY LOG
ILMED   .OHMM   : MEDIUM INDUCTION RESISTIVITY FROM RESISTIVITY LOG
MRESWS  .OHMM   : MEDIUM RESISTIVITY [ILMED]
NPHILSED.V/V    : NEUTRON POROSITY LIMESTONE FROM DENSITY LOG [ADJ. TO RESISTIVITY LOG]
NPHISSED.V/V    : NEUTRON POROSITY SANDSTONE FROM DENSITY LOG [ADJ. TO RESISTIVITY LOG]
NPOLSWS .V/V    : NEUTRON POROSITY LIMESTONE [NPHISSED MATRIX CONVERTED TO LS & SPL. TO NPHILSED @ 1675M]
RHOBED  .KG/M3  : BULK DENSITY FROM DENSITY LOG [ADJ. TO RESISTIVITY LOG]
SFLUED  .OHMM   : SPHERICALLY FOCUSED LOG RESISTIVITY FROM RESISTIVITY LOG
SPRED   .MV     : SPONTANEOUS POTENTIAL FROM RESISTIVITY LOG
SPWS    .MV     : SPONTANEOUS POTENTIAL [BASELINE 0 MV, SPRED]
SRESWS  .OHMM   : SHALLOW RESISTIVITY [SFLUED]
TENDED  .N      : TENSION FROM DENSITY LOG [ADJ. TO RESISTIVITY LOG]
TENRED  .N      : TENSION FROM RESISTIVITY LOG
~Params ----------------------------------------------------
PD  .                         GL : PERMANENT DATUM
EPD .M                    939.22 : ELEVATION PERMANENT DATUM
LMF .                         KB : LOG MEASURED FROM
DAPD.M                      6.78 : FEET ABOVE PERMANENT DATUM
DMF .                         KB : DRILLING MEASURED FROM
EKB .M                       946 : KELLY BUSHING
EDF .M                     945.7 : DRILLING FLOOR
EGL .M                    939.22 : GROUND LEVEL
DATE.                   03/31/84 : RUN DATE
RUN .                          1 : RUN NUMBER
DD  .M                      2890 : DEPTH DRILLER
DL  .M                      2889 : DEPTH LOGGER
BLI .M                      2890 : BOTTOM LOG INTERVAL
TLI .M                       423 : TOP LOG INTERVAL
CS  .MM                      244 : CASING SIZE
CBD .M                       423 : CASING BOTTOM DRILLER
CBL .M                       423 : CASING BOTTOM LOGGER
BS  .MM                      222 : BIT SIZE
BSD .M                      2890 : BIT SIZE AT DEPTH
DFT .                   GEL CHEM : DRILLING FLUID TYPE
DFD .                       1100 : DRILLING FLUID DENSITY
DFV .                         80 : DRILLING FLUID VISCOSITY
DFPH.                       10.5 : DRILLING FLUID PH
DFL .                        8.5 : DRILLING FLUID LOSS
MSS .                   FLOWLINE : MUD SAMPLE SOURCE
RMS .OHMM                   1.67 : RESISTIVITY MUD SAMPLE
MST .DEGC                     19 : MUD SAMPLE TEMPERATURE
RMF .OHMM                   1.43 : RESISTIVITY MUD FILTRATE SAMPLE
MFST.DEGC                     21 : MUD FILTRATE SAMPLE TEMPERATURE
RMC .OHMM                  0.481 : RESISTIVITY MUD CAKE
MCST.DEGC                    105 : MUD CAKE SAMPLE TEMPERATURE
MFSS.                      PRESS : MUD FILTRATE SAMPLE SOURCE
MCSS.                      PRESS : MUD CAKE SAMPLE SOURCE
RMB .OHMM                  0.536 : RESISTIVITY MUD AT BHT
TCS .HRS                    1300 : TIME CIRCULATED STOPPED
TLAB.HRS                    1800 : TIME LOGGER AT BOTTOM
LUN .                       8163 : LOGGING UNIT NUMBER
LUL .                        EDM : LOGGING UNIT LOCATION
ENGI.                     SMILEY : RECORDING ENGINEER
WITN.                       BOYD : WITNESSED BY
CLNT.                    A2DTECH : CLIENT CODE
ORIG. 6.5"/100M 16.5"/100M PRINT : ORIGIN OF DATA
UWI .           100092906515W500 : UNIQUE WELL ID
DICO.     A2D Technologies, Inc. : DIGITIZING COMPANY
~Other -----------------------------------------------------
DIL-SFL-BHC RUN IN COMBO & CNL-FDC LOG RUN
RHOB FROM SMALL SCALE LOG
NEUTRON CONVERSION: SCHLUMBERGER, CNL(NPHI)
~ASCII -----------------------------------------------------
# ...
 1650.00000  365.92720  317.28570  365.92720  187.52930  205.16160 2125.63000    -999.25    0.31780    0.34170    5.33250  205.16160  301.97930  301.97930   87.31530   86.59300   86.59300    5.33250    5.02620    5.02620    -999.25    0.46010    0.41840 2142.02030    6.27150  -52.14710  -11.55740    6.27150 99559.55340 102955.76250
 1700.00000  237.86830  227.47580  237.86830    4.19970  141.90810 2599.19200    0.06480    -999.25    0.06480  238.10970  141.90810  198.49540  198.49540   65.79810   64.53110   64.53110  238.10970  351.47200  351.47200    0.08670    -999.25    0.08670 2591.56540 1353.70290  -78.69560  -40.61920 1353.70290 98901.29760 103723.16030
 1750.00000  283.88800  255.73810  283.88800    5.15020  190.27420 2710.51300   -0.00030    -999.25   -0.00030  194.16900  190.27420  165.04170  165.04170   20.16320   21.17520   21.17520  194.16900  238.01070  238.01070    0.00380    -999.25    0.00380 2710.41040 1978.43430  -72.85080  -34.84450 1978.43430 102133.59160 109039.26500
 1800.00000  248.93530  244.89720  248.93530   29.87940    4.33150 2598.50800    0.06520    -999.25    0.06520   33.46790    4.33150  178.31660  178.31660   11.04980   12.02990   12.02990   33.46790   35.18680   35.18680    0.05250    -999.25    0.05250 2604.12300  102.02560 -135.61200  -96.89890  102.02560 102083.66810 110090.58650
 1850.00000  273.93760  269.15970  273.93760  138.25710   24.18830 2645.36200    0.03780    -999.25    0.03780    7.23290   24.18830  209.24250  209.24250   75.78590   71.80350   71.80350    7.23290    7.46450    7.46450    0.10670    -999.25    0.10670 2643.55620    8.45580  -58.98360  -16.81580    8.45580 105069.75720 111344.90700
 1900.00000  287.67000  268.98540  287.67000   18.91190    0.42130 2665.54000    0.02600    -999.25    0.02600   52.87680    0.42130  178.32150  178.32150   25.64180   27.35360   27.35360   52.87680   59.64880   59.64880    0.01760    -999.25    0.01760 2668.11110  186.51600  -90.24300  -59.32710  186.51600 106378.69810 113548.24130
 1950.00000  298.59010  269.22870  298.59010   14.79700   35.56920 2711.19700   -0.00070    -999.25   -0.00070   67.58140   35.56920  179.64330  179.64330   25.24790   24.19040   24.19040   67.58140   63.86020   63.86020    0.01580    -999.25    0.01580 2710.89940  124.99050  -63.06910  -43.40520  124.99050 110848.46480 116349.39160
 2000.00000  234.09610  234.18310  234.09610   16.55750   15.19670 2671.35400    0.02260    -999.25    0.02260   60.39570   15.19670  177.10900  177.10900   27.43350   27.41390   27.41390   60.39570   58.73430   58.73430    0.01810    -999.25    0.01810 2683.75150  127.13080  -42.56380  -34.15190  127.13080 112217.88150 116700.20330
 2050.00000  262.30730  262.24970  262.30730    3.22570   -2.20340 2698.88500    0.00650    -999.25    0.00650  310.01320   -2.20340  162.44240  162.44240   14.20630   14.82690   14.82690  310.01320  277.63960  277.63960    0.00040    -999.25    0.00040 2706.09960 1838.37600  -23.02510  -25.86510 1838.37600 113661.75690 119019.54090
 2100.00000  266.56930  249.05320  266.56930    3.47690   11.34420 2712.05200   -0.00120    -999.25   -0.00120  287.61560   11.34420  161.00450  161.00450   15.08080   13.34910   13.34910  287.61560  328.86620  328.86620    0.00140    -999.25    0.00140 2711.42850 1915.82690  -83.50480  -95.28800 1915.82690 117720.50560 122378.12100
 2150.00000  294.92550  285.10220  294.92550    8.12900  113.76520 2577.30400    0.07760    -999.25    0.07760  123.01630  113.76520  165.34120  165.34120   12.65230   12.30910   12.30910  123.01630  178.65400  178.65400    0.01190    -999.25    0.01190 2571.59300 2043.91220 -204.31280 -224.96400 2043.91220 117161.67480 123399.35730
 2200.00000  245.69160  246.44900  245.69160    8.05590   -1.59040 2681.44300    0.01670    -999.25    0.01670  124.13210   -1.59040  162.92840  162.92840   12.27030   11.41600   11.41600  124.13210   98.92200   98.92200    0.00370    -999.25    0.00370 2683.41210  149.00790  -47.76250  -77.28190  149.00790 119859.55630 126569.55000
 2250.00000  241.73410  235.17680  241.73410    7.89730   93.74880 2729.66500   -0.01150    -999.25   -0.01150  126.62590   93.74880  158.70320  158.70320   14.67850   14.56190   14.56190  126.62590  247.40610  247.40610    0.00470    -999.25    0.00470 2727.81690  746.67480 -191.46080 -229.84810  746.67480 120453.31300 127554.90860
 2300.00000  250.06330  231.29570  250.06330   11.76900  188.94410 2720.94400   -0.00640    -999.25   -0.00640   84.96880  188.94410  161.27000  161.27000   23.39170   25.66530   25.66530   84.96880   91.94850   91.94850    0.07550    -999.25    0.07550 2704.47390  189.84330 -230.81310 -278.06850  189.84330 124964.30100 131851.72570
 2350.00000  289.48920  255.91530  289.48920   30.10270   20.54390 2693.92600    0.00940    -999.25    0.00940   33.21960   20.54390  180.18770  180.18770   45.13680   40.54280   40.54280   33.21960   34.44290   34.44290    0.02610    -999.25    0.02610 2693.81640   47.39210 -116.65030 -172.77380   47.39210 126039.82550 131190.69490
 2400.00000  231.71450  229.05780  231.71450   72.37200   20.36620 2691.53200    0.01080    -999.25    0.01080   13.81750   20.36620  198.38980  198.38980   48.39180   41.83830   41.83830   13.81750   14.95880   14.95880    0.08950    -999.25    0.08950 2700.87920   17.93250   54.30590  -14.30840   17.93250 128140.62750 135026.22010
 2450.00000  280.51780  239.89860  280.51780  158.89660  250.58020 2587.73500    0.07150    -999.25    0.07150    6.29340  250.58020  230.54500  230.54500   74.62160   70.57230   70.57230    6.29340    6.77370    6.77370    0.18780    -999.25    0.18780 2586.50710    7.78310   66.32110  -48.89770    7.78310 133057.33510 136354.99930
 2500.00000  355.64010  276.66380  355.64010  251.43320  130.36900 1996.24600    0.41740    -999.25    0.41740    3.97720  130.36900  261.20620  261.20620   89.98180   87.58630   87.58630    3.97720    3.67860    3.67860    0.35810    -999.25    0.35810 2004.45790    4.49650  156.75250   -2.34060    4.49650 131351.60140 137012.69830
 2550.00000  227.88450  221.24730  227.88450  108.88030   35.46300 2669.64400    0.02360    -999.25    0.02360    9.18440   35.46300  213.17740  213.17740   62.02540   61.26260   61.26260    9.18440   10.17370   10.17370    0.13290    -999.25    0.13290 2678.17720   13.58770 -210.49620 -328.87080   13.58770 136187.72550 140869.87600
 2600.00000  244.82930  223.69380  244.82930  107.50490  251.18900 2653.39900    0.03310    -999.25    0.03310    9.30190  251.18900  219.17930  219.17930   89.55750   82.84000   82.84000    9.30190   10.05610   10.05610    0.14150    -999.25    0.14150 2648.53340   14.75960 -100.36920 -178.90500   14.75960 139797.80910 144260.26560
 2650.00000  269.51700  236.28200  269.51700   81.68200  215.51930 2654.76700    0.03230    -999.25    0.03230   12.24260  215.51930  236.96160  236.96160   95.21130   80.56240   80.56240   12.24260   10.71860   10.71860    0.21600    -999.25    0.21600 2641.40260   17.48660  -49.41050  -88.10740   17.48660 143277.34080 142871.46860
 2700.00000  232.11790  224.22620  232.11790  109.94810  161.07920 2610.64900    0.05810    -999.25    0.05810    9.09520  161.07920  229.56760  229.56760   65.29520   60.94210   60.94210    9.09520    9.91250    9.91250    0.16460    -999.25    0.16460 2633.21090   12.62880  -46.44340  -54.32010   12.62880 142745.93690 148740.66550
 2750.00000  236.57810  226.05830  236.57810   37.30360   22.26330 2714.44600   -0.00260    -999.25   -0.00260   26.80710   22.26330  182.08140  182.08140   43.12460   42.02220   42.02220   26.80710   32.70980   32.70980    0.05610    -999.25    0.05610 2711.60910   47.47960  -39.43700  -46.78830   47.47960 143740.34800 150189.40840
 2800.00000  229.85170  217.26250  229.85170   37.46130   26.13790 2711.36800   -0.00080    -999.25   -0.00080   26.69420   26.13790  193.77840  193.77840   50.44680   47.95280   47.95280   26.69420   27.84480   27.84480    0.09020    -999.25    0.09020 2714.91500   34.21640  -64.67210  -31.26030   34.21640 144773.93270 152516.81060
