~Version ---------------------------------------------------
VERS.      2.0 : CWLS log ASCII Standard -VERSION 2.0
WRAP.       NO : One line per depth step
CREA. 12/20/12 : LAS Creation Date
~Well ------------------------------------------------------
STRT.M                          450.0 : START DEPTH
STOP.M                         3100.0 : STOP DEPTH
STEP.M                       50.00000 : STEP LENGTH
NULL.                         -999.25 : NULL VALUE
COMP.     NORCEN ENERGY RESOURCES LTD : COMPANY
WELL. NORCEN ET AL STURLS 16-14-68-21 : WELL
FLD .                                 : FIELD
LOC .                                 : LOCATION
CTRY.                          CANADA : COUNTRY
SRVC.                    Schlumberger : SERVICE COMPANY
DATE.                     30-Aug-1985 : LOGDATE
PROV.                         Alberta : PROVINCE
UWI .                100161406821W500 : UNIQUE WELL ID
SLAT.WGS84                   54.89229 : SURFACE LATITUDE
SLON.WGS84                  -117.0813 : SURFACE LONGITUDE
~Curve Information -----------------------------------------
DEPT    .M      : DEPTH METER
CALDED  .MM     : CALIPER FROM CNFD LOG
CALSED  .MM     : CALIPER FROM BCS LOG [ADJ.TO GRDED]
CALWS   .MM     : CALIPER [CALDED]
CONDWS  .MMHO   : CONDUCTIVITY [1000/DRESWS]
DCORWS  .KG/M3  : DENSITY CORRECTION [DRHOED]
DENWS   .KG/M3  : FORMATION BULK DENSITY [RHOBED]
DPHILSED.V/V    : DENSITY POROSITY LIMESTONE [M=2.71, F=1] FROM CNFD LOG
DPHISSED.V/V    : DENSITY POROSITY SANDSTONE [M=2.65, F=1] FROM CNFD LOG
DPOLSWS .V/V    : DENSITY POROSITY LIMESTONE [CALCULATED FROM DENWS, M=2.71, F=1.0]
DRESWS  .OHMM   : DEEP RESISTIVITY [ILDED]
DRHOED  .KG/M3  : DENSITY CORRECTION FROM CNFD LOG
DTED    .US/M   : DELTA-T FROM BCS LOG [ADJ.TO GRDED]
DTWS    .US/M   : COMPRESSIONAL SONIC [DTED]
GRDED   .GAPI   : GAMMA RAY FROM CNFD LOG
GRSED   .GAPI   : GAMMA RAY FROM BCS LOG [ADJ.TO GRDED]
GRWS    .GAPI   : GAMMA RAY [GRSED]
ILDED   .OHMM   : DEEP INDUCTION FROM DIL-SFL LOG
ILMED   .OHMM   : MEDIUM INDUCTION FROM DIL-SFL LOG
MRESWS  .OHMM   : MEDIUM RESISTIVITY [ILMED]
NPHILSED.V/V    : NEUTRON POROSITY LIMESTONE FROM CNFD LOG
NPHISSED.V/V    : NEUTRON POROSITY SANDSTONE FROM CNFD LOG
NPOLSWS .V/V    : NEUTRON POROSITY LIMESTONE [NPHISSED CONVERTED TO LIMESTONE MATRIX & SPL. TO NPHILSED @ 1688.9M]
RHOBED  .KG/M3  : FORMATION BULK DENSITY FROM CNFD LOG
SFLUED  .OHMM   : SHALLOW FOCUSED FROM DIL-SFL LOG
SPRED   .MV     : SPONTANEOUS POTENTIAL FROM DIL-SFL LOG
SPWS    .MV     : SPONTANEOUS POTENTIAL [BASELINE 0 MV, SPRED]
SRESWS  .OHMM   : SHALLOW RESISTIVITY [SFLUED]
TENDED  .N      : TENSION FROM CNFD LOG
TENRED  .N      : TENSION FROM DIL-SFL LOG
TENSED  .N      : TENSION FROM BCS LOG [ADJ.TO GRDED]
~Params ----------------------------------------------------
PD  .                         GL : PERMANENT DATUM
EPD .M                     704.4 : ELEVATION PERMANENT DATUM
LMF .                         KB : LOG MEASURED FROM
DAPD.M                       6.4 : FEET ABOVE PERMANENT DATUM
DMF .                         KB : DRILLING MEASURED FROM
EKB .M                     710.8 : KELLY BUSHING
EDF .M                     710.4 : DRILLING FLOOR
EGL .M                     704.4 : GROUND LEVEL
DATE.                   08/30/85 : RUN DATE
RUN .                          1 : RUN NUMBER
DD  .M                      3145 : DEPTH DRILLER
DL  .M                      3149 : DEPTH LOGGER
BLI .M                      3148 : BOTTOM LOG INTERVAL
TLI .M                       447 : TOP LOG INTERVAL
CS  .MM                      245 : CASING SIZE
CBD .M                       447 : CASING BOTTOM DRILLER
CBL .M                       447 : CASING BOTTOM LOGGER
BS  .MM                      222 : BIT SIZE
BSD .M                      3145 : BIT SIZE AT DEPTH
DFT .                  FRESH GEL : DRILLING FLUID TYPE
DFD .                       1155 : DRILLING FLUID DENSITY
DFV .                         83 : DRILLING FLUID VISCOSITY
DFPH.                          9 : DRILLING FLUID PH
DFL .                          9 : DRILLING FLUID LOSS
MSS .                   FLOWLINE : MUD SAMPLE SOURCE
RMS .OHMM                   1.58 : RESISTIVITY MUD SAMPLE
MST .DEGC                     17 : MUD SAMPLE TEMPERATURE
RMF .OHMM                   1.22 : RESISTIVITY MUD FILTRATE SAMPLE
MFST.DEGC                     19 : MUD FILTRATE SAMPLE TEMPERATURE
RMC .OHMM                  0.436 : RESISTIVITY MUD CAKE
MCST.DEGC                     92 : MUD CAKE SAMPLE TEMPERATURE
MFSS.                       MEAS : MUD FILTRATE SAMPLE SOURCE
MCSS.                       MEAS : MUD CAKE SAMPLE SOURCE
RMB .OHMM                  0.537 : RESISTIVITY MUD AT BHT
TCS .HRS                    1930 : TIME CIRCULATED STOPPED
TLAB.HRS                     820 : TIME LOGGER AT BOTTOM
LUN .                       8370 : LOGGING UNIT NUMBER
LUL .                         GP : LOGGING UNIT LOCATION
ENGI.                     LOHNES : RECORDING ENGINEER
WITN.                    CROWDIS : WITNESSED BY
CLNT.                    A2DTECH : CLIENT CODE
ORIG. 6.5"/100M 16.5"/100M PRINT : ORIGIN OF DATA
UWI .           100161406821W500 : UNIQUE WELL ID
DICO.     A2D Technologies, Inc. : DIGITIZING COMPANY
~Other -----------------------------------------------------
~ASCII -----------------------------------------------------
  450.00000  269.89210  292.72430  269.89210  245.98430   82.93810 2024.58750    -999.25    0.39530    0.40080    4.06530   82.93810  411.61890  411.61890   55.53000   58.53260   58.53260    4.06530    3.40850    3.40850    -999.25    0.56740    0.52570 2024.58750    3.07560  -87.41920   -4.05240    3.07560 2093.38060 5336.84020 7242.64380
  500.00000  266.55390  274.16590  266.55390  227.64010   61.90650 2092.59080    -999.25    0.31780    0.36110    4.39290   61.90650  372.65920  372.65920   65.04230   55.51930   55.51930    4.39290    3.65260    3.65260    -999.25    0.49620    0.45450 2092.59080    3.83650  -89.33600   -5.13720    3.83650 2115.10280 5570.22410 7317.59010
  550.00000  229.34690  250.38950  229.34690  191.49020    5.92000 2254.55860    -999.25    0.23920    0.26630    5.22220    5.92000  368.60150  368.60150   52.95350   55.30960   55.30960    5.22220    4.48680    4.48680    -999.25    0.40380    0.36100 2254.55860    4.22730  -90.88220   -5.50550    4.22730 2124.32080 5970.72470 7610.83160
  600.00000  244.85700  256.90900  244.85700  146.99610   46.07850 2069.35740    -999.25    0.34840    0.37460    6.80290   46.07850  370.31970  370.31970   90.31120   87.47620   87.47620    6.80290    5.58840    5.58840    -999.25    0.52840    0.48670 2069.35740    5.45080  -93.62130   -4.14020    5.45080 2153.08470 6249.78030 7611.18080
  650.00000  225.34810  264.22300  225.34810  150.33300   48.68900 2333.64110    -999.25    0.19700    0.22010    6.65190   48.68900  339.85380  339.85380  107.80800  122.97820  122.97820    6.65190    5.70360    5.70360    -999.25    0.43490    0.39280 2333.64110    5.99690  -92.45680   -6.04030    5.99690 2230.98050 6550.20250 8082.83500
  700.00000  254.16870  289.70630  254.16870  119.74330   84.38450 2034.27060    -999.25    0.37020    0.39520    8.35120   84.38450  316.34920  316.34920   87.14390   92.15630   92.15630    8.35120    6.96670    6.96670    -999.25    0.45630    0.41460 2034.27060    7.67370  -97.21630   -5.27270    7.67370 2316.19730 6825.03810 8483.55090
  750.00000  232.21560  250.92840  232.21560  127.59010   26.07870 2086.42410    -999.25    0.36220    0.36470    7.83760   26.07870  336.32220  336.32220   91.14860  104.52330  104.52330    7.83760    6.51180    6.51180    -999.25    0.53540    0.49370 2086.42410    6.31640  -99.47700   -5.86970    6.31640 2317.39750 7134.87590 8546.61060
  800.00000  223.28260  247.84950  223.28260  123.18150   40.60220 2093.25760    -999.25    0.34870    0.36070    8.11810   40.60220  308.54940  308.54940   98.50380  113.70890  113.70890    8.11810    6.73450    6.73450    -999.25    0.52930    0.48760 2093.25760    6.95140  -96.37670   -3.23550    6.95140 2442.75390 7422.75990 8979.17970
  850.00000  269.88810  305.13680  269.88810  156.33610   83.48840 1950.94920    -999.25    0.43760    0.44390    6.39660   83.48840  346.79690  346.79690  106.20130  108.70110  108.70110    6.39660    5.77260    5.77260    -999.25    0.55800    0.51630 1950.94920    6.55000  -93.26430   -2.23780    6.55000 2462.25580 7702.64130 8896.67590
  900.00000  224.76030  252.96550  224.76030  101.51010   95.14320 2386.35380    -999.25    0.15030    0.18920    9.85840   95.14320  308.34090  308.34090  123.30370  117.96660  117.96660    9.85840    8.66610    8.66610    -999.25    0.41360    0.37100 2386.35380   10.04300  -92.66180   -3.75000   10.04300 2497.54340 8048.70130 9311.06620
  950.00000  229.83580  262.65730  229.83580  129.73390   71.52270 2221.53070    -999.25    0.24880    0.28570    7.70830   71.52270  294.10170  294.10170   89.31140   99.39210   99.39210    7.70830    6.99620    6.99620    -999.25    0.41840    0.37600 2221.53070    7.18150  -92.14480   -5.34760    7.18150 2548.19920 8233.82330 9522.11230
 1000.00000  227.66180  259.54670  227.66180  192.00670   68.69750 2358.53630    -999.25    0.17280    0.20560    5.20840   68.69750  312.95690  312.95690   98.06250   93.99850   93.99850    5.20840    4.84880    4.84880    -999.25    0.37820    0.33500 2358.53630    5.16650  -87.48120   -2.79870    5.16650 2685.32860 8369.71570 9732.60830
 1050.00000  264.54510  251.75670  264.54510  154.61930   15.06180 2475.71070    -999.25    0.10640    0.13700    6.46750   15.06180  303.70790  303.70790  102.62920   92.12040   92.12040    6.46750    5.81350    5.81350    -999.25    0.39250    0.34950 2475.71070    5.77620  -87.29660   -4.72880    5.77620 2725.88670 8651.66870 9714.03530
 1100.00000  280.31040  267.68620  280.31040  400.40040   67.19450 2262.83890    -999.25    0.23300    0.26150    2.49750   67.19450  345.45230  345.45230  109.66570  104.98100  104.98100    2.49750    2.12640    2.12640    -999.25    0.53180    0.49010 2262.83890    2.50320  -84.48270   -4.02960    2.50320 2819.50200 8870.31390 10211.62800
 1150.00000  267.10320  276.64410  267.10320  215.14630  145.61640 2372.90840    -999.25    0.17200    0.19710    4.64800  145.61640  320.73880  320.73880  103.89090   99.60150   99.60150    4.64800    4.24510    4.24510    -999.25    0.47680    0.43510 2372.90840    4.45040  -85.17990   -5.24490    4.45040 2854.54000 9252.36060 10111.17690
 1200.00000  310.96170  295.29950  310.96170  182.11950    5.09070 2432.91720    -999.25    0.13500    0.16200    5.49090    5.09070  276.32480  276.32480   66.39240   70.43270   70.43270    5.49090    5.38730    5.38730    -999.25    0.39550    0.35250 2432.91720    5.79380  -85.84590   -6.02300    5.79380 2951.23050 9500.22750 10821.94320
 1250.00000  299.65320  312.08570  299.65320  131.34910   36.66300 2093.79440    -999.25    0.42570    0.36040    7.61330   36.66300  360.63970  360.63970   76.93420   76.32920   76.32920    7.61330    7.00350    7.00350    -999.25    0.48990    0.44820 2093.79440    6.62750  -83.38970   -3.15640    6.62750 2966.22660 9707.65830 10831.25240
 1300.00000  248.81820  238.77590  248.81820  101.24020   70.35470 2411.05830    -999.25    0.14980    0.17480    9.87750   70.35470  259.91670  259.91670   60.66300   63.77960   63.77960    9.87750   11.85810   11.85810    -999.25    0.29770    0.25370 2411.05830   15.57850 -112.62580  -32.49240   15.57850 3018.42190 9925.19460 10884.15420
 1350.00000  279.69170  271.63010  279.69170  236.65840   63.46660 2393.96580    -999.25    0.15250    0.18480    4.22550   63.46660  271.58180  271.58180   64.56190   55.52550   55.52550    4.22550    5.67580    5.67580    -999.25    0.34740    0.30370 2393.96580    7.71430 -126.12300  -47.72340    7.71430 3029.24800 10305.59760 11096.68090
 1400.00000  256.49520  262.97770  256.49520  183.96890  134.49140 2429.01830    -999.25    0.13210    0.16430    5.43570  134.49140  265.62680  265.62680   75.13210   71.56330   71.56330    5.43570    6.21440    6.21440    -999.25    0.34240    0.29870 2429.01830    6.70530 -103.72110  -27.29490    6.70530 3091.60550 10518.41300 11293.75000
 1450.00000  243.57630  246.87640  243.57630   99.56450  109.84780 2431.37980    -999.25    0.12060    0.16290   10.04370  109.84780  252.84090  252.84090   54.65630   54.02610   54.02610   10.04370   11.56200   11.56200    -999.25    0.29180    0.24780 2431.37980   14.61470 -110.84630  -36.39370   14.61470 3214.71870 10579.65160 11687.24460
 1500.00000  312.62240  329.98180  312.62240  432.48260  160.89450 2128.66940    -999.25    0.31770    0.34000    2.31240  160.89450  313.48240  313.48240   87.16170   88.97080   88.97080    2.31240    2.17710    2.17710    -999.25    0.57240    0.53070 2128.66940    2.43270  -72.25750    0.22170    2.43270 3274.99420 10926.37900 11807.25240
 1550.00000  270.08460  262.98630  270.08460   26.99630   -1.79780 2375.82220    -999.25    0.15750    0.19540   37.14850   -1.79780  337.58700  337.58700  118.54120  115.87860  115.87860   37.14850   39.15870   39.15870    -999.25    0.44240    0.40050 2375.82220   54.07170  -72.71090   -2.20510   54.07170 3321.47560 11397.20940 12101.59160
 1600.00000  276.47260  263.40200  276.47260  383.76900  226.61660 2438.71980    -999.25    0.12740    0.15870    2.60570  226.61660  237.25960  237.25960   65.82970   62.13840   62.13840    2.60570    3.99510    3.99510    -999.25    0.26760    0.22360 2438.71980    8.37630 -148.64800  -75.73800    8.37630 3258.74520 11638.72450 16220.82030
