~Version ---------------------------------------------------
VERS.      2.0 : CWLS log ASCII Standard -VERSION 2.0
WRAP.       NO : One line per depth step
CREA. 01/05/18 : LAS Creation Date
~Well ------------------------------------------------------
STRT.FT                              1700.0 : START DEPTH
STOP.FT                             14300.0 : STOP DEPTH
STEP.FT                            50.00000 : STEP LENGTH
NULL.                               -999.25 : NULL VALUE
COMP. CANADA CITIES SERVICE PETROLEUM CORP. : COMPANY
WELL.                 CS BRAZ R 11-22-43-13 : WELL
FLD .                                    WC : FIELD
LOC .                                       : LOCATION
CTRY.                                CANADA : COUNTRY
SRVC.                Schlumberger of Canada : SERVICE COMPANY
DATE.                           10-Oct-1970 : LOGDATE
PROV.                               Alberta : PROVINCE
UWI .                      100112204313W500 : UNIQUE WELL ID
SLAT.WGS84                         52.72078 : SURFACE LATITUDE
SLON.WGS84                        -115.8058 : SURFACE LONGITUDE
~Curve Information -----------------------------------------
DEPT    .FT       : Depth Curve
CALDED  .IN       : CALIPER FROM DENSITY LOG [ADJ. TO RESISTIVITY LOG]
CALNED  .IN       : CALIPER FROM SNP LOG [ADJ. TO RESISTIVITY LOG]
CALSED  .IN       : CALIPER FROM SONIC LOG
CALWS   .IN       : CALIPER [CALSED SPL. TO CALDED @ 10242']
CILDED  .MMHO     : CONDUCTIVITY FROM IEL LOG
CONDWS  .MMHO     : CONDUCTIVITY [1000/DRESWS]
DCORWS  .G/C3     : DENSITY CORRECTION [DRHOED]
DENWS   .G/C3     : FORMATION BULK DENSITY [RHOBED]
DPHIDMED.V/V      : DENSITY POROSITY DOLOMITE [M=2.87 F=1.00] FROM DENSITY LOG [ADJ. TO RESISTIVITY LOG]
DPHILSED.V/V      : DENSITY POROSITY LIMESTONE [M=2.71 F=1.00] FROM DENSITY LOG [ADJ. TO RESISTIVITY LOG]
DPHISSED.V/V      : DENSITY POROSITY SANDSTONE [M=2.65 F=1.00] FROM DENSITY LOG [ADJ. TO RESISTIVITY LOG]
DPOLSWS .V/V      : DENSITY POROSITY LIMESTONE [CALC. FROM DENWS, M=2.71 F=1.00]
DRESWS  .OHMM     : DEEP RESISTIVITY [1000/CILDED, IF ILDED< 2.5, ILDED SPL. TO ILDED @ 11263']
DRHOED  .G/C3     : DENSITY CORRECTIONFROM DENSITY LOG [ADJ. TO RESISTIVITY LOG]
DTED    .US/F     : DELTA TIME FROM SONIC LOG
DTWS    .US/F     : COMPRESSIONAL SONIC [DTED]
GRDED   .CU       : GAMMA RAY (GRD SPL @ 10670'-11252' TO GRD_1) FROM DENSITY LOG [ADJ. TO RESISTIVITY LOG]
GRN1ED  .GAPI     : GAMMA RAY FROM SNP LOG [ADJ. TO RESISTIVITY LOG]
GRNED   .Unknown  : GAMMA RAY FROM GRN LOG
GRSED   .GAPI     : GAMMA RAY (GRS SPL @10670'-10750' TO GRS_1) FROM SONIC LOG
GRWS    .GAPI     : GAMMA RAY [GRSED SPL @ 14288' TO GRDED]
ILDED   .OHMM     : DEEP INDUCTION LOG FROM DIL LOG
ILMED   .OHMM     : MEDIUM INDUCTION LOG FROM DIL LOG
LL8ED   .OHMM     : LATEROLOG 8 RESISTIVITY FROM DIL LOG
MRESWS  .OHMM     : MEDIUM RESISTIVITY [ILMED]
NEUTED  .NAPI     : NEUTRON FROM GRN LOG [ADJ. TO RESISTIVITY LOG]
NEUTWS  .NAPI     : NEUTRON [NEUTED]
NPOLSWS .V/V      : NEUTRON POROSITY LIMESTONE [SNPLSED]
RHOBED  .G/C3     : BULK DENSITYFROM DENSITY LOG [ADJ. TO RESISTIVITY LOG]
SNED    .OHMM     : SHORT NORMAL FROM IEL LOG
SNPLSED .V/V      : SIDEWALL NEUTRON POROSITY LIMESTONE FROM SNP LOG [ADJ. TO RESISTIVITY LOG]
SPHILSED.V/V      : SONIC POROSITY LIMESTONE [DTM=47.6, DTF=189] FROM SNP LOG
SPOLSWS .V/V      : SONIC POROSITY LIMESTONE [SPHILSED]
SPRED   .MV       : SPONTANEOUS POTENTIAL FROM IEL LOG <11250'> FROM DIL LOG
SPWS    .MV       : SPONTANEOUS POTENTIAL [BASELINE 0 MV, SPRED]
SRESWS  .OHMM     : SHALLOW RESISTIVITY [SNED SPL. TO LL8ED @ 12244']
~Params ----------------------------------------------------
PD  .                     GL : PERMANENT DATUM
EPD .FT                 3657 : ELEVATION PERMANENT DATUM
LMF .                     KB : LOG MEASURED FROM
DAPD.FT                 14.5 : FEET ABOVE PERMANENT DATUM
EKB .FT               3671.5 : KELLY BUSHING
EGL .FT                 3657 : GROUND LEVEL
DATE.               10/10/70 : RUN DATE
RUN .                      1 : RUN NUMBER
DD  .FT                14316 : DEPTH DRILLER
DL  .FT                14316 : DEPTH LOGGER
BLI .FT                14312 : BOTTOM LOG INTERVAL
TLI .FT                11258 : TOP LOG INTERVAL
CBD .FT                11258 : CASING BOTTOM DRILLER
CBL .FT                11258 : CASING BOTTOM LOGGER
BS  .IN                    6 : BIT SIZE
BSD .FT                14316 : BIT SIZE AT DEPTH
DFT .               GEL CHEM : DRILLING FLUID TYPE
DFD .                    9.2 : DRILLING FLUID DENSITY
DFV .                     51 : DRILLING FLUID VISCOSITY
DFPH.                   10.5 : DRILLING FLUID PH
DFL .                    8.8 : DRILLING FLUID LOSS
MSS .               FLOWLINE : MUD SAMPLE SOURCE
RMS .OHMM               1.22 : RESISTIVITY MUD SAMPLE
MST .DEGF                 98 : MUD SAMPLE TEMPERATURE
RMF .OHMM               1.23 : RESISTIVITY MUD FILTRATE SAMPLE
MFST.DEGF                 79 : MUD FILTRATE SAMPLE TEMPERATURE
RMB .OHMM                0.3 : RESISTIVITY MUD AT BHT
TCS .HRS                 3.5 : TIME CIRCULATED STOPPED
LUN .                   7004 : LOGGING UNIT NUMBER
LUL .                     RD : LOGGING UNIT LOCATION
ENGI.                  PERRY : RECORDING ENGINEER
WITN.       SHIER MENEGHETTI : WITNESSED BY
CLNT.                A2DTECH : CLIENT CODE
ORIG.            2" 5" PRINT : ORIGIN OF DATA
UWI .       100112204313W500 : UNIQUE WELL ID
DICO. A2D Technologies, Inc. : DIGITIZING COMPANY
~Other -----------------------------------------------------
~ASCII -----------------------------------------------------
# ...
 13700.00000    6.23600    6.74390    6.24740    6.23600    -999.25   41.81330    0.07860    2.58890    -999.25    0.06780    -999.25    0.07080   23.91680    0.07860   81.71470   81.71470  133.83990  127.87630    -999.25  122.69970  122.69970   23.91680   25.57020   37.78760   25.57020    -999.25    -999.25    0.07940    2.58890    -999.25    0.07940    0.25520    0.25520   63.32040  -66.62210   37.78760
 13750.00000    6.79870    6.83090    6.22130    6.79870    -999.25  125.83210    0.10020    2.62330    -999.25    0.02880    -999.25    0.05070    7.94710    0.10020   73.16630   73.16630   78.39160   65.95850    -999.25   67.79640   67.79640    7.94710    6.82800   10.82550    6.82800    -999.25    -999.25    0.07300    2.62330    -999.25    0.07300    0.17960    0.17960  -18.86660 -153.24390   10.82550
 13800.00000    6.24540    6.82180    6.02840    6.24540    -999.25   32.18010    0.04710    2.72180    -999.25   -0.01130    -999.25   -0.00690   31.07510    0.04710   56.24090   56.24090   38.34520   29.74770    -999.25   25.79720   25.79720   31.07510   37.01630   64.31920   37.01630    -999.25    -999.25    0.03140    2.72180    -999.25    0.03140    0.06110    0.06110   90.30810  -48.52620   64.31920
 13850.00000    6.19780    6.94030    6.08030    6.19780    -999.25   11.98100    0.09910    2.79020    -999.25   -0.05870    -999.25   -0.04690   83.46580    0.09910   51.19330   51.19330   24.91560   20.26150    -999.25   16.06380   16.06380   83.46580  116.75150  105.21800  116.75150    -999.25    -999.25    0.01460    2.79020    -999.25    0.01460    0.02810    0.02810  100.05820  -43.23310  105.21800
 13900.00000    6.22370    6.70330    6.14030    6.22370    -999.25  111.26070    0.03090    2.71260    -999.25   -0.00570    -999.25   -0.00150    8.98790    0.03090   61.84870   61.84870   63.52740   55.42770    -999.25   58.36480   58.36480    8.98790    9.74790   12.23590    9.74790    -999.25    -999.25    0.05290    2.71260    -999.25    0.05290    0.10100    0.10100  141.09540   -6.65290   12.23590
 13950.00000    6.07660    6.53390    6.06870    6.07660    -999.25    7.19650    0.03880    2.76620    -999.25   -0.03770    -999.25   -0.03290  139.62810    0.03880   50.13930   50.13930   17.23350   13.43180    -999.25   10.88240   10.88240  139.62810  660.74900  788.67610  660.74900    -999.25    -999.25    0.01660    2.76620    -999.25    0.01660    0.02050    0.02050   28.25550 -119.93850  788.67610
 14000.00000    6.02290    6.43300    5.97980    6.02290    -999.25   81.05630    0.04170    2.72330    -999.25   -0.01330    -999.25   -0.00780   12.33710    0.04170   60.82390   60.82390   64.50150   58.86420    -999.25   56.50740   56.50740   12.33710   11.89750   17.08800   11.89750    -999.25    -999.25    0.06110    2.72330    -999.25    0.06110    0.09660    0.09660   40.54340 -107.65060   17.08800
 14050.00000    6.09880    6.28210    5.95440    6.09880    -999.25   65.03680    0.02350    2.73800    -999.25   -0.02190    -999.25   -0.01640   15.37590    0.02350   60.35760   60.35760   59.17240   49.88550    -999.25   56.09570   56.09570   15.37590   16.03250   23.46150   16.03250    -999.25    -999.25    0.06130    2.73800    -999.25    0.06130    0.09390    0.09390 -103.26560 -251.45960   23.46150
 14100.00000    6.20060    6.31310    6.03940    6.20060    -999.25   15.05600    0.02730    2.68650    -999.25    0.01100    -999.25    0.01370   66.41880    0.02730   55.48460   55.48460   34.31580   26.25480    -999.25   26.15820   26.15820   66.41880   88.71300  154.24020   88.71300    -999.25    -999.25    0.03590    2.68650    -999.25    0.03590    0.05870    0.05870  -91.45810 -239.65210  154.24020
 14150.00000    6.43960    6.45630    6.17720    6.43960    -999.25    0.87040    0.01690    2.71510    -999.25   -0.00870    -999.25   -0.00300 1148.86720    0.01690   49.38830   49.38830   14.07560   11.13780    -999.25    9.97360    9.97360 1148.86720 1458.54210 1615.48690 1458.54210    -999.25    -999.25    0.01370    2.71510    -999.25    0.01370    0.01440    0.01440  -87.76000 -235.95400 1615.48690
 14200.00000    6.50300    6.22040    6.16780    6.50300    -999.25    0.64930    0.04560    2.74520    -999.25   -0.02600    -999.25   -0.02060 1542.94390    0.04560   49.39200   49.39200   13.60950   12.35420    -999.25    9.91440    9.91440 1542.94390 1480.73730 1526.99060 1480.73730    -999.25    -999.25    0.01850    2.74520    -999.25    0.01850    0.01240    0.01240 -109.63440 -257.82840 1526.99060
 14250.00000    6.41140    6.24020    6.00780    6.41140    -999.25    1.13790    0.02040    2.72750    -999.25   -0.01540    -999.25   -0.01020  878.82180    0.02040   49.86940   49.86940   26.44340   23.65630    -999.25   21.28070   21.28070  878.82180  612.31370 1376.96740  612.31370    -999.25    -999.25    0.02580    2.72750    -999.25    0.02580    0.01800    0.01800  -82.65230 -230.84630 1376.96740
 14300.00000    6.22150    6.30680    6.17360    6.22150    -999.25    3.81650    0.05730    2.69020    -999.25    0.01160    -999.25    0.01160  262.02200    0.05730   53.28570   53.28570   86.26090   79.69120    -999.25    -999.25   86.26090  262.02200  419.19910  672.77660  419.19910    -999.25    -999.25    0.01070    2.69020    -999.25    0.01070    0.04180    0.04180 -134.96380 -283.15780  672.77660
