~Version ---------------------------------------------------
VERS.      2.0 : CWLS log ASCII Standard -VERSION 2.0
WRAP.       NO : One line per depth step
CREA. 08/02/17 : LAS Creation Date
~Well ------------------------------------------------------
STRT.FT                  1500.0 : START DEPTH
STOP.FT                 14300.0 : STOP DEPTH
STEP.FT                50.00000 : STEP LENGTH
NULL.                   -999.25 : NULL VALUE
COMP. BANNER PETROLEUMS LIMITED : COMPANY
WELL.   CREW PHOENIX 7-21-39-10 : WELL
FLD .                           : FIELD
LOC .                           : LOCATION
CTRY.                    CANADA : COUNTRY
SRVC.              Schlumberger : SERVICE COMPANY
DATE.               05-Aug-1970 : LOGDATE
PROV.                   Alberta : PROVINCE
UWI .          100072103910W500 : UNIQUE WELL ID
SLAT.WGS84             52.36858 : SURFACE LATITUDE
SLON.WGS84            -115.3771 : SURFACE LONGITUDE
~Curve Information -----------------------------------------
DEPT    .FT    : Depth Curve
ACED    .US/F  : DELTA TIME FROM SONIC LOG, DEPTH ADJUSTED WITH [GRSED]
CALDED  .IN    : CALIPER FROM DENSITY LOG, DEPTH ADJUSTED WITH [SPRED]
CALS1ED .IN    : CALIPER FROM SONIC LOG (DRESSER ATLAS),DEPTH ADJUSTED WITH [GRSED]
CALSED  .IN    : CALIPER FROM SONIC LOG, DEPTH ADJUSTED WITH [SPRED]
CALWS   .IN    : CALIPER [CALSED], SPLICED WITH [CALS1ED] FROM 9970'- 11167'
CILDED  .MMHO  : CONDUCTIVITY FROM RESISTIVITY LOG
CONDWS  .MMHO  : CONDUCTIVITY [1000/DRESWS]
DCORED  .G/C3  : DENSITY CORRECTION FROM CFD LOG, DEPTH ADJUSTED WITH [SPRED]
DCORWS  .G/C3  : DENSITY CORRECTION [DRHOED]
DENWS   .G/C3  : BULK DENSITY [RHOBED]
DPHILSED.V/V   : DENSITY POROSITY [M=2.71 F=1.00] FROM CFD LOG, DEPTH ADJUSTED WITH [SPRED]
DPOLSWS .V/V   : DENSITY POROSITY LIMESTONE [CALCULATED FROM DENWS]
DRESWS  .OHMM  : DEEP RESISTIVITY [ILDED] IF DRESWS<1;1000/CONDWS,SPLICED WITH [ILD1ED] AT 11167'
DTED    .US/F  : DELTA TIME FROM SONIC LOG, DEPTH ADJUSTED WITH [SPRED]
DTWS    .US/F  : DELTA TIME [DTED], SPLICED WITH [ACED] FROM 9967-11167'
GRDED   .GAPI  : GAMMA RAY FROM DENSITY LOG, DEPTH ADJUSTED WITH [SPRED]
GRNED   .GAPI  : GAMMA RAY FROM NEUTRON LOG, DEPTH ADJUSTED WITH [SPRED]
GRS1ED  .GAPI  : GAMMA RAY FROM SONIC LOG (DRESSER ATLAS), DEPTH ADJUSTED WITH [GRSED]
GRSED   .GAPI  : GAMMA RAY FROM SONIC LOG,DEPTH ADJUSTED WITH [SPRED]
GRWS    .GAPI  : GAMMA RAY [GRSED], SPLICED WITH [GRS1ED] FROM 9967-11167'
ILD1ED  .OHMM  : INDUCTION LOG DEEP RESISTIVITY
ILDED   .OHMM  : INDUCTION LOG DEEP RESISTIVITY
ILMED   .OHMM  : INDUCTION LOG MEDIUM RESISTIVITY
LL8ED   .OHMM  : 8 INCH LATEROLOG RESISTIVITY
MRESWS  .OHMM  : MEDIUM RESISTIVITY [ILMED]
NEUTED  .NAPI  : NEUTRON FROM NEUTRON LOG, DEPTH ADJUSTED WITH [SPRED]
NEUTWS  .NAPI  : NEUTRON [NEUTED]
RHOBED  .G/C3  : BULK DENSITY FROM CFD LOG, DEPTH ADJUSTED WITH [SPRED]
SNED    .OHMM  : 16 INCH SHORT NORMAL RESISTIVITY FROM IEL
SPR1ED  .MV    : SPONTANEOUS POTENTIAL FROM RESISTIVITY LOG
SPRED   .MV    : SPONTANEOUS POTENTIAL FROM RESISTIVITY LOG
SPWS    .MV    : SPONTANEOUS POTENTIAL [BASELINE 0 MV] [SPRED], SPLICWED WITH [SPR1ED] AT 11167
SRESWS  .OHMM  : SHALLOW RESISTIVITY [SNED]
~Params ----------------------------------------------------
PD  .                     GL : PERMANENT DATUM
EPD .FT                 3888 : ELEVATION PERMANENT DATUM
LMF .                     KB : LOG MEASURED FROM
DAPD.FT                   14 : FEET ABOVE PERMANENT DATUM
EKB .FT                 3902 : KELLY BUSHING
EGL .FT                 3888 : GROUND LEVEL
DATE.               08/07/70 : RUN DATE
RUN .                      1 : RUN NUMBER
DD  .FT                14310 : DEPTH DRILLER
DL  .FT                14309 : DEPTH LOGGER
BLI .FT                14304 : BOTTOM LOG INTERVAL
TLI .FT                11171 : TOP LOG INTERVAL
CBD .FT                11171 : CASING BOTTOM DRILLER
CBL .FT                11168 : CASING BOTTOM LOGGER
BS  .IN                5.968 : BIT SIZE
BSD .FT                14310 : BIT SIZE AT DEPTH
DFT .               GEL CHEM : DRILLING FLUID TYPE
DFD .                   11.6 : DRILLING FLUID DENSITY
DFV .                    105 : DRILLING FLUID VISCOSITY
DFPH.                    7.5 : DRILLING FLUID PH
DFL .                    6.4 : DRILLING FLUID LOSS
MSS .               FLOWLINE : MUD SAMPLE SOURCE
RMS .OHMM               1.51 : RESISTIVITY MUD SAMPLE
MST .DEGF                 71 : MUD SAMPLE TEMPERATURE
RMF .OHMM               1.05 : RESISTIVITY MUD FILTRATE SAMPLE
MFST.DEGF                 70 : MUD FILTRATE SAMPLE TEMPERATURE
RMB .OHMM               0.29 : RESISTIVITY MUD AT BHT
TCS .HRS                   3 : TIME CIRCULATED STOPPED
LUN .                   7002 : LOGGING UNIT NUMBER
LUL .                     RD : LOGGING UNIT LOCATION
ENGI.                 MEGSON : RECORDING ENGINEER
WITN.         DOMANKO HUTTON : WITNESSED BY
CLNT.                A2DTECH : CLIENT CODE
ORIG.            2" 5" PRINT : ORIGIN OF DATA
UWI .       100072103910W500 : UNIQUE WELL ID
DICO. A2D Technologies, Inc. : DIGITIZING COMPANY
~Other -----------------------------------------------------
~ASCII -----------------------------------------------------
# ...
 13600.00000    -999.25    6.07200    -999.25    5.93470    5.93470    -999.25   45.42090    0.01920    0.01920    2.73170   -0.01540   -0.01270   22.01630   62.91650   62.91650   78.84160    -999.25    -999.25   84.53620   84.53620   22.01630    -999.25    -999.25   29.95520    -999.25    -999.25    -999.25    2.73170    -999.25  -10.70230    -999.25  -22.20380   29.95520
 13650.00000    -999.25    6.07920    -999.25    5.99350    5.99350    -999.25   39.17510    0.04360    0.04360    2.75300   -0.02250   -0.02510   25.52640   62.21210   62.21210   80.40270    -999.25    -999.25   93.69480   93.69480   25.52640    -999.25    -999.25   33.70700    -999.25    -999.25    -999.25    2.75300    -999.25  -34.24070    -999.25  -46.94100   33.70700
 13700.00000    -999.25    6.05520    -999.25    6.02930    6.02930    -999.25   43.64980    0.00000    0.00000    2.73790   -0.01850   -0.01630   22.90960   64.26010   64.26010   83.04140    -999.25    -999.25   99.55310   99.55310   22.90960    -999.25    -999.25   30.82060    -999.25    -999.25    -999.25    2.73790    -999.25   14.94760    -999.25    1.04850   30.82060
 13750.00000    -999.25    6.07480    -999.25    6.15160    6.15160    -999.25   54.13040    0.02180    0.02180    2.72420   -0.01060   -0.00830   18.47390   63.24830   63.24830   79.09430    -999.25    -999.25   90.07270   90.07270   18.47390    -999.25    -999.25   26.53470    -999.25    -999.25    -999.25    2.72420    -999.25  -50.93140    -999.25  -66.02930   26.53470
 13800.00000    -999.25    6.06450    -999.25    5.98360    5.98360    -999.25   42.63810   -0.00770   -0.00770    2.64720    0.03460    0.03670   23.45320   65.93290   65.93290  104.72050    -999.25    -999.25  100.61970  100.61970   23.45320    -999.25   65.81010   43.58190   65.81010    -999.25    -999.25    2.64720    -999.25   -2.06900    -999.25  -18.36570   43.58190
 13850.00000    -999.25    6.13090    -999.25    6.19380    6.19380    -999.25   44.64860    0.01610    0.01610    2.66830    0.02200    0.02440   22.39710   71.69370   71.69370   70.97330    -999.25    -999.25   90.08240   90.08240   22.39710    -999.25   31.72970   45.12010   31.72970    -999.25    -999.25    2.66830    -999.25  -26.14840    -999.25  -43.64390   45.12010
 13900.00000    -999.25    6.14880    -999.25    6.03470    6.03470    -999.25   10.89310    0.03350    0.03350    2.70820   -0.00480    0.00110   91.80100   53.30810   53.30810   32.65140    -999.25    -999.25   38.11330   38.11330   91.80100    -999.25   95.52330  140.08640   95.52330    -999.25    -999.25    2.70820    -999.25  -23.67260    -999.25  -42.36690  140.08640
 13950.00000    -999.25    6.30460    -999.25    6.04620    6.04620    -999.25    0.82410    0.02120    0.02120    2.69590    0.00890    0.00820 1213.49300   50.37950   50.37950   18.39030    -999.25    -999.25   19.23270   19.23270 1213.49300    -999.25 1454.68620 1441.08540 1454.68620    -999.25    -999.25    2.69590    -999.25  -60.32590    -999.25  -80.21900 1441.08540
 14000.00000    -999.25    6.28180    -999.25    6.02830    6.02830    -999.25   66.97790    0.01950    0.01950    2.67060    0.01850    0.02300   14.93030   61.27870   61.27870   55.50870    -999.25    -999.25   57.48010   57.48010   14.93030    -999.25   19.52610   57.55540   19.52610    -999.25    -999.25    2.67060    -999.25  -42.42180    -999.25  -63.51370   57.55540
 14050.00000    -999.25    6.06610    -999.25    6.04380    6.04380    -999.25   26.42040   -0.00260   -0.00260    2.71930   -0.00710   -0.00540   37.84960   53.98690   53.98690   37.78050    -999.25    -999.25   41.25540   41.25540   37.84960    -999.25   31.91880   47.86840   31.91880    -999.25    -999.25    2.71930    -999.25  -28.96890    -999.25  -51.25960   47.86840
 14100.00000    -999.25    6.02460    -999.25    6.05370    6.05370    -999.25   75.82540    0.00510    0.00510    2.69140    0.00760    0.01090   13.18820   61.40990   61.40990   53.24140    -999.25    -999.25   63.25940   63.25940   13.18820    -999.25   10.09760   11.18770   10.09760    -999.25    -999.25    2.69140    -999.25  -42.58160    -999.25  -66.07110   11.18770
 14150.00000    -999.25    6.09400    -999.25    6.26670    6.26670    -999.25   37.68270    0.01340    0.01340    2.73740   -0.01880   -0.01600   26.53740   55.44220   55.44220   39.69590    -999.25    -999.25   44.26310   44.26310   26.53740    -999.25   24.80440   32.50600   24.80440    -999.25    -999.25    2.73740    -999.25  -20.25810    -999.25  -44.94640   32.50600
 14200.00000    -999.25    6.10710    -999.25    6.35250    6.35250    -999.25    0.76860   -0.00430   -0.00430    2.70930   -0.00750    0.00040 1301.12950   50.31890   50.31890   10.76190    -999.25    -999.25   14.88700   14.88700 1301.12950    -999.25 1331.45200 1436.34090 1331.45200    -999.25    -999.25    2.70930    -999.25  -45.64930    -999.25  -71.53640 1436.34090
 14250.00000    -999.25    6.12830    -999.25    6.37240    6.37240    -999.25   46.09140    0.01090    0.01090    2.72970   -0.01310   -0.01150   21.69600   58.26490   58.26490   35.37610    -999.25    -999.25   63.24550   63.24550   21.69600    -999.25   21.93310   25.54140   21.93310    -999.25    -999.25    2.72970    -999.25   24.54510    -999.25   -2.54080   25.54140
 14300.00000    -999.25    6.09480    -999.25    6.40250    6.40250    -999.25   24.58950    0.02140    0.02140    2.71800   -0.00560   -0.00470   40.66770   54.66900   54.66900    0.58400    -999.25    -999.25    0.64530    -999.25   40.66770    -999.25   41.58560   55.04010   41.58560    -999.25    -999.25    2.71800    -999.25  -52.53030    -999.25  -80.81500   55.04010
