~Version ---------------------------------------------------
VERS.      2.0 : CWLS log ASCII Standard -VERSION 2.0
WRAP.       NO : One line per depth step
CREA. 08/31/17 : LAS Creation Date
~Well ------------------------------------------------------
STRT.FT                                       1500.0 : START DEPTH
STOP.FT                                      11100.0 : STOP DEPTH
STEP.FT                                     50.00000 : STEP LENGTH
NULL.                                        -999.25 : NULL VALUE
COMP. GREAT PLAINS DEVELOPMENT COMPANY OF CANADA LTD : COMPANY
WELL.                 GPD ET AL ROSEVEAR 10-14-54-16 : WELL
FLD .                                                : FIELD
LOC .                                                : LOCATION
CTRY.                                         CANADA : COUNTRY
SRVC.                                   Schlumberger : SERVICE COMPANY
DATE.                                    01-Feb-1978 : LOGDATE
PROV.                                        Alberta : PROVINCE
UWI .                               100101405416W500 : UNIQUE WELL ID
SLAT.WGS84                                  53.66484 : SURFACE LATITUDE
SLON.WGS84                                 -116.2439 : SURFACE LONGITUDE
~Curve Information -----------------------------------------
DEPT    .FT    : Depth Curve
CALDED  .IN    : CALIPER FROM DENSITY LOG
CALSED  .IN    : CALIPER FROM SONIC LOG [ADJ. TO RESISTIVITY LOG]
CALWS   .IN    : CALIPER [CALDED]
CONDWS  .MMHO  : CONDUCTIVITY [1000/DRESWS]
DCORWS  .G/C3  : DENSITY CORRECTION [DRHOED]
DENWS   .G/C3  : FORMATION BULK DENSITY [RHOBED]
DPHILSED.V/V   : DENSITY POROSITY LIME [M=2.71, F=1.0] FROM DENSITY LOG [ADJ. TO RHOBED]
DPHISSED.V/V   : DENSITY POROSITY SAND [M=2.65, F=1.0] FROM DENSITY LOG [ADJ. TO RHOBED]
DPOLSWS .V/V   : DENSITY POROSITY LIME [CALC FROM DENWS, M=2.71, F=1.0]
DRESWS  .OHMM  : DEEP RESISTIVITY [LLDED]
DRHOED  .G/C3  : DENSITY CORRECTION FROM DENSITY LOG
DTED    .US/F  : DELTA TIME FROM SONIC LOG [ADJ. TO RESISTIVITY LOG]
DTWS    .US/F  : COMPRESSIONAL SONIC [DTED]
GRDED   .GAPI  : GAMMA RAY FROM DENSITY LOG
GRSED   .GAPI  : GAMMA RAY FROM SONIC LOG [ADJ. TO RESISTIVITY LOG]
GRWS    .GAPI  : GAMMA RAY [GRSED]
LLDED   .OHMM  : LATEROLOG DEEP RESISTIVITY FROM RESISTIVITY LOG
LLSED   .OHMM  : LATEROLOG SHALLOW RESISTIVITY FROM RESISTIVITY LOG
NPHILSED.V/V   : NEUTRON POROSITY LIME FROM DENSITY LOG [ADJ. TO RHOBED]
NPOLSWS .V/V   : NEUTRON POROSITY LIME [SS MATRIX(SLB) CONVERTED TO LS, SPL. TO NPHILSED @ 7520']
NPORSSED.V/V   : NEUTRON POROSITY  SAND FROM DENSITY LOG [ADJ. TO RHOBED]
RHOBED  .G/C3  : BULK DENSITY FROM DENSITY LOG
SPRED   .MV    : SPONTANEOUS POTENTIAL FROM RESISTIVITY LOG
SPWS    .MV    : SPONTANEOUS POTENTIAL [BASELINE 0 MV, SPRED]
SRESWS  .OHMM  : SHALLOW RESISTIVITY [LLSED]
~Params ----------------------------------------------------
PD  .                     GL : PERMANENT DATUM
EPD .FT                 2743 : ELEVATION PERMANENT DATUM
LMF .                     KB : LOG MEASURED FROM
DAPD.FT                 21.4 : FEET ABOVE PERMANENT DATUM
EKB .FT               2764.4 : KELLY BUSHING
EGL .FT                 2743 : GROUND LEVEL
DATE.               02/01/78 : RUN DATE
RUN .                      1 : RUN NUMBER
DD  .FT                11140 : DEPTH DRILLER
DL  .FT                11134 : DEPTH LOGGER
BLI .FT                11133 : BOTTOM LOG INTERVAL
TLI .FT                 1512 : TOP LOG INTERVAL
CBD .FT                 1512 : CASING BOTTOM DRILLER
CBL .FT                 1512 : CASING BOTTOM LOGGER
BS  .IN                 8.75 : BIT SIZE
BSD .FT                11140 : BIT SIZE AT DEPTH
DFT .            KCL POLYMER : DRILLING FLUID TYPE
DFD .                    9.4 : DRILLING FLUID DENSITY
DFV .                     45 : DRILLING FLUID VISCOSITY
DFPH.                    9.5 : DRILLING FLUID PH
DFL .                     16 : DRILLING FLUID LOSS
RMS .OHMM              0.205 : RESISTIVITY MUD SAMPLE
MST .DEGF                 39 : MUD SAMPLE TEMPERATURE
RMF .OHMM              0.163 : RESISTIVITY MUD FILTRATE SAMPLE
MFST.DEGF                 38 : MUD FILTRATE SAMPLE TEMPERATURE
RMC .OHMM              0.032 : RESISTIVITY MUD CAKE
MCST.DEGF                118 : MUD CAKE SAMPLE TEMPERATURE
RMB .OHMM              0.032 : RESISTIVITY MUD AT BHT
TCS .HRS                   7 : TIME CIRCULATED STOPPED
LUN .                   7772 : LOGGING UNIT NUMBER
LUL .                    EDM : LOGGING UNIT LOCATION
ENGI.                BODYMAN : RECORDING ENGINEER
WITN.                  BATES : WITNESSED BY
CLNT.                A2DTECH : CLIENT CODE
ORIG.               5" PRINT : ORIGIN OF DATA
UWI .       100101405416W500 : UNIQUE WELL ID
DICO. A2D Technologies, Inc. : DIGITIZING COMPANY
~Other -----------------------------------------------------
~ASCII -----------------------------------------------------
# ...
 2900.00000   12.42170   10.60380   12.42170  220.78950    0.24630    2.21570    -999.25    0.26630    0.29590    4.52920    0.24630  119.01190  119.01190  106.77260  122.52060  122.52060    4.52920    4.31400    -999.25    0.32210    0.36550    2.21570  -86.08820    0.31530    4.31400
 2950.00000   10.84270   10.26080   10.84270   38.14120    0.05440    2.53430    -999.25    0.07140    0.10340   26.32000    0.05440   73.60730   73.60730   68.19280   69.56500   69.56500   26.32000   21.82400    -999.25    0.17440    0.21800    2.53430  -78.84650    7.54230   21.82400
 3000.00000   12.37550   11.40510   12.37550  234.44130    0.22090    2.04900    -999.25    0.36040    0.38050    4.29450    0.22090  104.56160  104.56160  119.25880  122.70580  122.70580    4.29450    3.87560    -999.25    0.34660    0.38970    2.04900  -86.60400   -0.23060    3.87560
 3050.00000   11.43760   10.74470   11.43760   69.82750    0.03210    2.42310    -999.25    0.14270    0.16580   14.32100    0.03210   84.80170   84.80170   72.97160   74.46280   74.46280   14.32100   11.98010    -999.25    0.24780    0.29180    2.42310  -70.66350   16.83220   11.98010
 3100.00000   11.36140   10.24940   11.36140  172.51420    0.04210    2.38130    -999.25    0.17020    0.19050    5.79780    0.04210   84.73310   84.73310   98.15440  101.74470  101.74470    5.79780    5.07140    -999.25    0.28840    0.33220    2.38130  -86.37520    5.54240    5.07140
 3150.00000   13.15300   11.06060   13.15300  263.61580    0.20120    2.32380    -999.25    0.19820    0.22560    3.79340    0.20120   94.56070   94.56070  106.19700  110.15320  110.15320    3.79340    3.34860    -999.25    0.28690    0.33070    2.32380  -88.83240    7.47580    3.34860
 3200.00000   11.41950   10.73570   11.41950  159.07570    0.01700    2.49290    -999.25    0.10110    0.12810    6.33180    0.01700   87.76510   87.76510   90.09570   97.79360   97.79360    6.33180    5.34640    -999.25    0.27820    0.32210    2.49290  -81.74580   18.98430    5.34640
 3250.00000   13.00050   12.28340   13.00050  402.99660    0.05080    2.41360    -999.25    0.14680    0.17210    2.48340    0.05080   97.27280   97.27280   93.58270   91.01770   91.01770    2.48340    2.27070    -999.25    0.32170    0.36510    2.41360  -88.13650   17.63470    2.27070
 3300.00000   12.54430   11.17960   12.54430   31.88200    0.01270    2.52630    -999.25    0.08240    0.10480   31.36570    0.01270   68.41900   68.41900   59.52120   60.99900   60.99900   31.36570   21.90610    -999.25    0.14410    0.18730    2.52630  -80.14590   30.87570   21.90610
 3350.00000   11.28520    9.70990   11.28520  271.55340    0.07060    2.37280    -999.25    0.16960    0.19850    3.69390    0.07060   89.56050   89.56050   56.36160   57.68050   57.68050    3.69390    2.64410    -999.25    0.25750    0.30140    2.37280  -52.74280   35.24910    2.64410
 3400.00000   12.61740   12.26540   12.61740  326.38140    0.03230    2.46740    -999.25    0.10520    0.13520    3.06390    0.03230   93.01810   93.01810  114.42460  114.42670  114.42670    3.06390    3.51800    -999.25    0.26720    0.31110    2.46740  -88.35150   -1.92910    3.51800
 3450.00000   12.10060   11.00410   12.10060  110.90900    0.02240    2.51750    -999.25    0.08250    0.11170    9.03700    0.02240   82.79450   82.79450   83.62660   89.85350   89.85350    9.03700    8.54460    -999.25    0.26440    0.30830    2.51750  -85.19110    0.77010    8.54460
 3500.00000   10.68800   11.13560   10.68800  135.19620    0.02630    2.51770    -999.25    0.08020    0.11150    7.39750    0.02630   85.27710   85.27710   78.47200   83.05830   83.05830    7.39750    6.90540    -999.25    0.27490    0.31880    2.51770 -121.24480  -30.91430    6.90540
 3550.00000   10.46510   10.27590   10.46510   50.83110    0.02510    2.57480    -999.25    0.05180    0.07940   19.67300    0.02510   69.18750   69.18750   61.61780   52.56340   52.56340   19.67300   12.64360    -999.25    0.17310    0.21670    2.57480  -75.74060   13.70520   12.64360
 3600.00000   10.97560   10.39090   10.97560   68.49500    0.04610    2.50010    -999.25    0.09160    0.12410   14.60070    0.04610   66.45030   66.45030   58.98590   56.66000   56.66000   14.60070   13.49310    -999.25    0.21600    0.25990    2.50010  -80.47190    9.79280   13.49310
 3650.00000   14.97330   11.21140   14.97330  164.19820    0.21480    2.24840    -999.25    0.24440    0.27170    6.09020    0.21480   93.66880   93.66880   71.71270   65.15040   65.15040    6.09020    5.65940    -999.25    0.33760    0.38080    2.24840  -86.30080    4.77560    5.65940
 3700.00000   15.00000   12.64370   15.00000  203.22040    0.18460    1.90470    -999.25    0.44980    0.47490    4.92540    0.18460   93.86360   93.86360   75.03640   75.18620   75.18620    4.92540    3.97480    -999.25    0.39020    0.43240    1.90470  -87.12570    4.76970    3.97480
 3750.00000   15.00000   11.18080   15.00000  149.69860    0.20230    2.03660    -999.25    0.37570    0.40320    6.68450    0.20230   87.75660   87.75660   72.36510   74.19530   74.19530    6.68450    5.53440    -999.25    0.32180    0.36520    2.03660  -95.73970   -3.03000    5.53440
 3800.00000   11.40960   10.25330   11.40960   15.46040    0.04360    2.50240    -999.25    0.08760    0.12330   64.68120    0.04360   60.36030   60.36030   47.62670   50.42180   50.42180   64.68120   50.17580    -999.25    0.16110    0.20460    2.50240  -79.83860   13.68540   50.17580
 3850.00000   14.03850   11.33640   14.03850  139.29760    0.24930    2.20530    -999.25    0.27200    0.29230    7.18000    0.24930   83.60630   83.60630   67.80230   65.66080   65.66080    7.18000    5.97990    -999.25    0.27890    0.32270    2.20530  -95.07800   -0.73510    5.97990
 3900.00000   12.80680   11.37520   12.80680  116.47140    0.20630    2.22930    -999.25    0.24980    0.28910    8.58580    0.20630   81.42950   81.42950   79.61100   72.11580   72.11580    8.58580    7.84510    -999.25    0.29200    0.33580    2.22930  -93.40400    1.75070    7.84510
 3950.00000   10.87540   10.55850   10.87540   86.82320    0.04540    2.44470    -999.25    0.12750    0.15280   11.61970    0.04540   70.31190   70.31190   58.16450   56.18850   56.18850   11.61970    9.89870    -999.25    0.23520    0.27920    2.44470  -91.31820    4.65550    9.89870
 4000.00000   10.39130   10.08650   10.39130   62.12700    0.09800    2.51950    -999.25    0.08510    0.11370   16.13740    0.09800   74.74550   74.74550   59.61490   51.51050   51.51050   16.13740   13.94110    -999.25    0.22140    0.26540    2.51950  -98.31890   -2.26180   13.94110
 4050.00000   13.29460   11.42010   13.29460   99.47480    0.25000    2.37060    -999.25    0.17160    0.20380   10.05280    0.25000   83.97270   83.97270   76.75940   76.94890   76.94890   10.05280    9.24660    -999.25    0.27060    0.31450    2.37060  -85.12020   10.14630    9.24660
 4100.00000   13.76230   10.78950   13.76230  157.56980    0.23340    2.37960    -999.25    0.16910    0.19290    6.35790    0.23340   81.50070   81.50070   70.12450   74.50550   74.50550    6.35790    7.19810    -999.25    0.27800    0.32180    2.37960  -80.46410   14.00670    7.19810
 4150.00000   13.48960   11.29280   13.48960  124.40600    0.22030    2.35280    -999.25    0.18370    0.21060    8.03820    0.22030   84.73550   84.73550   69.40390   72.73350   72.73350    8.03820    7.23410    -999.25    0.27870    0.32260    2.35280  -90.35520    3.32530    7.23410
 4200.00000   14.96360   11.14060   14.96360  107.08900    0.21990    2.37760    -999.25    0.17120    0.19340    9.36090    0.21990   80.53730   80.53730   63.23920   64.29070   64.29070    9.36090    7.59860    -999.25    0.31820    0.36170    2.37760  -90.50000    2.38490    7.59860
 4250.00000   13.53670   11.08200   13.53670   48.46470    0.07820    2.52160    -999.25    0.07870    0.10830   20.63410    0.07820   73.77980   73.77980   48.84800   44.91490   44.91490   20.63410   13.74060    -999.25    0.31650    0.36000    2.52160  -84.06730    8.02710   13.74060
