~Version ---------------------------------------------------
VERS.      2.0 : CWLS log ASCII Standard -VERSION 2.0
WRAP.       NO : One line per depth step
CREA. 08/31/17 : LAS Creation Date
~Well ------------------------------------------------------
STRT.FT                     900.0 : START DEPTH
STOP.FT                   11750.0 : STOP DEPTH
STEP.FT                  50.00000 : STEP LENGTH
NULL.                     -999.25 : NULL VALUE
COMP.        MOBIL OIL CANADA LTD : COMPANY
WELL. MOBIL ET AL PINE CREEK 6-36 : WELL
FLD .                             : FIELD
LOC .                             : LOCATION
CTRY.                      CANADA : COUNTRY
SRVC.                Schlumberger : SERVICE COMPANY
DATE.                 21-Apr-1961 : LOGDATE
PROV.                     Alberta : PROVINCE
UWI .            100063605819W500 : UNIQUE WELL ID
SLAT.WGS84               54.05556 : SURFACE LATITUDE
SLON.WGS84              -116.6911 : SURFACE LONGITUDE
~Curve Information -----------------------------------------
DEPT  .FT         : Depth Curve
CALWS .IN         : CALIPER [MCALED]
CILDED.MMHO       : DEEP INDUCTION CONDUCTIVITY FROM IEL LOG
CONDWS.MMHO       : CONDUCTIVITY [CILDED]
DRESWS.OHMM       : DEEP RESISTIVITY [CALCULATED FROM 1000/CILDED, IF ILDED<1, ILDED]
DT1ED .US/F       : ACOUSTIC TRANSIT TIME SLOWNESS, DELTA T FROM SONIC LOG
DT2ED .US/F       : ACOUSTIC TRANSIT TIME SLOWNESS, DELTA T FROM SONIC LOG
DT3ED .US/F       : ACOUSTIC TRANSIT TIME SLOWNESS, DELTA T FROM SONIC LOG
DTED  .US/F       : ACOUSTIC TRANSIT TIME SLOWNESS, DELTA T FROM SONIC LOG
DTWS  .US/F       : COMPRESSIONAL SONIC [DTED]
GRSED .UgRa-Eq/T  : GAMMA RAY FROM SONIC LOG
GRWS  .GAPI       : GAMMA RAY [GRSED*16.5 FOR GAPI]
ILDED .OHMM       : DEEP INDUCTION FROM IEL LOG
MCALED.IN         : MLT [MICROLOG] CALIPER FROM MICRO LOG [ADJ. TO ILDED]
SNED  .OHMM       : SHORT NORMAL FROM IEL LOG
SPRED .MV         : SPONTANEOUS POTENTIAL FROM IEL LOG
SPWS  .MV         : SPONTANEOUS POTENTIAL [BASELINE 0 MV, SPRED]
SRESWS.OHMM       : SHALLOW RESISTIVITY [SNED]
~Params ----------------------------------------------------
PD  .                     GL : PERMANENT DATUM
LMF .                     KB : LOG MEASURED FROM
DAPD.FT                 13.6 : FEET ABOVE PERMANENT DATUM
DMF .                     KB : DRILLING MEASURED FROM
EKB .FT                 3433 : KELLY BUSHING
EGL .FT               3419.4 : GROUND LEVEL
DATE.               04/21/61 : RUN DATE
RUN .                      2 : RUN NUMBER
DD  .FT                11780 : DEPTH DRILLER
DL  .FT                11781 : DEPTH LOGGER
BLI .FT                11780 : BOTTOM LOG INTERVAL
TLI .FT                 8720 : TOP LOG INTERVAL
BS  .IN                    9 : BIT SIZE
BSD .FT                11780 : BIT SIZE AT DEPTH
DFT .              LIME BASE : DRILLING FLUID TYPE
DFV .                    120 : DRILLING FLUID VISCOSITY
DFPH.                     13 : DRILLING FLUID PH
DFL .                    8.8 : DRILLING FLUID LOSS
RMS .OHMM                1.0 : RESISTIVITY MUD SAMPLE
MST .DEGF                 55 : MUD SAMPLE TEMPERATURE
RMF .OHMM               0.22 : RESISTIVITY MUD FILTRATE SAMPLE
MFST.DEGF                203 : MUD FILTRATE SAMPLE TEMPERATURE
RMC .OHMM               0.39 : RESISTIVITY MUD CAKE
MCST.DEGF                203 : MUD CAKE SAMPLE TEMPERATURE
RMB .OHMM               0.28 : RESISTIVITY MUD AT BHT
TCS .HRS                   4 : TIME CIRCULATED STOPPED
LUN .                   2742 : LOGGING UNIT NUMBER
LUL .                    EDM : LOGGING UNIT LOCATION
ENGI.               MC CAMUS : RECORDING ENGINEER
WITN.           CURRIE MOORE : WITNESSED BY
CLNT.                A2DTECH : CLIENT CODE
ORIG.            2" 5" PRINT : ORIGIN OF DATA
UWI .       100063605819W500 : UNIQUE WELL ID
DICO. A2D Technologies, Inc. : DIGITIZING COMPANY
~Other -----------------------------------------------------
~ASCII -----------------------------------------------------
  900.00000    -999.25    -999.25    -999.25    -999.25    -999.25    -999.25    -999.25    -999.25    -999.25    2.02470   33.40760    -999.25    -999.25    -999.25    -999.25    -999.25    -999.25
  950.00000    -999.25    -999.25    -999.25    -999.25    -999.25    -999.25    -999.25    -999.25    -999.25    2.33780   38.57370    -999.25    -999.25    -999.25    -999.25    -999.25    -999.25
 1000.00000    -999.25    -999.25    -999.25    -999.25    -999.25    -999.25    -999.25    -999.25    -999.25    2.28100   37.63650    -999.25    -999.25    -999.25    -999.25    -999.25    -999.25
 1050.00000    -999.25    -999.25    -999.25    -999.25    -999.25    -999.25    -999.25    -999.25    -999.25    2.32550   38.37080    -999.25    -999.25    -999.25    -999.25    -999.25    -999.25
 1100.00000    -999.25    -999.25    -999.25    -999.25    -999.25    -999.25    -999.25    -999.25    -999.25    2.99840   49.47360    -999.25    -999.25    -999.25    -999.25    -999.25    -999.25
 1150.00000    -999.25    -999.25    -999.25    -999.25    -999.25    -999.25    -999.25    -999.25    -999.25    2.92750   48.30370    -999.25    -999.25    -999.25    -999.25    -999.25    -999.25
 1200.00000    -999.25    -999.25    -999.25    -999.25    -999.25    -999.25    -999.25    -999.25    -999.25    -999.25    -999.25    -999.25    -999.25    -999.25    -999.25    -999.25    -999.25
 1250.00000   11.52400   34.87770   34.87770   36.98160    -999.25    -999.25    -999.25   88.92170   88.92170    3.63780   60.02370   36.98160   11.52400   16.26320  -70.42030  -13.96550   16.26320
 1300.00000   12.50690  131.16190  131.16190    7.30040    -999.25    -999.25    -999.25   97.82030   97.82030    5.05690   83.43880    7.30040   12.50690    7.70790  -63.75660   -7.30180    7.70790
 1350.00000   12.18580   96.22740   96.22740    9.06660    -999.25    -999.25    -999.25  121.99930  121.99930    5.98780   98.79870    9.06660   12.18580    9.69300  -60.97910   -4.52430    9.69300
 1400.00000   12.34310   65.28170   65.28170   15.44780    -999.25    -999.25    -999.25   95.14660   95.14660    6.37040  105.11080   15.44780   12.34310   10.85470  -70.97000  -14.51520   10.85470
 1450.00000   10.59500   43.94170   43.94170   23.82870    -999.25    -999.25    -999.25  100.34460  100.34460    4.08360   67.37940   23.82870   10.59500   17.59830  -81.28320  -24.82840   17.59830
 1500.00000   12.19220   59.89700   59.89700   15.33440    -999.25    -999.25    -999.25  110.94660  110.94660    6.16510  101.72410   15.33440   12.19220   12.77410  -64.14070   -7.68590   12.77410
 1550.00000   11.99620  135.67890  135.67890    7.46570    -999.25    -999.25    -999.25  112.96660  112.96660    6.21700  102.58050    7.46570   11.99620    8.79180  -64.51230   -8.05750    8.79180
 1600.00000   11.89680   98.85940   98.85940    9.82200    -999.25    -999.25    -999.25   87.23000   87.23000    4.59190   75.76640    9.82200   11.89680   10.19590  -74.86760  -16.24340   10.19590
 1650.00000   11.51110  144.83940  144.83940    7.16580    -999.25    -999.25    -999.25  118.51750  118.51750    3.79820   62.67030    7.16580   11.51110   12.55200  -63.48100   -1.28180   12.55200
 1700.00000   10.80270  101.19740  101.19740    9.67230    -999.25    -999.25    -999.25   90.59730   90.59730    3.25940   53.78010    9.67230   10.80270    8.44110  -79.28570  -17.33810    8.44110
 1750.00000   10.22200   60.57140   60.57140   17.08170    -999.25    -999.25    -999.25   66.17900   66.17900    3.82880   63.17520   17.08170   10.22200   15.35100  -73.47300  -11.77540   15.35100
 1800.00000   11.74900  142.16820  142.16820    6.23170    -999.25    -999.25    -999.25   95.84770   95.84770    5.00120   82.51980    6.23170   11.74900    6.27380  -70.62610   -9.17850    6.27380
 1850.00000   12.06050   95.62800   95.62800   10.68250    -999.25    -999.25    -999.25   91.26610   91.26610    3.55320   58.62780   10.68250   12.06050    6.92200  -73.13760  -12.95610    6.92200
 1900.00000   13.20830  102.00490  102.00490    9.47480    -999.25    -999.25    -999.25   92.09860   92.09860    5.02440   82.90340    9.47480   13.20830    6.88050  -71.82930  -16.71670    6.88050
 1950.00000   14.13340  302.71660  302.71660    3.25770    -999.25    -999.25    -999.25  131.92320  131.92320    4.01880   66.31020    3.25770   14.13340    4.85570  -60.97070   -6.10820    4.85570
 2000.00000   13.88320  173.91710  173.91710    5.12510    -999.25    -999.25    -999.25  105.39270  105.39270    4.83980   79.85670    5.12510   13.88320    5.57600  -64.57430   -7.88790    5.57600
 2050.00000   13.55160  201.92970  201.92970    4.41220    -999.25    -999.25    -999.25   96.41120   96.41120    4.65570   76.81900    4.41220   13.55160    5.25340  -68.11440   -9.60410    5.25340
 2100.00000   12.27480  169.14350  169.14350    5.32180    -999.25    -999.25    -999.25   91.90230   91.90230    5.00030   82.50500    5.32180   12.27480    6.18610  -72.18390  -11.83770    6.18610
 2150.00000   10.75110   98.83290   98.83290    9.71780    -999.25    -999.25    -999.25   87.41510   87.41510    5.70840   94.18940    9.71780   10.75110    7.88620  -70.38050   -8.21030    7.88620
 2200.00000   10.14650  105.29790  105.29790    9.36770    -999.25    -999.25    -999.25   86.85310   86.85310    3.33080   54.95820    9.36770   10.14650    8.28950  -76.89790  -14.29740    8.28950
 2250.00000   10.55810   91.65080   91.65080   10.73780    -999.25    -999.25    -999.25   82.44690   82.44690    3.60230   59.43800   10.73780   10.55810    8.53710  -75.87440  -14.50190    8.53710
 2300.00000   12.42460  172.15420  172.15420    5.74620    -999.25    -999.25    -999.25   93.33590   93.33590    4.68180   77.24970    5.74620   12.42460    4.86980  -69.79940   -9.65500    4.86980
 2350.00000   11.04700  108.83100  108.83100    8.67480    -999.25    -999.25    -999.25   90.47750   90.47750    4.06170   67.01810    8.67480   11.04700    6.62360  -71.23690  -12.32860    6.62360
 2400.00000   12.94340  209.31680  209.31680    4.23060    -999.25    -999.25    -999.25   92.60900   92.60900    4.83910   79.84430    4.23060   12.94340    4.99960  -67.28800   -9.60780    4.99960
 2450.00000   10.74620  135.01450  135.01450    7.06670    -999.25    -999.25    -999.25   90.59470   90.59470    4.62450   76.30430    7.06670   10.74620    6.39790  -71.86890  -15.42490    6.39790
 2500.00000   10.16360  139.71700  139.71700    6.83630    -999.25    -999.25    -999.25   94.37630   94.37630    5.66870   93.53360    6.83630   10.16360    6.57060  -64.92860   -9.71260    6.57060
 2550.00000   10.82610  287.39560  287.39560    3.22710    -999.25    -999.25    -999.25   96.98500   96.98500    5.53620   91.34810    3.22710   10.82610    5.03890  -66.28540  -11.23200    5.03890
 2600.00000   11.55500  214.85770  214.85770    4.50830    -999.25    -999.25    -999.25  100.93500  100.93500    5.16260   85.18290    4.50830   11.55500    4.86710  -60.53950   -4.32500    4.86710
 2650.00000   11.42980  229.71080  229.71080    3.80780    -999.25    -999.25    -999.25   82.96130   82.96130    4.90330   80.90360    3.80780   11.42980    4.09330  -61.15780   -3.78970    4.09330
 2700.00000   11.66590  236.02710  236.02710    4.00480    -999.25    -999.25    -999.25  110.59340  110.59340    5.64660   93.16890    4.00480   11.66590    4.64150  -59.70070   -1.17150    4.64150
 2750.00000   11.21660  181.50020  181.50020    5.38040    -999.25    -999.25    -999.25  101.93520  101.93520    5.33410   88.01270    5.38040   11.21660    5.43930  -62.43330   -2.75050    5.43930
 2800.00000   12.02170  210.90850  210.90850    4.48290    -999.25    -999.25    -999.25   94.45230   94.45230    4.40150   72.62480    4.48290   12.02170    4.89900  -68.54310   -9.01780    4.89900
 2850.00000   13.46390  236.20920  236.20920    3.97400    -999.25    -999.25    -999.25   86.21060   86.21060    4.89170   80.71310    3.97400   13.46390    4.48020  -64.59440   -6.69380    4.48020
 2900.00000   12.03380   97.81430   97.81430    9.46560    -999.25    -999.25    -999.25   78.92480   78.92480    3.04750   50.28460    9.46560   12.03380    8.00310  -70.04550  -13.75900    8.00310
