~Version ---------------------------------------------------
VERS.      2.0 : CWLS log ASCII Standard -VERSION 2.0
WRAP.       NO : One line per depth step
CREA. 11/22/17 : LAS Creation Date
~Well ------------------------------------------------------
STRT.FT                          800.0 : START DEPTH
STOP.FT                         4400.0 : STOP DEPTH
STEP.FT                       50.00000 : STEP LENGTH
NULL.                          -999.25 : NULL VALUE
COMP. SOCONY MOBIL OIL OF CANADA, LTD. : COMPANY
WELL.      MOBIL RAM RIVER 15-25-37-12 : WELL
FLD .                                  : FIELD
LOC .                                  : LOCATION
CTRY.                           CANADA : COUNTRY
SRVC.                          Unknown : SERVICE COMPANY
DATE.                      29-Mar-1964 : LOGDATE
PROV.                          Alberta : PROVINCE
UWI .                 100013603712W500 : UNIQUE WELL ID
SLAT.WGS84                    52.21663 : SURFACE LATITUDE
SLON.WGS84                   -115.5782 : SURFACE LONGITUDE
~Curve Information -----------------------------------------
DEPT  .FT    : Depth Curve
CALSED.IN    : CALIPER FROM SONIC LOG
CALWS .IN    : CALIPER [CALSED]
CILDED.MMHO  : DEEP INDUCTION CONDUCTIVITY FROM RESISTIVITY LOG
CONDWS.MMHO  : CONDUCTIVITY [1000/DRESWS]
DRESWS.OHMM  : DEEP RESISTIVITY [1000/CILDED IF ILDED <, ILDED]
DT1ED .US/F  : DELTA TIME FROM SONIC LOG [ADJ. TO DTED]
DTED  .US/F  : DELTA TIME FROM SONIC LOG
DTWS  .US/F  : COMPRESSIONAL SONIC [DTED]
GRSED .GAPI  : GAMMA RAY FROM SONIC LOG
GRWS  .GAPI  : GAMMA RAY [GRSED]
ILDED .OHMM  : DEEP INDUCTION RESISTIVITY FROM RESISTIVITY LOG
SNED  .OHMM  : 16 INCH SHORT NORMAL RESISTIVITY FROM RESISTIVITY LOG
SPRED .MV    : SPONTANEOUS POTENTIAL FROM RESISTIVITY LOG
SPWS  .MV    : SPONTANEOUS POTENTIAL [BASELINE 0 MV, SPRED]
SRESWS.OHMM  : SHALLOW RESISTIVITY [SNED]
~Params ----------------------------------------------------
PD  .                     GL : PERMANENT DATUM
EPD .FT                 4283 : ELEVATION PERMANENT DATUM
LMF .                     KB : LOG MEASURED FROM
DAPD.FT                   13 : FEET ABOVE PERMANENT DATUM
EKB .FT                 4296 : KELLY BUSHING
EGL .FT                 4283 : GROUND LEVEL
DATE.               03/29/64 : RUN DATE
RUN .                      1 : RUN NUMBER
DD  .FT                 4437 : DEPTH DRILLER
DL  .FT                 4433 : DEPTH LOGGER
BLI .FT                 4432 : BOTTOM LOG INTERVAL
TLI .FT                  835 : TOP LOG INTERVAL
CBD .FT                  835 : CASING BOTTOM DRILLER
CBL .FT                  835 : CASING BOTTOM LOGGER
BS  .IN                    9 : BIT SIZE
BSD .FT                 4437 : BIT SIZE AT DEPTH
DFT .           POLY PLASTIC : DRILLING FLUID TYPE
DFD .                    8.6 : DRILLING FLUID DENSITY
DFV .                     36 : DRILLING FLUID VISCOSITY
DFPH.                     10 : DRILLING FLUID PH
DFL .                    8.8 : DRILLING FLUID LOSS
RMS .OHMM               2.15 : RESISTIVITY MUD SAMPLE
MST .DEGF                 65 : MUD SAMPLE TEMPERATURE
RMF .OHMM                1.8 : RESISTIVITY MUD FILTRATE SAMPLE
MFST.DEGF                 64 : MUD FILTRATE SAMPLE TEMPERATURE
RMC .OHMM                4.6 : RESISTIVITY MUD CAKE
MCST.DEGF                 64 : MUD CAKE SAMPLE TEMPERATURE
RMB .OHMM               1.48 : RESISTIVITY MUD AT BHT
TCS .HRS                   2 : TIME CIRCULATED STOPPED
LUN .                   4508 : LOGGING UNIT NUMBER
LUL .                    R D : LOGGING UNIT LOCATION
ENGI.                  CHASE : RECORDING ENGINEER
WITN.         LONGMORE PLATT : WITNESSED BY
CLNT.                A2DTECH : CLIENT CODE
ORIG.            2" 5" PRINT : ORIGIN OF DATA
UWI .       100013603712W500 : UNIQUE WELL ID
DICO. A2D Technologies, Inc. : DIGITIZING COMPANY
~Other -----------------------------------------------------
IEL-SONIC LOG RUN
~ASCII -----------------------------------------------------
# ...
 3100.00000    8.99100    8.99100    0.43070    1.68690  592.80180    -999.25   47.53410   47.53410   14.04050   14.04050  592.80180  344.56500  -96.53140  -22.01800  344.56500
 3150.00000    9.01450    9.01450   26.56530    4.16690  239.98400    -999.25   69.51910   69.51910  175.09010  175.09010  239.98400   80.52410  -91.16190  -18.36510   80.52410
 3200.00000    8.96750    8.96750    1.63940    1.69020  591.63420   44.72230   46.51390   46.51390   11.08950   11.08950  591.63420  503.77210  -84.07440  -12.99410  503.77210
 3250.00000    9.03750    9.03750   14.00310   14.03030   71.27430   76.29080   75.09520   75.09520  180.32680  180.32680   71.27430   90.75820  -87.04970  -17.68600   90.75820
 3300.00000    8.92750    8.92750    4.80710    3.51300  284.65440   57.86000   59.59290   59.59290  120.34100  120.34100  284.65440  212.92410  -84.58140  -16.93430  212.92410
 3350.00000    8.74460    8.74460    2.64400    1.88410  530.74490   52.28550   52.80660   52.80660  140.36920  140.36920  530.74490  489.66150  -90.07170  -24.14110  489.66150
 3400.00000    8.83420    8.83420    1.00100    1.67540  596.88840   47.58470   48.04680   48.04680   35.79200   35.79200  596.88840  452.91960  -84.88610  -20.67210  452.91960
 3450.00000    8.83990    8.83990    5.52570    4.31970  231.49530   51.00370   52.99510   52.99510   31.08720   31.08720  231.49530  187.17000  -96.87650  -34.37910  187.17000
 3500.00000    8.75570    8.75570    0.98860    1.68840  592.26180   51.37590   50.35520   50.35520   43.69200   43.69200  592.26180  440.53780  -78.58390  -17.80300  440.53780
 3550.00000    8.82710    8.82710   11.33470   10.77740   92.78710   70.69490   67.53890   67.53890  189.46090  189.46090   92.78710  149.15560  -67.60560   -8.54130  149.15560
 3600.00000    8.77350    8.77350    1.39430    1.68840  592.28310   50.19730   50.03800   50.03800   30.46840   30.46840  592.28310  496.77090  -63.02590   -5.64940  496.77090
 3650.00000    8.77460    8.77460    1.61870    1.69010  591.69690    -999.25   51.00590   51.00590   32.19920   32.19920  591.69690  511.69550  -62.61430   -6.81020  511.69550
 3700.00000    8.80750    8.80750    1.75810    1.68600  593.10780    -999.25   52.81290   52.81290   31.70700   31.70700  593.10780  302.43790  -63.52470   -9.29310  302.43790
 3750.00000    8.82150    8.82150    7.39530    6.37820  156.78440    -999.25   74.38640   74.38640   97.59860   97.59860  156.78440  171.94780  -66.18130  -13.52220  171.94780
 3800.00000    8.74680    8.74680    6.10280    5.05590  197.79010    -999.25   63.13830   63.13830   96.14870   96.14870  197.79010  168.39470  -64.84490  -13.75830  168.39470
 3850.00000    8.76690    8.76690    1.24940    1.68040  595.11190    -999.25   49.55630   49.55630   15.10810   15.10810  595.11190  682.71740  -53.89370   -4.13890  682.71740
 3900.00000    8.75860    8.75860    1.02950    1.68620  593.04590    -999.25   49.66260   49.66260   22.17630   22.17630  593.04590  540.40480  -72.42050  -23.10710  540.40480
 3950.00000    8.82390    8.82390    1.71920    1.68120  594.81600    -999.25   53.13500   53.13500   14.19760   14.19760  594.81600  488.34010  -76.31340  -27.44140  488.34010
 4000.00000    8.82180    8.82180    1.22980    1.68060  595.01710    -999.25   50.63990   50.63990   22.61840   22.61840  595.01710  516.10340  -64.58090  -16.15040  516.10340
 4050.00000    8.85020    8.85020    0.90050    1.84970  540.63390    -999.25   50.01420   50.01420   15.88640   15.88640  540.63390  579.73990  -69.68230  -21.69320  579.73990
 4100.00000    8.93190    8.93190    0.93710    1.69060  591.52000    -999.25   49.09960   49.09960   14.10670   14.10670  591.52000  565.43470  -54.81410   -7.26640  565.43470
 4150.00000    8.83640    8.83640   11.34180   10.70130   93.44650    -999.25   67.13250   67.13250   75.05540   75.05540   93.44650  180.97760  -55.71660   -8.61030  180.97760
 4200.00000    8.81400    8.81400    2.70540    1.76570  566.35570    -999.25   53.49500   53.49500   28.77790   28.77790  566.35570  251.86100  -48.61110   -1.96370  251.86100
 4250.00000    8.63030    8.63030    2.91250    1.94280  514.72800    -999.25   54.37840   54.37840   47.22250   47.22250  514.72800  269.65310  -50.57930   -3.99480  269.65310
 4300.00000    8.78680    8.78680    1.61860    1.68930  591.95840    -999.25   50.44030   50.44030   28.13880   28.13880  591.95840  339.01070  -52.77980   -6.19530  339.01070
 4350.00000    8.92630    8.92630   23.06500   24.21140   41.30290    -999.25   79.09100   79.09100  114.24980  114.24980   41.30290   62.23350  -59.45860  -12.87410   62.23350
 4400.00000    8.61640    8.61640   22.39690   24.24850   41.23960    -999.25   80.63110   80.63110  134.21100  134.21100   41.23960   61.00150  -60.40500  -13.82050   61.00150
