~Version ---------------------------------------------------
VERS.      2.0 : CWLS log ASCII Standard -VERSION 2.0
WRAP.       NO : One line per depth step
CREA. 09/06/13 : LAS Creation Date
~Well ------------------------------------------------------
STRT.M                    450.0 : START DEPTH
STOP.M                   4100.0 : STOP DEPTH
STEP.M                 50.00000 : STEP LENGTH
NULL.                   -999.25 : NULL VALUE
COMP.       CANTERRA ENERGY LTD : COMPANY
WELL. CANTERRA EDSON 6-21-51-18 : WELL
FLD .                     EDSON : FIELD
LOC .                           : LOCATION
CTRY.                    CANADA : COUNTRY
SRVC.              Schlumberger : SERVICE COMPANY
DATE.               24-Jan-1986 : LOGDATE
PROV.                   Alberta : PROVINCE
UWI .          100062105118W500 : UNIQUE WELL ID
SLAT.WGS84             53.41479 : SURFACE LATITUDE
SLON.WGS84            -116.5963 : SURFACE LONGITUDE
~Curve Information -----------------------------------------
DEPT    .M      : DEPTH METER
CALDED  .MM     : CALIPER FROM DENSITY LOG [ADJ. TO RESISTIVITY LOG]
CALSED  .MM     : CALIPER FROM DENSITY LOG [ADJ. TO RESISTIVITY LOG]
CALWS   .MM     : CALIPER [CALDED]
CONDWS  .MMHO   : CONDUCTIVITY [1000/DRESWS]
DCORWS  .KG/M3  : DENSITY CORRECTION [DRHOED]
DENWS   .KG/M3  : FORMATION BULK DENSITY [RHOBED]
DPHISSED.V/V    : DENSITY POROSITY SANDSTONE [M=2650,F=1000] FROM DENSITY LOG
DPOLSWS .V/V    : DENSITY POROSITY LIMESTONE [CALC FROM DENWS,M=2710,F=1000]
DRESWS  .OHMM   : DEEP RESISTIVITY [ILDED SPL. TO LLDED @2999M]
DRHOED  .KG/M3  : BULK DENSITY CORRECTION  FROM DENSITY LOG [ADJ. TO RESISTIVITY LOG]
DTED    .US/M   : DELTA-T FROM SONIC LOG [ADJ. TO RESISTIVITY LOG]
DTWS    .US/M   : COMPRESSIONAL SONIC [DTED]
GRRED   .GAPI   : GAMMA RAY FROM RESISTIVITY LOG
GRSED   .GAPI   : GAMMA RAY FROM SONIC LOG [ADJ. TO RESISTIVITY LOG]
GRWS    .GAPI   : GAMM ARY [SGRDDED SPL. TO GRRED @3001M-3014M]
ILDED   .OHMM   : DEEP INDUCTION RESISTIVITY FROM RESISTIVITY LOG
ILMED   .OHMM   : MEDIUM INDUCTION RESISTIVITY FROM RESISTIVITY LOG
LLDED   .OHMM   : DEEP RESISTIVITY FROM LATEROLOG
LLSED   .OHMM   : SHALLOW RESISTIVITY FROM LATEROLOG
MRESWS  .OHMM   : MEDIUM RESISTIVITY [ILMED]
NPHILSED.V/V    : NEUTRON POROSITY LIMESTONE FROM DENSITY LOG [ADJ. TO RESISTIVITY LOG]
NPHISSED.V/V    : NEUTRON POROSITY SANDSTONE FROM DENSITY LOG [ADJ. TO RESISTIVITY LOG]
NPOLSWS .V/V    : NEUTRON POROSITY LIMESTONE [NPHILSED]
PEFED   .B/E    : PHOTOELECTRIC FACTOR FROM DENSITY LOG [ADJ. TO RESISTIVITY LOG]
PEFWS   .B/E    : PHOTOELECTRIC FACTOR [PEFED]
PROXED  .OHMM   : PROXIMITY RESISTIVITY FROM RESISTIVITY LOG
RHOBED  .KG/M3  : BULK DENSITY FROM DENSITY LOG [ADJ. TO RESISTIVITY LOG]
SGRDDED .GAPI   : GAMMA RAY FROM DENSITY LOG [ADJ. TO RESISTIVITY LOG]
SPRED   .MV     : SPONTANEOUS POTENTIAL FROM RESISTIVITY LOG
SPWS    .MV     : SPONTANEOUS POTENTIAL [BASELINE 0 MV,SPRED]
SRESWS  .OHMM   : SHALLOW RESISTIVITY [LLSED]
TENDED  .N      : TENSION FROM DENSITY LOG [ADJ. TO RESISTIVITY LOG]
TENRED  .N      : TENSION FROM RESISTIVITY LOG
TENSED  .N      : TENSION FROM SONIC LOG [ADJ. TO RESISTIVITY LOG]
~Params ----------------------------------------------------
PD  .                         GL : PERMANENT DATUM
EPD .M                      1000 : ELEVATION PERMANENT DATUM
LMF .                         KB : LOG MEASURED FROM
DAPD.M                      10.6 : FEET ABOVE PERMANENT DATUM
DMF .                         KB : DRILLING MEASURED FROM
EKB .M                    1010.6 : KELLY BUSHING
EGL .M                      1000 : GROUND LEVEL
DATE.                   01/24/86 : RUN DATE
RUN .                          2 : RUN NUMBER
DD  .M                      4115 : DEPTH DRILLER
DL  .M                      4115 : DEPTH LOGGER
BLI .M                      4110 : BOTTOM LOG INTERVAL
TLI .M                      3020 : TOP LOG INTERVAL
CS  .MM                      244 : CASING SIZE
CBD .M                      3020 : CASING BOTTOM DRILLER
CBL .M                      3030 : CASING BOTTOM LOGGER
BS  .MM                      216 : BIT SIZE
BSD .M                      4115 : BIT SIZE AT DEPTH
DFT .                   GEL CHEM : DRILLING FLUID TYPE
DFD .                       1140 : DRILLING FLUID DENSITY
DFV .                         79 : DRILLING FLUID VISCOSITY
DFPH.                         11 : DRILLING FLUID PH
DFL .                        6.5 : DRILLING FLUID LOSS
MSS .                      PRESS : MUD SAMPLE SOURCE
RMS .OHMM                   0.73 : RESISTIVITY MUD SAMPLE
MST .DEGC                     23 : MUD SAMPLE TEMPERATURE
RMF .OHMM                   0.57 : RESISTIVITY MUD FILTRATE SAMPLE
MFST.DEGC                     21 : MUD FILTRATE SAMPLE TEMPERATURE
MFSS.                       MEAS : MUD FILTRATE SAMPLE SOURCE
MCSS.                       MEAS : MUD CAKE SAMPLE SOURCE
RMB .OHMM                  0.238 : RESISTIVITY MUD AT BHT
TCS .HRS                     730 : TIME CIRCULATED STOPPED
TLAB.HRS                    1850 : TIME LOGGER AT BOTTOM
LUN .                       8393 : LOGGING UNIT NUMBER
LUL .                        EDM : LOGGING UNIT LOCATION
ENGI.                      YOUNG : RECORDING ENGINEER
WITN.                    TIMMONS : WITNESSED BY
CLNT.                    A2DTECH : CLIENT CODE
ORIG. 6.5"/100M 16.5"/100M PRINT : ORIGIN OF DATA
UWI .           100062105118W500 : UNIQUE WELL ID
DICO.     A2D Technologies, Inc. : DIGITIZING COMPANY
~Other -----------------------------------------------------
DIL-SFL-CNL-LDT-BCS LOG RAN
SGRDDED ID DUPLICATE WITH GRRED @3018M-4005 HENCE SGRDDED SHOWING GAP
GRRED VARIFY BOTH LOG ID:-DILSFL_10110535,CNLD_9698906 @3018M-4005
~ASCII -----------------------------------------------------
# ...
 1500.00000  315.23760  268.75660  315.23760   23.24460   15.18210 2448.30150    0.12080    0.15300   43.02080   15.18210  241.59350  241.59350   36.40540   35.91260   36.40540   43.02080   46.08830    -999.25    -999.25   46.08830    0.21140    -999.25    0.21140    2.84700    2.84700    -999.25 2448.30150   37.20440    -999.25    -999.25    -999.25 10868.73340 44929.96620 10125.52050
 1550.00000  456.72380  290.06420  456.72380   66.03190  206.45190 2294.55390    0.21360    0.24300   15.14420  206.45190  250.32040  250.32040   59.62020   60.66200   59.62020   15.14420   14.49580    -999.25    -999.25   14.49580    0.35720    -999.25    0.35720    3.03290    3.03290    -999.25 2294.55390   63.91710    -999.25    -999.25    -999.25 11397.40820 46270.75310 10469.85840
 1600.00000  351.73850  283.65020  351.73850  125.80670  192.74570 2215.38090    0.24960    0.28930    7.94870  192.74570  283.84580  283.84580   65.40420   65.45390   65.40420    7.94870    7.63540    -999.25    -999.25    7.63540    0.39170    -999.25    0.39170    3.06340    3.06340    -999.25 2215.38090   65.09790    -999.25    -999.25    -999.25 11135.06640 46636.21550 10550.85160
 1650.00000  375.02890  285.60850  375.02890   75.94690    -999.25 2317.39260    0.17130    0.22960   13.16710    -999.25  271.16250  271.16250   68.79670   68.51880   68.79670   13.16710   12.32490    -999.25    -999.25   12.32490    0.32350    -999.25    0.32350    3.20940    3.20940    -999.25 2317.39260   71.89000    -999.25    -999.25    -999.25 11526.68070 48035.38530 10608.59670
 1700.00000  373.30830  274.65920  373.30830   59.14850  181.47690 2060.42180    0.35140    0.37990   16.90660  181.47690  231.96000  231.96000   62.57730   61.89430   62.57730   16.90660   15.53960    -999.25    -999.25   15.53960    0.30380    -999.25    0.30380    3.17640    3.17640    -999.25 2060.42180   61.39320    -999.25    -999.25    -999.25 11905.96880 48935.57690 10986.41110
 1750.00000  312.81930  280.81910  312.81930   54.76480   20.28040 2538.12390    0.06420    0.10050   18.25990   20.28040  251.13010  251.13010   63.59700   64.67990   63.59700   18.25990   17.12370    -999.25    -999.25   17.12370    0.30100    -999.25    0.30100    3.30620    3.30620    -999.25 2538.12390   68.33560    -999.25    -999.25    -999.25 11930.44820 49487.79910 11202.53910
 1800.00000  313.08280  277.43800  313.08280   63.14290   -0.56370 2626.70440    0.01410    0.04870   15.83710   -0.56370  242.83260  242.83260   87.46120   87.69180   87.46120   15.83710   15.46420    -999.25    -999.25   15.46420    0.23670    -999.25    0.23670    3.04780    3.04780    -999.25 2626.70440   82.91240    -999.25    -999.25    -999.25 11913.29100 50683.26760 11394.32520
 1850.00000  313.97200  275.08550  313.97200   55.57930   -5.99720 2608.04270    0.02470    0.05960   17.99230   -5.99720  246.72120  246.72120   92.21980   93.02250   92.21980   17.99230   17.27660    -999.25    -999.25   17.27660    0.23540    -999.25    0.23540    3.18110    3.18110    -999.25 2608.04270   87.33210    -999.25    -999.25    -999.25 12426.81450 52302.69820 11630.36130
 1900.00000  315.06010  273.29460  315.06010   77.48090   -9.88260 2616.25980    0.01800    0.05480   12.90640   -9.88260  264.51140  264.51140   99.80270   96.32400   99.80270   12.90640   12.29820    -999.25    -999.25   12.29820    0.27580    -999.25    0.27580    3.24700    3.24700    -999.25 2616.25980   97.33790    -999.25    -999.25    -999.25 12417.32130 52629.75950 11880.27340
 1950.00000  312.83820  268.68950  312.83820  104.80530    0.80970 2623.53290    0.01560    0.05060    9.54150    0.80970  277.60300  277.60300  108.79870  109.16810  108.79870    9.54150    9.10630    -999.25    -999.25    9.10630    0.25450    -999.25    0.25450    3.57690    3.57690    -999.25 2623.53290  110.33360    -999.25    -999.25    -999.25 12732.16700 53709.23080 12124.00490
 2000.00000  312.75320  268.85520  312.75320  117.70800   10.65650 2752.40970   -0.04760   -0.02480    8.49560   10.65650  253.37520  253.37520   85.32770   86.79240   85.32770    8.49560    8.11290    -999.25    -999.25    8.11290    0.21980    -999.25    0.21980    3.31270    3.31270    -999.25 2752.40970   90.71730    -999.25    -999.25    -999.25    -999.25 54756.91730 12283.49800
 2050.00000  313.17730  269.13330  313.17730   89.00280    9.40350 2607.73800    0.02610    0.05980   11.23560    9.40350  246.36340  246.36340   95.50580   95.82790   95.50580   11.23560   10.72930    -999.25    -999.25   10.72930    0.19870    0.23850    0.19870    3.11060    3.11060    -999.25 2607.73800   89.09860    -999.25    -999.25    -999.25    -999.25 56407.65060 12593.49020
 2100.00000  318.15340  270.61010  318.15340  117.19760   -2.54250 2603.97430    0.02740    0.06200    8.53260   -2.54250  275.08310  275.08310  106.27440  106.34980  106.27440    8.53260    8.80540    -999.25    -999.25    8.80540    0.26140    0.30500    0.26140    3.30890    3.30890    -999.25 2603.97430  102.55190    -999.25    -999.25    -999.25    -999.25 56891.13000 12772.80570
 2150.00000  317.79090  270.04710  317.79090   93.80600    0.50300 2607.13530    0.02590    0.06020   10.66030    0.50300  249.77140  249.77140  100.72220   99.54200  100.72220   10.66030   11.00570    -999.25    -999.25   11.00570    0.24540    0.28530    0.24540    2.90580    2.90580    -999.25 2607.13530   94.66300    -999.25    -999.25    -999.25    -999.25 57823.81000 13093.36720
 2200.00000  322.72560  272.34490  322.72560   76.21840   10.57240 2655.59560   -0.00190    0.03180   13.12020   10.57240  242.89730  242.89730   94.47210   95.98510   94.47210   13.12020   13.60730    -999.25    -999.25   13.60730    0.19940    0.23920    0.19940    2.70880    2.70880    -999.25 2655.59560   97.10420    -999.25    -999.25    -999.25    -999.25 59112.14350 13255.71780
 2250.00000  325.40240  269.90340  325.40240   95.89470   -5.09490 2593.38090    0.03420    0.06820   10.42810   -5.09490  249.61730  249.61730   95.25690   91.64950   95.25690   10.42810   10.77570    -999.25    -999.25   10.77570    0.19660    0.23780    0.19660    2.70420    2.70420    -999.25 2593.38090   93.49930    -999.25    -999.25    -999.25    -999.25 60085.30900 13439.15530
 2300.00000  315.86460  271.68360  315.86460   99.04320   10.60310 2627.35960    0.01320    0.04830   10.09660   10.60310  269.51280  269.51280  112.56640  111.65860  112.56640   10.09660   10.41770    -999.25    -999.25   10.41770    0.23550    0.27980    0.23550    3.22840    3.22840    -999.25 2627.35960  109.65770    -999.25    -999.25    -999.25    -999.25 60761.44310 13606.58010
 2350.00000  315.01080  266.64510  315.01080   69.53380   20.88660 2629.13510    0.01280    0.04730   14.38150   20.88660  264.15510  264.15510  110.04720  110.47060  110.04720   14.38150   15.45640    -999.25    -999.25   15.45640    0.25520    0.29520    0.25520    3.38060    3.38060    -999.25 2629.13510  103.95790    -999.25    -999.25    -999.25    -999.25 61874.27170 13897.26950
 2400.00000  330.41040  274.01190  330.41040   83.21200    5.55540 2627.07030    0.01460    0.04850   12.01750    5.55540  282.15490  282.15490  122.83260  122.70780  122.83260   12.01750   12.40650    -999.25    -999.25   12.40650    0.26450    0.30710    0.26450    3.63680    3.63680    -999.25 2627.07030  108.25220    -999.25    -999.25    -999.25    -999.25 62907.05440 14142.06250
 2450.00000  330.33910  272.91430  330.33910  108.88500    4.51040 2627.28810    0.01400    0.04840    9.18400    4.51040  282.36960  282.36960  107.25580  107.05950  107.25580    9.18400    9.47750    -999.25    -999.25    9.47750    0.27770    0.32170    0.27770    3.64440    3.64440    -999.25 2627.28810  101.06600    -999.25    -999.25    -999.25    -999.25 64217.15090 14349.11330
 2500.00000  336.02270  278.52900  336.02270  138.89850   10.68560 2608.43090    0.02330    0.05940    7.19950   10.68560  271.22700  271.22700   99.45630   99.07410   99.45630    7.19950    7.54250    -999.25    -999.25    7.54250    0.27720    0.31810    0.27720    2.96530    2.96530    -999.25 2608.43090   91.12300    -999.25    -999.25    -999.25    -999.25 65314.93640 14530.25200
