~Version ---------------------------------------------------
VERS.      2.0 : CWLS log ASCII Standard -VERSION 2.0
WRAP.       NO : One line per depth step
CREA. 10/21/19 : LAS Creation Date
~Well ------------------------------------------------------
STRT.FT                              300.0 : START DEPTH
STOP.FT                             9200.0 : STOP DEPTH
STEP.FT                           50.00000 : STEP LENGTH
NULL.                              -999.25 : NULL VALUE
COMP.          CANADA-CITIES SERVICE, LTD. : COMPANY
WELL. C.S. PAN AM GOODWIN LAKE 10-22-59-13 : WELL
FLD .                                      : FIELD
LOC .                                      : LOCATION
CTRY.                               CANADA : COUNTRY
SRVC.                         Schlumberger : SERVICE COMPANY
DATE.                          03-Aug-1963 : LOGDATE
PROV.                              Alberta : PROVINCE
UWI .                     100102205913W500 : UNIQUE WELL ID
SLAT.WGS84                        54.11761 : SURFACE LATITUDE
SLON.WGS84                       -115.8598 : SURFACE LONGITUDE
~Curve Information -----------------------------------------
DEPT  .FT    : Depth Curve
CALWS .IN    : CALIPER [MCALED]
CILDED.MMHO  : CONDUCTIVITY FROM RESISTIVITY LOG
CONDWS.MMHO  : CONDUCTIVITY [1000/DRESWS]
DRESWS.OHMM  : DEEP RESISTIVITY [1000/CILDED, IF ILDED < 2, ILDED]
DTED  .US/F  : DELTA-TIME 3' SPACING FROM SONIC LOG
DTWS  .US/F  : COMPRESSIONAL SONIC [DTED]
GRED  .GAPI  : GAMMA RAY FROM GR LOG
GRSED .GAPI  : GAMMA RAY FROM SONIC LOG
GRWS  .GAPI  : GAMMA RAY [GRED SPL. TO GRSED @ 3107']
ILDED .OHMM  : DEEP INDUCTION LOG RESISTIVITY FROM RESISTIVITY LOG
MCALED.IN    : MLT (MICROLOG) CALIPER FROM MICROLATEROLOG
SNED  .OHMM  : 16 INCH SHORT NORMAL RESISTIVITY FROM RESISTIVITY LOG
SPRED .MV    : SPONTANEOUS POTENTIAL FROM RESISTIVITY LOG
SPWS  .MV    : SPONTANEOUS POTENTIAL [BASELINE 0 MV] [SPRED]
SRESWS.OHMM  : SHALLOW RESISTIVITY [SNED]
~Params ----------------------------------------------------
PD  .                     GL : PERMANENT DATUM
EPD .FT                 2562 : ELEVATION PERMANENT DATUM
LMF .                     KB : LOG MEASURED FROM
DAPD.FT                   18 : FEET ABOVE PERMANENT DATUM
EKB .FT                 2580 : KELLY BUSHING
EGL .FT                 2562 : GROUND LEVEL
DATE.               08/03/63 : RUN DATE
RUN .                      2 : RUN NUMBER
DD  .FT                 9232 : DEPTH DRILLER
DL  .FT                 9224 : DEPTH LOGGER
BLI .FT                 9223 : BOTTOM LOG INTERVAL
TLI .FT                 5650 : TOP LOG INTERVAL
CBD .FT               946.76 : CASING BOTTOM DRILLER
BS  .IN                7.875 : BIT SIZE
BSD .FT                 9232 : BIT SIZE AT DEPTH
DFT .           GEL OIL CHEM : DRILLING FLUID TYPE
DFD .                    9.7 : DRILLING FLUID DENSITY
DFV .                    135 : DRILLING FLUID VISCOSITY
DFPH.                    9.5 : DRILLING FLUID PH
DFL .                    4.3 : DRILLING FLUID LOSS
RMS .OHMM               1.64 : RESISTIVITY MUD SAMPLE
MST .DEGF                 72 : MUD SAMPLE TEMPERATURE
RMF .OHMM               0.85 : RESISTIVITY MUD FILTRATE SAMPLE
MFST.DEGF                 84 : MUD FILTRATE SAMPLE TEMPERATURE
RMC .OHMM               1.75 : RESISTIVITY MUD CAKE
MCST.DEGF                 83 : MUD CAKE SAMPLE TEMPERATURE
RMB .OHMM               0.66 : RESISTIVITY MUD AT BHT
TCS .HRS                 2.5 : TIME CIRCULATED STOPPED
LUN .                   3232 : LOGGING UNIT NUMBER
LUL .                     WC : LOGGING UNIT LOCATION
ENGI.               HATLELID : RECORDING ENGINEER
WITN.              ABERNATHY : WITNESSED BY
CLNT.                A2DTECH : CLIENT CODE
ORIG.            2" 5" PRINT : ORIGIN OF DATA
UWI .       100102205913W500 : UNIQUE WELL ID
DICO. A2D Technologies, Inc. : DIGITIZING COMPANY
~Other -----------------------------------------------------
~ASCII -----------------------------------------------------
# ...
 2600.00000   11.14840  134.68430  139.24860    7.18140   82.83970   82.83970    -999.25   65.75630   65.75630    7.18140   11.14840    7.67450  -66.97840   -1.35410    7.67450
 2650.00000   10.96250  139.90510  147.01560    6.80200   94.26850   94.26850    -999.25   65.49170   65.49170    6.80200   10.96250    7.97180  -66.27430   -0.86460    7.97180
 2700.00000    9.72680   33.76270   30.59910   32.68070   84.23180   84.23180    -999.25   39.80850   39.80850   32.68070    9.72680   36.10410  -89.43490  -24.23990   36.10410
 2750.00000   10.43220  111.85610  125.99380    7.93690   90.20930   90.20930    -999.25   59.40070   59.40070    7.93690   10.43220   11.76110  -68.66600   -3.68560   11.76110
 2800.00000   11.68910  168.85630  153.60750    6.51010  107.60670  107.60670    -999.25   64.09350   64.09350    6.51010   11.68910    7.07340  -66.14960   -1.38390    7.07340
 2850.00000    9.99410  124.71450  119.85380    8.34350   95.11890   95.11890    -999.25   68.51990   68.51990    8.34350    9.99410    9.12430  -65.36260   -0.81150    9.12430
 2900.00000   10.62980  178.00760  178.60970    5.59880   94.26120   94.26120    -999.25   69.71040   69.71040    5.59880   10.62980    6.33550  -64.35740   -0.02100    6.33550
 2950.00000    -999.25  166.07040  163.14010    6.12970   91.91460   91.91460    -999.25   72.07640   72.07640    6.12970    -999.25    6.86060  -64.72810   -0.60630    6.86060
 3000.00000    -999.25  162.76180  163.61520    6.11190   92.95890   92.95890    -999.25   82.05120   82.05120    6.11190    -999.25    7.05880  -65.29760   -1.39050    7.05880
 3050.00000    -999.25  121.67990  120.81820    8.27690   89.35770   89.35770    -999.25   97.02820   97.02820    8.27690    -999.25    8.83940  -67.36710   -3.67460    8.83940
 3100.00000    -999.25  127.23270  129.26580    7.73600   91.16000   91.16000    -999.25   93.56470   93.56470    7.73600    -999.25    8.62590  -68.47960   -5.00180    8.62590
 3150.00000    -999.25  130.92320  133.81510    7.47300   93.93110   93.93110    -999.25  100.66020  100.66020    7.47300    -999.25    8.46660  -67.83310   -4.56990    8.46660
 3200.00000    -999.25  129.88000  133.11330    7.51240   98.03670   98.03670    -999.25   97.18940   97.18940    7.51240    -999.25    9.23280  -66.50460   -3.45610    9.23280
 3250.00000    -999.25   96.43190   98.37680   10.16500   95.75520   95.75520    -999.25  146.41820  146.41820   10.16500    -999.25   14.05890  -63.92250   -1.08860   14.05890
 3300.00000    -999.25  113.39700  114.91740    8.70190   92.80000   92.80000    -999.25  110.52160  110.52160    8.70190    -999.25   11.27480  -64.58930   -1.97010   11.27480
 3350.00000    -999.25  112.06160  110.11520    9.08140   90.20510   90.20510    -999.25  102.32480  102.32480    9.08140    -999.25   10.54600  -64.52790   -2.12330   10.54600
 3400.00000    -999.25  138.49420  132.95930    7.52110   93.61790   93.61790    -999.25   88.38660   88.38660    7.52110    -999.25    8.38490  -66.40410   -4.21420    8.38490
 3450.00000    -999.25  102.10360  104.16340    9.60030   80.92830   80.92830    -999.25   91.46010   91.46010    9.60030    -999.25   10.52230  -64.97750   -3.00220   10.52230
 3500.00000    -999.25  137.53740  142.98380    6.99380   92.44620   92.44620    -999.25   94.23530   94.23530    6.99380    -999.25    8.36570  -64.22340   -2.46280    8.36570
 3550.00000    -999.25  134.93730  137.40980    7.27750   88.65360   88.65360    -999.25  104.68440  104.68440    7.27750    -999.25    8.96690  -63.45510   -1.90910    8.96690
 3600.00000    -999.25  138.30710  141.10740    7.08680   89.78450   89.78450    -999.25  106.98540  106.98540    7.08680    -999.25    8.55310  -62.91960   -1.58830    8.55310
 3650.00000    -999.25  126.24260  128.30220    7.79410   93.10250   93.10250    -999.25   85.50030   85.50030    7.79410    -999.25    9.61380  -62.95450   -1.83780    9.61380
 3700.00000    -999.25  119.16590  120.25740    8.31550   89.41850   89.41850    -999.25  104.52240  104.52240    8.31550    -999.25    9.72860  -67.51020   -6.60820    9.72860
 3750.00000    -999.25  150.58400  150.85000    6.62910   90.70920   90.70920    -999.25  113.48410  113.48410    6.62910    -999.25    7.88130  -72.10200  -11.41460    7.88130
 3800.00000    -999.25  106.75180  104.28720    9.58890   86.07890   86.07890    -999.25  102.19740  102.19740    9.58890    -999.25   11.28250  -70.80690  -10.33420   11.28250
 3850.00000    -999.25   95.58620   92.94460   10.75910   82.98500   82.98500    -999.25   92.44010   92.44010   10.75910    -999.25   12.09980  -69.98530   -9.72720   12.09980
 3900.00000    -999.25  124.26060  124.26370    8.04740   83.96800   83.96800    -999.25   99.43650   99.43650    8.04740    -999.25    9.74950  -69.69970   -9.65630    9.74950
 3950.00000    -999.25  108.28920  112.01720    8.92720   85.68730   85.68730    -999.25   95.76120   95.76120    8.92720    -999.25   11.06570  -68.83470   -9.00590   11.06570
 4000.00000    -999.25  121.33430  123.23920    8.11430   84.66090   84.66090    -999.25  104.99790  104.99790    8.11430    -999.25   11.32350  -68.21040   -8.59630   11.32350
 4050.00000    -999.25  110.74770  110.86110    9.02030  107.86530  107.86530    -999.25  124.84990  124.84990    9.02030    -999.25   12.04750  -66.86490   -7.46540   12.04750
 4100.00000    -999.25  115.22270  115.92720    8.62610   93.06210   93.06210    -999.25  125.67790  125.67790    8.62610    -999.25   12.52100  -65.34870   -6.16390   12.52100
 4150.00000    -999.25  117.51650  118.71830    8.42330   90.82320   90.82320    -999.25  119.93100  119.93100    8.42330    -999.25   13.51010  -64.71030   -5.74010   13.51010
 4200.00000    -999.25   91.57660   90.66430   11.02970   95.52840   95.52840    -999.25  140.77490  140.77490   11.02970    -999.25   17.08020  -62.89090   -4.13540   17.08020
 4250.00000    -999.25  113.77950  115.86950    8.63040   94.16550   94.16550    -999.25  105.83950  105.83950    8.63040    -999.25   14.02130  -68.05650   -9.51560   14.02130
 4300.00000    -999.25  142.17840  145.38900    6.87810   85.35480   85.35480    -999.25  108.77580  108.77580    6.87810    -999.25    9.86330  -69.64360  -11.31740    9.86330
 4350.00000    -999.25  174.49730  174.43180    5.73290   85.29070   85.29070    -999.25  115.28330  115.28330    5.73290    -999.25    7.49750  -69.47940  -11.36780    7.49750
 4400.00000    -999.25  139.09980  142.24550    7.03010   81.16410   81.16410    -999.25  101.64200  101.64200    7.03010    -999.25    9.76480  -68.41230  -10.51540    9.76480
 4450.00000    -999.25  197.98230  203.50850    4.91380   88.89170   88.89170    -999.25  110.78430  110.78430    4.91380    -999.25    6.87220  -68.45990  -10.77760    6.87220
 4500.00000    -999.25  168.99570  172.31280    5.80340   86.88340   86.88340    -999.25  104.70420  104.70420    5.80340    -999.25    8.24550  -67.73520  -10.26760    8.24550
 4550.00000    -999.25  194.59320  193.53960    5.16690   90.09000   90.09000    -999.25  111.05990  111.05990    5.16690    -999.25    7.05370  -66.13850   -8.88550    7.05370
 4600.00000    -999.25  148.95850  150.77730    6.63230   86.55020   86.55020    -999.25  137.11840  137.11840    6.63230    -999.25   10.30970  -63.66840   -6.63010   10.30970
 4650.00000    -999.25  372.46840  368.25630    2.71550   95.17890   95.17890    -999.25  100.23420  100.23420    2.71550    -999.25    3.91290  -63.68940   -6.86580    3.91290
 4700.00000   12.13980  310.78890  310.34700    3.22220   97.56830   97.56830    -999.25  106.91580  106.91580    3.22220   12.13980    4.42750  -63.17680   -6.56780    4.42750
 4750.00000    9.33550  175.72490  177.56940    5.63160   80.04620   80.04620    -999.25  114.50270  114.50270    5.63160    9.33550    8.03670  -60.64680   -4.25250    8.03670
 4800.00000    8.53070   77.52530   78.04940   12.81240   72.03550   72.03550    -999.25   57.33760   57.33760   12.81240    8.53070   18.50130  -71.89890  -16.34300   18.50130
 4850.00000   12.82730  199.95320  213.78940    4.67750   89.14080   89.14080    -999.25   74.27340   74.27340    4.67750   12.82730    7.07120  -60.72680   -6.20860    7.07120
