~Version ---------------------------------------------------
VERS.      2.0 : CWLS log ASCII Standard -VERSION 2.0
WRAP.       NO : One line per depth step
CREA. 11/20/17 : LAS Creation Date
~Well ------------------------------------------------------
STRT.FT                         1450.0 : START DEPTH
STOP.FT                        13550.0 : STOP DEPTH
STEP.FT                       50.00000 : STEP LENGTH
NULL.                          -999.25 : NULL VALUE
COMP. AMOCO CANADA PETROLEUM CO., LTD. : COMPANY
WELL.            AMOCO TONY 7-16-62-24 : WELL
FLD .                                  : FIELD
LOC .                                  : LOCATION
CTRY.                           CANADA : COUNTRY
SRVC.                     Schlumberger : SERVICE COMPANY
DATE.                      27-Nov-1977 : LOGDATE
PROV.                          Alberta : PROVINCE
UWI .                 100071606224W500 : UNIQUE WELL ID
SLAT.WGS84                    54.36239 : SURFACE LATITUDE
SLON.WGS84                   -117.5361 : SURFACE LONGITUDE
~Curve Information -----------------------------------------
DEPT    .FT    : Depth Curve
CALDED  .IN    : CALIPER FROM DENSITY LOG [ADJ. TO RESISTIVITY LOG]
CALSED  .IN    : CALIPER FROM  SONIC LOG [ADJ. TO RESISTIVITY LOG]
CALWS   .IN    : CALIPER [CALDED]
CONDWS  .MMHO  : CONDUCTIVITY [1000/DRESWS]
DCORWS  .IN    : DENSITY CORRECTION [DRHOED]
DENWS   .IN    : FORMATION BULK DENSITY [CALC. FROM DPOLSWS M=2.71, F=1.00]
DPHILSED.V/V   : DENSITY POROSITY LIMESTONE [M=2.71, F=1.00] FROM DENSITY LOG [ADJ. TO RESISTIVITY LOG]
DPHISSED.V/V   : DENSITY POROSITY SANDSTONE [M=2.65, F=1.00] FROM DENSITY LOG [ADJ. TO RESISTIVITY LOG]
DPOLSWS .V/V   : DENSITY POROSITY LIMESTONE [DPHISSED MATRIX CONVERSION FOR LS, SPL. TO DPHILSED @8451' & SPL. TO CALC. FROM RHOBED M=2.71, F=1.00]
DRESWS  .OHMM  : DEEP RESISTIVITITY [ILDED]
DRHOED  .IN    : DENSITY CORRECTION FROM DENSITY LOG [ADJ. TO RESISTIVITY LOG]
DTED    .US/F  : DELTA TIME FROM SONIC LOG [ADJ. TO RESISTIVITY LOG]
DTWS    .US/F  : COMPRESSIONAL SONIC [DTED]
GRDED   .GAPI  : GAMMA RAY FROM DENSITY LOG [ADJ. TO RESISTIVITY LOG]
GRSED   .GAPI  : GAMMA RAY FROM SONIC LOG [ADJ. TO RESISTIVITY LOG]
GRWS    .GAPI  : GAMMA RAY [GRSED]
ILDED   .OHMM  : DEEP INDUCTION FROM RESISTIVITY LOG
ILMED   .OHMM  : MEDIUM INDUCTION FROM RESISTIVITY LOG
LL8ED   .OHMM  : 8 INCH LATEROLOG RESISTIVITY FROM RESISTIVITY LOG
MRESWS  .OHMM  : MEDIUM RESISTIVITY [ILMED]
NPHILSED.V/V   : NEUTRON POROSITY LIMESTONE FROM DENSITY LOG [ADJ. TO RESISTIVITY LOG]
NPHISSED.V/V   : NEUTRON POROSITY SANDSTONE FROM DENSITY LOG [ADJ. TO RESISTIVITY LOG]
NPOLSWS .V/V   : NEUTRON POROSITY LIMESTONE [NPHISSED MATRIX CONVERSION FOR LIMESTONE, SPL. TO NPHILSED @ 8424']
RHOBED  .IN    : BULK DENSITY FROM DENSITY LOG [ADJ. TO RESISTIVITY LOG]
SPRED   .MV    : SPONTANEOUS POTENTIAL FROM RESISTIVITY LOG
SPWS    .MV    : SPONTANEOUS POTENTIAL [BASELINE 0 MV,SPRED]
SRESWS  .OHMM  : SHALLOW RESISTIVITY [LL8ED]
~Params ----------------------------------------------------
PD  .                     GL : PERMANENT DATUM
EPD .FT                 5402 : ELEVATION PERMANENT DATUM
LMF .                     KB : LOG MEASURED FROM
DAPD.FT                   17 : FEET ABOVE PERMANENT DATUM
DATE.               11/27/77 : RUN DATE
RUN .                      2 : RUN NUMBER
DD  .FT                13685 : DEPTH DRILLER
DL  .FT                13579 : DEPTH LOGGER
BLI .FT                13573 : BOTTOM LOG INTERVAL
TLI .FT                 8448 : TOP LOG INTERVAL
CBD .FT                 8448 : CASING BOTTOM DRILLER
CBL .FT                 8448 : CASING BOTTOM LOGGER
BSD .FT                13685 : BIT SIZE AT DEPTH
DFT .                    8.6 : DRILLING FLUID TYPE
DFD .                     86 : DRILLING FLUID DENSITY
CLNT.                A2DTECH : CLIENT CODE
ORIG.          1" 2.5" PRINT : ORIGIN OF DATA
UWI .       100071606224W500 : UNIQUE WELL ID
DICO. A2D Technologies, Inc. : DIGITIZING COMPANY
~Other -----------------------------------------------------
DIL-BHC-CNL-FDC LOG RUN
RHOB & DRHO FROM 2" SCALE
~ASCII -----------------------------------------------------
# ...
 11850.00000   14.97930   13.57540   14.97930  238.19000    0.19960    2.02280    0.40190    -999.25    0.40190    4.19970    0.19960   76.49250   76.49250   87.82250   95.88190   94.36720    4.19970    4.80700    5.25500    4.80700    0.27870    -999.25    0.27870    2.02480  -15.20620  -34.17880    5.25500
 11900.00000   14.96840   12.06110   14.96840   97.39180    0.25090    2.25010    0.26900    -999.25    0.26900   10.26780    0.25090   73.31420   73.31420  101.55620  111.04370  108.89450   10.26780   12.82220   11.23390   12.82220    0.21410    -999.25    0.21410    2.25600  -13.82510  -33.13680   11.23390
 11950.00000    9.79970   10.17090    9.79970   94.29780   -0.01130    2.68500    0.01460    -999.25    0.01460   10.60670   -0.01130   63.11020   63.11020   68.26870   76.97870   78.58360   10.60670   12.00400   12.95660   12.00400    0.12050    -999.25    0.12050    2.69040    2.33940  -17.31410   12.95660
 12000.00000    9.51400   10.04850    9.51400   81.51020    0.02630    2.72490   -0.00870    -999.25   -0.00870   12.26840    0.02630   63.47120   63.47120   68.52560   75.48700   73.51030   12.26840   13.81010   17.92460   13.81010    0.13040    -999.25    0.13040    2.72520   -0.95730  -20.95050   17.92460
 12050.00000    9.96870   10.67330    9.96870  110.36190   -0.02550    2.64570    0.03760    -999.25    0.03760    9.06110   -0.02550   64.38130   64.38130   80.43330   86.17360   87.65920    9.06110    9.92270   12.64070    9.92270    0.14270    -999.25    0.14270    2.66590    1.03220  -19.40670   12.64070
 12100.00000   10.29270   10.59430   10.29270  144.35020    0.10270    2.54810    0.09460    -999.25    0.09460    6.92760    0.10270   69.69930   69.69930   98.03780  102.51990  103.23200    6.92760    7.35750    9.85450    7.35750    0.17150    -999.25    0.17150    2.57190    8.99690  -14.20010    9.85450
 12150.00000   10.41210   10.37280   10.41210   79.88940    0.12560    2.53590    0.10180    -999.25    0.10180   12.51730    0.12560   67.99080   67.99080   87.84450   94.55750   93.46420   12.51730   14.88950   12.09800   14.88950    0.16880    -999.25    0.16880    2.54820    3.48590  -22.44730   12.09800
 12200.00000   14.97330   12.56930   14.97330  143.03800    0.13590    2.35300    0.20880    -999.25    0.20880    6.99140    0.13590   80.54190   80.54190  111.99880  125.29670  126.82670    6.99140    7.72280    9.36980    7.72280    0.28200    -999.25    0.28200    2.33600  -12.24000  -40.93130    9.36980
 12250.00000    9.48530   11.24570    9.48530   44.86900    0.04130    2.53920    0.09990    -999.25    0.09990   22.28710    0.04130   80.66390   80.66390  128.69010  137.93070  136.66100   22.28710   27.45590   47.52040   27.45590    0.24050    -999.25    0.24050    2.55340   -2.26280  -33.69570   47.52040
 12300.00000    9.14000    9.73150    9.14000    3.42750   -0.01530    2.52740    0.10680    -999.25    0.10680  291.75640   -0.01530   71.18590   71.18590  110.30100  120.07130  120.07130  291.75640 1372.17410  651.96170 1372.17410    0.15730    -999.25    0.15730    2.54320   -9.98730  -44.16190  651.96170
 12350.00000    9.18960    9.71450    9.18960    4.11160   -0.00520    2.50360    0.12070    -999.25    0.12070  243.62050   -0.00520   74.67700   74.67700  194.12880  194.76210  194.76210  243.62050  387.10240  218.88990  387.10240    0.19570    -999.25    0.19570    2.50010   -4.09100  -41.02370  218.88990
 12400.00000   11.14610   10.97730   11.14610   62.51210    0.08110    2.41840    0.17050    -999.25    0.17050   15.99690    0.08110   88.83410   88.83410  173.78580  182.81220  189.78550   15.99690   14.69570   42.61230   14.69570    0.25660    -999.25    0.25660    2.42180   20.07850  -19.13710   42.61230
 12450.00000   10.22760    9.73330   10.22760   13.88320    0.14140    2.57700    0.07770    -999.25    0.07770   74.01820    0.14140   53.62750   53.62750   35.28700   37.11360   37.51470   74.01820   69.16820   80.16900   69.16820    0.06460    -999.25    0.06460    2.58280   21.84520  -17.21180   80.16900
 12500.00000    9.36590    9.56500    9.36590    1.77810    0.03230    2.64890    0.03580    -999.25    0.03580  562.38850    0.03230   50.80040   50.80040   24.93960   25.43180   22.58330  562.38850 1468.37660  869.28800 1468.37660    0.01140    -999.25    0.01140    2.64660    1.78280  -37.11640  869.28800
 12550.00000   11.51060   10.10540   11.51060    0.67400    0.25020    2.36750    0.20030    -999.25    0.20030 1483.63760    0.25020   50.12480   50.12480   20.71570   20.20620   21.16370 1483.63760 1567.28670  379.79900 1567.28670    0.00960    -999.25    0.00960    2.37920  -16.26660  -55.00810  379.79900
 12600.00000    9.24600    9.53350    9.24600   60.30510   -0.01170    2.67280    0.02170    -999.25    0.02170   16.59390   -0.01170   57.39030   57.39030   67.06230   70.27910   74.23350   16.59390   19.85100   22.96080   19.85100    0.09580    -999.25    0.09580    2.68300    6.76870  -31.81410   22.96080
 12650.00000    9.32470    9.48190    9.32470   21.84330    0.00060    2.62230    0.05130    -999.25    0.05130   45.78070    0.00060   56.39070   56.39070   51.50820   55.77670   56.09950   45.78070   55.19060   34.39220   55.19060    0.07870    -999.25    0.07870    2.62370    2.38310  -36.04230   34.39220
 12700.00000   11.38170    9.85970   11.38170    0.68290    0.20470    2.40960    0.17570    -999.25    0.17570 1464.43560    0.20470   49.26800   49.26800   14.71410   15.46930   15.24880 1464.43560 1497.04700  194.35200 1497.04700    0.00870    -999.25    0.00870    2.45370  -58.44830  -96.71510  194.35200
 12750.00000   10.65720    9.89910   10.65720    3.47750    0.14890    2.46580    0.14280    -999.25    0.14280  287.55910    0.14890   49.31970   49.31970   24.94020   24.10270   24.10270  287.55910  272.70350  128.95480  272.70350    0.01850    -999.25    0.01850    2.47380  -52.25330  -90.36230  128.95480
 12800.00000    9.37200    9.51020    9.37200   36.23150    0.06480    2.50580    0.11940    -999.25    0.11940   27.60030    0.06480   56.35740   56.35740   44.98560   45.77280   45.77280   27.60030   47.64810  106.55630   47.64810    0.04030    -999.25    0.04030    2.57070  -16.42140  -54.37270  106.55630
 12850.00000   12.04280   10.17030   12.04280    4.57380    0.23360    2.32140    0.22730    -999.25    0.22730  218.89140    0.23360   47.82570   47.82570   82.18210   78.43710   83.99710  218.89140 1336.06170  276.09860 1336.06170    0.05520    -999.25    0.05520    2.33150  -35.49670  -73.28930  276.09860
 12900.00000    8.87600    9.38980    8.87600   10.49330   -0.01560    2.65900    0.02980    -999.25    0.02980   95.29850   -0.01560   49.83620   49.83620  101.49090  107.39090  113.17180   95.29850  113.97020   96.77160  113.97020    0.07290    -999.25    0.07290    2.67270    4.61710  -33.01810   96.77160
 12950.00000   10.49570    9.44250   10.49570   49.44410    0.19180    2.58160    0.07510    -999.25    0.07510   20.23190    0.19180   64.46970   64.46970  191.01970  209.26790  209.26790   20.23190   19.21170   29.20930   19.21170    0.16950    -999.25    0.16950    2.59140   -0.46380  -37.94030   29.20930
 13000.00000   12.73190   10.38490   12.73190   66.34160    0.21550    2.24230    0.27350    -999.25    0.27350   15.07350    0.21550   65.44180   65.44180  155.09170  161.05090  161.25020   15.07350   13.88420   13.91750   13.88420    0.20880    -999.25    0.20880    2.22800   20.56430  -16.75450   13.91750
 13050.00000   12.71990   12.30840   12.71990  146.08560    0.12770    2.14810    0.32860    -999.25    0.32860    6.84530    0.12770   83.68640   83.68640  165.04460  176.47210  174.81280    6.84530    5.98600    8.37500    5.98600    0.36790    -999.25    0.36790    2.15400    4.47150  -32.68960    8.37500
 13100.00000   10.46910   10.07810   10.46910   51.74970    0.25100    2.42340    0.16760    -999.25    0.16760   19.32420    0.25100   63.74650   63.74650  105.37340  113.62190  118.60790   19.32420   22.40920   24.80530   22.40920    0.15650    -999.25    0.15650    2.46610   32.20970   -5.06930   24.80530
