~Version ---------------------------------------------------
VERS.      2.0 : CWLS log ASCII Standard -VERSION 2.0
WRAP.       NO : One line per depth step
CREA. 11/22/17 : LAS Creation Date
~Well ------------------------------------------------------
STRT.FT                       1150.0 : START DEPTH
STOP.FT                      11000.0 : STOP DEPTH
STEP.FT                     50.00000 : STEP LENGTH
NULL.                        -999.25 : NULL VALUE
COMP.         PACIFIC PETROLEUMS LTD : COMPANY
WELL. PACIFIC PAN AM TONY 10-9-63-21 : WELL
FLD .                                : FIELD
LOC .                                : LOCATION
CTRY.                         CANADA : COUNTRY
SRVC.             LANE-WELLS COMPANY : SERVICE COMPANY
DATE.                    20-Jan-1968 : LOGDATE
PROV.                        Alberta : PROVINCE
UWI .               100100906321W500 : UNIQUE WELL ID
SLAT.WGS84                  54.43786 : SURFACE LATITUDE
SLON.WGS84                 -117.1097 : SURFACE LONGITUDE
~Curve Information -----------------------------------------
DEPT  .FT    : Depth Curve
CALWS .IN    : CALIPER [MCALED]
CILDED.MMHO  : DEEP INDUCTION CONDUCTIVITY FROM RESISTIVITY LOG
CONDWS.MMHO  : CONDUCTIVITY [1000/DRESWS]
DRESWS.OHMM  : DEEP RESISTIVITY [1000/CILDED,IF ILDED<2,ILDED]
DTED  .US/F  : DELTA-T FROM SONIC LOG
DTWS  .US/F  : COMPRESSIONAL SONIC [DTED]
GRSED .GAPI  : GAMMA RAY FROM SONIC LOG
GRWS  .GAPI  : GAMMA RAY [GRSED]
ILDED .OHMM  : DEEP INDUCTION RESISTIVITY FROM RESISTIVITY LOG
MCALED.IN    : MICRO CALIPER  FROM MINI LOG
SNED  .OHMM  : 16 INCH  SHORT NORMAL FROM RESISTIVITY LOG
SPRED .MV    : SPONTANEOUS POTENTIAL FROM RESISTIVITY LOG
SPWS  .MV    : SPONTANEOUS POTENTIAL [BASELINE 0 MV,SPRED]
SRESWS.OHMM  : SHALLOW RESISTIVITY [SNED]
~Params ----------------------------------------------------
PD  .                     GL : PERMANENT DATUM
EPD .FT                 2637 : ELEVATION PERMANENT DATUM
LMF .                     KB : LOG MEASURED FROM
DAPD.FT                   15 : FEET ABOVE PERMANENT DATUM
DMF .                     KB : DRILLING MEASURED FROM
EKB .FT                 2652 : KELLY BUSHING
EGL .FT                 2637 : GROUND LEVEL
DATE.               01/20/68 : RUN DATE
RUN .                      1 : RUN NUMBER
DD  .FT                11040 : DEPTH DRILLER
DL  .FT                11036 : DEPTH LOGGER
BLI .FT                11032 : BOTTOM LOG INTERVAL
TLI .FT                 1126 : TOP LOG INTERVAL
CS  .IN               13.375 : CASING SIZE
CBD .FT                 1125 : CASING BOTTOM DRILLER
CBL .FT                 1126 : CASING BOTTOM LOGGER
BS  .IN                 8.75 : BIT SIZE
BSD .FT                11040 : BIT SIZE AT DEPTH
DFT .                MUD GEL : DRILLING FLUID TYPE
DFD .                    9.3 : DRILLING FLUID DENSITY
DFV .                     95 : DRILLING FLUID VISCOSITY
DFPH.                     10 : DRILLING FLUID PH
DFL .                      8 : DRILLING FLUID LOSS
MSS .                   CIRC : MUD SAMPLE SOURCE
RMS .OHMM                1.5 : RESISTIVITY MUD SAMPLE
MST .DEGF                 62 : MUD SAMPLE TEMPERATURE
RMF .OHMM                1.4 : RESISTIVITY MUD FILTRATE SAMPLE
MFST.DEGF                 62 : MUD FILTRATE SAMPLE TEMPERATURE
RMC .OHMM                1.6 : RESISTIVITY MUD CAKE
MCST.DEGF                 62 : MUD CAKE SAMPLE TEMPERATURE
MFSS.                   MEAS : MUD FILTRATE SAMPLE SOURCE
MCSS.                   MEAS : MUD CAKE SAMPLE SOURCE
RMB .OHMM                0.4 : RESISTIVITY MUD AT BHT
TCS .HRS                   4 : TIME CIRCULATED STOPPED
LUN .                   1255 : LOGGING UNIT NUMBER
LUL .                     RD : LOGGING UNIT LOCATION
ENGI.                DOMSTAD : RECORDING ENGINEER
WITN.                HEUSDEN : WITNESSED BY
CLNT.                A2DTECH : CLIENT CODE
ORIG.            2" 5" PRINT : ORIGIN OF DATA
UWI .       100100906321W500 : UNIQUE WELL ID
DICO. A2D Technologies, Inc. : DIGITIZING COMPANY
~Other -----------------------------------------------------
~ASCII -----------------------------------------------------
 1150.00000    -999.25  186.62290  180.36220    5.54440  103.85880  103.85880   63.50570   63.50570    5.54440    -999.25    6.35850  -98.18660   -7.91930    6.35850
 1200.00000    -999.25  145.18580  124.93910    8.00390  103.67670  103.67670   54.33180   54.33180    8.00390    -999.25    9.61750 -101.93950  -11.03160    9.61750
 1250.00000    -999.25  145.05590  131.87570    7.58290  106.58360  106.58360   53.98030   53.98030    7.58290    -999.25    9.35000 -101.07690   -9.52840    9.35000
 1300.00000    -999.25  272.15360  234.20850    4.26970  138.43290  138.43290   55.73660   55.73660    4.26970    -999.25    5.84450  -99.15760   -6.96850    5.84450
 1350.00000    -999.25  157.62670  144.38350    6.92600  107.84660  107.84660   58.39420   58.39420    6.92600    -999.25    7.80980  -96.80090   -3.97120    7.80980
 1400.00000    -999.25  270.54100  239.61280    4.17340  110.23830  110.23830   56.92510   56.92510    4.17340    -999.25    5.04740  -98.65360   -5.96060    5.04740
 1450.00000    -999.25  157.90950  142.27180    7.02880  101.86650  101.86650   37.25630   37.25630    7.02880    -999.25    8.34710  -97.87690   -5.39760    8.34710
 1500.00000    -999.25   91.45680   85.83540   11.65020   78.68790   78.68790   29.65890   29.65890   11.65020    -999.25   13.66660  -98.27590   -6.01020   13.66660
 1550.00000    -999.25  271.00550  242.71840    4.12000  133.47320  133.47320   79.19700   79.19700    4.12000    -999.25    4.56600  -96.26640   -4.21440    4.56600
 1600.00000    -999.25  243.58890  203.64940    4.91040  116.74620  116.74620   66.49590   66.49590    4.91040    -999.25    5.94370  -98.34970   -6.51130    5.94370
 1650.00000    -999.25  224.77530  211.75670    4.72240  114.99400  114.99400   82.01320   82.01320    4.72240    -999.25    5.80410  -95.62400   -3.99930    5.80410
 1700.00000    -999.25  200.20570  186.94730    5.34910  102.41260  102.41260   59.65340   59.65340    5.34910    -999.25    6.89130  -95.73360   -4.32250    6.89130
 1750.00000    -999.25  121.57380  108.97990    9.17600   88.06260   88.06260   46.28410   46.28410    9.17600    -999.25   12.55060  -98.12670   -6.92930   12.55060
 1800.00000    -999.25  351.14280  301.01440    3.32210  123.62440  123.62440   63.66340   63.66340    3.32210    -999.25    4.19760  -94.55070   -3.56690    4.19760
 1850.00000    -999.25  184.14590  170.42450    5.86770  101.66640  101.66640   58.31310   58.31310    5.86770    -999.25    6.22980  -94.77540   -4.00530    6.22980
 1900.00000    -999.25  219.11790  194.97740    5.12880  129.93080  129.93080   54.67100   54.67100    5.12880    -999.25    6.11830  -95.99520   -5.43870    6.11830
 1950.00000    -999.25  195.36400  172.85190    5.78530  102.37120  102.37120   62.00490   62.00490    5.78530    -999.25    6.86960  -93.67610   -3.33330    6.86960
 2000.00000    -999.25  214.21670  194.54500    5.14020  108.64410  108.64410   63.56640   63.56640    5.14020    -999.25    5.81000  -95.33400   -5.20480    5.81000
 2050.00000    -999.25  117.91440  109.70200    9.11560  109.21710  109.21710   72.60300   72.60300    9.11560    -999.25   12.45820  -96.38610   -6.47060   12.45820
 2100.00000    -999.25  259.13290  231.86260    4.31290  123.41390  123.41390   51.03310   51.03310    4.31290    -999.25    5.31470  -95.41150   -5.70960    5.31470
 2150.00000    -999.25  265.76420  238.82310    4.18720   98.29850   98.29850   58.06430   58.06430    4.18720    -999.25    4.62160  -95.54460   -6.05640    4.62160
 2200.00000    -999.25  224.32700  195.39650    5.11780  122.00270  122.00270   66.58930   66.58930    5.11780    -999.25    5.71190  -96.88880   -7.61420    5.71190
 2250.00000    -999.25  225.40690  201.45450    4.96390   98.87690   98.87690   56.17180   56.17180    4.96390    -999.25    6.36660  -91.15370   -2.09280    6.36660
 2300.00000    -999.25  392.78960  334.47050    2.98980  105.44620  105.44620   71.85030   71.85030    2.98980    -999.25    3.78090 -104.35220  -15.32700    3.78090
 2350.00000    -999.25  235.43600  193.97140    5.15540  109.03380  109.03380   82.51140   82.51140    5.15540    -999.25    5.95270 -100.63690  -11.64000    5.95270
 2400.00000    -999.25  250.95280  225.50460    4.43450  103.60300  103.60300   90.87490   90.87490    4.43450    -999.25    4.92620  -93.24130   -4.27280    4.92620
 2450.00000    -999.25  108.45500  101.25350    9.87620   97.39990   97.39990   70.65790   70.65790    9.87620    -999.25   12.75210 -100.25120  -11.31100   12.75210
 2500.00000    -999.25  102.57760  100.70090    9.93040  100.18610  100.18610   64.39900   64.39900    9.93040    -999.25   12.26180 -100.85880  -11.94690   12.26180
 2550.00000    -999.25   87.31640   83.01990   12.04530  101.05320  101.05320   69.63700   69.63700   12.04530    -999.25   15.67250 -103.79190  -14.90840   15.67250
 2600.00000    -999.25  298.55560  251.79400    3.97150  109.44950  109.44950   82.86980   82.86980    3.97150    -999.25    4.79400  -91.85260   -2.99740    4.79400
 2650.00000    -999.25  109.86300  100.50660    9.94960   91.50710   91.50710   67.07860   67.07860    9.94960    -999.25   14.41720  -96.21950   -7.39260   14.41720
 2700.00000    -999.25  147.87760  133.71490    7.47860   91.45460   91.45460   74.94990   74.94990    7.47860    -999.25    8.92830  -94.45050   -5.65200    8.92830
 2750.00000    -999.25   96.84860   91.14940   10.97100   87.04740   87.04740   69.19910   69.19910   10.97100    -999.25   15.64480  -95.31770   -6.54750   15.64480
 2800.00000    -999.25  230.19490  196.22460    5.09620  106.09980  106.09980   73.75420   73.75420    5.09620    -999.25    5.83480  -94.44360   -5.70170    5.83480
 2850.00000    -999.25  229.63140  195.56460    5.11340  108.91690  108.91690   73.50660   73.50660    5.11340    -999.25    5.59680  -93.19460   -4.48110    5.59680
 2900.00000   12.68420  138.58580  117.31990    8.52370   93.73260   93.73260   54.94550   54.94550    8.52370   12.68420    9.15360  -94.90880   -6.22360    9.15360
 2950.00000   11.98630  144.35850  135.71470    7.36840   92.25770   92.25770   71.14560   71.14560    7.36840   11.98630    8.61370  -92.76550   -4.10860    8.61370
 3000.00000   11.24760  202.15550  178.32310    5.60780   84.43510   84.43510   70.22610   70.22610    5.60780   11.24760    6.25600  -94.09210   -5.46360    6.25600
 3050.00000   12.01010  195.70980  189.58420    5.27470   91.77180   91.77180   70.67650   70.67650    5.27470   12.01010    6.36190  -93.74920   -5.14900    6.36190
 3100.00000   11.19270   76.43860   79.06890   12.64720   78.33410   78.33410   63.91590   63.91590   12.64720   11.19270   14.24180  -99.07310  -10.50120   14.24180
 3150.00000   11.76540  171.45940  149.59980    6.68450   99.95030   99.95030   54.30390   54.30390    6.68450   11.76540    8.00410  -93.57100   -5.02740    8.00410
 3200.00000   11.84750  188.79940  172.35730    5.80190   99.34430   99.34430   52.55780   52.55780    5.80190   11.84750    7.78050  -95.71630   -7.20110    7.78050
 3250.00000   12.07830  232.23690  196.47910    5.08960   97.74050   97.74050   56.15990   56.15990    5.08960   12.07830    5.91670  -93.80080   -5.31390    5.91670
 3300.00000   10.80840   81.19910   74.24680   13.46860   82.78150   82.78150    7.05750    7.05750   13.46860   10.80840   17.23100  -96.32870   -7.87010   17.23100
 3350.00000   12.57200  184.57690  159.07360    6.28640   97.44440   97.44440   40.86970   40.86970    6.28640   12.57200    7.19970  -94.28310   -5.85290    7.19970
 3400.00000   12.62770  146.05780  134.32190    7.44480   93.74940   93.74940   61.81320   61.81320    7.44480   12.62770    8.13230  -93.94200   -5.54010    8.13230
 3450.00000   14.56110  136.82200  128.79630    7.76420   95.94270   95.94270   56.31170   56.31170    7.76420   14.56110    8.63300  -93.89310   -5.51960    8.63300
 3500.00000   13.94320  148.41550  134.48630    7.43570  103.81140  103.81140   64.82780   64.82780    7.43570   13.94320    9.11350  -91.04430   -2.69910    9.11350
 3550.00000   13.76540  108.29730  102.03980    9.80010   94.98500   94.98500   84.41790   84.41790    9.80010   13.76540   13.85530  -93.27730   -4.96040   13.85530
