~Version ---------------------------------------------------
VERS.      2.0 : CWLS log ASCII Standard -VERSION 2.0
WRAP.       NO : One line per depth step
CREA. 11/17/17 : LAS Creation Date
~Well ------------------------------------------------------
STRT.FT                             900.0 : START DEPTH
STOP.FT                            9050.0 : STOP DEPTH
STEP.FT                          50.00000 : STEP LENGTH
NULL.                             -999.25 : NULL VALUE
COMP. EDWIN L. COX SOUTHERN DRILLING INC. : COMPANY
WELL.               COX AZTEC 11-30-69-19 : WELL
FLD .                                     : FIELD
LOC .                                     : LOCATION
CTRY.                              CANADA : COUNTRY
SRVC.                       Dresser Atlas : SERVICE COMPANY
DATE.                         18-Dec-1971 : LOGDATE
PROV.                             Alberta : PROVINCE
UWI .                    100113006919W500 : UNIQUE WELL ID
SLAT.WGS84                       55.00587 : SURFACE LATITUDE
SLON.WGS84                      -116.8901 : SURFACE LONGITUDE
~Curve Information -----------------------------------------
DEPT  .FT    : Depth Curve
CALSED.IN    : CALIPER FROM SONIC LOG [ADJ TO RESISTIVITY LOG]
CALWS .IN    : CALIPER [CASED]
CILDED.MMHO  : DEEP INDUCTION CONDUCTIVITY FROM RESSITIVITY LOG
CONDWS.MMHO  : CONDUCTIVITY [1000/DRESWS]
DRESWS.OHMM  : DEEP RESISTIVITY [1000/CILDED IF ILDED <1, ILDED & SPL. TO ILDED @ 3160']
DTED  .US/F  : DELTA-TIME FROM SONIC LOG [ADJ TO RESISTIVITY LOG]
DTWS  .US/F  : COMPRESSIONAL SONIC [DTED]
GRSED .GAPI  : GAMMA RAY FROM SONIC LOG [ADJ TO RESISTIVITY LOG]
GRWS  .GAPI  : GAMMA RAY [GRSED]
ILDED .OHMM  : DEEP INDUCTION RESISTIVITY FROM RESISTIVITY LOG
ILMED .OHMM  : MEDIUM INDUCTION  RESISTIVITY FROM RESISTIVITY LOG
MRESWS.OHMM  : MEDIUM RESISTIVITY [ILMED]
SFLED .OHMM  : SPHERICALLY FOCUSED LOG FROM RESISTIVITY LOG
SPRED .MV    : SPONTANEOUS POTENTIAL FROM RESISTIVITY LOG
SPWS  .MV    : SPONTANEOUS POTENTIAL [BASELINE 0 MV, SPRED]
SRESWS.OHMM  : SHALLOW RESISTIVITY [SFLED]
~Params ----------------------------------------------------
PD  .                     GL : PERMANENT DATUM
EPD .FT               2315.7 : ELEVATION PERMANENT DATUM
LMF .                     KB : LOG MEASURED FROM
DAPD.FT                 15.4 : FEET ABOVE PERMANENT DATUM
DMF .                     KB : DRILLING MEASURED FROM
EKB .FT               2331.1 : KELLY BUSHING
EGL .FT               2315.7 : GROUND LEVEL
DATE.               12/18/71 : RUN DATE
RUN .                      1 : RUN NUMBER
DD  .FT                 9106 : DEPTH DRILLER
DL  .FT                 9087 : DEPTH LOGGER
BLI .FT                 9085 : BOTTOM LOG INTERVAL
TLI .FT                  935 : TOP LOG INTERVAL
CS  .IN                8.625 : CASING SIZE
CBD .FT                  930 : CASING BOTTOM DRILLER
CBL .FT                  935 : CASING BOTTOM LOGGER
BS  .IN                7.875 : BIT SIZE
BSD .FT                 9106 : BIT SIZE AT DEPTH
DFT .                MUD GEL : DRILLING FLUID TYPE
DFD .                    9.2 : DRILLING FLUID DENSITY
DFV .                    135 : DRILLING FLUID VISCOSITY
DFPH.                    9.5 : DRILLING FLUID PH
DFL .                    7.6 : DRILLING FLUID LOSS
MSS .                   CIRC : MUD SAMPLE SOURCE
RMS .OHMM                  2 : RESISTIVITY MUD SAMPLE
MST .DEGF                 60 : MUD SAMPLE TEMPERATURE
RMF .OHMM                1.9 : RESISTIVITY MUD FILTRATE SAMPLE
MFST.DEGF                 61 : MUD FILTRATE SAMPLE TEMPERATURE
RMC .OHMM                2.7 : RESISTIVITY MUD CAKE
MCST.DEGF                 61 : MUD CAKE SAMPLE TEMPERATURE
MFSS.                   MEAS : MUD FILTRATE SAMPLE SOURCE
MCSS.                   MEAS : MUD CAKE SAMPLE SOURCE
RMB .OHMM               0.63 : RESISTIVITY MUD AT BHT
TCS .HRS                 3.5 : TIME CIRCULATED STOPPED
LUN .                   6091 : LOGGING UNIT NUMBER
LUL .                     VV : LOGGING UNIT LOCATION
ENGI.          CLARK GISTERN : RECORDING ENGINEER
WITN.                 MACKEY : WITNESSED BY
CLNT.                A2DTECH : CLIENT CODE
ORIG.            2" 5" PRINT : ORIGIN OF DATA
UWI .       100113006919W500 : UNIQUE WELL ID
DICO. A2D Technologies, Inc. : DIGITIZING COMPANY
~Other -----------------------------------------------------
DIFL-SONIC LOG RUN
ALL DATA UP TO THE TOP TO 3160' VARIFIED FROM 2 INCH SCALE SECTION
~ASCII -----------------------------------------------------
  900.00000    -999.25    -999.25    -999.25    -999.25    -999.25    -999.25    -999.25   50.72440   50.72440    -999.25    -999.25    -999.25    -999.25    -999.25    -999.25    -999.25
  950.00000    9.30390    9.30390  321.50380  278.73010    3.58770  129.50370  129.50370   73.89710   73.89710    3.58770    -999.25    -999.25    4.85270  -74.93370   -2.82000    4.85270
 1000.00000    8.70350    8.70350  129.33000  120.62730    8.29000  123.26550  123.26550   60.46220   60.46220    8.29000    -999.25    -999.25   17.02270  -79.33070   -7.48250   17.02270
 1050.00000    8.92140    8.92140  306.08110  292.96220    3.41350  134.80190  134.80190   66.91590   66.91590    3.41350    -999.25    -999.25    4.41430  -79.87590   -8.29170    4.41430
 1100.00000    9.45010    9.45010  302.40730  290.35160    3.44410  120.42230  120.42230   62.04710   62.04710    3.44410    -999.25    -999.25    4.52160  -78.96570   -7.64830    4.52160
 1150.00000   10.60590   10.60590  259.71090  242.76560    4.11920  143.45310  143.45310   62.55170   62.55170    4.11920    -999.25    -999.25    5.05700  -77.41400   -6.36210    5.05700
 1200.00000    9.08590    9.08590  116.37840  109.29200    9.14980  119.03050  119.03050   51.36600   51.36600    9.14980    -999.25    -999.25   10.30640  -78.54980   -7.76330   10.30640
 1250.00000   10.21850   10.21850  242.82920  229.69500    4.35360  153.23660  153.23660   60.84500   60.84500    4.35360    -999.25    -999.25    5.47460  -78.26980   -7.74870    5.47460
 1300.00000   10.07990   10.07990  312.72000  299.71080    3.33650  193.20710  193.20710   64.30020   64.30020    3.33650    -999.25    -999.25    4.79920  -77.86040   -7.60340    4.79920
 1350.00000    9.99890    9.99890  327.12640  305.21300    3.27640  138.20070  138.20070   68.78410   68.78410    3.27640    -999.25    -999.25    4.29010  -73.07680   -3.08660    4.29010
 1400.00000    7.63580    7.63580  244.85600  230.28740    4.34240  109.94800  109.94800   60.22210   60.22210    4.34240    -999.25    -999.25    6.36250  -73.35800   -3.63320    6.36250
 1450.00000    8.79410    8.79410  287.87130  266.09190    3.75810  123.35350  123.35350   66.22290   66.22290    3.75810    -999.25    -999.25    4.72880  -73.38520   -3.19250    4.72880
 1500.00000    9.64120    9.64120  242.27740  231.26730    4.32400  117.64880  117.64880   66.41670   66.41670    4.32400    -999.25    -999.25    5.24840  -74.03600   -3.21450    5.24840
 1550.00000    8.74940    8.74940  266.45240  250.78780    3.98890  116.82440  116.82440   74.54410   74.54410    3.98890    -999.25    -999.25    4.81190  -73.52060   -2.07330    4.81190
 1600.00000    8.86120    8.86120  217.32500  210.59280    4.74850  120.18590  120.18590   75.16670   75.16670    4.74850    -999.25    -999.25    5.93360  -75.93150   -3.85220    5.93360
 1650.00000   12.36980   12.36980  208.17230  193.80600    5.15980  127.11180  127.11180   76.72170   76.72170    5.15980    -999.25    -999.25    5.62730  -77.96650   -5.25840    5.62730
 1700.00000    9.76430    9.76430  209.92240  195.81730    5.10680  132.55020  132.55020   83.05670   83.05670    5.10680    -999.25    -999.25    5.98270  -79.37520   -6.03820    5.98270
 1750.00000   10.45500   10.45500  217.94620  201.93860    4.95200  119.15800  119.15800  115.38010  115.38010    4.95200    -999.25    -999.25    6.74780  -76.93850   -2.97260    6.74780
 1800.00000    9.85130    9.85130  175.14820  164.56670    6.07670  118.85230  118.85230  131.76190  131.76190    6.07670    -999.25    -999.25    8.39500  -76.72190   -2.13840    8.39500
 1850.00000   10.17010   10.17010  230.83410  216.16950    4.62600  117.79990  117.79990  107.82700  107.82700    4.62600    -999.25    -999.25    6.71150  -76.92500   -2.25680    6.71150
 1900.00000   12.26480   12.26480  184.46790  176.13390    5.67750  106.60010  106.60010   81.41090   81.41090    5.67750    -999.25    -999.25    6.87390  -81.51940   -6.76700    6.87390
 1950.00000    8.94050    8.94050  145.54550  134.88720    7.41360   93.43120   93.43120   82.60040   82.60040    7.41360    -999.25    -999.25    9.58090  -81.49630   -6.65960    9.58090
 2000.00000   12.44380   12.44380  203.88880  192.61880    5.19160  203.47730  203.47730   78.78860   78.78860    5.19160    -999.25    -999.25    5.72410  -80.69170   -5.77070    5.72410
 2050.00000    8.11350    8.11350  146.91900  142.08790    7.03880  175.25430  175.25430   88.18920   88.18920    7.03880    -999.25    -999.25    7.32190  -81.69800   -6.69320    7.32190
 2100.00000   13.18620   13.18620  176.17090  166.12950    6.01940  182.06230  182.06230   70.97040   70.97040    6.01940    -999.25    -999.25    6.85160  -80.24150   -5.15190    6.85160
 2150.00000   12.24910   12.24910  127.19170  129.72190    7.70880  180.06030  180.06030   73.72140   73.72140    7.70880    -999.25    -999.25    8.45590  -81.33950   -6.16570    8.45590
 2200.00000    9.37030    9.37030  137.88480  126.09390    7.93060  112.74780  112.74780   77.46880   77.46880    7.93060    -999.25    -999.25    6.68780  -80.18230   -4.92420    6.68780
 2250.00000   11.55970   11.55970  152.41630  142.88370    6.99870  114.40020  114.40020   80.15740   80.15740    6.99870    -999.25    -999.25    6.15660  -80.10440   -4.76200    6.15660
 2300.00000   11.96770   11.96770  124.40620  119.89930    8.34260  117.28870  117.28870   76.87900   76.87900    8.34260    -999.25    -999.25    7.30370  -80.28070   -4.85440    7.30370
 2350.00000   11.44370   11.44370  164.44110  153.72790    6.50500  107.27560  107.27560   91.27840   91.27840    6.50500    -999.25    -999.25    5.44870  -78.55760   -3.04670    5.44870
 2400.00000   10.63820   10.63820  186.57380  169.02460    5.91630  124.68680  124.68680   97.57640   97.57640    5.91630    -999.25    -999.25    5.72680  -76.50480   -0.90960    5.72680
 2450.00000    9.78950    9.78950  162.55760  150.52760    6.64330  114.37080  114.37080   96.22510   96.22510    6.64330    -999.25    -999.25    6.40020  -77.09060   -1.41110    6.40020
 2500.00000    9.52120    9.52120  164.16830  151.68290    6.59270  115.99680  115.99680   89.65270   89.65270    6.59270    -999.25    -999.25    6.35590  -77.18630   -1.42250    6.35590
 2550.00000    8.27800    8.27800  158.05970  148.11580    6.75150  121.24280  121.24280  128.09120  128.09120    6.75150    -999.25    -999.25    7.81130  -77.84110   -2.23670    7.81130
 2600.00000    8.51730    8.51730  144.00920  134.85090    7.41560  133.48480  133.48480  121.75000  121.75000    7.41560    -999.25    -999.25    8.79950  -79.10920   -3.94570    8.79950
 2650.00000   10.50730   10.50730  208.34700  197.32430    5.06780  112.09790  112.09790   85.79790   85.79790    5.06780    -999.25    -999.25    4.98050  -78.07510   -3.35030    4.98050
 2700.00000    8.23570    8.23570  208.06090  198.02760    5.04980  103.04160  103.04160   92.99560   92.99560    5.04980    -999.25    -999.25    5.33120  -77.18630   -2.90030    5.33120
 2750.00000    8.64040    8.64040  206.10270  195.35830    5.11880  111.88070  111.88070   94.93130   94.93130    5.11880    -999.25    -999.25    5.53020  -77.03120   -3.18390    5.53020
 2800.00000    8.14870    8.14870  187.77120  180.06930    5.55390   98.30420   98.30420   99.85220   99.85220    5.55390    -999.25    -999.25    5.75320  -77.23420   -3.82340    5.75320
 2850.00000    8.70000    8.70000  171.81430  163.27060    6.12480   92.35940   92.35940  106.55930  106.55930    6.12480    -999.25    -999.25    5.96840  -76.72380   -3.75400    5.96840
 2900.00000    8.76890    8.76890  230.40720  219.91070    4.54730  100.17320  100.17320   91.26080   91.26080    4.54730    -999.25    -999.25    4.74500  -73.97190   -1.43860    4.74500
 2950.00000    8.74600    8.74600  159.04680  148.39880    6.73860   93.25120   93.25120  101.28180  101.28180    6.73860    -999.25    -999.25   10.45330  -75.19980   -3.08060   10.45330
 3000.00000    8.93130    8.93130  242.92580  223.25420    4.47920  104.97770  104.97770   96.47750   96.47750    4.47920    -999.25    -999.25    4.76290  -73.70470   -1.99960    4.76290
