~Version ---------------------------------------------------
VERS.      2.0 : CWLS log ASCII Standard -VERSION 2.0
WRAP.       NO : One line per depth step
CREA. 10/27/17 : LAS Creation Date
~Well ------------------------------------------------------
STRT.FT                          950.0 : START DEPTH
STOP.FT                         9950.0 : STOP DEPTH
STEP.FT                       50.00000 : STEP LENGTH
NULL.                          -999.25 : NULL VALUE
COMP. AMOCO CANADA PETROLEUM CO., LTD. : COMPANY
WELL.  AMOCO HBOG WINDFALL 16-29-61-16 : WELL
FLD .                                  : FIELD
LOC .                                  : LOCATION
CTRY.                           CANADA : COUNTRY
SRVC.                     Schlumberger : SERVICE COMPANY
DATE.                      22-Dec-1976 : LOGDATE
PROV.                          Alberta : PROVINCE
UWI .                 100162906116W500 : UNIQUE WELL ID
SLAT.WGS84                    54.30881 : SURFACE LATITUDE
SLON.WGS84                   -116.3532 : SURFACE LONGITUDE
~Curve Information -----------------------------------------
DEPT    .FT    : Depth Curve
CALDED  .IN    : CALIPER FROM DENSITY LOG [ADJ. TO RESISTIVITY LOG]
CALSED  .IN    : CALIPER FROM SONIC LOG [ADJ. TO RESISTIVITY LOG]
CALWS   .IN    : CALIPER [CALDED]
CONDWS  .MMHO  : CONDUCTIVITY [1000/DRESWS]
DCORWS  .G/C3  : DENSITY CORRECTION [DRHOED]
DENWS   .G/C3  : FORMATION BULK DENSITY [RHOBED]
DPHILSED.V/V   : DENSITY POROSITY LIMESTONE [M=2.71, F=1.00] FROM DENSITY LOG [ADJ. TO RESISTIVITY LOG]
DPHISSED.V/V   : DENSITY POROSITY SANDSTONE [M=2.65, F=1.00] FROM DENSITY LOG [ADJ. TO RESISTIVITY LOG]
DPOLSWS .V/V   : DENSITY POROSITY LIMESTONE [CALC. FROM DENWS M=2.71, F=1.00]
DRESWS  .OHMM  : DEEP RESISTIVITY [ILDED]
DRHOED  .G/C3  : DENSITY CORRECTION FROM DENSITY LOG [ADJ. TO RESISTIVITY LOG/DPHISSED/DPHILSED]
DTED    .US/F  : DELTA TIME FROM SONIC LOG [ADJ. TO RESISTIVITY LOG]
DTWS    .US/F  : COMPRESSIONAL SONIC [DTED]
GRDED   .GAPI  : GAMMA RAY FROM DENSITY LOG [ADJ. TO RESISTIVITY LOG]
GRSED   .GAPI  : GAMMA RAY FROM SONIC LOG [ADJ. TO RESISTIVITY LOG]
GRWS    .GAPI  : GAMMA RAY [GRSED]
ILDED   .OHMM  : DEEP INDUCTION FROM RESISTIVITY LOG
ILMED   .OHMM  : MEDIUM INDUCTION FROM RESISTIVITY LOG
LL8ED   .OHMM  : 8 INCH LATEROLOG FROM RESISTIVITY LOG
MRESWS  .OHMM  : MEDIUM RESISTIVITY [ILMED]
NPHILSED.V/V   : NEUTRON POROSITY LIMESTONE FROM DENSITY LOG [ADJ. TO RESISTIVITY LOG]
NPHISSED.V/V   : NEUTRON POROSITY SANDSTONE FROM DENSITY LOG [ADJ. TO RESISTIVITY LOG]
NPOLSWS .V/V   : NEUTRON POROSITY LIMESTONE [NPHISSED MATRIX CONVERSION FOR LIMESTONE, SPL. TO NPHILSED @ 6250']
RHOBED  .G/C3  : BULK DENSITY FROM DENSITY LOG [ADJ. TO RESISTIVITY LOG/DPHISSED/DPHILSED]
SPRED   .MV    : SPONTANEOUS POTENTIAL FROM RESISTIVITY LOG
SPWS    .MV    : SPONTANEOUS POTENTIAL [BASELINE 0 MV, SPRED]
SRESWS  .OHMM  : SHALLOW RESISTIVITY [LL8ED]
~Params ----------------------------------------------------
PD  .                     GL : PERMANENT DATUM
EPD .FT                 2851 : ELEVATION PERMANENT DATUM
LMF .                     KB : LOG MEASURED FROM
DAPD.FT                   14 : FEET ABOVE PERMANENT DATUM
DMF .                     KB : DRILLING MEASURED FROM
EKB .FT                 2875 : KELLY BUSHING
EGL .FT                 2861 : GROUND LEVEL
DATE.               12/22/76 : RUN DATE
RUN .                      1 : RUN NUMBER
DD  .FT                 9966 : DEPTH DRILLER
DL  .FT                 9964 : DEPTH LOGGER
BLI .FT                 9958 : BOTTOM LOG INTERVAL
TLI .FT                 1029 : TOP LOG INTERVAL
CBD .FT                 1030 : CASING BOTTOM DRILLER
CBL .FT                 1029 : CASING BOTTOM LOGGER
BS  .IN                 8.75 : BIT SIZE
BSD .FT                 9966 : BIT SIZE AT DEPTH
DFT .               GEL CHEM : DRILLING FLUID TYPE
DFD .                    9.3 : DRILLING FLUID DENSITY
DFV .                     70 : DRILLING FLUID VISCOSITY
DFPH.                      9 : DRILLING FLUID PH
DFL .                      9 : DRILLING FLUID LOSS
MSS .             CIRCULATED : MUD SAMPLE SOURCE
RMF .OHMM               2.16 : RESISTIVITY MUD FILTRATE SAMPLE
MFST.DEGF                 74 : MUD FILTRATE SAMPLE TEMPERATURE
RMC .OHMM               2.83 : RESISTIVITY MUD CAKE
MCST.DEGF                 68 : MUD CAKE SAMPLE TEMPERATURE
LUN .                   7772 : LOGGING UNIT NUMBER
LUL .                    EDM : LOGGING UNIT LOCATION
ENGI.                   BIGG : RECORDING ENGINEER
WITN.                  LENTZ : WITNESSED BY
CLNT.                A2DTECH : CLIENT CODE
ORIG.            2" 5" PRINT : ORIGIN OF DATA
UWI .       100162906116W500 : UNIQUE WELL ID
DICO. A2D Technologies, Inc. : DIGITIZING COMPANY
~Other -----------------------------------------------------
DIL-LL-CNFD-BHC LOG RUN
~ASCII -----------------------------------------------------
# ...
 7450.00000   10.43860   12.20780   10.43860    3.89780    0.04250    2.69390    0.00770    -999.25    0.00940  256.95790    0.04250   49.83200   49.83200   22.19330   11.31780   11.31780  256.95790  285.09250  309.31910  285.09250   -0.00030    -999.25   -0.00030    2.69390  -85.45300  -67.80350  309.31910
 7500.00000   12.39300   12.43720   12.39300    2.51860    0.24230    2.59460    0.06480    -999.25    0.06750  397.03830    0.24230   49.71200   49.71200   20.83650   12.71420   12.71420  397.03830  461.16740  535.03930  461.16740   -0.00060    -999.25   -0.00060    2.59460 -129.48190 -108.19370  535.03930
 7550.00000   10.52120   12.17270   10.52120   12.36740    0.00380    2.67930    0.00960    -999.25    0.01800   80.85790    0.00380   48.11600   48.11600   10.42830    6.20120    6.20120   80.85790   83.49460  104.68450   83.49460    0.00530    -999.25    0.00530    2.67930 -117.54340  -92.59820  104.68450
 7600.00000    9.21000   11.94520    9.21000   25.13810    0.03310    2.58850    0.06930    -999.25    0.07110   39.78090    0.03310   53.08400   53.08400   13.12470    8.24830    8.24830   39.78090   56.20490  283.97870   56.20490    0.03110    -999.25    0.03110    2.58850 -149.41920 -120.79860  283.97870
 7650.00000   11.63580   12.32670   11.63580   39.52480    0.21570    2.33070    0.21900    -999.25    0.22180   25.30060    0.21570   49.43600   49.43600   12.67570    8.90150    8.90150   25.30060   53.12210  172.55200   53.12210    0.02320    -999.25    0.02320    2.33070 -170.02300 -137.76370  172.55200
 7700.00000   10.36660   12.13970   10.36660   26.08150    0.03890    2.72030   -0.01240    -999.25   -0.00610   38.34150    0.03890   49.98000   49.98000   12.90420    8.19530    8.19530   38.34150   40.55520   74.54770   40.55520    0.01780    -999.25    0.01780    2.72030 -136.14830 -100.21360   74.54770
 7750.00000   11.42300   12.28340   11.42300    5.99420    0.18620    2.57710    0.07850    -999.25    0.07770  166.82670    0.18620   50.67600   50.67600   12.78810    7.86680    7.86680  166.82670  189.11230  158.24470  189.11230    0.00570    -999.25    0.00570    2.57710 -152.29610 -112.72270  158.24470
 7800.00000   11.88340   12.27600   11.88340    9.79140    0.13790    2.61390    0.05110    -999.25    0.05620  102.13030    0.13790   50.06000   50.06000   11.99380    9.07620    9.07620  102.13030  124.76020  114.31070  124.76020    0.00160    -999.25    0.00160    2.61390 -146.57520 -103.34480  114.31070
 7850.00000   12.56120   12.35350   12.56120    1.23250    0.20440    2.57360    0.07890    -999.25    0.07980  811.40440    0.20440   47.22200   47.22200   16.18960    8.68830    8.68830  811.40440 1387.02560  657.17510 1387.02560    0.00320    -999.25    0.00320    2.57360 -159.17820 -112.27250  657.17510
 7900.00000   11.69930   12.24640   11.69930    2.33810    0.26540    2.58970    0.05690    -999.25    0.07040  427.70430    0.26540   48.31600   48.31600   19.79680   12.15210   12.15210  427.70430  393.90460  401.65220  393.90460    0.00280    -999.25    0.00280    2.58970 -156.66840 -106.12390  401.65220
 7950.00000    9.65770   12.09920    9.65770   31.57470    0.09730    2.66960    0.01970    -999.25    0.02370   31.71440    0.09730   49.03400   49.03400   10.23880    6.67940    6.67940   31.71440   48.25100  216.85690   48.25100    0.01730    -999.25    0.01730    2.66960 -173.74010 -119.52030  216.85690
 8000.00000   11.44520   12.28650   11.44520    8.93450    0.18290    2.58180    0.06950    -999.25    0.07500  111.92630    0.18290   49.77200   49.77200   16.71760    9.89050    9.89050  111.92630  178.68880  129.37500  178.68880    0.00690    -999.25    0.00690    2.58180 -152.92060  -95.06210  129.37500
 8050.00000    9.99380   12.18980    9.99380    2.49850    0.00270    2.83140   -0.08410    -999.25   -0.07100  400.23420    0.00270   49.85600   49.85600   13.76310    7.80660    7.80660  400.23420 1435.92150 1471.65470 1435.92150    0.00390    -999.25    0.00390    2.83140 -172.26390 -110.74830 1471.65470
 8100.00000   10.04040   11.55330   10.04040  160.71010    0.01050    2.54340    0.09490    -999.25    0.09740    6.22270    0.01050   62.72900   62.72900   83.72020   57.39910   57.39910    6.22270    6.39720    8.26810    6.39720    0.05600    -999.25    0.05600    2.54340 -107.62480  -42.43390    8.26810
 8150.00000   11.64960   11.62300   11.64960   20.41020    0.23540    2.59290    0.06580    -999.25    0.06850   48.99510    0.23540   56.21600   56.21600   22.53630   15.83370   15.83370   48.99510   62.90190  133.49130   62.90190    0.08320    -999.25    0.08320    2.59290 -156.28000  -91.01910  133.49130
 8200.00000   12.19310   11.49990   12.19310    4.96470    0.25200    2.64920    0.02620    -999.25    0.03550  201.44230    0.25200   48.56200   48.56200   15.75700   10.62430   10.62430  201.44230  168.97890  217.46770  168.97890    0.03780    -999.25    0.03780    2.64920 -157.50020  -95.73710  217.46770
 8250.00000   10.48240   11.25580   10.48240   42.23240    0.03340    2.63070    0.05290    -999.25    0.04640   23.67850    0.03340   62.24400   62.24400   56.83580   32.93120   32.93120   23.67850   21.44580   24.01930   21.44580    0.07640    -999.25    0.07640    2.63070 -118.96650  -60.66620   24.01930
 8300.00000    9.78820   11.23200    9.78820    6.51070   -0.00710    2.67940    0.01580    -999.25    0.01790  153.59360   -0.00710   52.20800   52.20800   37.40890   22.58240   22.58240  153.59360  184.91260  236.28200  184.91260    0.00980    -999.25    0.00980    2.67940  -66.37770  -11.55780  236.28200
 8350.00000    9.78340   11.25610    9.78340    4.90100    0.00180    2.65150    0.02860    -999.25    0.03420  204.05500    0.00180   51.50600   51.50600   35.50200   25.96970   25.96970  204.05500  245.54170  279.02580  245.54170    0.00660    -999.25    0.00660    2.65150  -72.17350  -20.85130  279.02580
 8400.00000    9.82780   11.22320    9.82780    4.32160    0.00350    2.63540    0.03950    -999.25    0.04360  231.39810    0.00350   72.03600   72.03600   32.42480   22.88620   22.88620  231.39810  256.99120  299.06150  256.99120    0.01500    -999.25    0.01500    2.63540  -84.55320  -36.69400  299.06150
 8450.00000    9.83880   11.22760    9.83880    6.23640    0.01420    2.68830    0.01200    -999.25    0.01270  160.36900    0.01420   58.79600   58.79600   35.20700   27.43720   27.43720  160.36900  174.44410  225.93810  174.44410    0.00750    -999.25    0.00750    2.68830  -61.08960  -16.72810  225.93810
 8500.00000   10.00370   11.19780   10.00370   18.18940    0.00370    2.64390    0.03630    -999.25    0.03870   54.97700    0.00370   53.47200   53.47200   35.49210   25.44140   25.44140   54.97700   64.76380   76.69230   64.76380    0.01660    -999.25    0.01660    2.64390  -48.02700   -7.12840   76.69230
 8550.00000   10.21570   11.21590   10.21570   47.04820    0.00130    2.66660    0.02240    -999.25    0.02540   21.25480    0.00130   58.01200   58.01200   49.80140   33.46590   33.46590   21.25480   25.01970   29.48160   25.01970    0.04290    -999.25    0.04290    2.66660  -43.50490   -6.08670   29.48160
 8600.00000   10.10790   11.19490   10.10790  100.76100   -0.01050    2.63830    0.03900    -999.25    0.04190    9.92460   -0.01050   63.71000   63.71000   65.62900   46.28480   46.28480    9.92460   10.91050   13.57080   10.91050    0.09730    -999.25    0.09730    2.63830  -37.38390   -3.46340   13.57080
 8650.00000   10.23440   11.13610   10.23440  118.24940   -0.00310    2.63180    0.04560    -999.25    0.04570    8.45670   -0.00310   65.15400   65.15400   81.81400   56.21830   56.21830    8.45670    9.23090   10.93250    9.23090    0.12250    -999.25    0.12250    2.63180  -31.81950   -1.36190   10.93250
 8700.00000   10.17910   10.82980   10.17910   75.28580    0.00220    2.68180    0.01340    -999.25    0.01650   13.28270    0.00220   62.00000   62.00000   70.76950   47.62500   47.62500   13.28270   14.85630   18.69780   14.85630    0.10340    -999.25    0.10340    2.68180  -30.29640   -3.33660   18.69780
