~Version ---------------------------------------------------
VERS.      2.0 : CWLS log ASCII Standard -VERSION 2.0
WRAP.       NO : One line per depth step
CREA. 08/01/17 : LAS Creation Date
~Well ------------------------------------------------------
STRT.FT                         950.0 : START DEPTH
STOP.FT                        9900.0 : STOP DEPTH
STEP.FT                      50.00000 : STEP LENGTH
NULL.                         -999.25 : NULL VALUE
COMP. GENERAL CRUDE OIL, NORTHERN LTD : COMPANY
WELL.   GCON HB PUSKWASKAU 11-6-73-24 : WELL
FLD .                                 : FIELD
LOC .                                 : LOCATION
CTRY.                          CANADA : COUNTRY
SRVC.          Schlumberger of Canada : SERVICE COMPANY
DATE.                     29-Jan-1973 : LOGDATE
PROV.                         Alberta : PROVINCE
UWI .                100110607324W500 : UNIQUE WELL ID
SLAT.WGS84                   55.29715 : SURFACE LATITUDE
SLON.WGS84                  -117.6848 : SURFACE LONGITUDE
~Curve Information -----------------------------------------
DEPT  .FT    : Depth Curve
CALSED.IN    : CALIPER FROM SONIC LOG
CALWS .IN    : CALIPER [CALSED]
CILDED.MMHO  : CONDUCTIVITY FROM RESISTIVITY LOG
CONDWS.MMHO  : CONDUCTIVITY [1000/DRESWS]
DRESWS.OHMM  : DEEP RESISTIVITY [ILDED] [1000/CILDED, IF ILDED<5, ILDED]
DTED  .US/F  : DELTA TIME FROM SONIC LOG
DTWS  .US/F  : DELTA TIME [DTED]
GRSED .GAPI  : GAMMA RAY FROM SONIC LOG
GRWS  .GAPI  : GAMMA RAY [GRSED]
ILDED .OHMM  : INDUCTION LOG DEEP RESISTIVITY
ILMED .OHMM  : INDUCTION LOG MEDIUM RESISTIVITY
LL8ED .OHMM  : 8 INCH LATEROLOG RESISTIVITY
MRESWS.OHMM  : MEDIUM RESISTIVITY [ILMED]
SPRED .MV    : SPONTANEOUS POTENTIAL FROM RESISTIVITY LOG
SPWS  .MV    : SPONTANEOUS POTENTIAL [BASELINE 0 MV] [SPRED]
SRESWS.OHMM  : SHALLOW RESISTIVITY [LL8ED]
~Params ----------------------------------------------------
PD  .                     GL : PERMANENT DATUM
EPD .FT                 2352 : ELEVATION PERMANENT DATUM
LMF .                     KB : LOG MEASURED FROM
DAPD.FT                   14 : FEET ABOVE PERMANENT DATUM
EKB .FT                 2366 : KELLY BUSHING
EGL .FT                 2352 : GROUND LEVEL
DATE.               01/73/29 : RUN DATE
RUN .                      1 : RUN NUMBER
DD  .FT                 9931 : DEPTH DRILLER
DL  .FT                 9919 : DEPTH LOGGER
BLI .FT                 9913 : BOTTOM LOG INTERVAL
TLI .FT                 1011 : TOP LOG INTERVAL
CBD .FT                 1011 : CASING BOTTOM DRILLER
CBL .FT                 1011 : CASING BOTTOM LOGGER
BS  .IN                 8.75 : BIT SIZE
BSD .FT                 9931 : BIT SIZE AT DEPTH
DFT .                    GEL : DRILLING FLUID TYPE
DFD .                    9.5 : DRILLING FLUID DENSITY
DFV .                     95 : DRILLING FLUID VISCOSITY
DFPH.                    7.5 : DRILLING FLUID PH
DFL .                    8.2 : DRILLING FLUID LOSS
RMF .OHMM               1.35 : RESISTIVITY MUD FILTRATE SAMPLE
MFST.DEGF                 68 : MUD FILTRATE SAMPLE TEMPERATURE
RMB .OHMM               0.56 : RESISTIVITY MUD AT BHT
TCS .HRS                   4 : TIME CIRCULATED STOPPED
LUN .                   7635 : LOGGING UNIT NUMBER
LUL .                     DC : LOGGING UNIT LOCATION
ENGI.                  BAKER : RECORDING ENGINEER
WITN.                JOHNSON : WITNESSED BY
CLNT.                A2DTECH : CLIENT CODE
ORIG.            2" 5" PRINT : ORIGIN OF DATA
UWI .       100110607324W500 : UNIQUE WELL ID
DICO. A2D Technologies, Inc. : DIGITIZING COMPANY
~Other -----------------------------------------------------
~ASCII -----------------------------------------------------
# ...
 7400.00000   14.29470   14.29470    -999.25  213.44330    4.68510   85.82200   85.82200   83.59110   83.59110    4.68510    5.30870    5.95140    5.30870 -107.33230  -20.46800    5.95140
 7450.00000   12.22190   12.22190    -999.25  186.39330    5.36500   66.53090   66.53090  152.65610  152.65610    5.36500    4.07560    5.57440    4.07560 -115.91980  -27.38360    5.57440
 7500.00000    9.49830    9.49830    -999.25    0.71200 1404.53770   49.71460   49.71460   17.50310   17.50310 1404.53770 1703.20800 1321.78920 1703.20800 -166.68440  -76.48450 1321.78920
 7550.00000    9.37480    9.37480    -999.25    0.78800 1270.26960   48.88070   48.88070   16.76340   16.76340 1270.26960 1321.16490  542.76970 1321.16490 -166.63930  -74.78400  542.76970
 7600.00000    9.52100    9.52100    -999.25    0.59620 1677.38120   48.37520   48.37520   18.03740   18.03740 1677.38120 1391.81150 1150.33330 1391.81150 -181.45180  -87.92450 1150.33330
 7650.00000    9.51050    9.51050    -999.25    0.83290 1254.09520   49.18350   49.18350   16.09670   16.09670 1254.09520 1325.10760  396.57390 1325.10760 -171.67410  -76.49140  396.57390
 7700.00000    9.36180    9.36180    -999.25    0.61420 1628.04650   48.51190   48.51190   19.01600   19.01600 1628.04650 1290.28480  634.18100 1290.28480 -178.22220  -81.36750  634.18100
 7750.00000    9.41180    9.41180    -999.25    4.11020  243.29530   48.64430   48.64430   16.70920   16.70920  243.29530  291.02580  312.36610  291.02580 -179.62470  -81.10630  312.36610
 7800.00000    9.26950    9.26950    -999.25    2.59610  391.52430   49.14380   49.14380   13.03540   13.03540  391.52430  360.85610  277.21060  360.85610 -192.66840  -92.49470  277.21060
 7850.00000    9.17730    9.17730    -999.25    2.60480  383.89990   49.06830   49.06830   14.11860   14.11860  383.89990  574.80180  329.19050  574.80180 -196.58310  -94.73730  329.19050
 7900.00000    9.75020    9.75020    -999.25    0.70300 1422.39130   48.45790   48.45790   15.20120   15.20120 1422.39130 1701.20080 1377.18720 1701.20080 -191.68340  -88.18220 1377.18720
 7950.00000    9.60610    9.60610    -999.25    0.71550 1397.53090   48.44610   48.44610   13.55040   13.55040 1397.53090 1654.31030  760.61020 1654.31030 -189.14750  -83.97430  760.61020
 8000.00000    9.59780    9.59780    -999.25    0.68860 1452.18150   48.41210   48.41210   15.49660   15.49660 1452.18150 1729.50840 1399.00170 1729.50840 -177.09490  -70.25800 1399.00170
 8050.00000    9.29370    9.29370    -999.25    0.71100 1406.44670   48.41440   48.41440   15.61960   15.61960 1406.44670 1692.76190 1372.84550 1692.76190 -156.04610  -47.55390 1372.84550
 8100.00000    9.00620    9.00620    -999.25    0.69460 1439.69460   48.36500   48.36500   16.82010   16.82010 1439.69460 1709.05820 1371.29530 1709.05820 -170.77130  -60.60700 1371.29530
 8150.00000    8.79230    8.79230    -999.25   21.75670   46.00200   50.22250   50.22250   14.20030   14.20030   46.00200   71.22060  209.89950   71.22060 -215.83140 -104.01180  209.89950
 8200.00000    9.07230    9.07230    -999.25   38.54490   25.94380   50.18300   50.18300   12.07490   12.07490   25.94380   34.15020  108.93550   34.15020 -225.46490 -111.97320  108.93550
 8250.00000    8.46770    8.46770    -999.25  113.53570    8.80780   55.86720   55.86720   13.11210   13.11210    8.80780   15.63170   72.80140   15.63170 -196.16300  -81.00770   72.80140
 8300.00000    9.17120    9.17120    -999.25    1.47410  700.10940   47.99430   47.99430   19.13770   19.13770  700.10940  674.85910  684.39720  674.85910 -166.98150  -50.17080  684.39720
 8350.00000    9.64580    9.64580    -999.25    0.70030 1427.99670   48.56270   48.56270   22.76930   22.76930 1427.99670 1683.55210 1347.70940 1683.55210 -184.25360  -65.77090 1347.70940
 8400.00000    9.50870    9.50870    -999.25    0.69350 1441.98570   48.41140   48.41140   21.54560   21.54560 1441.98570 1667.89280 1347.86130 1667.89280 -167.94510  -47.80700 1347.86130
 8450.00000    8.81030    8.81030    -999.25   10.78550   92.71740   50.83770   50.83770   35.97490   35.97490   92.71740  101.65630  127.87220  101.65630 -140.41900  -18.60890  127.87220
 8500.00000    9.82440    9.82440    -999.25    0.71320 1402.21880   49.19250   49.19250   20.31540   20.31540 1402.21880 1683.12890 1333.57340 1683.12890 -188.67350  -66.50240 1333.57340
 8550.00000    9.52280    9.52280    -999.25   24.47010   40.86630   53.86640   53.86640   40.08440   40.08440   40.86630   45.22180   48.27620   45.22180 -163.06840  -41.73470   48.27620
 8600.00000    9.14170    9.14170    -999.25   16.43860   60.83250   52.88960   52.88960   39.01620   39.01620   60.83250   67.08200   65.99650   67.08200 -156.40050  -35.91250   65.99650
 8650.00000    9.04490    9.04490    -999.25   30.12200   33.20390   56.48220   56.48220   53.14870   53.14870   33.20390   37.82640   40.65860   37.82640 -156.53040  -36.87970   40.65860
 8700.00000    9.14900    9.14900    -999.25   53.89910   18.55320   59.70940   59.70940   50.04420   50.04420   18.55320   20.16420   23.11320   20.16420 -149.46940  -30.66440   23.11320
 8750.00000   14.96700   14.96700    -999.25  126.79740    7.88660   72.03680   72.03680   64.84640   64.84640    7.88660    6.81780    8.34070    6.81780 -163.49980  -45.53640    8.34070
 8800.00000   11.78120   11.78120    -999.25  102.57900    9.75940   67.13060   67.13060   62.18140   62.18140    9.75940   10.42840   11.57520   10.42840 -150.01020  -32.88410   11.57520
 8850.00000    8.95780    8.95780    -999.25    6.35180  157.43540   56.99340   56.99340   37.02110   37.02110  157.43540  245.49310  598.54160  245.49310 -157.75410  -41.47380  598.54160
 8900.00000    9.63740    9.63740    -999.25   51.32990   19.49500   60.32600   60.32600   43.04070   43.04070   19.49500   20.67620   24.21340   20.67620 -159.28280  -43.83980   24.21340
 8950.00000   11.44210   11.44210    -999.25  121.56430    8.22610   66.30690   66.30690   58.62180   58.62180    8.22610    8.81770    9.68200    8.81770 -170.64540  -56.04810    9.68200
 9000.00000   14.96940   14.96940    -999.25  163.74650    6.10700   74.62560   74.62560   66.20070   66.20070    6.10700    4.53260    6.75580    4.53260 -172.94990  -59.19420    6.75580
 9050.00000   14.96420   14.96420    -999.25  126.16700    7.92610   71.03300   71.03300   52.15320   52.15320    7.92610    6.87270    8.95680    6.87270 -137.28890  -24.37040    8.95680
 9100.00000   14.97060   14.97060    -999.25  197.44510    5.06470   85.09110   85.09110   66.15340   66.15340    5.06470    3.86120    5.69410    3.86120 -149.60570  -37.53300    5.69410
 9150.00000   14.96990   14.96990    -999.25  180.15180    5.55100   81.90360   81.90360   55.35010   55.35010    5.55100    4.18810    6.13010    4.18810 -148.80550  -37.57020    6.13010
 9200.00000   14.34670   14.34670    -999.25  191.57090    5.22000   82.05070   82.05070   78.91320   78.91320    5.22000    4.74920    6.18700    4.74920 -145.24810  -34.85850    6.18700
 9250.00000    9.24450    9.24450    -999.25   60.18880   16.61440   62.91460   62.91460   63.45240   63.45240   16.61440   17.28240   18.07850   17.28240 -125.58240  -16.03430   18.07850
 9300.00000    9.62810    9.62810    -999.25   87.98540   11.36550   65.85560   65.85560   68.44540   68.44540   11.36550   12.40100   14.74280   12.40100 -122.17140  -13.52450   14.74280
 9350.00000    9.30690    9.30690    -999.25   74.68710   13.38920   62.01390   62.01390   60.78130   60.78130   13.38920   15.89790   19.89160   15.89790 -122.68620  -14.99860   19.89160
 9400.00000   10.07370   10.07370    -999.25   82.42440   12.13290   68.10670   68.10670   82.42300   82.42300   12.13290   12.86680   15.98680   12.86680 -132.98060  -26.24270   15.98680
 9450.00000   10.22460   10.22460    -999.25   88.08480   11.35270   69.40190   69.40190   71.76390   71.76390   11.35270   11.72190   12.31440   11.72190 -129.69810  -23.91950   12.31440
 9500.00000    9.70250    9.70250    -999.25   74.64970   13.39590   63.53420   63.53420   67.36270   67.36270   13.39590   15.44860   18.84830   15.44860 -133.73090  -28.90680   18.84830
