~Version ---------------------------------------------------
VERS.      2.0 : CWLS log ASCII Standard -VERSION 2.0
WRAP.       NO : One line per depth step
CREA. 12/18/17 : LAS Creation Date
~Well ------------------------------------------------------
STRT.FT                  700.0 : START DEPTH
STOP.FT                 8200.0 : STOP DEPTH
STEP.FT               50.00000 : STEP LENGTH
NULL.                  -999.25 : NULL VALUE
COMP.         HOME OIL COMPANY : COMPANY
WELL. HOME BARRHEAD 10-35-59-3 : WELL
FLD .                          : FIELD
LOC .                          : LOCATION
CTRY.                   CANADA : COUNTRY
SRVC.             Schlumberger : SERVICE COMPANY
DATE.              05-Dec-1964 : LOGDATE
PROV.                  Alberta : PROVINCE
UWI .         100103505903W500 : UNIQUE WELL ID
SLAT.WGS84            54.14663 : SURFACE LATITUDE
SLON.WGS84           -114.3356 : SURFACE LONGITUDE
~Curve Information -----------------------------------------
DEPT  .FT    : Depth Curve
ASNED .OHMM  : AMPLIFIED SHORT NORMAL RESISTIVITY 16" FROM RESISTIVITY LOG
CALWS .IN    : CALIPER [MCALED]
CILDED.MMHO  : DEEP INDUCTION CONDUCTIVITY FROM RESISTIVITY LOG
CONDWS.MMHO  : CONDUCTIVITY [1000/DRESWS]
DRESWS.MMHO  : DEEP RESISTIVITY [1000/CILDED, IF ILDED<3, ILDED]
DT1ED .US/F  : DELTA TIME [SPAN 1'] FROM SONIC LOG
DTED  .US/F  : DELTA TIME [SPAN 3'] FROM SONIC LOG
DTWS  .US/F  : COMPRESSIONAL SONIC [DTED]
GRSED .GAPI  : GAMMA RAY FROM SONIC LOG
GRWS  .GAPI  : GAMMA RAY [GRSED]
ILDED .OHMM  : DEEP INDUCTION RESISTIVITY FROM RESISTIVITY LOG
MCALED.IN    : MICROCALIPER FROM MICROLOG
NEUTED.NAPI  : NEUTRON FROM NEUTRON LOG
NEUTWS.NAPI  : NEUTRON [NEUTED]
SPRED .MV    : SPONTANEOUS  POTENTIAL FROM RESISTIVITY LOG
SPWS  .MV    : SPONTANEOUS POTENTIAL [BASELINE 0 MV, SPRED]
SRESWS.OHMM  : SHALLOW RESISTIVITY [ASNED]
~Params ----------------------------------------------------
PD  .                     GL : PERMANENT DATUM
EPD .FT               2176.5 : ELEVATION PERMANENT DATUM
LMF .                     KB : LOG MEASURED FROM
DAPD.FT                 13.3 : FEET ABOVE PERMANENT DATUM
EKB .FT               2189.8 : KELLY BUSHING
EGL .FT               2176.5 : GROUND LEVEL
DATE.               12/05/64 : RUN DATE
RUN .                      2 : RUN NUMBER
DD  .FT                 8248 : DEPTH DRILLER
DL  .FT                 8245 : DEPTH LOGGER
BLI .FT                 8244 : BOTTOM LOG INTERVAL
TLI .FT                 3500 : TOP LOG INTERVAL
CBD .FT                  840 : CASING BOTTOM DRILLER
BS  .IN                7.875 : BIT SIZE
BSD .FT                 8248 : BIT SIZE AT DEPTH
DFT .                    GEL : DRILLING FLUID TYPE
DFD .                   10.4 : DRILLING FLUID DENSITY
DFV .                    107 : DRILLING FLUID VISCOSITY
DFPH.                      9 : DRILLING FLUID PH
DFL .                    7.6 : DRILLING FLUID LOSS
RMS .OHMM               0.79 : RESISTIVITY MUD SAMPLE
MST .DEGF                 58 : MUD SAMPLE TEMPERATURE
RMF .OHMM               0.47 : RESISTIVITY MUD FILTRATE SAMPLE
MFST.DEGF                 66 : MUD FILTRATE SAMPLE TEMPERATURE
RMC .OHMM               1.04 : RESISTIVITY MUD CAKE
MCST.DEGF                 64 : MUD CAKE SAMPLE TEMPERATURE
RMB .OHMM               0.32 : RESISTIVITY MUD AT BHT
TCS .HRS                   2 : TIME CIRCULATED STOPPED
LUN .                   3705 : LOGGING UNIT NUMBER
ENGI.                   SWAN : RECORDING ENGINEER
WITN.           DAWSON GROVE : WITNESSED BY
CLNT.                A2DTECH : CLIENT CODE
ORIG.            2" 5" PRINT : ORIGIN OF DATA
UWI .       100103505903W500 : UNIQUE WELL ID
DICO. A2D Technologies, Inc. : DIGITIZING COMPANY
~Other -----------------------------------------------------
IEL-BHC-NEUTRON-ML LOG RUN
ALL RESISTIVITY CURVES VERIFIED FROM 2" SCALE SECTION FROM TOP TO 3826'
~ASCII -----------------------------------------------------
# ...
 4800.00000    5.83260    7.46990  156.51170  222.83630    4.48760    -999.25   62.81610   62.81610   71.60990   71.60990    4.48760    7.46990    -999.25    -999.25  -42.82900  -16.25890    5.83260
 4850.00000    8.78720    7.51800  119.70860  161.13440    6.20600    -999.25   62.74550   62.74550   51.18850   51.18850    6.20600    7.51800    -999.25    -999.25  -27.24680   -0.86500    8.78720
 4900.00000   10.68470    8.01890   91.14950  109.28840    9.15010    -999.25   58.59030   58.59030   52.95890   52.95890    9.15010    8.01890    -999.25    -999.25  -33.14410   -7.12900   10.68470
 4950.00000    1.67660    8.81280  230.44340  230.44340    4.33950    -999.25   78.35700   78.35700   82.86750   82.86750    2.79690    8.81280    -999.25    -999.25  -33.15480   -7.50880    1.67660
 5000.00000    0.45630    9.44600  230.51760  230.51760    4.33810    -999.25   79.80880   79.80880   84.55280   84.55280    2.13200    9.44600    -999.25    -999.25  -30.39300   -5.11370    0.45630
 5050.00000    1.17950    9.69330  233.37870  233.37870    4.28490    -999.25   77.77690   77.77690   85.47390   85.47390    2.20610    9.69330    -999.25    -999.25  -25.98920   -1.07660    1.17950
 5100.00000    0.20000    9.85490  165.33450  245.33250    4.07610    -999.25   66.31830   66.31830   82.87870   82.87870    4.07610    9.85490    -999.25    -999.25  -35.44300  -11.65920    0.20000
 5150.00000    5.29330    8.17490  104.90270  131.05640    7.63030    -999.25   61.17920   61.17920   67.38200   67.38200    7.63030    8.17490    -999.25    -999.25  -28.05510   -5.39280    5.29330
 5200.00000   12.89180    7.14820   63.94340   88.77130   11.26490    -999.25   59.01450   59.01450   46.87200   46.87200   11.26490    7.14820    -999.25    -999.25  -28.59180   -7.05830   12.89180
 5250.00000    3.29110    8.27010  136.46130  193.05020    5.18000    -999.25   70.09850   70.09850   78.98080   78.98080    5.18000    8.27010    -999.25    -999.25  -28.87820   -8.46620    3.29110
 5300.00000    2.14180    8.22940  193.31310  322.15460    3.10410    -999.25   73.54260   73.54260   68.61840   68.61840    3.10410    8.22940    -999.25    -999.25  -32.74300  -13.45250    2.14180
 5350.00000   12.20280    8.05200   78.55450   94.77060   10.55180    -999.25   53.87880   53.87880   50.61530   50.61530   10.55180    8.05200    -999.25    -999.25  -23.92840   -5.76670   12.20280
 5400.00000   16.21240    7.70510   60.18720   76.41110   13.08710    -999.25   60.67400   60.67400   51.35890   51.35890   13.08710    7.70510    -999.25    -999.25  -18.96140   -1.92120   16.21240
 5450.00000   10.37950    7.99750   93.36160  127.75630    7.82740    -999.25   65.32600   65.32600   46.71930   46.71930    7.82740    7.99750    -999.25    -999.25  -18.98040   -2.16150   10.37950
 5500.00000    4.49620    8.51240  227.89920  227.89920    4.38790    -999.25   71.03670   71.03670   67.76410   67.76410    2.61510    8.51240    -999.25    -999.25  -26.06500   -9.24610    4.49620
 5550.00000   23.69170    7.75330   35.44100   45.92760   21.77340    -999.25   83.39000   83.39000  145.67670  145.67670   21.77340    7.75330    -999.25    -999.25  -17.61320   -0.79430   23.69170
 5600.00000   21.27370    7.59050   51.83610   71.63320   13.96000    -999.25   57.82620   57.82620   56.07060   56.07060   13.96000    7.59050    -999.25    -999.25  -23.96820   -5.90490   21.27370
 5650.00000   17.71630    7.85410   66.48260   80.44280   12.43120    -999.25   59.86680   59.86680   48.09970   48.09970   12.43120    7.85410    -999.25    -999.25  -24.77140   -5.43860   17.71630
 5700.00000   16.83670    7.79420   71.00220   85.54320   11.69000    -999.25   60.46170   60.46170   48.79110   48.79110   11.69000    7.79420    -999.25    -999.25  -24.67280   -4.06220   16.83670
 5750.00000    4.59590    8.75910  245.48810  245.48810    4.07350    -999.25   77.25930   77.25930   81.07970   81.07970    2.46230    8.75910    -999.25    -999.25  -32.12390  -10.24380    4.59590
 5800.00000    4.01950    9.68690  243.88060  243.88060    4.10040    -999.25   80.21140   80.21140   83.54850   83.54850    2.40280    9.68690    -999.25    -999.25  -32.19260   -9.04310    4.01950
 5850.00000    5.62810    8.78660  182.33640  264.94280    3.77440    -999.25   72.73000   72.73000   68.42360   68.42360    3.77440    8.78660    -999.25    -999.25  -26.77030   -3.01260    5.62810
 5900.00000    4.48830    9.08030  231.84070  231.84070    4.31330    -999.25   73.62200   73.62200   79.70390   79.70390    2.58130    9.08030    -999.25    -999.25  -29.04470   -7.41050    4.48830
 5950.00000   54.47300    7.57210   17.54390   21.84900   45.76870    -999.25   54.07280   54.07280   25.80500   25.80500   45.76870    7.57210    -999.25    -999.25  -23.15040   -3.65370   54.47300
 6000.00000   23.14340    7.63960   43.52240   53.37750   18.73450    -999.25   57.16180   57.16180   38.67800   38.67800   18.73450    7.63960    -999.25    -999.25  -21.40740   -3.96050   23.14340
 6050.00000   29.62390    7.72300   35.35010   47.02410   21.26570    -999.25   54.72800   54.72800   37.23020   37.23020   21.26570    7.72300    -999.25    -999.25  -26.83910  -10.65360   29.62390
 6100.00000   40.08910    7.53650   22.13650   29.55250   33.83810    -999.25   53.59450   53.59450   28.04040   28.04040   33.83810    7.53650    -999.25    -999.25  -19.64950   -4.73360   40.08910
 6150.00000   51.97440    7.52130    9.44970   14.03330   71.25920    -999.25   50.30750   50.30750   22.22200   22.22200   71.25920    7.52130    -999.25    -999.25  -30.07960  -16.42510   51.97440
 6200.00000   66.32540    7.74930    4.68880   10.50620   95.18230    -999.25   50.73800   50.73800   20.73250   20.73250   95.18230    7.74930    -999.25    -999.25  -33.02520  -20.64040   66.32540
 6250.00000   24.15660    7.73580   49.38520   61.86590   16.16400    -999.25   59.77920   59.77920   53.23000   53.23000   16.16400    7.73580    -999.25    -999.25  -15.66930   -4.54580   24.15660
 6300.00000    8.99700    9.52720  115.39760  152.51340    6.55680    -999.25   62.39460   62.39460   74.91890   74.91890    6.55680    9.52720    -999.25    -999.25  -15.76590   -5.01810    8.99700
 6350.00000   57.47170    7.64520    8.63430   13.88390   72.02590    -999.25   50.88550   50.88550   27.91890   27.91890   72.02590    7.64520    -999.25    -999.25  -37.83110  -27.30260   57.47170
 6400.00000   15.57110    7.81340   81.75760   98.94820   10.10630    -999.25   62.20550   62.20550   76.93780   76.93780   10.10630    7.81340    -999.25    -999.25  -14.80050   -4.48970   15.57110
 6450.00000   18.32980    7.54360   66.50120   77.86040   12.84350    -999.25   60.57170   60.57170   59.77050   59.77050   12.84350    7.54360    -999.25    -999.25  -14.60840   -4.51690   18.32980
 6500.00000    7.70350    7.84170  154.05030  219.56310    4.55450    -999.25   80.26950   80.26950   84.79430   84.79430    4.55450    7.84170    -999.25    -999.25  -25.26310  -15.38930    7.70350
 6550.00000   34.21840    8.97570   31.04540   40.81200   24.50260    -999.25   58.80150   58.80150   41.67300   41.67300   24.50260    8.97570    -999.25    -999.25  -15.65640   -6.00040   34.21840
 6600.00000   14.27160    7.70560  116.22260  155.64690    6.42480    -999.25   65.61400   65.61400   71.97970   71.97970    6.42480    7.70560    -999.25    -999.25  -17.68150   -8.41930   14.27160
 6650.00000    7.32370    7.59730  232.63970  232.63970    4.29850    -999.25   66.96300   66.96300  152.07690  152.07690    2.68230    7.59730    -999.25    -999.25  -23.69460  -16.21080    7.32370
 6700.00000    8.38100    7.84490  201.32380  304.91520    3.27960    -999.25   83.29150   83.29150  117.27890  117.27890    3.27960    7.84490    -999.25    -999.25  -22.36960  -16.67580    8.38100
 6750.00000   17.58200    7.64740  104.91980  133.85810    7.47060    -999.25   63.78320   63.78320   76.50050   76.50050    7.47060    7.64740    -999.25    -999.25  -15.11200  -11.19660   17.58200
 6800.00000   15.06290    7.65490  126.80950  176.51320    5.66530    -999.25   61.50640   61.50640   49.08860   49.08860    5.66530    7.65490    -999.25    -999.25  -23.02950  -20.89250   15.06290
