~Version ---------------------------------------------------
VERS.      2.0 : CWLS log ASCII Standard -VERSION 2.0
WRAP.       NO : One line per depth step
CREA. 09/26/17 : LAS Creation Date
~Well ------------------------------------------------------
STRT.FT                             300.0 : START DEPTH
STOP.FT                           13500.0 : STOP DEPTH
STEP.FT                          50.00000 : STEP LENGTH
NULL.                             -999.25 : NULL VALUE
COMP.          TEXACO EXPLORATION COMPANY : COMPANY
WELL. TEXACO H.B. DISMAL CREEK 6-28-47-14 : WELL
FLD .                                     : FIELD
LOC .                                     : LOCATION
CTRY.                              CANADA : COUNTRY
SRVC.              Schlumberger of Canada : SERVICE COMPANY
DATE.                         09-May-1961 : LOGDATE
PROV.                             Alberta : PROVINCE
UWI .                    100062804714W500 : UNIQUE WELL ID
SLAT.WGS84                       53.08145 : SURFACE LATITUDE
SLON.WGS84                      -115.9911 : SURFACE LONGITUDE
~Curve Information -----------------------------------------
DEPT  .FT         : Depth Curve
CALWS .IN         : CALIPER [MCALED]
CILDED.MMHO       : CONDUCTIVITY FROM IEL LOG
CLLDED.MMHO       : CONDUCTIVITY FROM DLL LOG
CONDWS.MMHO       : CONDUCTIVITY [1000/DRESWS]
DRESWS.OHMM       : DEEP RESISTIVITY [1000/CILDED IF ILDED<1, ILDED &  SPL. TO 1000/CLLED IF LLED<1, LLED @ 11615']
DTED  .US/F       : DELTA-T FROM SONIC LOG [ADJ. TO RESISTIVITY LOG]
DTWS  .US/F       : COMPRESSIONAL SONIC [DTED]
GRED  .GAPI       : GAMMA RAY (CASING & COLLARS) FROM SBL LOG [ADJ. TO RESISTIVITY LOG]
GRNED .UgRa-Eq/T  : GAMMA RAY (CASING & COLLARS) FROM GRN LOG [ADJ. TO RESISTIVITY LOG]
GRSED .UgRa-Eq/T  : GAMMA RAY FROM SONIC LOG [ADJ. TO RESISTIVITY LOG]
GRWS  .GAPI       : GAMMA RAY [GRED SPL. TO GRSED*16.5 @ 1002' & GRNED*16.5 @ 11622']
ILDED .OHMM       : DEEP INDUCTION RESISTIVITY FROM IEL LOG
LLED  .OHMM       : FOCUSED LATEROLOG RESISTIVITY FROM DLL LOG
MCALED.IN         : MICROCALIPER FROM MICROLOG [ADJ. TO RESISTIVITY LOG]
NEUTED.SCPS       : NEUTRON (CASING & COLLARS) FROM GRN LOG [ADJ. TO RESISTIVITY LOG]
NEUTWS.SCPS       : NEUTRON [NEUTED]
SNED  .OHMM       : SHORT NORMAL RESISTIVITY FROM IEL LOG
SPRED .MV         : SPONTANEOUS POTENTIAL FROM IEL LOG
SPWS  .MV         : SPONTANEOUS POTENTIAL [BASELINE 0 MV, SPRED]
SRESWS.OHMM       : SHALLOW RESISTIVITY [SNED]
~Params ----------------------------------------------------
LMF .                     KB : LOG MEASURED FROM
DMF .                     KB : DRILLING MEASURED FROM
EKB .FT                 3712 : KELLY BUSHING
EGL .FT                 3696 : GROUND LEVEL
DATE.               05/09/61 : RUN DATE
RUN .                      1 : RUN NUMBER
DD  .FT                13533 : DEPTH DRILLER
DL  .FT                11643 : DEPTH LOGGER
BLI .FT                11638 : BOTTOM LOG INTERVAL
TLI .FT                10032 : TOP LOG INTERVAL
CBD .FT                10039 : CASING BOTTOM DRILLER
CBL .FT                10032 : CASING BOTTOM LOGGER
BS  .IN                8.375 : BIT SIZE
BSD .FT                13533 : BIT SIZE AT DEPTH
DFT .              LIME BASE : DRILLING FLUID TYPE
DFD .                   10.1 : DRILLING FLUID DENSITY
DFV .                     85 : DRILLING FLUID VISCOSITY
DFPH.                   13.5 : DRILLING FLUID PH
DFL .                    4.2 : DRILLING FLUID LOSS
RMS .OHMM               0.35 : RESISTIVITY MUD SAMPLE
MST .DEGF                 75 : MUD SAMPLE TEMPERATURE
RMF .OHMM               0.24 : RESISTIVITY MUD FILTRATE SAMPLE
MFST.DEGF                 66 : MUD FILTRATE SAMPLE TEMPERATURE
RMC .OHMM               0.84 : RESISTIVITY MUD CAKE
MCST.DEGF                 56 : MUD CAKE SAMPLE TEMPERATURE
RMB .OHMM               0.13 : RESISTIVITY MUD AT BHT
TCS .HRS                   3 : TIME CIRCULATED STOPPED
LUN .                   2765 : LOGGING UNIT NUMBER
LUL .                    SKW : LOGGING UNIT LOCATION
ENGI.                PRATHER : RECORDING ENGINEER
WITN.                 RAKACH : WITNESSED BY
CLNT.                A2DTECH : CLIENT CODE
ORIG.        2" 5" 10" PRINT : ORIGIN OF DATA
UWI .       100062804714W500 : UNIQUE WELL ID
DICO. A2D Technologies, Inc. : DIGITIZING COMPANY
~Other -----------------------------------------------------
GRN-IEL-LL-ML-BCS LOG RAN
UNABLE TO RECORD SP DUE TO SEVERE DRIFTING CONDITION
LL GIVEN OVER A COMPRESSED SCALE COULD BE VERIFIED FROM 1000/CLLED
TOOL MOMENTARILY STUCK IN HOLE ON FIRST RUN @ 1800' & 2717'.
CNL-LDT IS TVD LOG, NO DATA AVAILABLE
~ASCII -----------------------------------------------------
# ...
 3800.00000   14.34250  196.19000    -999.25  196.89690    5.07880   95.82830   95.82830   69.35280    -999.25    4.59590   75.83240    5.07880    -999.25   14.34250    -999.25    -999.25    6.08770  -59.23080  -19.07320    6.08770
 3850.00000   15.63390  181.88590    -999.25  183.52330    5.44890   85.58610   85.58610   56.14020    -999.25    4.49550   74.17570    5.44890    -999.25   15.63390    -999.25    -999.25    6.96710  -57.97750  -17.52210    6.96710
 3900.00000   12.72050  134.16480    -999.25  131.52010    7.60340   82.29880   82.29880   60.47690    -999.25    4.55530   75.16240    7.60340    -999.25   12.72050    -999.25    -999.25    7.15260  -55.93330  -15.18200    7.15260
 3950.00000   15.19170  192.49630    -999.25  184.01970    5.43420   90.99350   90.99350   66.15030    -999.25    5.01530   82.75160    5.43420    -999.25   15.19170    -999.25    -999.25    6.68320  -50.22890   -9.17990    6.68320
 4000.00000   13.34750  150.84890    -999.25  151.17160    6.61500   85.05830   85.05830   63.49670    -999.25    4.26380   70.35350    6.61500    -999.25   13.34750    -999.25    -999.25    7.64530  -51.82780  -10.48290    7.64530
 4050.00000   13.63980  149.88980    -999.25  153.52020    6.51380  105.43220  105.43220   53.17490    -999.25    3.86750   63.81370    6.51380    -999.25   13.63980    -999.25    -999.25    7.44920  -47.53430   -5.89360    7.44920
 4100.00000   14.05060  160.29530    -999.25  163.81360    6.10450   83.35530   83.35530   57.46510    -999.25    4.42130   72.95140    6.10450    -999.25   14.05060    -999.25    -999.25    7.49450  -46.83260   -4.89410    7.49450
 4150.00000   15.24030  212.70170    -999.25  213.09240    4.69280   92.30440   92.30440   61.31380    -999.25    4.33290   71.49290    4.69280    -999.25   15.24030    -999.25    -999.25    6.11700  -45.39060   -3.15630    6.11700
 4200.00000   15.07570  230.37700    -999.25  232.15320    4.30750   89.02970   89.02970   79.70170    -999.25    4.99590   82.43320    4.30750    -999.25   15.07570    -999.25    -999.25    5.82000  -48.51780   -5.98570    5.82000
 4250.00000   14.91340  133.14680    -999.25  125.99850    7.93660   75.66500   75.66500   41.98210    -999.25    4.05040   66.83160    7.93660    -999.25   14.91340    -999.25    -999.25    8.54950  -50.94310   -8.11520    8.54950
 4300.00000   12.79080  181.35490    -999.25  184.70970    5.41390   86.85810   86.85810   55.32490    -999.25    4.18840   69.10860    5.41390    -999.25   12.79080    -999.25    -999.25    7.33520  -52.83510   -9.08470    7.33520
 4350.00000   12.43930   49.09600    -999.25   48.95220   20.42810   71.80770   71.80770   30.95300    -999.25    2.72070   44.89150   20.42810    -999.25   12.43930    -999.25    -999.25   17.13130  -75.78370  -29.69560   17.13130
 4400.00000   13.42250   94.66680    -999.25   96.26860   10.38760   77.46370   77.46370   39.70340    -999.25    3.23680   53.40720   10.38760    -999.25   13.42250    -999.25    -999.25   11.33570  -56.58550   -8.17500   11.33570
 4450.00000   15.79090  237.65830    -999.25  243.71820    4.10310   94.74150   94.74150   59.38350    -999.25    3.85050   63.53410    4.10310    -999.25   15.79090    -999.25    -999.25    5.78680  -52.49860   -1.82730    5.78680
 4500.00000   15.47230  144.21960    -999.25  141.77160    7.05360   85.04100   85.04100   66.28440    -999.25    4.47370   73.81520    7.05360    -999.25   15.47230    -999.25    -999.25    7.99360  -53.32560   -4.22470    7.99360
 4550.00000   15.72850  140.70240    -999.25  139.50110    7.16840   88.32340   88.32340   54.60960    -999.25    4.34050   71.61830    7.16840    -999.25   15.72850    -999.25    -999.25    9.72140  -52.88750   -5.35690    9.72140
 4600.00000   15.72980  553.68180    -999.25  641.06670    1.55990   96.98320   96.98320   62.19560    -999.25    4.38020   72.27330    1.55990    -999.25   15.72980    -999.25    -999.25    4.31440  -50.45190   -4.50200    4.31440
 4650.00000   15.32130  184.31300    -999.25  183.50640    5.44940   81.61720   81.61720   61.89490    -999.25    4.45510   73.50910    5.44940    -999.25   15.32130    -999.25    -999.25    6.40670  -50.27270   -5.89320    6.40670
 4700.00000   14.78810  324.78460    -999.25  384.54140    2.60050  117.26500  117.26500   77.94700    -999.25    4.72370   77.94110    2.60050    -999.25   14.78810    -999.25    -999.25    5.50300  -46.41810   -3.61920    5.50300
 4750.00000   15.72410  111.01340    -999.25  112.42020    8.89520  103.54400  103.54400   56.32900    -999.25    3.90010   64.35080    8.89520    -999.25   15.72410    -999.25    -999.25   10.33230  -43.76260   -2.53410   10.33230
 4800.00000   15.76480   79.66960    -999.25   82.71500   12.08970   81.21050   81.21050   62.11180    -999.25    4.71110   77.73400   12.08970    -999.25   15.76480    -999.25    -999.25   11.46200  -47.71840   -5.99030   11.46200
 4850.00000   15.79510  119.71020    -999.25  117.34750    8.52170   80.97300   80.97300   52.86440    -999.25    4.49980   74.24670    8.52170    -999.25   15.79510    -999.25    -999.25    8.69080  -49.51570   -7.12220    8.69080
 4900.00000   15.66110  121.43170    -999.25  123.83130    8.07550   88.09870   88.09870   57.15520    -999.25    4.04030   66.66500    8.07550    -999.25   15.66110    -999.25    -999.25    8.88800  -49.84230   -6.78770    8.88800
 4950.00000   15.77750   89.66190    -999.25   87.91290   11.37490   74.48670   74.48670   37.12610    -999.25    3.62660   59.83970   11.37490    -999.25   15.77750    -999.25    -999.25   11.90940  -50.94240   -7.22240   11.90940
 5000.00000   15.07390  109.15900    -999.25  110.67090    9.03580   80.39410   80.39410   51.85160    -999.25    4.35230   71.81300    9.03580    -999.25   15.07390    -999.25    -999.25    9.88930  -52.32970   -7.94860    9.88930
 5050.00000   15.79120  166.86670    -999.25  166.85580    5.99320   80.34970   80.34970   70.94840    -999.25    5.17590   85.40320    5.99320    -999.25   15.79120    -999.25    -999.25    7.00130  -53.16390   -8.12170    7.00130
 5100.00000   13.88380   79.07900    -999.25   70.07510   14.27040   73.74810   73.74810   57.33990    -999.25    3.95240   65.21460   14.27040    -999.25   13.88380    -999.25    -999.25   14.77800  -55.93380  -10.22620   14.77800
 5150.00000   15.68270  169.93660    -999.25  164.07430    6.09480   80.71410   80.71410   65.48530    -999.25    4.65220   76.76130    6.09480    -999.25   15.68270    -999.25    -999.25    6.91930  -51.67250   -5.30390    6.91930
 5200.00000   15.85610  151.60150    -999.25  149.40090    6.69340   86.71610   86.71610   57.98400    -999.25    4.06350   67.04770    6.69340    -999.25   15.85610    -999.25    -999.25    7.49880  -51.09740   -4.06330    7.49880
 5250.00000   15.31890  134.08400    -999.25  125.84630    7.94620   76.84600   76.84600   57.72110    -999.25    3.98080   65.68320    7.94620    -999.25   15.31890    -999.25    -999.25    8.36430  -53.17780   -5.48270    8.36430
 5300.00000   15.05280  116.99120    -999.25  115.66840    8.64540   81.29350   81.29350   52.62250    -999.25    4.16990   68.80340    8.64540    -999.25   15.05280    -999.25    -999.25    9.78180  -56.72540   -8.36920    9.78180
 5350.00000   15.85220  147.47800    -999.25  123.84820    8.07440   75.64900   75.64900   46.16560    -999.25    4.04440   66.73260    8.07440    -999.25   15.85220    -999.25    -999.25    7.90450  -53.39680   -4.37520    7.90450
 5400.00000   13.18710   62.01560    -999.25   63.88140   15.65400   77.73450   77.73450   36.82250    -999.25    3.16280   52.18620   15.65400    -999.25   13.18710    -999.25    -999.25   12.62120  -53.85570   -4.17300   12.62120
 5450.00000   12.98150   48.74540    -999.25   45.05860   22.19330   69.42410   69.42410   36.30370    -999.25    3.14020   51.81250   22.19330    -999.25   12.98150    -999.25    -999.25   18.50500  -60.16820  -16.83600   18.50500
 5500.00000   13.75470  253.20440    -999.25  240.94640    4.15030   96.83090   96.83090   46.54210    -999.25    3.94350   65.06770    4.15030    -999.25   13.75470    -999.25    -999.25    6.60420  -39.41600   -3.09490    6.60420
