~Version ---------------------------------------------------
VERS.      2.0 : CWLS log ASCII Standard -VERSION 2.0
WRAP.       NO : One line per depth step
CREA. 12/18/17 : LAS Creation Date
~Well ------------------------------------------------------
STRT.FT                           300.0 : START DEPTH
STOP.FT                          8400.0 : STOP DEPTH
STEP.FT                        50.00000 : STEP LENGTH
NULL.                           -999.25 : NULL VALUE
COMP.     HUDSON'S BAY OIL & GAS CO LTD : COMPANY
WELL. HUDSONS BAY EAST VIRGINIA HILLS 1 : WELL
FLD .                                   : FIELD
LOC .                                   : LOCATION
CTRY.                            CANADA : COUNTRY
SRVC.  Schlumberger Well Surveying Corp : SERVICE COMPANY
DATE.                       16-Jul-1957 : LOGDATE
PROV.                           Alberta : PROVINCE
UWI .                  100053106506W500 : UNIQUE WELL ID
SLAT.WGS84                     54.66668 : SURFACE LATITUDE
SLON.WGS84                    -114.9047 : SURFACE LONGITUDE
~Curve Information -----------------------------------------
DEPT     .FT         : Depth Curve
CALWS    .IN         : CALIPER [MCALED]
CONDWS   .MMHO       : CONDUCTIVITY [1000/DRESWS]
DRESWS   .OHMM       : DEEP RESISTIVITY [LNED]
GRN1ED   .CPS        : GAMMA RAY FROM CNL LOG
GRN2ED   .CPS        : GAMMA RAY FROM CNL LOG
GRNED    .UgRa-Eq/T  : GAMMA RAY FROM GRN LOG
GRWS     .GAPI       : GAMMA RAY [GRNED SPL. TO GRN2ED @ (6722'-7414') & GRN1ED @ 7214'TO FR] [GRNED*16.5]
LNED     .OHMM       : LONG NORMAL RESISTIVITY FROM RESISTIVITY LOG
LT18ED   .OHMM       : LATERAL 18' RESISTIVITY FROM RESISTIVITY LOG
MCALED   .IN         : MLT CALIPER FROM MICRO LOG
NEUTED   .CU         : NEUTRON FROM GRN LOG
NEUTWS   .CU         : NEUTRON [NEUTED]
NPHISS1ED.V/V        : NEUTRON POROSITY SANDSTONE FROM CNL LOG
NPHISSED .V/V        : NEUTRON POROSITY SANDSTONE FROM CNL LOG
NPOSSWS  .V/V        : NEUTRON POROSITY SANDSTONE [NPHISSED SPL. TO NPHISS1ED @ 7420']
SNED     .OHMM       : SHORT NORMAL RESISTIVITY FROM RESISTIVITY LOG
SPRED    .MV         : SPONTANEOUS POTENTIAL FROM RESISTIVITY LOG
SPWS     .MV         : SPONTANEOUS POTENTIAL [BASELINE 0 MV,SPRED]
SRESWS   .OHMM       : SHALLOW RESISTIVITY [SNED]
~Params ----------------------------------------------------
LMF .                     KB : LOG MEASURED FROM
DMF .                     KB : DRILLING MEASURED FROM
EKB .FT                 2615 : KELLY BUSHING
EGL .FT                 2602 : GROUND LEVEL
DATE.               07/16/57 : RUN DATE
RUN .                      1 : RUN NUMBER
DD  .FT                 8422 : DEPTH DRILLER
DL  .FT                 8418 : DEPTH LOGGER
TCS .HRS                   2 : TIME CIRCULATED STOPPED
LUL .                    EDM : LOGGING UNIT LOCATION
ENGI.                  JAMES : RECORDING ENGINEER
WITN.              PINNNACLE : WITNESSED BY
CLNT.                A2DTECH : CLIENT CODE
ORIG.            2" 5" PRINT : ORIGIN OF DATA
UWI .       100053106506W500 : UNIQUE WELL ID
DICO. A2D Technologies, Inc. : DIGITIZING COMPANY
~Other -----------------------------------------------------
~ASCII -----------------------------------------------------
  300.00000    -999.25    -999.25    -999.25    -999.25    -999.25    4.02040   66.33660    -999.25    -999.25    -999.25  202.56150  202.56150    -999.25    -999.25    -999.25    -999.25    -999.25    -999.25    -999.25
  350.00000    -999.25    -999.25    -999.25    -999.25    -999.25    4.19600   69.23400    -999.25    -999.25    -999.25  227.91020  227.91020    -999.25    -999.25    -999.25    -999.25    -999.25    -999.25    -999.25
  400.00000    -999.25    -999.25    -999.25    -999.25    -999.25    3.99610   65.93570    -999.25    -999.25    -999.25  242.35890  242.35890    -999.25    -999.25    -999.25    -999.25    -999.25    -999.25    -999.25
  450.00000    -999.25    -999.25    -999.25    -999.25    -999.25    3.68930   60.87340    -999.25    -999.25    -999.25  291.92370  291.92370    -999.25    -999.25    -999.25    -999.25    -999.25    -999.25    -999.25
  500.00000    -999.25    -999.25    -999.25    -999.25    -999.25    4.80350   79.25770    -999.25    -999.25    -999.25  323.65770  323.65770    -999.25    -999.25    -999.25    -999.25    -999.25    -999.25    -999.25
  550.00000    -999.25    -999.25    -999.25    -999.25    -999.25    3.55100   58.59150    -999.25    -999.25    -999.25  273.32020  273.32020    -999.25    -999.25    -999.25    -999.25    -999.25    -999.25    -999.25
  600.00000    -999.25    -999.25    -999.25    -999.25    -999.25    3.88210   64.05460    -999.25    -999.25    -999.25  242.95100  242.95100    -999.25    -999.25    -999.25    -999.25    -999.25    -999.25    -999.25
  650.00000    -999.25    -999.25    -999.25    -999.25    -999.25    2.93960   48.50340    -999.25    -999.25    -999.25  215.55130  215.55130    -999.25    -999.25    -999.25    -999.25    -999.25    -999.25    -999.25
  700.00000    -999.25    -999.25    -999.25    -999.25    -999.25    4.86520   80.27580    -999.25    -999.25    -999.25  424.69520  424.69520    -999.25    -999.25    -999.25    -999.25    -999.25    -999.25    -999.25
  750.00000    -999.25  105.57990    9.47150    -999.25    -999.25    4.42960   73.08840    9.47150    7.58440    -999.25  329.01130  329.01130    -999.25    -999.25    -999.25    5.51550  -82.29860  -11.06110    5.51550
  800.00000    -999.25  218.02170    4.58670    -999.25    -999.25    4.42810   73.06360    4.58670    4.01990    -999.25  449.38750  449.38750    -999.25    -999.25    -999.25    3.52300  -74.97990   -3.74240    3.52300
  850.00000    -999.25  228.12820    4.38350    -999.25    -999.25    5.76570   95.13410    4.38350    6.33120    -999.25  290.84530  290.84530    -999.25    -999.25    -999.25    3.13320  -73.76150   -2.52400    3.13320
  900.00000    -999.25   51.39410   19.45750    -999.25    -999.25    3.48580   57.51570   19.45750    7.17560    -999.25  731.43100  731.43100    -999.25    -999.25    -999.25   12.06250  -78.04250   -6.92150   12.06250
  950.00000    -999.25  211.01940    4.73890    -999.25    -999.25    5.74350   94.76780    4.73890    4.79080    -999.25  347.71040  347.71040    -999.25    -999.25    -999.25    2.91410  -75.16570   -4.18730    2.91410
 1000.00000    -999.25  212.27820    4.71080    -999.25    -999.25    5.22630   86.23400    4.71080    8.91410    -999.25  228.30690  228.30690    -999.25    -999.25    -999.25    3.87220  -80.43220   -9.59550    3.87220
 1050.00000    -999.25  198.31830    5.04240    -999.25    -999.25    5.10760   84.27540    5.04240    5.58100    -999.25  299.59860  299.59860    -999.25    -999.25    -999.25    3.25880  -74.18730   -3.49230    3.25880
 1100.00000    -999.25  207.30540    4.82380    -999.25    -999.25    4.88200   80.55300    4.82380    5.38100    -999.25  356.61050  356.61050    -999.25    -999.25    -999.25    3.52040  -73.12800   -2.57550    3.52040
 1150.00000    -999.25  251.15530    3.98160    -999.25    -999.25    5.17090   85.31980    3.98160    5.01310    -999.25  303.80580  303.80580    -999.25    -999.25    -999.25    2.97280  -73.79660   -3.38580    2.97280
 1200.00000    -999.25  231.36370    4.32220    -999.25    -999.25    5.43340   89.65110    4.32220    4.86770    -999.25  296.94890  296.94890    -999.25    -999.25    -999.25    2.94220  -73.37580   -3.10760    2.94220
 1250.00000    -999.25  178.52040    5.60160    -999.25   28.29380    4.45370   73.48610    5.60160    5.45370    -999.25  404.90810  404.90810    -999.25    0.29430    0.29430    3.35190  -73.21720   -3.09070    3.35190
 1300.00000    -999.25  252.99160    3.95270    -999.25   34.03930    5.67280   93.60120    3.95270    7.12570    -999.25  271.46330  271.46330    -999.25    0.59910    0.59910    2.84210  -75.23260   -4.71440    2.84210
 1350.00000    -999.25  172.10820    5.81030    -999.25   30.09350    4.67570   77.14910    5.81030    3.91280    -999.25  439.47640  439.47640    -999.25    0.38930    0.38930    4.58180  -88.34100  -16.89160    4.58180
 1400.00000    -999.25  278.00950    3.59700    -999.25   35.95970    5.58070   92.08160    3.59700    4.39270    -999.25  326.46820  326.46820    -999.25    0.52820    0.52820    2.75800  -76.95700   -4.58250    2.75800
 1450.00000    -999.25  194.90140    5.13080    -999.25   30.66510    4.62610   76.33070    5.13080    2.49850    -999.25  466.54410  466.54410    -999.25    0.60010    0.60010    3.13350  -82.26600   -8.96030    3.13350
 1500.00000    -999.25  258.05120    3.87520    -999.25   33.99300    5.14830   84.94700    3.87520    4.84710    -999.25  300.64130  300.64130    -999.25    0.60160    0.60160    2.96530  -75.73160   -1.50080    2.96530
 1550.00000    -999.25  280.02580    3.57110    -999.25   37.01190    5.13580   84.74070    3.57110    3.50610    -999.25  298.91320  298.91320    -999.25    0.59400    0.59400    2.63040  -77.93670   -2.78080    2.63040
 1600.00000    -999.25  250.90950    3.98550    -999.25   36.76490    5.78790   95.50030    3.98550    3.60050    -999.25  273.48920  273.48920    -999.25    0.31750    0.31750    2.81650  -77.61970   -1.53270    2.81650
 1650.00000    -999.25  195.80580    5.10710    -999.25    -999.25    7.69840  127.02360    5.10710    5.63150    -999.25  252.44360  252.44360    -999.25    0.43520    0.43520    3.84490  -80.91070   -3.89230    3.84490
 1700.00000    -999.25  198.13750    5.04700    -999.25    -999.25    7.40500  122.18250    5.04700    4.88350    -999.25  248.96470  248.96470    -999.25    -999.25    -999.25    3.66320  -82.85280   -5.14550    3.66320
 1750.00000    -999.25  184.66540    5.41520    -999.25    -999.25    8.38780  138.39870    5.41520    6.24720    -999.25  212.94900  212.94900    -999.25    -999.25    -999.25    3.91710  -87.98250   -9.90830    3.91710
 1800.00000    -999.25  211.75670    4.72240    -999.25    -999.25    8.46310  139.64120    4.72240    5.52580    -999.25  257.32340  257.32340    -999.25    -999.25    -999.25    3.74120  -87.54110   -9.09990    3.74120
 1850.00000    -999.25  126.85690    7.88290    -999.25    -999.25    9.22710  152.24720    7.88290    6.63730    -999.25  363.67840  363.67840    -999.25    -999.25    -999.25    5.59050  -82.52580   -3.37730    5.59050
 1900.00000    -999.25  146.13050    6.84320    -999.25    -999.25    8.37370  138.16600    6.84320    6.61630    -999.25  282.83950  282.83950    -999.25    -999.25    -999.25    4.49100  -85.46570   -5.09410    4.49100
 1950.00000    -999.25  185.96690    5.37730    -999.25    -999.25    7.45160  122.95140    5.37730    6.79290    -999.25  216.83400  216.83400    -999.25    -999.25    -999.25    4.12750  -87.42770   -5.82490    4.12750
 2000.00000    -999.25  117.27590    8.52690    -999.25    -999.25    5.98170   98.69800    8.52690    5.11520    -999.25  494.68850  494.68850    -999.25    -999.25    -999.25    6.04610  -87.60350   -4.77760    6.04610
 2050.00000    -999.25  131.24050    7.61960    -999.25    -999.25    8.23480  135.87420    7.61960    8.98780    -999.25  291.32100  291.32100    -999.25    -999.25    -999.25    5.05630  -85.03010   -1.25440    5.05630
 2100.00000    -999.25  161.19150    6.20380    -999.25    -999.25    8.44350  139.31770    6.20380    7.92160    -999.25  262.89510  262.89510    -999.25    -999.25    -999.25    4.55240  -90.77210   -7.12020    4.55240
