~Version ---------------------------------------------------
VERS.      2.0 : CWLS log ASCII Standard -VERSION 2.0
WRAP.       NO : One line per depth step
CREA. 12/29/17 : LAS Creation Date
~Well ------------------------------------------------------
STRT.FT                        1050.0 : START DEPTH
STOP.FT                       10000.0 : STOP DEPTH
STEP.FT                      50.00000 : STEP LENGTH
NULL.                         -999.25 : NULL VALUE
COMP.        SKELLY OIL OF CANADA LTD : COMPANY
WELL. SKELLY B-1 TWO CREEK 11-9-62-16 : WELL
FLD .                                 : FIELD
LOC .                                 : LOCATION
CTRY.                          CANADA : COUNTRY
SRVC.                    Schlumberger : SERVICE COMPANY
DATE.                     07-Nov-1976 : LOGDATE
PROV.                         Alberta : PROVINCE
UWI .                100110906216W500 : UNIQUE WELL ID
SLAT.WGS84                   54.35197 : SURFACE LATITUDE
SLON.WGS84                  -116.3434 : SURFACE LONGITUDE
~Curve Information -----------------------------------------
DEPT    .FT    : Depth Curve
CALDED  .IN    : CALIPER  FROM DENSITY LOG [ADJ. TO RESISTIVITY LOG]
CALSED  .IN    : CALIPER FROM SONIC LOG
CALWS   .IN    : CALIPER [CALDED]
CILDED  .MMHO  : DEEP INDUCTION CONDUCTIVITY FROM RESISTIVITY LOG
CONDWS  .MMHO  : CONDUCTIVITY [1000/DRESWS]
DCORWS  .G/C3  : DENSITY CORRECTION [DRHOED]
DENWS   .G/C3  : FORMATION BULK DENSITY [CALC. FROM DPOLSWS,M=2.71 F=1.00]
DPHILSED.V/V   : DENSITY POROSITY LIMESTONE [M=2.71 F=1.00 ASSUMED] FROM DENSITY LOG
DPHISSED.V/V   : DENSITY POROSITY SANDSTONE [M=2.65 F=1.00 ASSUMED] FROM DENSITY LOG
DPOLSWS .V/V   : DENSITY POROSITY LIMESTONE [DPHISSED CONVERTED TO LIMESTONE MATRIX,M=2.71 F=1.00 & SPL. TO DPHILSED @ 6444']
DRESWS  .OHMM  : DEEP RESISTIVITY [ILDED] FROM START TO 1365.5' [1000/CILDED,IF ILDED<2,ELSE ILDED]
DRHOED  .G/C3  : DENSITY CORRECTION FROM DENSITY LOG
DTED    .US/F  : DELTA TIME FROM SONIC LOG
DTWS    .US/F  : COMPRESSIONAL SONIC [DTED]
GRDED   .GAPI  : GAMMA RAY FROM DENSITY LOG [ADJ. TO RESISTIVITY LOG]
GRSED   .GAPI  : GAMMA RAY FROM SONIC LOG
GRWS    .GAPI  : GAMMA RAY [GRSED SPL. TO GRDED @ 9980']
ILDED   .OHMM  : DEEP INDUCTION RESISTIVITY FROM RESISTIVITY LOG
ILMED   .OHMM  : MEDIUM INDUCTION RESISTIVITY FROM RESISTIVITY LOG
LL8ED   .OHMM  : LATEROLOG 8 FROM RESISTIVITY LOG
MRESWS  .OHMM  : MEDIUM RESISTIVITY [ILMED]
NEUTED  .NAPI  : NEUTRON FROM GRN LOG [ADJ. TO RESISTIVITY LOG]
NEUTWS  .NAPI  : NEUTRON [NEUTED]
NPHILSED.V/V   : NEUTRON POROSITY LIMESTONE FROM DENSITY LOG
NPHISSED.V/V   : NEUTRON POROSITY SANDSTONE FROM DENSITY LOG
NPOLSWS .V/V   : NEUTRON POROSITY LIMESTONE [NPHISSED MATRIX CONVERSION FOR LIMESTONE & SPL. TO NPHILSED @ 6446']
RHOBED  .G/C3  : BULK DENSITY FROM DENSITY LOG
SPRED   .MV    : SPONTANEOUS POTENTIAL FROM RESISTIVITY LOG
SPWS    .MV    : SPONTANEOUS POTENTIAL [BASELINE 0 MV,SPRED]
SRESWS  .OHMM  : SHALLOW RESISTIVITY [LL8ED]
~Params ----------------------------------------------------
PD  .                     GL : PERMANENT DATUM
EPD .FT                 2996 : ELEVATION PERMANENT DATUM
LMF .                     KB : LOG MEASURED FROM
DAPD.FT                   15 : FEET ABOVE PERMANENT DATUM
EKB .FT                 3011 : KELLY BUSHING
EGL .FT                 2996 : GROUND LEVEL
DATE.             11/07/1976 : RUN DATE
RUN .                      1 : RUN NUMBER
DD  .FT                10019 : DEPTH DRILLER
DL  .FT                10020 : DEPTH LOGGER
BLI .FT                10019 : BOTTOM LOG INTERVAL
TLI .FT                 5150 : TOP LOG INTERVAL
CBD .FT                 1041 : CASING BOTTOM DRILLER
CBL .FT                 1040 : CASING BOTTOM LOGGER
BS  .IN                7.875 : BIT SIZE
BSD .FT                10020 : BIT SIZE AT DEPTH
DFT .               GEL-CHEM : DRILLING FLUID TYPE
DFD .                    9.2 : DRILLING FLUID DENSITY
DFV .                     86 : DRILLING FLUID VISCOSITY
DFPH.                    9.0 : DRILLING FLUID PH
DFL .                    5.4 : DRILLING FLUID LOSS
RMS .OHMM               2.02 : RESISTIVITY MUD SAMPLE
MST .DEGF                 51 : MUD SAMPLE TEMPERATURE
RMF .OHMM               1.54 : RESISTIVITY MUD FILTRATE SAMPLE
MFST.DEGF                 65 : MUD FILTRATE SAMPLE TEMPERATURE
RMC .OHMM                2.1 : RESISTIVITY MUD CAKE
MCST.DEGF                 51 : MUD CAKE SAMPLE TEMPERATURE
RMB .OHMM               0.49 : RESISTIVITY MUD AT BHT
MRT .DEGF                206 : MAXIMUM RECORDED TEMPERATURE
LUN .                   7691 : LOGGING UNIT NUMBER
LUL .                    WCT : LOGGING UNIT LOCATION
ENGI.               ROCKFORD : RECORDING ENGINEER
WITN.                   BALL : WITNESSED BY
CLNT.                A2DTECH : CLIENT CODE
ORIG.               5" PRINT : ORIGIN OF DATA
UWI .       100110906216W500 : UNIQUE WELL ID
DICO. A2D Technologies, Inc. : DIGITIZING COMPANY
~Other -----------------------------------------------------
~ASCII -----------------------------------------------------
# ...
 4650.00000    -999.25    9.00210    9.00210    -999.25  153.29660    -999.25    -999.25    -999.25    -999.25    -999.25    6.52330    -999.25   88.08660   88.08660    -999.25  105.22250  105.22250    6.52330    5.71690    6.86830    5.71690    -999.25    -999.25    -999.25    -999.25    -999.25    -999.25  -30.64940   -2.53690    6.86830
 4700.00000    -999.25    9.29490    9.29490    -999.25  180.73380    -999.25    -999.25    -999.25    -999.25    -999.25    5.53300    -999.25   92.77020   92.77020    -999.25  104.19810  104.19810    5.53300    4.84840    6.26240    4.84840    -999.25    -999.25    -999.25    -999.25    -999.25    -999.25  -28.78180   -1.10200    6.26240
 4750.00000    -999.25    9.22790    9.22790    -999.25  157.89060    -999.25    -999.25    -999.25    -999.25    -999.25    6.33350    -999.25   87.45170   87.45170    -999.25  107.51820  107.51820    6.33350    5.72630    7.39930    5.72630    -999.25    -999.25    -999.25    -999.25    -999.25    -999.25  -29.48890   -2.36730    7.39930
 4800.00000    -999.25    9.33960    9.33960    -999.25  153.24030    -999.25    -999.25    -999.25    -999.25    -999.25    6.52570    -999.25   86.90940   86.90940    -999.25  106.52040  106.52040    6.52570    5.86380    7.30370    5.86380    -999.25    -999.25    -999.25    -999.25    -999.25    -999.25  -28.08720   -1.52380    7.30370
 4850.00000    -999.25    9.22680    9.22680    -999.25  194.22760    -999.25    -999.25    -999.25    -999.25    -999.25    5.14860    -999.25   88.47880   88.47880    -999.25  103.55560  103.55560    5.14860    4.64660    5.90920    4.64660    -999.25    -999.25    -999.25    -999.25    -999.25    -999.25  -27.56060   -1.55540    5.90920
 4900.00000    -999.25    8.45680    8.45680    -999.25  134.46460    -999.25    -999.25    -999.25    -999.25    -999.25    7.43690    -999.25   83.87200   83.87200    -999.25  104.18310  104.18310    7.43690    6.62520    8.03810    6.62520    -999.25    -999.25    -999.25    -999.25    -999.25    -999.25  -28.23890   -2.79200    8.03810
 4950.00000    -999.25    9.85930    9.85930    -999.25  224.71410    -999.25    -999.25    -999.25    -999.25    -999.25    4.45010    -999.25   97.41430   97.41430    -999.25  104.43800  104.43800    4.45010    3.92380    5.31640    3.92380    -999.25    -999.25    -999.25    -999.25    -999.25    -999.25  -27.11310   -2.22440    5.31640
 5000.00000    -999.25    9.44860    9.44860    -999.25  318.83690    -999.25    -999.25    -999.25    -999.25    -999.25    3.13640    -999.25  110.31700  110.31700    -999.25  133.36890  133.36890    3.13640    2.75200    3.72460    2.75200    -999.25    -999.25    -999.25    -999.25    -999.25    -999.25  -25.28760   -0.95710    3.72460
 5050.00000    -999.25    9.58150    9.58150    -999.25  340.46030    -999.25    -999.25    -999.25    -999.25    -999.25    2.93720    -999.25   89.91790   89.91790    -999.25   91.75250   91.75250    2.93720    2.60830    3.78520    2.60830  468.12390  468.12390    -999.25    -999.25    -999.25    -999.25  -24.77430   -1.00200    3.78520
 5100.00000    -999.25    9.44250    9.44250    -999.25  234.43360    -999.25    -999.25    -999.25    -999.25    -999.25    4.26560    -999.25   86.57040   86.57040    -999.25   96.37010   96.37010    4.26560    4.05750    6.09300    4.05750  474.72910  474.72910    -999.25    -999.25    -999.25    -999.25  -26.06350   -2.84830    6.09300
 5150.00000    9.88830    8.92120    8.92120    -999.25  188.08310    0.17160    2.10600    -999.25    0.32970    0.35320    5.31680    0.17160   84.70470   84.70470  105.33440  102.06820  102.06820    5.31680    4.82670    7.40340    4.82670  493.11550  493.11550    -999.25    0.28070    0.22860    2.10800  -24.58620   -1.81760    7.40340
 5200.00000    8.24050    8.29600    8.29600    -999.25   99.15030    0.08040    2.35140    -999.25    0.18100    0.20970   10.08570    0.08040   75.50390   75.50390   80.41890   81.19200   81.19200   10.08570    8.96230   12.11620    8.96230  612.32080  612.32080    -999.25    0.23360    0.18120    2.35330  -25.71580   -3.39390   12.11620
 5250.00000    8.71380    8.46290    8.46290    -999.25    -999.25    0.12280    2.10450    -999.25    0.33060    0.35410    -999.25    0.12280  144.14240  144.14240  103.04590   98.42570   98.42570    1.57220    1.32800    2.03410    1.32800  436.52670  436.52670    -999.25    0.50380    0.47010    2.10210  -23.78760   -1.90690    2.03410
 5300.00000    9.50370    9.29090    9.29090    -999.25   76.16260    0.09120    1.90670    -999.25    0.45050    0.46980   13.12980    0.09120  109.58050  109.58050   76.95820   73.30160   73.30160   13.12980   11.76510   23.64110   11.76510  462.98950  462.98950    -999.25    0.51580    0.48340    1.99770  -24.00870   -2.39550   23.64110
 5350.00000    -999.25    8.93340    8.93340    -999.25  132.33290    -999.25    -999.25    -999.25    -999.25    -999.25    7.55670    -999.25   73.85270   73.85270    -999.25   68.73990   68.73990    7.55670    6.33000    9.56510    6.33000  630.29270  630.29270    -999.25    -999.25    -999.25    -999.25  -24.44010   -3.09440    9.56510
 5400.00000    -999.25    8.63860    8.63860    -999.25   61.46320    -999.25    -999.25    -999.25    -999.25    -999.25   16.26990    -999.25   66.46190   66.46190    -999.25   45.20580   45.20580   16.26990   17.21100   25.35470   17.21100  791.58750  791.58750    -999.25    -999.25    -999.25    -999.25  -27.13410   -6.05600   25.35470
 5450.00000    -999.25    9.93130    9.93130    -999.25  260.87860    -999.25    -999.25    -999.25    -999.25    -999.25    3.83320    -999.25  111.89320  111.89320    -999.25   85.70960   85.70960    3.83320    4.72940    6.64560    4.72940  457.09610  457.09610    -999.25    -999.25    -999.25    -999.25  -24.14590   -3.33530    6.64560
 5500.00000    -999.25    9.16650    9.16650    -999.25   81.09050    -999.25    -999.25    -999.25    -999.25    -999.25   12.33190    -999.25   71.58620   71.58620    -999.25   57.26030   57.26030   12.33190   11.23030   13.58280   11.23030  583.71450  583.71450    -999.25    -999.25    -999.25    -999.25  -29.96200   -9.41890   13.58280
 5550.00000    -999.25    9.08490    9.08490    -999.25   97.77850    -999.25    -999.25    -999.25    -999.25    -999.25   10.22720    -999.25   80.82490   80.82490    -999.25   94.37150   94.37150   10.22720    9.55180   13.36140    9.55180  499.67710  499.67710    -999.25    -999.25    -999.25    -999.25  -23.71100   -3.59910   13.36140
 5600.00000    -999.25   11.29790   11.29790    -999.25   63.70930    -999.25    -999.25    -999.25    -999.25    -999.25   15.69630    -999.25  129.15040  129.15040    -999.25   63.30910   63.30910   15.69630   13.61110   11.14120   13.61110  401.22070  401.22070    -999.25    -999.25    -999.25    -999.25  -23.82090   -6.60410   11.14120
 5650.00000    -999.25    8.86280    8.86280    -999.25   78.78420    -999.25    -999.25    -999.25    -999.25    -999.25   12.69290    -999.25   71.14410   71.14410    -999.25   69.68070   69.68070   12.69290   13.14530   16.51420   13.14530  574.28190  574.28190    -999.25    -999.25    -999.25    -999.25  -30.00510  -15.68340   16.51420
 5700.00000    -999.25    8.43650    8.43650    -999.25  101.52700    -999.25    -999.25    -999.25    -999.25    -999.25    9.84960    -999.25   72.24010   72.24010    -999.25   54.67790   54.67790    9.84960   11.84190   22.71980   11.84190  593.33150  593.33150    -999.25    -999.25    -999.25    -999.25  -61.55210  -50.12550   22.71980
 5750.00000    -999.25    9.13470    9.13470    -999.25  109.54100    -999.25    -999.25    -999.25    -999.25    -999.25    9.12900    -999.25   75.20750   75.20750    -999.25   80.75170   80.75170    9.12900    9.47300   12.21840    9.47300  560.01030  560.01030    -999.25    -999.25    -999.25    -999.25  -11.19580   -2.66430   12.21840
 5800.00000    -999.25    8.94580    8.94580    -999.25  128.66700    -999.25    -999.25    -999.25    -999.25    -999.25    7.77200    -999.25   74.60710   74.60710    -999.25   70.10880   70.10880    7.77200    7.04620   10.19200    7.04620  577.71960  577.71960    -999.25    -999.25    -999.25    -999.25  -21.87690  -13.31890   10.19200
