~Version ---------------------------------------------------
VERS. 2.0 : CWLS log ASCII Standard -VERSION 2.0
WRAP.  NO : ONE LINE PER DEPTH STEP
~Well ------------------------------------------------------
STRT.M                           450.0 : START DEPTH
STOP.M                          3500.0 : STOP DEPTH
STEP.M                        50.00000 : STEP LENGTH
NULL.                          -999.25 : NULL VALUE
COMP.      NORCEN ENERGY RESOURCES LTD : COMPANY
WELL. NORCEN SHERRITT WOLF 15-20-54-16 : WELL
FLD .                                  : FIELD
LOC .                                  : LOCATION
CTRY.                           CANADA : COUNTRY
SRVC.                    Dresser Atlas : SERVICE COMPANY
DATE.                      07-Aug-1981 : LOGDATE
PROV.                          Alberta : PROVINCE
UWI .                 100152005416W500 : UNIQUE WELL ID
SLAT.WGS84                    53.68332 : SURFACE LATITUDE
SLON.WGS84                   -116.3186 : SURFACE LONGITUDE
~Curve Information -----------------------------------------
DEPT    .M      : DEPTH METERS
ACED    .US/M   : ACOUSTIC TIME
CALDED  .MM     : CALIPER FROM DENSITY LOG
CALSED  .MM     : CALIPER FROM SONIC LOG
CALWS   .MM     : CALIPER [CALDED]
CONDWS  .MMHO   : CONDUCTIVITY [1000/DRESWS]
CORRED  .KG/M3  : DENSITY CORRECTION FROM DENSITY LOG
DCORWS  .KG/M3  : DENSITY CORRECTION [CORRED]
DENWS   .KG/M3  : BULK DENSITY [M=2650/2710 AT 2427 F=1000] [RHOBED]
DPHILSED.V/V    : DENSITY POROSITY [M=2710 F=1000] FROM DENSITY LOG
DPHISSED.V/V    : DENSITY POROSITY [M=2650 F=1000] FROM DENSITY LOG
DPOLSWS .V/V    : DENSITY POROSITY [M=2710 F=1000] [CALCULATED FROM DENWS]
DRESWS  .OHMM   : DEEP RESISTIVITY [LLDED]
DTWS    .US/M   : DELTA TIME [ACED]
GRDED   .GAPI   : GAMMA RAY FROM DENSITY LOG
GRRED   .GAPI   : GAMMA RAY FROM RESISTIVITY LOG
GRSED   .GAPI   : GAMMA RAY FROM SONIC LOG
GRWS    .GAPI   : GAMMA RAY [GRRED] CSG @ 457.7m
LLDED   .OHMM   : LATEROLOG DEEP RESISTIVITY
LLSED   .OHMM   : LATEROLOG SHALLOW RESISTIVITY
NPHILSED.V/V    : NEUTRON POROSITY LIMESTONE FROM DENSITY LOG
NPHISSED.V/V    : NEUTRON POROSITY SANDSTONE FROM DENSITY LOG
NPOLSWS .V/V    : NEUTON POROSITY LIMESTONE [NPHISSED CONVERTED TO LIMESTONE FROM POWER LOG FROM START TO 2423, THEN NPHILSED TO END]
RHOBED  .KG/M3  : BULK DENSITY FROM DENSITY LOG
SRESWS  .OHMM   : SHALLOW RESISTIVITY [LLSED]
TENDED  .KG     : TENSTON FROM DENSITY LOG
TENRED  .KG     : TENSTON FROM DLL LOG
TENSED  .KG     : TENSTON FROM SONIC LOG
~Params ----------------------------------------------------
PD  .                         GL : PERMANENT DATUM
EPD .M                     893.2 : ELEVATION PERMANENT DATUM
LMF .                         KB : LOG MEASURED FROM
DAPD.M                       6.6 : FEET ABOVE PERMANENT DATUM
DMF .                         KB : DRILLING MEASURED FROM
EKB .M                     899.8 : KELLY BUSHING
EGL .M                     893.2 : GROUND LEVEL
DATE.                   08/07/81 : RUN DATE
RUN .                          1 : RUN NUMBER
DD  .M                      3505 : DEPTH DRILLER
DL  .M                      3502 : DEPTH LOGGER
BLI .M                    3501.8 : BOTTOM LOG INTERVAL
TLI .M                       450 : TOP LOG INTERVAL
CS  .MM                      244 : CASING SIZE
CBD .M                       456 : CASING BOTTOM DRILLER
CBL .M                     457.7 : CASING BOTTOM LOGGER
BS  .MM                      222 : BIT SIZE
BSD .M                      3505 : BIT SIZE AT DEPTH
DFT .                    KCL MUD : DRILLING FLUID TYPE
DFD .                       1090 : DRILLING FLUID DENSITY
DFV .                         45 : DRILLING FLUID VISCOSITY
DFPH.                         10 : DRILLING FLUID PH
DFL .                         32 : DRILLING FLUID LOSS
MSS .                   FLOWLINE : MUD SAMPLE SOURCE
RMS .OHMM                   0.16 : RESISTIVITY MUD SAMPLE
MST .DEGC                     24 : MUD SAMPLE TEMPERATURE
RMF .OHMM                   0.15 : RESISTIVITY MUD FILTRATE SAMPLE
MFST.DEGC                     24 : MUD FILTRATE SAMPLE TEMPERATURE
RMC .OHMM                    0.3 : RESISTIVITY MUD CAKE
MCST.DEGC                     25 : MUD CAKE SAMPLE TEMPERATURE
MFSS.                       MEAS : MUD FILTRATE SAMPLE SOURCE
MCSS.                       MEAS : MUD CAKE SAMPLE SOURCE
RMB .OHMM                  0.057 : RESISTIVITY MUD AT BHT
TCS .HRS                       5 : TIME CIRCULATED STOPPED
LUN .                    HL 6253 : LOGGING UNIT NUMBER
LUL .                        EDM : LOGGING UNIT LOCATION
ENGI.                     WERNER : RECORDING ENGINEER
WITN.                     HUGHES : WITNESSED BY
CLNT.                    A2DTECH : CLIENT CODE
ORIG. 6.5"/100M 16.5"/100M PRINT : ORIGIN OF DATA
UWI .           100152005416W500 : UNIQUE WELL ID
DICO.     A2D Technologies, Inc. : DIGITIZING COMPANY
~Other -----------------------------------------------------
~ASCII -----------------------------------------------------
# ...
 1750.00000  250.26130  233.75830  233.20120  233.75830   68.06660   62.61620   62.61620 2697.76000    -999.25   -0.03130    0.00720   14.69150  250.26130  140.98820  112.82190  112.32830  112.82190   14.69150   11.85050    -999.25    0.23370    0.19460 2697.76000   11.85050    1.58550    9.04930    4.38000
 1800.00000  283.42150  243.50070  226.26520  243.50070   69.32650   47.40520   47.40520 2564.40770    -999.25    0.05100    0.08510   14.42450  283.42150  154.14920  126.63610  131.76150  126.63610   14.42450   11.99250    -999.25    0.28310    0.24390 2564.40770   11.99250   -0.10330    7.95630    2.85300
 1850.00000  274.75520  228.29110  230.13830  228.29110   50.28280   70.07340   70.07340 2629.22780    -999.25    0.01310    0.04720   19.88750  274.75520  160.24020  128.56730  135.15610  128.56730   19.88750   17.67060    -999.25    0.28860    0.24940 2629.22780   17.67060    3.62120    7.65520    3.80770
 1900.00000  268.47600  235.12020  226.81280  235.12020   57.17160   24.87950   24.87950 2594.02590    -999.25    0.03160    0.06780   17.49120  268.47600  182.27490  148.89290  149.65450  148.89290   17.49120   17.18220    -999.25    0.25260    0.21350 2594.02590   17.18220    1.95440    2.50920    3.81740
 1950.00000  267.66220  237.54690  221.67200  237.54690   96.77730   48.73330   48.73330 2643.82400    -999.25    0.00360    0.03870   10.33300  267.66220  151.94630  116.02880  122.17000  116.02880   10.33300    8.83320    -999.25    0.23810    0.19900 2643.82400    8.83320   -0.51030    8.46890    4.18300
 2000.00000  261.99620  247.89060  232.68320  247.89060   87.57640   90.51800   90.51800 2631.80980    -999.25    0.01030    0.04570   11.41860  261.99620  138.84460  114.02450  114.86810  114.02450   11.41860   10.14390    -999.25    0.26570    0.22650 2631.80980   10.14390    1.85730    1.30110    3.91270
 2050.00000  276.71390  276.96850  247.55550  276.96850  105.75860  414.05980  414.05980 2449.52370    -999.25    0.11910    0.15230    9.45550  276.71390  144.40120  116.63930  126.24540  116.63930    9.45550    7.37110    -999.25    0.22310    0.18400 2449.52370    7.37110    1.02520    8.46790    4.37870
 2100.00000  235.91480  259.01510  245.99190  259.01510   39.24850   39.43030   39.43030 2579.84030    -999.25    0.04160    0.07610   25.47870  235.91480   74.35500   55.79830   54.50010   55.79830   25.47870   16.55400    -999.25    0.17560    0.13650 2579.84030   16.55400   -1.35580   17.86490    3.83760
 2150.00000  232.04950  264.95490  259.68460  264.95490   42.77090   82.78510   82.78510 2550.86210    -999.25    0.06490    0.09310   23.38040  232.04950   82.59800   65.57610   63.91850   65.57610   23.38040   11.45660    -999.25    0.21140    0.17230 2550.86210   11.45660   -0.84200   15.29150    4.18580
 2200.00000  228.36830  261.10930  257.59670  261.10930   33.80300  167.68290  167.68290 2679.68580    -999.25   -0.01620    0.01770   29.58320  228.36830   88.82780   71.55950   71.88000   71.55950   29.58320   20.63000    -999.25    0.21470    0.17560 2679.68580   20.63000    0.28670   13.86730    4.70130
 2250.00000  223.10680  272.86930  266.72640  272.86930   53.93280  100.36520  100.36520 2589.37080    -999.25    0.03560    0.07050   18.54160  223.10680   70.99940   55.60030   58.48210   55.60030   18.54160   13.53880    -999.25    0.18880    0.14970 2589.37080   13.53880   -1.60610   17.98700    4.53990
 2300.00000  234.69200  253.59150  243.64890  253.59150   30.40640   24.16590   24.16590 2522.91630    -999.25    0.09140    0.10940   32.88780  234.69200  120.99290   89.44830   95.21910   89.44830   32.88780   32.45240    -999.25    0.19950    0.16040 2522.91630   32.45240    2.33530   11.12150    4.91280
 2350.00000  241.68600  290.27070  251.55200  290.27070   66.41160  172.70020  172.70020 2457.10420    -999.25    0.11770    0.14790   15.05760  241.68600  102.10910   72.48750   80.84020   72.48750   15.05760   10.58840    -999.25    0.19600    0.15690 2457.10420   10.58840    2.94490   13.74520    4.55360
 2400.00000  182.02580  225.26460  226.85270  225.26460    0.39450  201.98340  201.98340 2648.37300    -999.25    0.00180    0.03600 2534.56670  182.02580   33.77490   26.10170   22.03660   26.10170 2534.56670 2138.97950    0.04090    0.07290    0.03380 2648.37300 2138.97950   -1.31710  -18.98770    5.41230
 2450.00000  194.18400  231.10640  214.50990  231.10640   58.47200  178.19120  178.19120 2717.93090   -0.00090    -999.25   -0.00460   17.10220  194.18400   75.97380   57.19210   60.10890   57.19210   17.10220    9.19170    0.05630    -999.25    0.05630 2717.93090    9.19170    1.86370   17.45380   -1.30200
 2500.00000  155.74040  220.98060  219.40190  220.98060    0.48730  -27.80770  -27.80770 2809.95900   -0.06560    -999.25   -0.05850 2052.28250  155.74040   45.02530   33.92110   36.99580   33.92110 2052.28250 1992.84530    0.03740    -999.25    0.03740 2809.95900 1992.84530    0.17510    4.70400   -1.87410
 2550.00000  175.81330  227.42700  221.89950  227.42700   18.39560   40.78280   40.78280 2748.11110   -0.02120    -999.25   -0.02230   54.36080  175.81330   87.87070   68.14400   65.79990   68.14400   54.36080   43.58350    0.08610    -999.25    0.08610 2748.11110   43.58350   -0.63900   14.90460   -7.92450
 2600.00000  185.34480  223.84130  228.51700  223.84130   26.51300   50.12190   50.12190 2715.71880   -0.00150    -999.25   -0.00330   37.71740  185.34480   58.19740   44.20110   45.82780   44.20110   37.71740   29.36900    0.08740    -999.25    0.08740 2715.71880   29.36900    0.63410    1.71390  -24.07430
 2650.00000  183.74560  227.11390  221.02360  227.11390   15.76370   51.36940   51.36940 2682.87870    0.00050    -999.25    0.01590   63.43700  183.74560   72.28820   52.92010   57.45960   52.92010   63.43700   53.53140    0.07900    -999.25    0.07900 2682.87870   53.53140   -0.26720   16.71880   -2.23980
 2700.00000  160.69990  226.46150  222.09260  226.46150    0.98520  226.70300  226.70300 2769.22490   -0.02940    -999.25   -0.03460 1015.05490  160.69990   25.59330   20.44970   21.53460   20.44970 1015.05490  614.92540    0.02970    -999.25    0.02970 2769.22490  614.92540    1.46390   13.28600   -7.37410
 2750.00000  161.71900  242.31740  227.28220  242.31740    4.61780  461.25960  461.25960 2637.53250    0.04180    -999.25    0.04240  216.55370  161.71900   23.77860   21.89150   18.53500   21.89150  216.55370  109.21240    0.08480    -999.25    0.08480 2637.53250  109.21240    0.16210   -5.28030   -5.11230
 2800.00000  156.22510  250.82560  228.84770  250.82560    2.65380  445.13820  445.13820 2635.30320    0.04600    -999.25    0.04370  376.81360  156.22510   26.88840   15.98450   18.71520   15.98450  376.81360  157.38090    0.05080    -999.25    0.05080 2635.30320  157.38090   -0.30990    8.21710  -10.62270
 2850.00000  174.77650  310.40550  255.39870  310.40550    0.17140  361.86450  361.86450 2552.12400    0.11010    -999.25    0.09230 5833.50050  174.77650   30.98920   19.16650   23.11350   19.16650 5833.50050  514.09580    0.05440    -999.25    0.05440 2552.12400  514.09580    0.94140   -2.00740   -5.83630
 2900.00000  158.28660  226.06540  233.09460  226.06540    4.53170  365.33140  365.33140 2725.74050   -0.01540    -999.25   -0.00920  220.66880  158.28660   35.38640   22.70240   23.96890   22.70240  220.66880  146.29800    0.07460    -999.25    0.07460 2725.74050  146.29800   -0.39190  -25.47580   -0.00980
 2950.00000  164.44230  217.60020  231.76990  217.60020    1.93370  101.55080  101.55080 2814.38700   -0.06090    -999.25   -0.06100  517.14390  164.44230   43.63350   32.16560   32.94660   32.16560  517.14390  467.39000    0.05710    -999.25    0.05710 2814.38700  467.39000   -0.23300  -22.43670   -4.85690
 3000.00000  187.04970  227.22150  226.87840  227.22150   30.91960   81.86560   81.86560 2749.97410   -0.02240    -999.25   -0.02340   32.34190  187.04970   76.19810   53.42050   55.83840   53.42050   32.34190   29.53160    0.10880    -999.25    0.10880 2749.97410   29.53160    1.50200   18.71130    4.06500
