~Version ---------------------------------------------------
VERS.      2.0 : CWLS log ASCII Standard -VERSION 2.0
WRAP.       NO : One line per depth step
CREA. 11/21/17 : LAS Creation Date
~Well ------------------------------------------------------
STRT.FT                       1200.0 : START DEPTH
STOP.FT                      11400.0 : STOP DEPTH
STEP.FT                     50.00000 : STEP LENGTH
NULL.                        -999.25 : NULL VALUE
COMP.  THE ATLANTIC REFINING COMPANY : COMPANY
WELL. ATLANTIC ANTE CREEK 4-18-65-23 : WELL
FLD .                                : FIELD
LOC .                                : LOCATION
CTRY.                         CANADA : COUNTRY
SRVC.                   Schlumberger : SERVICE COMPANY
DATE.                    22-Mar-1963 : LOGDATE
PROV.                        Alberta : PROVINCE
UWI .               100041806523W500 : UNIQUE WELL ID
SLAT.WGS84                  54.61968 : SURFACE LATITUDE
SLON.WGS84                 -117.4756 : SURFACE LONGITUDE
~Curve Information -----------------------------------------
DEPT  .FT    : Depth Curve
CALMED.IN    : CALIPER FROM MICROLOG
CALWS .IN    : CALIPER [CALMED]
CILDED.MMHO  : CONDUCTIVITY FROM RESISTIVITY LOG
CONDWS.MMHO  : CONDUCTIVITY [1000/DRESWS]
DRESWS.OHMM  : DEEP RESISTIVITY [ILDED]
DTED  .US/F  : DELTA-T FROM SONIC LOG
DTWS  .US/F  : COMPRESSIONAL SONIC [DTED]
GRSED .GAPI  : GAMMA RAY FROM SONIC LOG
GRWS  .GAPI  : GAMMA RAY [GRSED]
ILDED .OHMM  : DEEP INDUCTION RESISTIVITY FROM RESISTIVITY LOG
NEUTED.NAPI  : NEUTRON FROM NEUTRON LOG
NEUTWS.NAPI  : NEUTRON [NEUTED]
SIGMED.CU    : NEUTRON CAPTURE CROSS SECTION FROM TDT LOG
SNED  .OHMM  : 16 INCH SHORT NORMAL RESISTIVITY FROM RESISTIVITY LOG
SPRED .MV    : SPONTANEOUS POTENTIAL FROM RESISTIVITY LOG
SPWS  .MV    : SPONTANEOUS POTENTIAL [BASELINE 0 MV,SPRED]
SRESWS.OHMM  : SHALLOW RESISTIVITY [SNED]
~Params ----------------------------------------------------
PD  .                     GL : PERMANENT DATUM
EPD .FT                 2813 : ELEVATION PERMANENT DATUM
LMF .                     KB : LOG MEASURED FROM
DAPD.FT                   14 : FEET ABOVE PERMANENT DATUM
EKB .FT                 2827 : KELLY BUSHING
EGL .FT                 2813 : GROUND LEVEL
DATE.               03/22/63 : RUN DATE
RUN .                      1 : RUN NUMBER
DD  .FT                11400 : DEPTH DRILLER
DL  .FT                11412 : DEPTH LOGGER
BLI .FT                11411 : BOTTOM LOG INTERVAL
TLI .FT                 1185 : TOP LOG INTERVAL
CBD .FT                 1185 : CASING BOTTOM DRILLER
CBL .FT                 1185 : CASING BOTTOM LOGGER
BS  .IN                8.625 : BIT SIZE
BSD .FT                11400 : BIT SIZE AT DEPTH
DFT .               GEL CHEM : DRILLING FLUID TYPE
DFD .                    9.9 : DRILLING FLUID DENSITY
DFV .                     90 : DRILLING FLUID VISCOSITY
DFPH.                      9 : DRILLING FLUID PH
DFL .                    7.4 : DRILLING FLUID LOSS
RMF .OHMM               2.02 : RESISTIVITY MUD FILTRATE SAMPLE
MFST.DEGF                 78 : MUD FILTRATE SAMPLE TEMPERATURE
RMC .OHMM               2.45 : RESISTIVITY MUD CAKE
MCST.DEGF                 78 : MUD CAKE SAMPLE TEMPERATURE
TCS .HRS                   4 : TIME CIRCULATED STOPPED
LUN .                   1534 : LOGGING UNIT NUMBER
LUL .                     VV : LOGGING UNIT LOCATION
ENGI.                  MILLS : RECORDING ENGINEER
WITN.            SCOTT COWRN : WITNESSED BY
CLNT.                A2DTECH : CLIENT CODE
ORIG.            2" 5" PRINT : ORIGIN OF DATA
UWI .       100041806523W500 : UNIQUE WELL ID
DICO. A2D Technologies, Inc. : DIGITIZING COMPANY
~Other -----------------------------------------------------
IEL-BHC-NEUTRON-TDT-MICRO LOG RUN.
IEL: ALL DATA VERYFIED FROM SMALL SCALE @ TOP TO 3418'
BHC-MICROLOG: ALL DATA VERYFIED FROM SMALL SCALE @ TOP TO 3829'
~ASCII -----------------------------------------------------
# ...
 7350.00000    8.46070    8.46070   31.68120   37.05360   26.98790   56.39660   56.39660   56.51640   56.51640   26.98790    -999.25    -999.25    -999.25   78.67300 -191.33630 -118.58530   78.67300
 7400.00000    7.55170    7.55170  247.62690  215.64740    4.63720   64.38650   64.38650   66.59910   66.59910    4.63720    -999.25    -999.25    -999.25   26.72760 -209.32010 -140.75290   26.72760
 7450.00000    8.79580    8.79580   22.47090   27.32320   36.59900   56.49130   56.49130   71.27680   71.27680   36.59900    -999.25    -999.25    -999.25   44.70910 -127.78910  -63.43320   44.70910
 7500.00000    9.01390    9.01390    1.40720    7.41470  134.86780   50.25260   50.25260   75.24950   75.24950  134.86780    -999.25    -999.25    -999.25   84.37650 -118.37980  -58.20770   84.37650
 7550.00000    9.68470    9.68470    2.26430    1.81590  550.69060   48.07550   48.07550   62.72770   62.72770  550.69060    -999.25    -999.25    -999.25  220.41340 -137.98120  -81.99290  220.41340
 7600.00000    9.16390    9.16390    1.59560    4.21580  237.20380   48.02110   48.02110   60.08260   60.08260  237.20380    -999.25    -999.25    -999.25  132.55880 -106.98760  -55.21060  132.55880
 7650.00000    8.98630    8.98630   52.44470   57.36080   17.43350   56.37340   56.37340   60.70830   60.70830   17.43350    -999.25    -999.25    -999.25   60.22410 -175.93010 -128.33690   60.22410
 7700.00000   10.15430   10.15430   23.75620   27.67840   36.12920   48.76090   48.76090   69.13550   69.13550   36.12920    -999.25    -999.25    -999.25   40.00530 -101.07590  -57.69400   40.00530
 7750.00000   12.75870   12.75870   13.95770   18.49540   54.06760   55.81830   55.81830   58.15780   58.15780   54.06760    -999.25    -999.25    -999.25   80.58780 -143.00220 -103.80410   80.58780
 7800.00000    9.51950    9.51950   53.48100   57.02540   17.54010   59.93100   59.93100  101.07190  101.07190   17.54020    -999.25    -999.25    -999.25   22.34990  -65.14930  -30.13500   22.34990
 7850.00000    9.39490    9.39490   16.64010   20.85760   47.94410   56.49940   56.49940   79.35820   79.35820   47.94410    -999.25    -999.25    -999.25   45.20270  -39.46280   -8.65980   45.20270
 7900.00000    9.86420    9.86420   33.43240   36.16740   27.64920   58.71020   58.71020  101.10800  101.10800   27.64920    -999.25    -999.25    -999.25   41.28070  -53.13040  -20.08400   41.28070
 7950.00000    9.07620    9.07620  319.67680  276.15160    3.62120   62.96800   62.96800   80.27810   80.27810    3.62120    -999.25    -999.25    -999.25   15.62080 -153.74840 -115.27010   15.62080
 8000.00000    9.61900    9.61900   46.26500   48.74170   20.51630   63.36730   63.36730   86.69480   86.69480   20.51630    -999.25    -999.25    -999.25   41.77150  -71.36820  -27.49350   41.77150
 8050.00000   10.50610   10.50610   21.11610   23.03380   43.51800   52.86540   52.86540   84.18230   84.18230   43.51800    -999.25    -999.25    -999.25   59.11920  -60.62880  -11.35780   59.11920
 8100.00000   11.22680   11.22680    8.34830   13.87750   72.05920   55.81710   55.81710   57.16380   57.16380   72.05920    -999.25    -999.25    -999.25   86.31280 -118.06010  -64.29800   86.31280
 8150.00000    9.74910    9.74910    2.69720    3.53130  283.18520   50.03400   50.03400   63.10350   63.10350  283.18520    -999.25    -999.25    -999.25  171.43140 -152.89380  -99.45570  171.43140
 8200.00000    9.98630    9.98630    3.19390    8.01340  124.79090   49.96520   49.96520   55.07600   55.07600  124.79090    -999.25    -999.25    -999.25  146.57600 -160.26400 -107.15200  146.57600
 8250.00000   11.26740   11.26740    1.47630    3.88960  257.09770   48.90390   48.90390   60.95030   60.95030  257.09770    -999.25    -999.25    -999.25  139.02660 -132.24150  -79.45350  139.02660
 8300.00000    9.83060    9.83060  321.52240  267.40120    3.74010   67.31690   67.31690   98.82240   98.82240    3.74000    -999.25    -999.25    -999.25    7.50380 -103.16960  -51.76240    7.50380
 8350.00000   10.02670   10.02670  116.31600  113.35170    8.82210   54.47810   54.47810  117.32660  117.32660    8.82210    -999.25    -999.25    -999.25   14.98740  -60.36000  -11.49130   14.98740
 8400.00000    9.70850    9.70850   74.68300   77.77740   12.85720   62.88210   62.88210  102.78680  102.78680   12.85720    -999.25    -999.25    -999.25   20.05990  -66.19650  -19.84970   20.05990
 8450.00000   10.72000   10.72000   48.96970   45.85350   21.80860   54.38160   54.38160   69.94660   69.94660   21.80860    -999.25    -999.25    -999.25   27.52070  -58.72640  -14.33640   27.52070
 8500.00000    9.28360    9.28360   12.96990   19.40930   51.52180   56.31370   56.31370   75.84650   75.84650   51.52180    -999.25    -999.25    -999.25   60.89140  -54.27630  -11.58960   60.89140
 8550.00000    9.32340    9.32340   10.90230   15.95810   62.66570   55.70150   55.70150   80.93010   80.93010   62.66570    -999.25    -999.25    -999.25   66.82210  -48.12330   -7.13980   66.82210
 8600.00000    9.30090    9.30090   33.46500   35.36580   28.27590   60.30330   60.30330   91.72450   91.72450   28.27590    -999.25    -999.25    -999.25   31.71100  -47.13190   -7.86290   31.71100
 8650.00000    9.57520    9.57520   35.09990   37.18150   26.89510   61.31590   61.31590  103.73260  103.73260   26.89510    -999.25    -999.25    -999.25   28.93510  -43.03620   -5.33520   28.93510
 8700.00000    8.90700    8.90700    9.33730   11.44060   87.40780   56.69230   56.69230   91.08940   91.08940   87.40780    -999.25    -999.25    -999.25   76.31720  -57.54610  -16.88240   76.31720
 8750.00000    9.12670    9.12670    5.19510   11.72130   85.31460   56.20260   56.20260   80.85690   80.85690   85.31460    -999.25    -999.25    -999.25   74.68450  -57.25850  -13.68580   74.68450
 8800.00000    9.11840    9.11840    0.14760    3.67720  271.94590   53.91570   53.91570   71.79440   71.79440  271.94590    -999.25    -999.25    -999.25  149.80890  -64.86890  -18.38710  149.80890
 8850.00000    9.40190    9.40190   23.80400   25.37300   39.41190   63.31130   63.31130  106.52060  106.52060   39.41190    -999.25    -999.25    -999.25   42.26640  -51.92430   -2.51430   42.26640
 8900.00000   13.50550   13.50550    1.40340    1.82080  549.20480   52.35940   52.35940   60.82960   60.82960  549.20480    -999.25    -999.25    -999.25  103.16500  -69.54340  -19.36890  103.16500
 8950.00000    8.99120    8.99120    2.91010    1.84050  543.32230   79.54020   79.54020  240.02260  240.02260  543.32230    -999.25    -999.25    -999.25  195.83400  -86.62270  -38.43580  195.83400
 9000.00000   10.07410   10.07410    2.51880    1.85740  538.40000   48.72250   48.72250   58.00370   58.00370  538.40000    -999.25    -999.25    -999.25  335.04890 -108.37060  -62.15820  335.04890
 9050.00000   10.80640   10.80640    2.45440    1.88150  531.50000   48.51630   48.51630   59.56090   59.56090  531.50000    -999.25    -999.25    -999.25  331.28180 -109.08610  -64.84830  331.28180
 9100.00000   10.95400   10.95400    2.16930    1.86580  535.95000   49.71040   49.71040   57.73980   57.73980  535.95000    -999.25    -999.25    -999.25  292.97480 -119.99110  -77.74090  292.97480
 9150.00000   10.85470   10.85470    3.53080    1.86580  535.95000   48.62270   48.62270   60.82300   60.82300  535.95000    -999.25    -999.25    -999.25  318.43430 -114.92690  -74.65130  318.43430
 9200.00000   11.29630   11.29630    2.59690    1.86580  535.95000   48.64190   48.64190   60.90160   60.90160  535.95000    -999.25    -999.25    -999.25  400.42560 -124.37320  -86.08520  400.42560
 9250.00000   10.90970   10.90970    1.95690    2.16730  461.40000   49.74980   49.74980   56.41940   56.41940  461.40000    -999.25    -999.25    -999.25  193.25230 -161.00670 -124.69320  193.25230
 9300.00000   11.67010   11.67010    1.43100    1.83270  545.65000   49.84910   49.84910   54.57580   54.57580  545.65000    -999.25    -999.25    -999.25  268.63770 -152.88550 -118.54670  268.63770
 9350.00000   11.66720   11.66720    3.47480    1.89160  528.65000   47.78950   47.78950   51.66310   51.66310  528.65000    -999.25    -999.25    -999.25  278.82270 -142.42780 -110.07650  278.82270
