~Version ---------------------------------------------------
VERS.      2.0 : CWLS log ASCII Standard -VERSION 2.0
WRAP.       NO : One line per depth step
CREA. 11/20/17 : LAS Creation Date
~Well ------------------------------------------------------
STRT.FT                          1100.0 : START DEPTH
STOP.FT                         10200.0 : STOP DEPTH
STEP.FT                        50.00000 : STEP LENGTH
NULL.                           -999.25 : NULL VALUE
COMP.          CHEVRON STANDARD LIMITED : COMPANY
WELL. CHEVRON GULF E KAYBOB 12-25-62-18 : WELL
FLD .                                   : FIELD
LOC .                                   : LOCATION
CTRY.                            CANADA : COUNTRY
SRVC.                      Schlumberger : SERVICE COMPANY
DATE.                       18-Aug-1973 : LOGDATE
PROV.                           Alberta : PROVINCE
UWI .                  100122506218W500 : UNIQUE WELL ID
SLAT.WGS84                     54.39495 : SURFACE LATITUDE
SLON.WGS84                    -116.5696 : SURFACE LONGITUDE
~Curve Information -----------------------------------------
DEPT  .FT    : Depth Curve
CALSED.IN    : CALIPER FROM SONIC LOG [ADJ. TO RESISTIVITY LOG]
CALWS .IN    : CALIPER [CALSED]
CONDWS.MMHO  : CONDUCTIVITY [1000/DRESWS]
DRESWS.OHMM  : DEEP RESISTIVITY [ILDED]
DTED  .US/F  : DELTA TIME FROM SONIC LOG [ADJ. TO RESISTIVITY LOG]
DTWS  .US/F  : COMPRESSIONAL SONIC [DTED]
GRSED .GAPI  : GAMMA RAY FROM SONIC LOG ADJ. TO RESISTIVITY LOG]
GRWS  .GAPI  : GAMMA RAY [GRSED]
ILDED .OHMM  : DEEP INDUCTION LOG RESISTIVITY FROM RESISTIVITY LOG
ILMED .OHMM  : MEDIUM INDUCTION LOG MEDIUM RESISTIVITY FROM RESISTIVITY LOG
LL8ED .OHMM  : 8 INCH LATEROLOG RESISTIVITY FROM RESISTIVITY LOG
MRESWS.OHMM  : MEDIUM RESISTIVITY [ILMED]
SPRED .MV    : SPONTANEOUS POTENTIAL FROM RESISTIVITY LOG
SPWS  .MV    : SPONTANEOUS POTENTIAL [BASELINE 0 MV SPRED]
SRESWS.OHMM  : SHALLOW RESISTIVITY [LL8ED]
~Params ----------------------------------------------------
PD  .                     GL : PERMANENT DATUM
EPD .FT               2847.5 : ELEVATION PERMANENT DATUM
LMF .                     KB : LOG MEASURED FROM
DAPD.FT                   14 : FEET ABOVE PERMANENT DATUM
EKB .FT               2861.5 : KELLY BUSHING
EGL .FT               2847.5 : GROUND LEVEL
DATE.               08/18/73 : RUN DATE
RUN .                      1 : RUN NUMBER
DD  .FT                10235 : DEPTH DRILLER
DL  .FT                10238 : DEPTH LOGGER
BLI .FT                10232 : BOTTOM LOG INTERVAL
TLI .FT                 1119 : TOP LOG INTERVAL
CBD .FT                 1119 : CASING BOTTOM DRILLER
CBL .FT                 1119 : CASING BOTTOM LOGGER
BS  .IN                 8.75 : BIT SIZE
BSD .FT                10235 : BIT SIZE AT DEPTH
DFT .              BENEX GEL : DRILLING FLUID TYPE
DFD .                    9.3 : DRILLING FLUID DENSITY
DFV .                    100 : DRILLING FLUID VISCOSITY
DFPH.                      9 : DRILLING FLUID PH
DFL .                    8.4 : DRILLING FLUID LOSS
MSS .                   CIRC : MUD SAMPLE SOURCE
RMS .OHMM               2.62 : RESISTIVITY MUD SAMPLE
MST .DEGF                 46 : MUD SAMPLE TEMPERATURE
RMF .OHMM                2.1 : RESISTIVITY MUD FILTRATE SAMPLE
MFST.DEGF                 56 : MUD FILTRATE SAMPLE TEMPERATURE
RMC .OHMM               1.99 : RESISTIVITY MUD CAKE
MCST.DEGF                 64 : MUD CAKE SAMPLE TEMPERATURE
RMB .OHMM               0.65 : RESISTIVITY MUD AT BHT
TCS .HRS                   3 : TIME CIRCULATED STOPPED
LUN .                   7636 : LOGGING UNIT NUMBER
LUL .                    EDM : LOGGING UNIT LOCATION
ENGI.                  IBSEN : RECORDING ENGINEER
WITN.                   GOLL : WITNESSED BY
CLNT.                A2DTECH : CLIENT CODE
ORIG.            2" 5" PRINT : ORIGIN OF DATA
UWI .       100122506218W500 : UNIQUE WELL ID
DICO. A2D Technologies, Inc. : DIGITIZING COMPANY
~Other -----------------------------------------------------
DIL-BHC LOG RUN
~ASCII -----------------------------------------------------
# ...
 3400.00000   11.25370   11.25370  157.92550    6.33210   93.25270   93.25270   93.13790   93.13790    6.33210    6.72040    7.20560    6.72040 -116.73520   -5.52950    7.20560
 3450.00000   10.99360   10.99360  171.68860    5.82450   98.52960   98.52960  112.89840  112.89840    5.82450    6.29870    7.45510    6.29870 -114.91500   -3.83300    7.45510
 3500.00000   10.06600   10.06600  104.75150    9.54640   85.31310   85.31310   99.38120   99.38120    9.54640   10.56670   12.70520   10.56670 -115.53150   -4.57320   12.70520
 3550.00000   10.98610   10.98610  133.06870    7.51540   88.34470   88.34470   93.03180   93.03180    7.51540    8.14220    8.61430    8.14220 -113.96480   -3.12960    8.61430
 3600.00000   11.19000   11.19000  131.21810    7.62090   88.70170   88.70170   95.31280   95.31280    7.62090    8.19990    8.39170    8.19990 -115.20620   -4.49530    8.39170
 3650.00000   10.86060   10.86060  171.68860    5.82450   89.95080   89.95080   97.95380   97.95380    5.82450    6.18570    6.79260    6.18570 -115.62990   -5.04270    6.79260
 3700.00000   11.86160   11.86160  137.30230    7.28320   85.88840   85.88840   91.24130   91.24130    7.28320    7.59860    8.01000    7.59860 -115.40620   -4.94270    8.01000
 3750.00000   13.21320   13.21320  127.69270    7.83130   88.29110   88.29110   85.23060   85.23060    7.83130    8.31920    8.48550    8.31920 -116.70160   -6.36180    8.48550
 3800.00000   11.55460   11.55460  160.27030    6.23950   87.48170   87.48170   91.41970   91.41970    6.23950    6.63580    7.64220    6.63580 -114.41460   -4.19780    7.64220
 3850.00000   11.67550   11.67550  186.93690    5.34940   92.22540   92.22540  103.38980  103.38980    5.34940    5.79020    6.45010    5.79020 -114.79640   -4.70390    6.45010
 3900.00000   12.00090   12.00090  153.78230    6.50270   87.77800   87.77800   97.80870   97.80870    6.50270    6.97540    7.15480    6.97540 -114.13850   -4.16970    7.15480
 3950.00000   12.01240   12.01240  151.53350    6.59920   87.03520   87.03520   94.65750   94.65750    6.59920    7.01540    7.05720    7.01540 -113.28670   -3.44160    7.05720
 4000.00000   12.02660   12.02660  148.92480    6.71480   87.21930   87.21930   93.23310   93.23310    6.71480    7.40080    7.64920    7.40080 -113.10010   -3.85190    7.64920
 4050.00000   10.89750   10.89750  119.96090    8.33610   82.90210   82.90210   94.20620   94.20620    8.33610    8.94970    9.73870    8.94970 -112.97750   -4.52500    9.73870
 4100.00000   11.50560   11.50560  119.78770    8.34810   86.33620   86.33620  100.27620  100.27620    8.34810    9.08900    9.06450    9.08900 -113.37810   -5.72940    9.06450
 4150.00000   12.03290   12.03290  138.73670    7.20790   83.70630   83.70630   93.38100   93.38100    7.20790    7.77560    8.42630    7.77560 -111.92040   -5.07140    8.42630
 4200.00000   11.50210   11.50210  141.95470    7.04450   89.34110   89.34110  103.18070  103.18070    7.04450    7.56860    7.78020    7.56860 -112.66050   -6.61120    7.78020
 4250.00000   11.95060   11.95060  161.80440    6.18030   90.38710   90.38710  102.70320  102.70320    6.18030    6.81450    7.66130    6.81450 -111.14260   -5.89300    7.66130
 4300.00000   11.47630   11.47630  175.50200    5.69800   93.03030   93.03030  117.63740  117.63740    5.69800    6.33900    7.29380    6.33900 -109.63890   -5.18510    7.29380
 4350.00000   10.63650   10.63650  139.26220    7.18070   93.70910   93.70910  111.41350  111.41350    7.18070    8.19020    9.51860    8.19020 -107.10710   -3.45700    9.51860
 4400.00000   10.09220   10.09220  131.53740    7.60240   93.93580   93.93580  112.07790  112.07790    7.60240    8.48940   10.38400    8.48940 -107.56280   -4.71240   10.38400
 4450.00000   10.19570   10.19570  124.15420    8.05450   94.36710   94.36710  111.97270  111.97270    8.05450    9.09840   11.69790    9.09840 -107.17910   -5.12840   11.69790
 4500.00000   10.08100   10.08100  118.46240    8.44150   95.64990   95.64990  119.75520  119.75520    8.44150    9.61310   12.20890    9.61310 -105.44510   -4.19420   12.20890
 4550.00000   10.86270   10.86270  165.23930    6.05180   97.07550   97.07550  105.54890  105.54890    6.05180    6.72690    8.58370    6.72690 -106.60710   -5.23360    8.58370
 4600.00000   11.02120   11.02120  143.71950    6.95800   84.32800   84.32800   96.72200   96.72200    6.95800    7.82860    8.42780    7.82860 -108.74330   -7.04110    8.42780
 4650.00000   11.40960   11.40960  181.50470    5.50950   85.21710   85.21710  102.59640  102.59640    5.50950    6.20350    6.74620    6.20350 -108.07130   -6.04200    6.74620
 4700.00000   10.77180   10.77180  177.67670    5.62820   85.88080   85.88080  100.47960  100.47960    5.62820    6.32290    7.53650    6.32290 -106.94690   -4.59060    7.53650
 4750.00000   11.19780   11.19780  191.56720    5.22010   87.15900   87.15900   95.77810   95.77810    5.22010    6.11060    6.54470    6.11060 -105.88940   -4.01750    6.54470
 4800.00000   10.60020   10.60020  127.10070    7.87460   80.79970   80.79970  101.37770  101.37770    7.87460    8.46640   10.32250    8.46640 -106.99290   -5.83080   10.32250
 4850.00000   11.45380   11.45380  195.65640    5.11100   84.79790   84.79790   84.89150   84.89150    5.11100    5.50610    6.07460    5.50610 -105.04810   -4.60290    6.07460
 4900.00000   12.43800   12.43800  260.37600    3.84060   93.30060   93.30060   94.28670   94.28670    3.84060    4.06430    5.32490    4.06430 -103.97090   -4.23900    5.32490
 4950.00000   12.20930   12.20930  214.92900    4.65270   90.33700   90.33700   96.51450   96.51450    4.65270    4.98720    6.06770    4.98720 -103.31060   -4.29200    6.06770
 5000.00000   11.42910   11.42910  341.92710    2.92460   99.61280   99.61280  108.45310  108.45310    2.92460    3.21190    4.34190    3.21190 -101.68950   -3.38420    4.34190
 5050.00000   11.80940   11.80940  432.20760    2.31380  109.93090  109.93090   90.85780   90.85780    2.31380    2.42310    3.17980    2.42310 -102.09780   -4.61900    3.17980
 5100.00000   12.18560   12.18560  224.05950    4.46310   88.88530   88.88530   86.05480   86.05480    4.46310    4.90630    5.43810    4.90630 -101.80830   -5.22540    5.43810
 5150.00000   12.03010   12.03010  275.39110    3.63120   90.35260   90.35260   99.91470   99.91470    3.63120    4.03400    5.29020    4.03400 -101.90300   -6.21150    5.29020
 5200.00000    9.76510    9.76510   58.89840   16.97840   77.11410   77.11410   49.25980   49.25980   16.97840   18.51370   21.51410   18.51370 -112.67920  -17.87920   21.51410
 5250.00000   12.64050   12.64050  677.82820    1.47530  142.98480  142.98480   87.47310   87.47310    1.47530    1.54750    2.59540    1.54750 -101.90920   -8.00070    2.59540
 5300.00000   11.24890   11.24890   88.49460   11.32190   69.77660   69.77660   47.43630   47.43630   11.32190   12.20410   17.34730   12.20410 -105.42420  -12.40270   17.34730
 5350.00000   13.26270   13.26270   91.18510   10.96670  132.90820  132.90820   77.58460   77.58460   10.96670   11.53720   43.99310   11.53720  -98.48020   -6.35460   43.99310
 5400.00000   13.81390   13.81390  156.56310    6.38720   97.07900   97.07900   74.32700   74.32700    6.38720    6.66070    9.01000    6.66070 -100.00730   -8.77320    9.01000
 5450.00000   11.84840   11.84840  102.24530    9.78040   74.52920   74.52920   72.80030   72.80030    9.78040   11.18160   12.00950   11.18160  -95.82120   -2.95920   12.00950
 5500.00000   13.28900   13.28900  127.86580    7.82070   75.39190   75.39190   50.11520   50.11520    7.82070   10.11370   13.17740   10.11370 -131.37120  -41.10530   13.17740
 5550.00000   13.48450   13.48450  120.61540    8.29130   73.44590   73.44590   53.07420   53.07420    8.29130    9.30030    9.57860    9.30030 -107.65950  -21.63920    9.57860
 5600.00000   12.47800   12.47800    1.17020  854.57290   95.72260   95.72260   49.36110   49.36110  854.57290   40.96180  124.12420   40.96180  -98.09950  -16.36750  124.12420
 5650.00000   11.75660   11.75660   88.91180   11.24710   73.77040   73.77040   77.18120   77.18120   11.24710   12.87330   16.13180   12.87330  -98.69450   -9.62840   16.13180
