~Version ---------------------------------------------------
VERS.      2.0 : CWLS log ASCII Standard -VERSION 2.0
WRAP.       NO : One line per depth step
CREA. 09/27/13 : LAS Creation Date
~Well ------------------------------------------------------
STRT.M                        400.0 : START DEPTH
STOP.M                       2600.0 : STOP DEPTH
STEP.M                     50.00000 : STEP LENGTH
NULL.                       -999.25 : NULL VALUE
COMP.         UNOCAL CANADA LIMITED : COMPANY
WELL. UCEL ET AL TWINING 6-22-33-25 : WELL
FLD .                               : FIELD
LOC .                               : LOCATION
CTRY.                        CANADA : COUNTRY
SRVC.                  Schlumberger : SERVICE COMPANY
DATE.                   26-Aug-1992 : LOGDATE
PROV.                       Alberta : PROVINCE
UWI .              100062203325W400 : UNIQUE WELL ID
SLAT.WGS84                 51.84227 : SURFACE LATITUDE
SLON.WGS84                -113.4694 : SURFACE LONGITUDE
~Curve Information -----------------------------------------
DEPT    .M      : DEPTH METER
AIBDED  .MM     : AIT INPUT BHOLE DIAMETER FROM AIT LOG
AT10ED  .OHMM   : 10 INCH RESISTIVITY TWO FOOT RESOLUTION FROM AIT LOG
AT20ED  .OHMM   : 20 INCH RESISTIVITY TWO FOOT RESOLUTION FROM AIT LOG
AT30ED  .OHMM   : 30 INCH RESISTIVITY TWO FOOT RESOLUTION FROM AIT LOG
AT60ED  .OHMM   : 60 INCH RESISTIVITY TWO FOOT RESOLUTION FROM AIT LOG
AT90ED  .OHMM   : 90 INCH RESISTIVITY TWO FOOT RESOLUTION FROM AIT LOG
CAL2ED  .MM     : CALIPER 2 FROM DENSITY LOG [ADJ. TO RESISTIVITY LOG]
CALDED  .MM     : CALIPER FROM DENSITY LOG [ADJ. TO RESISTIVITY LOG]
CALWS   .MM     : CALIPER [CALDED]
CONDWS  .MMHO   : CONDUCTIVITY [1000/DRESWS]
DCORWS  .KG/M3  : DENSITY CORRECTION [DRHOED]
DENWS   .KG/M3  : FORMATION BULK DENSITY [CALC FROM DPOLSWS,M=2710,F=1000]
DPHILSED.V/V    : DENSITY POROSITY LIMESTONE [M=2710,F=1000] FROM DENSITY LOG [ADJ. TO RESISTIVITY LOG]
DPOLSWS .V/V    : DENSITY POROSITY LIMESTONE [DPHILSED]
DRESWS  .OHMM   : DEEP RESISTIVITY [AT90ED]
DRHOED  .KG/M3  : DENSITY CORRECTION FROM DENSITY LOG [ADJ. TO RESISTIVITY LOG]
DTED    .US/M   : DELTA TIME FROM SONIC LOG
DTWS    .US/M   : COMPRESSIONAL  SONIC [DTED]
GRDED   .GAPI   : GAMMA RAY FROM DENSITY LOG [ADJ. TO RESISTIVITY LOG]
GRRED   .GAPI   : GAMMA RAY FROM AIT LOG
GRWS    .GAPI   : GAMMA RAY [GRRED SPL. TO GRDED @2625M]
MRESWS  .OHMM   : MEDIUM RESISTIVITY [AT30ED]
NPOLSWS .V/V    : NEUTRON POROSITY LIMESTONE [NPORLSED]
NPORLSED.V/V    : NEUTRON POROSITY LIMESTONE FROM DENSITY LOG [ADJ. TO RESISTIVITY LOG]
PEFED   .B/E    : PHOTOELECTRIC FACTOR FROM DENSITY LOG [ADJ. TO RESISTIVITY LOG]
PEFWS   .B/E    : PHOTOLELECTRIC FACTOR [PEFED]
RHOBED  .KG/M3  : BULK DENSITY FROM DENSITY LOG [ADJ. TO RESISTIVITY LOG]
SPRED   .MV     : SPONTANEOUS POTENTIAL FROM AIT LOG
SPWS    .MV     : SPONTANEOUS POTENTIAL [BASELINE 0 MV, SPRED]
SRESWS  .OHMM   : SHALLOW RESISTIVITY [AT10ED]
TENDED  .N      : TENSION FROM DENSITY LOG [ADJ. TO RESISTIVITY LOG]
TENRED  .N      : TENSION FROM AIT LOG
~Params ----------------------------------------------------
PD  .                       GL : PERMANENT DATUM
EPD .M                   922.3 : ELEVATION PERMANENT DATUM
LMF .                       KB : LOG MEASURED FROM
DAPD.M                     6.3 : FEET ABOVE PERMANENT DATUM
DMF .                       KB : DRILLING MEASURED FROM
EKB .M                   926.6 : KELLY BUSHING
EDF .M                   928.3 : DRILLING FLOOR
EGL .M                   922.3 : GROUND LEVEL
DATE.                 08/26/92 : RUN DATE
RUN .                        1 : RUN NUMBER
DD  .M                    2648 : DEPTH DRILLER
DL  .M                  2645.5 : DEPTH LOGGER
BLI .M                  2640.2 : BOTTOM LOG INTERVAL
TLI .M                     449 : TOP LOG INTERVAL
CS  .IN                244.50M : CASING SIZE
CBD .M                     449 : CASING BOTTOM DRILLER
CBL .M                     449 : CASING BOTTOM LOGGER
BS  .IN                   222M : BIT SIZE
BSD .M                    2648 : BIT SIZE AT DEPTH
DFT .                 GEL CHEM : DRILLING FLUID TYPE
DFD .                     1075 : DRILLING FLUID DENSITY
DFV .                       75 : DRILLING FLUID VISCOSITY
DFPH.                      7.8 : DRILLING FLUID PH
DFL .                     10.5 : DRILLING FLUID LOSS
MSS .                 FLOWLINE : MUD SAMPLE SOURCE
RMS .OHMM                0.631 : RESISTIVITY MUD SAMPLE
MST .DEGC                   26 : MUD SAMPLE TEMPERATURE
RMF .OHMM                0.585 : RESISTIVITY MUD FILTRATE SAMPLE
MFST.DEGC                   22 : MUD FILTRATE SAMPLE TEMPERATURE
RMC .OHMM                0.596 : RESISTIVITY MUD CAKE
MCST.DEGC                   19 : MUD CAKE SAMPLE TEMPERATURE
MFSS.                 MEASURED : MUD FILTRATE SAMPLE SOURCE
MCSS.                 MEASURED : MUD CAKE SAMPLE SOURCE
RMB .OHMM                0.331 : RESISTIVITY MUD AT BHT
TCS .HRS                    30 : TIME CIRCULATED STOPPED
TLAB.HRS                  1110 : TIME LOGGER AT BOTTOM
LUN .                     2018 : LOGGING UNIT NUMBER
LUL .                 EDMONTON : LOGGING UNIT LOCATION
ENGI.                   TAZUMI : RECORDING ENGINEER
WITN.                 MCMURTRY : WITNESSED BY
CLNT.                  A2DTECH : CLIENT CODE
ORIG. 6.5"/100 16.5"/100 PRINT : ORIGIN OF DATA
UWI .         100062203325W400 : UNIQUE WELL ID
DICO.   A2D Technologies, Inc. : DIGITIZING COMPANY
~Other -----------------------------------------------------
AIT-BCS LOG RAN IN COMBO & CNL-LDT LOG RAN
CNL-LDT: GRD,CAL2,CALD @TOP-1485M & RHOB @TOP-BOTTOM HAVE BEEN VERIFIED FROM SMALL SECTION.
~ASCII -----------------------------------------------------
# ...
 1500.00000  305.06010    3.57360    3.62500    3.77210    3.90880    4.08030  310.47560  316.48870  316.48870  245.08000  259.99940 2282.84200    0.24980    0.24980    4.08030  259.99940  290.00720  290.00720   87.31650   85.92470   85.92470    3.77210    0.34560    0.34560    2.57640    2.57640 2282.24120  -55.10200   -5.70680    3.57360 11417.94920 11038.31050
 1550.00000  243.19010   16.77320   17.00540   17.34820   18.31490   18.70960  259.97300  270.59440  270.59440   53.44850   12.62430 2567.21500    0.08350    0.08350   18.70960   12.62430  229.52800  229.52800   59.53680   52.87330   52.87330   17.34820    0.11130    0.11130    2.23220    2.23220 2567.21500  -69.34190  -19.94670   16.77320 11648.35160 11298.69630
 1600.00000  318.40960    4.27230    4.33680    4.73980    5.45100    6.28780  290.17600  345.59030  345.59030  159.03810  142.60110 2154.25000    0.32500    0.32500    6.28780  142.60110  371.32210  371.32210   60.48320   55.84310   55.84310    4.73980    0.43170    0.43170    2.13930    2.13930 2154.25000  -66.82520  -17.43000    4.27230 11511.44820 11219.19730
 1650.00000  288.83880   13.90810   14.44410   14.94640   15.06580   15.52370  290.62240  297.46460  297.46460   64.41760   16.52600 2668.27600    0.02440    0.02440   15.52370   16.52600  230.53110  230.53110   70.19380   71.13150   71.13150   14.94640    0.18930    0.18930    3.40220    3.40220 2669.72710  -67.41130  -17.46350   13.90810 11944.66700 11801.51760
 1700.00000  269.42670   25.29840   25.87310   26.39490   26.72190   27.24190  269.87240  278.50400  278.50400   36.70820   13.64470 2684.35000    0.01500    0.01500   27.24190   13.64470  219.31450  219.31450   65.73780   65.02210   65.02210   26.39490    0.18130    0.18130    3.13380    3.13380 2684.35000  -77.77090  -26.56150   25.29840 12173.00490 11919.60450
 1750.00000  240.38300 1949.03430 1915.60390 1866.31270 1892.05040 1865.23720  241.18510  249.46320  249.46320    0.53610   32.13670 2658.87100    0.02990    0.02990 1865.23720   32.13670  164.06780  164.06780    6.91000    7.64650    7.64650 1866.31270    0.01330    0.01330    5.28110    5.28110 2660.49900  -75.72660  -23.25550 1949.03430 12132.45700 11793.41990
 1800.00000  280.15570   79.00550   76.04710   75.20490   72.06360   69.20440  273.79010  283.49260  283.49260   14.44990   11.88670 2716.32700   -0.00370   -0.00370   69.20440   11.88670  178.33830  178.33830   27.47110   28.93990   28.93990   75.20490    0.04120    0.04120    4.68060    4.68060 2707.87300  -83.02370  -29.29100   79.00550 12471.80660 12121.92970
 1850.00000  283.38600   18.50230   18.18290   17.06970   16.56620   16.12610  286.51880  301.90330  301.90330   62.01130   14.15320 2711.36800   -0.00080   -0.00080   16.12610   14.15320  209.25190  209.25190   48.42050   49.52280   49.52280   17.06970    0.10100    0.10100    4.05480    4.05480 2715.54320  -79.84540  -24.85110   18.50230 12553.63570 12190.28710
 1900.00000  287.33270   15.64710   15.38190   14.94400   13.89640   13.48920  281.02260  315.12860  315.12860   74.13340  320.95900 2717.01100   -0.00410   -0.00410   13.48920  320.95900  215.06280  215.06280   54.49810   48.40260   48.40260   14.94400    0.10480    0.10480    3.51560    3.51560 2717.01100  -81.14850  -24.89250   15.64710 12825.32710 12324.80080
 1950.00000  256.38710   72.30250   62.63010   49.43430   30.43560   27.61890  250.91280  285.19280  285.19280   36.20710  134.20270 1788.13900    0.53910    0.53910   27.61890  134.20270  179.51930  179.51930   28.91440   31.39560   31.39560   49.43430    0.13680    0.13680    3.70730    3.70730 1788.13900  -80.39400  -22.87640   72.30250 13124.86130 12477.28610
 2000.00000  269.65900  106.48600  103.90730   96.38960   78.75730   70.07960  254.07660  281.44830  281.44830   14.26950   12.79210 2888.18200   -0.10420   -0.10420   70.07960   12.79210  168.48390  168.48390    9.80560   14.70890   14.70890   96.38960    0.03790    0.03790    4.30330    4.30330 2888.18200  -77.51220  -18.73300  106.48600 12822.87990 12614.97270
 2050.00000  254.38550   15.09750   13.95530   12.64680   11.81300   11.04770  261.29510  273.80330  273.80330   90.51660    5.84130 2744.37100   -0.02010   -0.02010   11.04770    5.84130  172.66140  172.66140   16.96100   18.21890   18.21890   12.64680    0.10350    0.10350    3.13780    3.13780 2744.37100  -80.82940  -20.78850   15.09750 13052.60250 12781.17480
 2100.00000  266.73840 1971.82540 1923.50730 1891.27580 1781.48140 1663.09560  258.08630  279.85850  279.85850    0.60130   10.37110 2966.32900   -0.14990   -0.14990 1663.09560   10.37110  161.66610  161.66610    4.86380    5.50020    5.50020 1891.27580   -0.00390   -0.00390    4.88350    4.88350 2966.32900  -74.84060  -13.53810 1971.82540 13290.81640 13041.08010
 2150.00000  268.13990  314.17290  171.00500  112.78860   89.65910   77.11870  258.55600  271.34340  271.34340   12.96700   13.69170 2906.30800   -0.11480   -0.11480   77.11870   13.69170  160.49260  160.49260   16.54300   15.16320   15.16320  112.78860    0.01710    0.01710    4.14030    4.14030 2906.30800  -73.16310  -10.59900  314.17290 13590.62600 13154.85550
 2200.00000  243.27890   79.08950   76.59680   63.82430   60.97210   59.39460  240.65920  254.81140  254.81140   16.83650   11.85050 2816.70400   -0.06240   -0.06240   59.39460   11.85050  167.90340  167.90340   46.11990   46.79010   46.79010   63.82430    0.08790    0.08790    3.15450    3.15450 2816.70400  -73.27380   -9.44800   79.08950 13767.85350 13106.06250
 2250.00000  257.68200   19.11050   18.67610   18.39630   18.03060   16.64860  256.11590  264.68370  264.68370   60.06510   44.75000 2704.87000    0.00300    0.00300   16.64860   44.75000  215.05460  215.05460   75.84160   71.58240   71.58240   18.39630    0.14120    0.14120    3.91240    3.91240 2704.87000  -73.59140   -8.50400   19.11050 14343.92290 13298.50590
 2300.00000  239.12730   54.13760   46.71330   46.13020   41.28110   40.53560  251.20390  250.42040  250.42040   24.66970    7.44580 2707.26400    0.00160    0.00160   40.53560    7.44580  191.72090  191.72090   61.08820   63.92020   63.92020   46.13020    0.09870    0.09870    4.43590    4.43590 2706.97190  -73.26910   -9.17880   54.13760 14158.77250 13467.43160
 2350.00000  227.53140 1513.59890 1433.16050 1379.85800 1250.83470 1187.21450  236.65500  237.81800  237.81800    0.84230   11.47630 2615.26600    0.05540    0.05540 1187.21450   11.47630  202.07070  202.07070   42.20860   49.30590   49.30590 1379.85800    0.11990    0.11990    4.75290    4.75290 2614.28860  -72.24080   -9.36020 1513.59890 14335.48540 13655.98540
 2400.00000  252.33870 2049.46510 2027.62780 1998.37210 1962.54980 1927.27140  224.88370  370.79550  370.79550    0.51890  195.53970 2397.92500    0.18250    0.18250 1927.27140  195.53970  163.90960  163.90960    6.67890    7.14890    7.14890 1998.37210    0.02940    0.02940    3.53270    3.53270 2397.92500  -74.00950  -12.33850 2049.46510 14313.16990 13823.54000
 2450.00000  231.43710 1939.03320 1960.35530 1991.34680 2040.48720 2058.96950  232.45710  339.19850  339.19850    0.48570  328.87760 2435.88700    0.16030    0.16030 2058.96950  328.87760  167.78490  167.78490   20.48790   17.83250   17.83250 1991.34680    0.02970    0.02970    3.51850    3.51850 2435.88700  -76.29950  -15.83820 1939.03320 14873.18850 14071.40720
 2500.00000  251.81810 1632.98400 1973.49980 2006.14440 2010.66500 2033.09280  223.07070  446.01970  446.01970    0.49190  323.65070 2523.26800    0.10920    0.10920 2033.09280  323.65070  167.57530  167.57530   13.49660   12.73330   12.73330 2006.14440    0.04600    0.04600    3.42800    3.42800 2523.26800  -76.45300  -17.20140 1632.98400 15173.64360 14243.14940
 2550.00000  215.08380   48.95650   42.33110   39.61090   35.36750   32.21440  223.28810  219.68950  219.68950   31.04200   14.24150 2666.90800    0.02520    0.02520   32.21440   14.24150  164.96180  164.96180    7.78610    9.16170    9.16170   39.61090    0.02920    0.02920    4.71290    4.71290 2666.90800  -73.45350  -15.41150   48.95650 15462.42480 14480.60160
