~Version ---------------------------------------------------
VERS.      2.0 : CWLS log ASCII Standard -VERSION 2.0
WRAP.       NO : One line per depth step
CREA. 12/12/17 : LAS Creation Date
~Well ------------------------------------------------------
STRT.FT                        650.0 : START DEPTH
STOP.FT                      10550.0 : STOP DEPTH
STEP.FT                     50.00000 : STEP LENGTH
NULL.                        -999.25 : NULL VALUE
COMP.    STANOLIND OIL & GAS COMPANY : COMPANY
WELL. STANOLIND TONY CREEK CROWN A-1 : WELL
FLD .                                : FIELD
LOC .                                : LOCATION
CTRY.                         CANADA : COUNTRY
SRVC.                          Welex : SERVICE COMPANY
DATE.                    12-Jun-1983 : LOGDATE
PROV.                        Alberta : PROVINCE
UWI .               100103206321W500 : UNIQUE WELL ID
SLAT.WGS84                  54.49604 : SURFACE LATITUDE
SLON.WGS84                 -117.1351 : SURFACE LONGITUDE
~Curve Information -----------------------------------------
DEPT    .FT     : Depth Curve
CALDED  .IN     : CALIPER FROM CND LOG
CALWS   .IN     : CALIPER [MCALED]
CILDED  .MMHO   : CONDUCTIVITY FROM RESISTIVITY LOG
CONDWS  .MMHO   : CONDUCTIVITY [1000/DRESWS]
CORRED  .G/C3   : DENSITY CORRECTION FROM CND LOG
DCORWS  .G/C3   : DENSITY CORRECTION [CORRED]
DENWS   .G/C3   : FORMATION DENSITY [RHOBED]
DPHIDMED.V/V    : DENSITY POROSITY DOLOMITE [ASSUMED MD=2.83,FD=1.00] FROM CND LOG
DPHISSED.V/V    : DENSITY POROSITY SANDSTONE[ASSUMED M=2.65, F=1.00] FROM CND LOG
DPOLSWS .V/V    : DENSITY POROSITY 9LIMESTONE [CALCULATED FROM DENWS, M=2.71, F=1.00]
DRESWS  .OHMM   : DEEP RESISTIVITY [ILDED SPLICED TO LNED AT 6680' AND 4040']
GRDED   .GAPI   : GAMMA RAY FROM DENSITY LOG
GRED    .UR/HR  : CASED HOLE GAMMA RAY FROM GR LOG [DSH TO SPRED]
GRNED   .UR/HR  : CASED HOLE GAMMA RAY FROM GRN LOG [DSH TO SPRED]
GRWS    .GAPI   : GAMMA RAY [GRDED SPLICED TO GRED*10.4 AT 6023' & 4760', GRNED*10.4 (GRNED*10.4 RESCALED FROM 0-120 TO 0-200)AT 3400']
ILDED   .OHMM   : INDUCTION LOG DEEP RESISTIVITY FROM IEL/GUARD LOG
ILMED   .OHMM   : INDUCTION LOG MEDIUM RESISTIVITY FROM IEL/GUARD LOG
LNED    .OHMM   : 64 INCH LONG NORMAL RESISTIVITY FROM EL
LT18ED  .OHMM   : LATERAL 18'8" FROM EL
MCALED  .IN     : MLT [MICROLOG] CALIPER FROM MICROLOG
MRESWS  .OHMM   : MEDIUM RESISTIVITY [ILMED]
NEUTED  .CU     : NEUTRON FROM NEUTRON LOG [DSH TO SPRED]
NEUTWS  .CU     : NEUTRON [NEUTED]
NPHIDMED.V/V    : NEUTRON POROSITY DOLOMITE FROM CND LOG
NPHISSED.V/V    : NEUTRON POROSITY SANDSTONE FROM CND LOG
NPOLSWS .V/V    : NEUTRON POROSITY LIMESTONE [NPHISSED CONVERTED TO LIMESTONE]
RHOBED  .G/C3   : FORMATION DENSITY FROM CND LOG
SGUARDED.OHMM   : SHORT RESISTIVITY GUARD FROM IEL/GUARD LOG
SNED    .OHMM   : 16 INCH SHORT NORMAL RESISTIVITY FROM EL
SPR1ED  .MV     : SPONTANEOUS POTENTIAL FROM IEL/GUARD LOG
SPRED   .MV     : SPONTANEOUS POTENTIAL FROM ES LOG
SPWS    .MV     : SPONTANEOUS POTENTIAL [BASELINE 0 MV] [SPRED]
SRESWS  .OHMM   : SHALLOW RESISTIVITY [SNED SPLICED TO SNED AT 2036 M AND 4030']
TENDED  .LBF    : TENSION FROM CND LOG
TENRED  .LBF    : TENSION FROM IEL/GUARD LOG
~Params ----------------------------------------------------
PD  .                         GL : PERMANENT DATUM
LMF .                         KB : LOG MEASURED FROM
DAPD.M                       5.2 : FEET ABOVE PERMANENT DATUM
DMF .                         KB : DRILLING MEASURED FROM
EKB .M                    770.53 : KELLY BUSHING
EGL .M                    765.33 : GROUND LEVEL
DATE.                   06/12/83 : RUN DATE
RUN .                          1 : RUN NUMBER
DD  .M                      2060 : DEPTH DRILLER
DL  .M                    2039.2 : DEPTH LOGGER
BLI .M                    2038.6 : BOTTOM LOG INTERVAL
TLI .M                    1227.3 : TOP LOG INTERVAL
CS  .MM                      178 : CASING SIZE
CBD .M                    1226.5 : CASING BOTTOM DRILLER
CBL .M                    1227.3 : CASING BOTTOM LOGGER
BS  .MM                      159 : BIT SIZE
BSD .M                      2060 : BIT SIZE AT DEPTH
DFT .              WATER AND OIL : DRILLING FLUID TYPE
DFD .                       1065 : DRILLING FLUID DENSITY
DFV .                        115 : DRILLING FLUID VISCOSITY
DFPH.                         12 : DRILLING FLUID PH
DFL .                         19 : DRILLING FLUID LOSS
MSS .                       CIRC : MUD SAMPLE SOURCE
RMS .OHMM                   1.72 : RESISTIVITY MUD SAMPLE
MST .DEGC                     24 : MUD SAMPLE TEMPERATURE
RMF .OHMM                    1.6 : RESISTIVITY MUD FILTRATE SAMPLE
MFST.DEGC                     23 : MUD FILTRATE SAMPLE TEMPERATURE
RMC .OHMM                    1.9 : RESISTIVITY MUD CAKE
MCST.DEGC                     23 : MUD CAKE SAMPLE TEMPERATURE
MFSS.                       MEAS : MUD FILTRATE SAMPLE SOURCE
MCSS.                       MEAS : MUD CAKE SAMPLE SOURCE
RMB .OHMM                    1.4 : RESISTIVITY MUD AT BHT
TCS .HRS                       4 : TIME CIRCULATED STOPPED
ENGI.                   PETERSON : RECORDING ENGINEER
WITN.                     NUGENT : WITNESSED BY
CLNT.                    A2DTECH : CLIENT CODE
ORIG. 6.5"/100M 16.5"/100M PRINT : ORIGIN OF DATA
UWI .           100103206321W500 : UNIQUE WELL ID
DICO.     A2D Technologies, Inc. : DIGITIZING COMPANY
~Other -----------------------------------------------------
LNED, SNED, LT18ED ARE FROM THE LINEAR SCALE OF 2" & 5" LOG
~ASCII -----------------------------------------------------
# ...
 4850.00000   11.54890   12.28620  161.81300  159.80060    -999.25    -999.25    -999.25    -999.25    -999.25    -999.25    6.25780    -999.25    9.90450    -999.25  103.00680    6.25780    -999.25    6.56790    6.08610   12.28620    -999.25    -999.25    -999.25    -999.25    -999.25    -999.25    -999.25    6.78210    7.81990  -32.53000  -52.33760   -3.45620    6.78210 6163.24340    -999.25
 4900.00000   13.24690   13.91320  164.41410  162.59900    -999.25    -999.25    -999.25    -999.25    -999.25    -999.25    6.15010    -999.25    9.72470    -999.25  101.13690    6.15010    -999.25    6.50260    7.68700   13.91320    -999.25    -999.25    -999.25    -999.25    -999.25    -999.25    -999.25    6.68620    8.34970  -32.42660  -52.00140   -3.31180    6.68620 6195.48490    -999.25
 4950.00000   15.11010   14.64550  230.30420  227.81120    -999.25    -999.25    -999.25    -999.25    -999.25    -999.25    4.38960    -999.25   11.51600    -999.25  119.76640    4.38960    -999.25    4.40990    7.95940   14.64550    -999.25    -999.25    -999.25    -999.25    -999.25    -999.25    -999.25    5.30530    6.96140  -31.90490  -50.90790   -2.41020    5.30530 6256.50340    -999.25
 5000.00000   14.85360   14.60540  354.64750  361.72910    -999.25    -999.25    -999.25    -999.25    -999.25    -999.25    2.76450    -999.25    8.37480    -999.25   87.09790    2.76450    -999.25    3.80970    2.49600   14.60540    -999.25    -999.25    -999.25    -999.25    -999.25    -999.25    -999.25    3.39580    4.17970  -32.30250  -51.10780   -3.06310    3.39580 6197.99810    -999.25
 5050.00000   16.18310   15.10310  337.68940  342.65350    -999.25    -999.25    -999.25    -999.25    -999.25    -999.25    2.91840    -999.25    8.84800    -999.25   92.01920    2.91840    -999.25    3.36650    3.62620   15.10310    -999.25    -999.25    -999.25    -999.25    -999.25    -999.25    -999.25    3.18150    4.20150  -32.12170  -50.97340   -3.49380    3.18150 6403.03510    -999.25
 5100.00000   15.56640   14.50440  188.88810  194.46170    -999.25    -999.25    -999.25    -999.25    -999.25    -999.25    5.14240    -999.25    9.51260    -999.25   98.93100    5.14240    -999.25    5.06520    5.68310   14.50440    -999.25    -999.25    -999.25    -999.25    -999.25    -999.25    -999.25    5.47690    7.28320  -31.00210  -52.46850   -5.55390    5.47690 6470.99270    -999.25
 5150.00000   13.33090   13.15450  170.38920  168.24250    -999.25    -999.25    -999.25    -999.25    -999.25    -999.25    5.94380    -999.25   10.08680    -999.25  104.90270    5.94380    -999.25    4.89550    9.67890   13.15450    -999.25    -999.25    -999.25    -999.25    -999.25    -999.25    -999.25    8.91330    9.50570  -32.40920  -52.07040   -5.72090    8.91330 6459.18760    -999.25
 5200.00000    6.48170   10.39580   99.76510   96.52040    -999.25    -999.25    -999.25    -999.25    -999.25    -999.25   10.36050    -999.25    6.20970    -999.25   64.58090   10.36050    -999.25    8.69980   13.60930   10.39580    -999.25    -999.25    -999.25    -999.25    -999.25    -999.25    -999.25   17.36800   13.05550  -32.55880  -52.55540   -6.77090   17.36800 6534.32080    -999.25
 5250.00000    6.46040   13.92900  336.45340  363.50420    -999.25    -999.25    -999.25    -999.25    -999.25    -999.25    2.75100    -999.25    5.67100    -999.25   58.97840    2.75100    -999.25    5.51760    3.42330   13.92900    -999.25    -999.25    -999.25    -999.25    -999.25    -999.25    -999.25    4.00430    5.15930  -29.92420  -53.01530   -7.79590    4.00430 6919.80020    -999.25
 5300.00000    6.47730    8.59500   98.02900   84.15880    -999.25    -999.25    -999.25    -999.25    -999.25    -999.25   11.88230    -999.25    7.21090    -999.25   74.99340   11.88230    -999.25    8.94760    6.21680    8.59500    -999.25    -999.25    -999.25    -999.25    -999.25    -999.25    -999.25   12.47840   16.35390  -35.14230  -65.10180  -20.44740   12.47840 6721.39140    -999.25
 5350.00000    9.67800   10.52680   87.07190   85.08030    -999.25    -999.25    -999.25    -999.25    -999.25    -999.25   11.75360    -999.25    4.33430    -999.25   45.07670   11.75360    -999.25   16.79490   11.28930   10.52680    -999.25    -999.25    -999.25    -999.25    -999.25    -999.25    -999.25   14.31610   16.16280  -34.54830  -69.63240  -25.54310   14.31610 6506.52850    -999.25
 5400.00000   11.41040   10.99920  116.94610  121.89620    -999.25    -999.25    -999.25    -999.25    -999.25    -999.25    8.20370    -999.25    6.95210    -999.25   72.30180    8.20370    -999.25   12.71730    9.97410   10.99920    -999.25    -999.25    -999.25    -999.25    -999.25    -999.25    -999.25    9.66030   10.93580  -32.23390  -51.10290   -7.57860    9.66030 6474.30670    -999.25
 5450.00000   11.26840   12.21230   98.16770   93.54540    -999.25    -999.25    -999.25    -999.25    -999.25    -999.25   10.69000    -999.25    9.06850    -999.25   94.31240   10.69000    -999.25   15.55520    8.93330   12.21230    -999.25    -999.25    -999.25    -999.25    -999.25    -999.25    -999.25   12.32520   16.83800  -31.86170  -50.40700   -7.44780   12.32520 6558.59500    -999.25
 5500.00000   10.69070   10.64830   61.07380   58.57850    -999.25    -999.25    -999.25    -999.25    -999.25    -999.25   17.07110    -999.25    7.59390    -999.25   78.97660   17.07110    -999.25   44.26250   22.08930   10.64830    -999.25    -999.25    -999.25    -999.25    -999.25    -999.25    -999.25   24.46100   25.22990  -35.72310  -55.63360  -13.23940   24.46100 6651.14210    -999.25
 5550.00000   10.66580   11.38260   52.50640   48.21510    -999.25    -999.25    -999.25    -999.25    -999.25    -999.25   20.74040    -999.25    4.99300    -999.25   51.92720   20.74040    -999.25   33.10640   16.84810   11.38260    -999.25    -999.25    -999.25    -999.25    -999.25    -999.25    -999.25   29.54060   28.74840  -36.24920  -52.63390  -10.80480   29.54060 6604.31220    -999.25
 5600.00000    9.23200    9.91550   56.14320   52.28160    -999.25    -999.25    -999.25    -999.25    -999.25    -999.25   19.12720    -999.25    6.63310    -999.25   68.98420   19.12720    -999.25   45.86480    4.98800    9.91550    -999.25    -999.25    -999.25    -999.25    -999.25    -999.25    -999.25   34.44010   33.71620  -32.29970  -48.93420   -7.67010   34.44010 6692.00800    -999.25
 5650.00000   10.14710   11.30780   28.33700   19.39600    -999.25    -999.25    -999.25    -999.25    -999.25    -999.25   51.55690    -999.25    1.86250    -999.25   19.37000   51.55690    -999.25  114.59720    -999.25   11.30780    -999.25    -999.25    -999.25    -999.25    -999.25    -999.25    -999.25   93.08630   86.15480  -38.06510  -49.55140   -8.85240   93.08630 6634.81820    -999.25
 5700.00000    9.71420   10.17230   58.25280   55.29170    -999.25    -999.25    -999.25    -999.25    -999.25    -999.25   18.08590    -999.25    5.04660    -999.25   52.48460   18.08590    -999.25   33.87360    5.23810   10.17230    -999.25    -999.25    -999.25    -999.25    -999.25    -999.25    -999.25   21.77670   27.46680  -37.86620  -70.33080  -30.19680   21.77670 6840.49470    -999.25
 5750.00000   10.25680   10.19420   68.37260   65.91910    -999.25    -999.25    -999.25    -999.25    -999.25    -999.25   15.17010    -999.25    7.35440    -999.25   76.48580   15.17010    -999.25   40.55340    9.30010   10.19420    -999.25    -999.25    -999.25    -999.25    -999.25    -999.25    -999.25   25.12160   29.16110  -33.57980  -54.14060  -14.57170   25.12160 6928.92030    -999.25
 5800.00000    9.68050    9.35390  115.87410  113.32340    -999.25    -999.25    -999.25    -999.25    -999.25    -999.25    8.82430    -999.25    7.28210    -999.25   75.73380    8.82430    -999.25   20.51140   45.83670    9.35390    -999.25    -999.25    -999.25    -999.25    -999.25    -999.25    -999.25   15.37460   19.46570  -38.30580  -78.37250  -39.36870   15.37460 6868.00040    -999.25
 5850.00000   10.26320    9.59270   99.94320   92.47360    -999.25    -999.25    -999.25    -999.25    -999.25    -999.25   10.81390    -999.25    4.65720    -999.25   48.43490   10.81390    -999.25   18.89040   15.42350    9.59270    -999.25    -999.25    -999.25    -999.25    -999.25    -999.25    -999.25   15.23990   21.29350  -41.26710  -92.48510  -54.04630   15.23990 6976.30810    -999.25
