~Version ---------------------------------------------------
VERS.      2.0 : CWLS log ASCII Standard -VERSION 2.0
WRAP.       NO : One line per depth step
CREA. 11/15/17 : LAS Creation Date
~Well ------------------------------------------------------
STRT.FT                            1100.0 : START DEPTH
STOP.FT                           11050.0 : STOP DEPTH
STEP.FT                          50.00000 : STEP LENGTH
NULL.                             -999.25 : NULL VALUE
COMP.        CANADIAN HOMESTEAD OILS LTD. : COMPANY
WELL. HOMESTEAD ET AL ROSEVEAR 9-34-53-15 : WELL
FLD .                                     : FIELD
LOC .                                     : LOCATION
CTRY.                              CANADA : COUNTRY
SRVC.              Schlumberger of Canada : SERVICE COMPANY
DATE.                         06-May-1975 : LOGDATE
PROV.                             Alberta : PROVINCE
UWI .                    100093405315W500 : UNIQUE WELL ID
SLAT.WGS84                       53.62182 : SURFACE LATITUDE
SLON.WGS84                      -116.1151 : SURFACE LONGITUDE
~Curve Information -----------------------------------------
DEPT    .FT    : Depth Curve
CALDED  .IN    : CALIPER FROM CND LOG[DSH TO GRSED/ILDED]
CALSED  .IN    : CALIPER FROM SONIC LOG
CALWS   .IN    : CALIPER [CALSED]
CONDWS  .MMHO  : CONDUCTIVITY [1000/DRESWS]
DCORED  .G/C3  : DENSITY CORRECTION FROM CND LOG[DSH TO GRSED/ILDED]
DCORWS  .G/C3  : DENSITY CORRECTION DCORED]
DENWS   .G/C3  : BULK FORMATION DENSITY[RHOBED]
DPHILSED.V/V   : DENSITY POROSITY LIMESTONE[M=2.71, F=1.00]FROM CND LOG[DSH TO GRSED/ILDED]
DPHISSED.V/V   : DENSITY POROSITY SANDSTONE[M=2.65, F=1.00]FROM CND LOG[DSH TO GRSED/ILDED]
DPOLSWS .V/V   : DENSITY POROSITY LIMESTONE[M=2.71, F=1.00][CALCULATED FROM DENWS]
DRESWS  .OHMM  : DEEP RESISTIVITY [ILDED]
DTED    .US/F  : ACOUSTIC TRANSIT TIME SLOWNESS, DELTA T
DTWS    .US/F  : ACOUSTIC TRANSIT TIME SLOWNESS[DTED]
GRDED   .GAPI  : GAMMA RAY FROM DENSITY LOG[DSH TO GRSED/ILDED]
GRSED   .GAPI  : GAMMA RAY FROM SONIC LOG
GRWS    .GAPI  : GAMMA RAY [GRSED]
ILDED   .OHMM  : INDUCTION LOG DEEP RESISTIVITY
ILMED   .OHMM  : INDUCTION LOG MEDIUM RESISTIVITY
LL8ED   .OHMM  : 8 INCH LATEROLOG RESISTIVITY
MRESWS  .OHMM  : MEDIUM RESISTIVITY [ILMED]
NPHILSED.V/V   : NEUTRON POROSITY LIMESTONE FROM CND LOG[DSH TO GRSED/ILDED]
NPHISSED.V/V   : NEUTRON POROSITY SANDSTONE FROM CND LOG[DSH TO GRSED/ILDED]
NPOLSWS .V/V   : NEUTRON POROSITY LIMESTONE[ NPHSSED CONVERTED TO LIMESTONE AND SPLICED TO NPHILSED AT 7521']
RHOBED  .G/C3  : BULK FORMATION DENSITY FROM CND LOG[DSH TO GRSED/ILDED]
SPHIED  .V/V   : SONIC POROSITY [DTM=55.6, DF=189<7520' and 47.6 DF=189>7520']FROM SONIC LOG
SPOWS   .V/V   : SONIC POROSITY [SPHIED]
SPRED   .MV    : SPONTANEOUS POTENTIAL FROM RESISTIVITY LOG
SPWS    .MV    : SPONTANEOUS POTENTIAL [BASELINE 0 MV] [SPRED]
SRESWS  .OHMM  : SHALLOW RESISTIVITY [LL8ED]
~Params ----------------------------------------------------
PD  .                     GL : PERMANENT DATUM
EPD .FT               2932.7 : ELEVATION PERMANENT DATUM
LMF .                     KB : LOG MEASURED FROM
DAPD.FT                 18.3 : FEET ABOVE PERMANENT DATUM
EKB .FT                 2951 : KELLY BUSHING
EGL .FT               2932.7 : GROUND LEVEL
DATE.               05/06/75 : RUN DATE
RUN .                      1 : RUN NUMBER
DD  .FT                11081 : DEPTH DRILLER
DL  .FT                11087 : DEPTH LOGGER
BLI .FT                11081 : BOTTOM LOG INTERVAL
TLI .FT                 1136 : TOP LOG INTERVAL
CBD .FT                 1136 : CASING BOTTOM DRILLER
CBL .FT                 1134 : CASING BOTTOM LOGGER
BS  .IN                 8.75 : BIT SIZE
BSD .FT                11081 : BIT SIZE AT DEPTH
DFT .               CHEM GEL : DRILLING FLUID TYPE
DFD .                    9.2 : DRILLING FLUID DENSITY
DFV .                     90 : DRILLING FLUID VISCOSITY
DFPH.                     11 : DRILLING FLUID PH
DFL .                    8.4 : DRILLING FLUID LOSS
MSS .              CIRULATED : MUD SAMPLE SOURCE
RMS .OHMM               1.22 : RESISTIVITY MUD SAMPLE
MST .DEGF                 72 : MUD SAMPLE TEMPERATURE
RMF .OHMM               0.98 : RESISTIVITY MUD FILTRATE SAMPLE
MFST.DEGF                 70 : MUD FILTRATE SAMPLE TEMPERATURE
LUN .                   7690 : LOGGING UNIT NUMBER
LUL .                    EDM : LOGGING UNIT LOCATION
ENGI.                  BORLE : RECORDING ENGINEER
WITN.                   KING : WITNESSED BY
CLNT.                A2DTECH : CLIENT CODE
ORIG.            2" 5" PRINT : ORIGIN OF DATA
UWI .       100093405315W500 : UNIQUE WELL ID
DICO. A2D Technologies, Inc. : DIGITIZING COMPANY
~Other -----------------------------------------------------
~ASCII -----------------------------------------------------
# ...
 8600.00000    -999.25    9.85760    9.85760    0.67790    -999.25    -999.25    -999.25    -999.25    -999.25    -999.25 1475.12550   49.87240   49.87240    -999.25    9.32570    9.32570 1475.12550  810.84250 1281.65440  810.84250    -999.25    -999.25    -999.25    -999.25    0.02100    0.02100 -113.61680  -95.42620 1281.65440
 8650.00000    -999.25   10.14990   10.14990    0.70950    -999.25    -999.25    -999.25    -999.25    -999.25    -999.25 1409.48820   51.25620   51.25620    -999.25   11.05350   11.05350 1409.48820  700.24900 1162.39860  700.24900    -999.25    -999.25    -999.25    -999.25    0.03080    0.03080 -111.40380  -94.53950 1162.39860
 8700.00000    -999.25   10.13100   10.13100    0.63420    -999.25    -999.25    -999.25    -999.25    -999.25    -999.25 1576.91060   50.01950   50.01950    -999.25   12.69550   12.69550 1576.91060 1009.33200  301.88260 1009.33200    -999.25    -999.25    -999.25    -999.25    0.02250    0.02250 -107.80220  -92.26410  301.88260
 8750.00000    -999.25   10.68010   10.68010    3.86280    -999.25    -999.25    -999.25    -999.25    -999.25    -999.25  258.88130   49.21110   49.21110    -999.25    8.75770    8.75770  258.88130  385.79060 1352.24050  385.79060    -999.25    -999.25    -999.25    -999.25    0.01730    0.01730 -118.56950 -104.35770 1352.24050
 8800.00000    -999.25   10.82870   10.82870    1.89940    -999.25    -999.25    -999.25    -999.25    -999.25    -999.25  526.48670   50.88290   50.88290    -999.25   13.53850   13.53850  526.48670  473.91000  206.53180  473.91000    -999.25    -999.25    -999.25    -999.25    0.02620    0.02620 -116.42280 -103.53730  206.53180
 8850.00000    -999.25   10.81540   10.81540    2.66790    -999.25    -999.25    -999.25    -999.25    -999.25    -999.25  374.82020   49.99010   49.99010    -999.25   10.14190   10.14190  374.82020  252.44260  216.03790  252.44260    -999.25    -999.25    -999.25    -999.25    0.02260    0.02260 -125.78050 -114.22130  216.03790
 8900.00000    -999.25   10.83310   10.83310    1.65840    -999.25    -999.25    -999.25    -999.25    -999.25    -999.25  602.98740   49.36330   49.36330    -999.25   11.00030   11.00030  602.98740  327.18410 1037.39290  327.18410    -999.25    -999.25    -999.25    -999.25    0.01770    0.01770 -121.51290 -111.28000 1037.39290
 8950.00000    -999.25   10.76520   10.76520    0.64180    -999.25    -999.25    -999.25    -999.25    -999.25    -999.25 1558.11680   50.79990   50.79990    -999.25   10.82580   10.82580 1558.11680 1196.67960  468.43750 1196.67960    -999.25    -999.25    -999.25    -999.25    0.02580    0.02580 -124.47450 -115.56790  468.43750
 9000.00000    -999.25   10.91110   10.91110    1.37190    -999.25    -999.25    -999.25    -999.25    -999.25    -999.25  728.89940   49.81080   49.81080    -999.25   10.03770   10.03770  728.89940  381.12130  277.71420  381.12130    -999.25    -999.25    -999.25    -999.25    0.01970    0.01970 -122.21420 -114.63380  277.71420
 9050.00000    -999.25   10.25910   10.25910    0.97570    -999.25    -999.25    -999.25    -999.25    -999.25    -999.25 1024.90480   46.39530   46.39530    -999.25   11.79710   11.79710 1024.90480  203.55220   97.65930  203.55220    -999.25    -999.25    -999.25    -999.25    0.01370    0.01370 -110.52380 -104.26970   97.65930
 9100.00000    -999.25    9.08160    9.08160    0.69250    -999.25    -999.25    -999.25    -999.25    -999.25    -999.25 1444.06790   48.91320   48.91320    -999.25    8.57950    8.57950 1444.06790 1450.48050 1423.71350 1450.48050    -999.25    -999.25    -999.25    -999.25    0.01390    0.01390 -111.05220 -106.12440 1423.71350
 9150.00000    -999.25    9.65320    9.65320    9.88420    -999.25    -999.25    -999.25    -999.25    -999.25    -999.25  101.17170   50.26840   50.26840    -999.25   11.67450   11.67450  101.17170   90.39130  296.88130   90.39130    -999.25    -999.25    -999.25    -999.25    0.02390    0.02390 -121.99750 -118.39600  296.88130
 9200.00000    -999.25    9.56210    9.56210    2.46860    -999.25    -999.25    -999.25    -999.25    -999.25    -999.25  405.08030   50.44040   50.44040    -999.25   24.38750   24.38750  405.08030  243.22060  421.92070  243.22060    -999.25    -999.25    -999.25    -999.25    0.02760    0.02760 -136.24420 -133.96900  421.92070
 9250.00000    -999.25    8.88020    8.88020    1.13210    -999.25    -999.25    -999.25    -999.25    -999.25    -999.25  883.29730   49.19520   49.19520    -999.25   18.57730   18.57730  883.29730 1406.43970 1391.08970 1406.43970    -999.25    -999.25    -999.25    -999.25    0.01600    0.01600 -101.41600 -100.46710 1391.08970
 9300.00000    -999.25    9.84700    9.84700    0.57260    -999.25    -999.25    -999.25    -999.25    -999.25    -999.25 1746.30290   50.88410   50.88410    -999.25   25.85390   25.85390 1746.30290  496.59240   74.74410  496.59240    -999.25    -999.25    -999.25    -999.25    0.02820    0.02820 -107.07590 -107.45320   74.74410
 9350.00000    -999.25    9.71430    9.71430    0.70610    -999.25    -999.25    -999.25    -999.25    -999.25    -999.25 1416.16860   53.67280   53.67280    -999.25   29.60750   29.60750 1416.16860   89.53860   57.14020   89.53860    -999.25    -999.25    -999.25    -999.25    0.04880    0.04880 -111.15660 -112.86020   57.14020
 9400.00000    -999.25   10.33160   10.33160    7.35370    -999.25    -999.25    -999.25    -999.25    -999.25    -999.25  135.98650   50.74620   50.74620    -999.25   23.71700   23.71700  135.98650   60.99910  106.15520   60.99910    -999.25    -999.25    -999.25    -999.25    0.02830    0.02830  -88.67490  -91.70480  106.15520
 9450.00000    -999.25    9.21050    9.21050   12.40920    -999.25    -999.25    -999.25    -999.25    -999.25    -999.25   80.58530   55.82440   55.82440    -999.25   42.29380   42.29380   80.58530   86.47000  135.10770   86.47000    -999.25    -999.25    -999.25    -999.25    0.06230    0.06230  -50.37280  -54.72900  135.10770
 9500.00000    -999.25    9.16940    9.16940   28.37180    -999.25    -999.25    -999.25    -999.25    -999.25    -999.25   35.24630   57.13960   57.13960    -999.25   52.85200   52.85200   35.24630   36.31920   47.22880   36.31920    -999.25    -999.25    -999.25    -999.25    0.07550    0.07550   -9.39730  -15.07980   47.22880
 9550.00000    -999.25   11.34070   11.34070   73.66370    -999.25    -999.25    -999.25    -999.25    -999.25    -999.25   13.57520   64.54400   64.54400    -999.25   61.66920   61.66920   13.57520   14.36120   20.03240   14.36120    -999.25    -999.25    -999.25    -999.25    0.12890    0.12890   -8.01640  -15.02520   20.03240
 9600.00000    -999.25    9.53670    9.53670   75.97980    -999.25    -999.25    -999.25    -999.25    -999.25    -999.25   13.16140   64.76080   64.76080    -999.25   66.15800   66.15800   13.16140   14.51410   18.37120   14.51410    -999.25    -999.25    -999.25    -999.25    0.13090    0.13090  -20.15810  -28.49310   18.37120
 9650.00000    -999.25   14.80510   14.80510  151.95490    -999.25    -999.25    -999.25    -999.25    -999.25    -999.25    6.58090   75.30610   75.30610    -999.25   83.46500   83.46500    6.58090    7.26710    8.67620    7.26710    -999.25    -999.25    -999.25    -999.25    0.20910    0.20910   -9.88680  -19.54810    8.67620
 9700.00000    -999.25   12.09450   12.09450  125.43270    -999.25    -999.25    -999.25    -999.25    -999.25    -999.25    7.97240   74.30750   74.30750    -999.25   85.17250   85.17250    7.97240    8.48940   10.03910    8.48940    -999.25    -999.25    -999.25    -999.25    0.20080    0.20080   -1.16220  -12.21330   10.03910
 9750.00000    -999.25    9.50630    9.50630   19.37450    -999.25    -999.25    -999.25    -999.25    -999.25    -999.25   51.61420   55.61230   55.61230    -999.25   39.70450   39.70450   51.61420   65.64520   57.71230   65.64520    -999.25    -999.25    -999.25    -999.25    0.06440    0.06440  -13.58950  -26.09150   57.71230
 9800.00000    -999.25   10.87610   10.87610   57.51890    -999.25    -999.25    -999.25    -999.25    -999.25    -999.25   17.38560   62.70060   62.70060    -999.25   66.98640   66.98640   17.38560   19.23170   22.55360   19.23170    -999.25    -999.25    -999.25    -999.25    0.11630    0.11630  -19.65040  -33.60320   22.55360
