~Version ---------------------------------------------------
VERS.      2.0 : CWLS log ASCII Standard -VERSION 2.0
WRAP.       NO : One line per depth step
CREA. 08/31/17 : LAS Creation Date
~Well ------------------------------------------------------
STRT.FT                             1100.0 : START DEPTH
STOP.FT                            11500.0 : STOP DEPTH
STEP.FT                           50.00000 : STEP LENGTH
NULL.                              -999.25 : NULL VALUE
COMP.              MURPHY OIL COMPANY LTD. : COMPANY
WELL. MURPHY ASHLAND WOLF CREEK 11-5-53-15 : WELL
FLD .                                      : FIELD
LOC .                                      : LOCATION
CTRY.                               CANADA : COUNTRY
SRVC.               Schlumberger of Canada : SERVICE COMPANY
DATE.                          08-Dec-1976 : LOGDATE
PROV.                              Alberta : PROVINCE
UWI .                     100110505315W500 : UNIQUE WELL ID
SLAT.WGS84                        53.55101 : SURFACE LATITUDE
SLON.WGS84                        -116.179 : SURFACE LONGITUDE
~Curve Information -----------------------------------------
DEPT    .FT    : Depth Curve
CALDED  .IN    : CALIPER FROM CNL-FDC LOG [ADJ. TO GRSED]
CALSED  .IN    : CALIPER FROM SONIC LOG
CALWS   .IN    : CALIPER [CALDED]
CILDED  .MMHO  : DEEP INDUCTION CONDUCTIVITY FROM RESISTIVITY LOG
CONDWS  .MMHO  : CONDUCTIVITY [1000/DRESWS]
DCORWS  .G/C3  : DENSITY CORRECTION [DRHOED]
DENWS   .G/C3  : FORMATION BULK DENSITY [RHOBED]
DPHILSED.V/V   : DENSITY POROSITY LIME [M=2.71, F=1.00] FROM CNL-FDC LOG [ADJ. TO GRSED]
DPHISSED.V/V   : DENSITY POROSITY SAND [M=2.65, F=1.00] FROM CNL-FDC LOG [ADJ. TO GRSED]
DPOLSWS .V/V   : DENSITY POROSITY LIME [CALCULATED FROM DENWS, M=2.71, F=1.00]
DRESWS  .OHMM  : DEEP RESISTIVITY [ILDED]
DRHOED  .G/C3  : BULK DENSITY CORRECTION FROM DENSITY LOG [ADJ. TO DPHISSED/DPHILSED/GRSED]
DTED    .US/F  : DELTA-T (INTERVAL TRANSIT TIME) FROM SONIC LOG
DTWS    .US/F  : COMPRESSIONAL SONIC [DTED]
GRDED   .GAPI  : GAMMA RAY FROM DENSITY LOG [ADJ. TO GRSED]
GRSED   .GAPI  : GAMMA RAY FROM SONIC LOG
GRWS    .GAPI  : GAMMA RAY [GRSED]
ILDED   .OHMM  : DEEP INDUCTION FROM RESISTIVITY LOG
ILMED   .OHMM  : MEDIUM INDUCTION FROM RESISTIVITY LOG
LL8ED   .OHMM  : LATEROLOG 8 FROM RESISTIVITY LOG
MRESWS  .OHMM  : MEDIUM RESISTIVITY [ILMED]
NPHILSED.V/V   : NEUTRON POROSITY LIME FROM CNL-FDC LOG [ADJ. TO GRSED]
NPHISSED.V/V   : NEUTRON POROSITY SAND FROM CNL-FDC LOG [ADJ. TO GRSED]
NPOLSWS .V/V   : NEUTRON POROSITY LIME [NPHISSED MATRIX CONVERTED TO LIMESTONE & SPL. TO NPHILSED @ 8000']
RHOBED  .G/C3  : BULK DENSITY FROM DENSITY LOG [ADJ. TO DPHISSED/DPHILSED/GRSED]
SPRED   .MV    : SPONTANEOUS POTENTIAL FROM RESISTIVITY LOG
SPWS    .MV    : SPONTANEOUS POTENTIAL [BASELINE 0 MV, SPRED]
SRESWS  .OHMM  : SHALLOW RESISTIVITY [LL8ED]
~Params ----------------------------------------------------
PD  .                     GL : PERMANENT DATUM
EPD .FT               2966.3 : ELEVATION PERMANENT DATUM
LMF .                     KB : LOG MEASURED FROM
DAPD.FT                 15.4 : FEET ABOVE PERMANENT DATUM
EKB .FT               2981.7 : KELLY BUSHING
EGL .FT               2966.3 : GROUND LEVEL
DATE.               12/08/76 : RUN DATE
RUN .                      1 : RUN NUMBER
DD  .FT                11560 : DEPTH DRILLER
DL  .FT                11554 : DEPTH LOGGER
BLI .FT                11548 : BOTTOM LOG INTERVAL
TLI .FT                 1160 : TOP LOG INTERVAL
CBD .FT                 1160 : CASING BOTTOM DRILLER
CBL .FT                 1160 : CASING BOTTOM LOGGER
BS  .IN                 8.75 : BIT SIZE
BSD .FT                11560 : BIT SIZE AT DEPTH
DFT .               GEL CHEM : DRILLING FLUID TYPE
DFD .                    9.1 : DRILLING FLUID DENSITY
DFV .                    290 : DRILLING FLUID VISCOSITY
DFPH.                     11 : DRILLING FLUID PH
DFL .                    5.8 : DRILLING FLUID LOSS
MSS .               FLOWLINE : MUD SAMPLE SOURCE
RMS .OHMM               1.67 : RESISTIVITY MUD SAMPLE
MST .DEGF                 37 : MUD SAMPLE TEMPERATURE
RMF .OHMM                1.3 : RESISTIVITY MUD FILTRATE SAMPLE
MFST.DEGF                 55 : MUD FILTRATE SAMPLE TEMPERATURE
TCS .HRS                 2.5 : TIME CIRCULATED STOPPED
LUN .                   7730 : LOGGING UNIT NUMBER
LUL .                    EDM : LOGGING UNIT LOCATION
ENGI.        MCDONALD KARAKI : RECORDING ENGINEER
WITN.            ABEL WORKUM : WITNESSED BY
CLNT.                A2DTECH : CLIENT CODE
ORIG.            2" 5" PRINT : ORIGIN OF DATA
UWI .       100110505315W500 : UNIQUE WELL ID
DICO. A2D Technologies, Inc. : DIGITIZING COMPANY
~Other -----------------------------------------------------
~ASCII -----------------------------------------------------
# ...
 6100.00000   15.00000   11.04050   15.00000    -999.25   71.46940    0.11070    1.53970    -999.25    0.45000    0.68440   13.99200    0.11070   88.21950   88.21950   83.69510  120.15060  120.15060   13.99200   13.70740   10.04020   13.70740    -999.25    0.52620    0.48450    1.53970   -0.65970   -2.49830   10.04020
 6150.00000   14.05780   10.69270   14.05780    -999.25   81.01830    0.07030    1.51970    -999.25    0.45000    0.69610   12.34910    0.07030   94.24070   94.24070   85.46560   96.86140   96.86140   12.34910   13.18130   15.59340   13.18130    -999.25    0.46830    0.42640    1.51970  -13.73020  -16.26760   15.59340
 6200.00000   15.00000   11.28820   15.00000    -999.25   55.91340    0.11550    1.60030    -999.25    0.45010    0.64890   17.88480    0.11550  100.67420  100.67420   80.13720  104.21500  104.21500   17.88480   15.01550   14.21340   15.01550    -999.25    0.51890    0.47720    1.60030    1.20460   -2.03870   14.21340
 6250.00000   15.00000    9.51530   15.00000    -999.25   66.32310    0.16370    1.85550    -999.25    0.44950    0.49970   15.07770    0.16370  102.46990  102.46990   95.79500  115.97900  115.97900   15.07770   15.07060   16.70000   15.07060    -999.25    0.41250    0.36990    1.85550    0.28090   -3.33180   16.70000
 6300.00000   12.67630    9.44580   12.67630    -999.25   61.67700    0.21530    2.04130    -999.25    0.37670    0.39110   16.21590    0.21530   89.11410   89.11410  117.47370  131.50310  131.50310   16.21590   15.04520   20.90450   15.04520    -999.25    0.34890    0.30520    2.04130    0.18810   -3.25190   20.90450
 6350.00000   13.03960    9.61630   13.03960    -999.25   67.21380    0.24400    2.15600    -999.25    0.30210    0.32400   14.87790    0.24400  109.16080  109.16080  114.32470  135.84560  135.84560   14.87790   14.19900   19.02620   14.19900    -999.25    0.30600    0.26200    2.15600    1.47580   -1.78980   19.02620
 6400.00000   11.33000   10.51090   11.33000    -999.25   97.05630    0.10820    2.13010    -999.25    0.34390    0.33910   10.30340    0.10820  111.96640  111.96640   94.99960  104.87620  104.87620   10.30340   10.97840   12.25750   10.97840    -999.25    0.44660    0.40490    2.13010   -2.28810   -5.38090   12.25750
 6450.00000   15.04490   11.09570   15.04490    -999.25   16.64900    0.16130    1.71600    -999.25    0.45000    0.58130   60.06350    0.16130   89.30040   89.30040  107.40180  131.65360  131.65360   60.06350   23.23300   43.59400   23.23300    -999.25    0.48240    0.44070    1.71600    1.56820   -1.38550   43.59400
 6500.00000   12.08280    9.82230   12.08280    -999.25  129.08390    0.11700    1.67790    -999.25    0.45000    0.60360    7.74690    0.11700   82.11080   82.11080   88.18460   99.20140   99.20140    7.74690    8.03780    8.14960    8.03780    -999.25    0.40150    0.35870    1.67790   -1.84760   -5.13190    8.14960
 6550.00000   15.00000   10.89120   15.00000    -999.25   79.38630    0.08050    1.54050    -999.25    0.44990    0.68390   12.72070    0.08050   87.58990   87.58990   87.96100  104.91090  104.91090   12.72070    8.95280    9.67260    8.95280    -999.25    0.47510    0.43340    1.54050   -0.89740   -4.51080    9.67260
 6600.00000   15.00000   11.32110   15.00000    -999.25  161.96430    0.13780    1.69290    -999.25    0.45000    0.59480    6.17420    0.13780  104.84360  104.84360   77.73560   82.89490   82.89490    6.17420    6.58740    7.08390    6.58740    -999.25    0.56340    0.52170    1.69290   -2.38120   -6.32690    7.08390
 6650.00000   14.88010   10.78860   14.88010    -999.25  113.11420    0.23210    2.04890    -999.25    0.39270    0.38660    8.84090    0.23210   85.60560   85.60560   92.74700   98.64700   98.64700    8.84090   10.35860   11.08840   10.35860    -999.25    0.44080    0.39900    2.04890   -1.98780   -6.26250   11.08840
 6700.00000   15.00000   11.18240   15.00000    -999.25  118.92300    0.12870    1.67180    -999.25    0.44970    0.60710    8.40880    0.12870   89.10390   89.10390   87.96970  101.63600  101.63600    8.40880    8.94840    9.35650    8.94840    -999.25    0.48210    0.44040    1.67180   -1.13760   -5.74460    9.35650
 6750.00000   14.30440   10.24410   14.30440    -999.25  133.59160    0.07810    1.50660    -999.25    0.45000    0.70370    7.48550    0.07810  128.04620  128.04620  107.72530  132.93680  132.93680    7.48550    8.63470    8.98460    8.63470    -999.25    0.56620    0.52450    1.50660    1.80710   -3.13060    8.98460
 6800.00000   15.00000   11.34640   15.00000    -999.25  337.29360    0.10100    1.65150    -999.25    0.45000    0.61910    2.97030    0.10100   95.68110   95.68110   69.74190   81.59630   81.59630    2.97030    3.34270    4.17570    3.34270    -999.25    0.59260    0.55090    1.65150    3.55310   -1.71370    4.17570
 6850.00000   15.00000   10.19420   15.00000    -999.25  150.25840    0.18290    2.11710    -999.25    0.33220    0.34670    6.65520    0.18290   83.26640   83.26640   91.20150  116.04670  116.04670    6.65520    7.04060    8.97480    7.04060    -999.25    0.45050    0.40880    2.11710    4.32190   -1.24930    8.97480
 6900.00000   10.13530    9.04200   10.13530    -999.25   45.50580    0.24520    2.36590    -999.25    0.17820    0.20120   21.97580    0.24520   75.60880   75.60880   58.52830   65.93660   65.93660   21.97580   23.96980   29.26710   23.96980    -999.25    0.17940    0.13630    2.36590  -17.74700  -23.89380   29.26710
 6950.00000   11.33900    9.13080   11.33900    -999.25   73.90380    0.23630    2.23920    -999.25    0.25290    0.27540   13.53110    0.23630   73.23610   73.23610   86.34680   90.51050   90.51050   13.53110   14.24420   17.07980   14.24420    -999.25    0.23050    0.18680    2.23920  -41.70920  -48.99270   17.07980
 7000.00000   10.43070    9.11610   10.43070    -999.25  144.67590    0.18200    2.06440    -999.25    0.32460    0.37750    6.91200    0.18200  115.27150  115.27150   70.75710   73.06620   73.06620    6.91200    8.78020   16.26120    8.78020    -999.25    0.35970    0.31620    2.06440    1.74080   -6.67370   16.26120
 7050.00000   15.02430   11.12140   15.02430    -999.25  126.13380    0.19750    1.86650    -999.25    0.44960    0.49330    7.98070    0.19750   89.83360   89.83360   74.13150   85.69920   85.69920    7.98070   10.37270    9.00690   10.37270    -999.25    0.50830    0.46660    1.86650    3.77380   -5.76620    9.00690
 7100.00000    9.70610    9.22970    9.70610    -999.25   62.34760    0.19110    2.52010    -999.25    0.07710    0.11110   16.03910    0.19110   71.13040   71.13040   79.00340   84.56110   84.56110   16.03910   16.98080   17.06910   16.98080    -999.25    0.21990    0.17620    2.52010   -0.04600  -10.72260   17.06910
 7150.00000   11.14960    9.27230   11.14960    -999.25   71.68350    0.19360    2.41020    -999.25    0.14620    0.17530   13.95670    0.19360   73.16550   73.16550   87.24790  101.02710  101.02710   13.95670   14.53760   16.29600   14.53760    -999.25    0.29580    0.25180    2.41020    7.26230   -4.53960   16.29600
 7200.00000    9.37880    8.91890    9.37880    -999.25   58.84530    0.11570    2.64840    -999.25    0.00340    0.03600   16.99370    0.11570   67.73890   67.73890   69.11320   70.87590   70.87590   16.99370   17.70130   24.26320   17.70130    -999.25    0.23900    0.19520    2.64840  -23.35670  -36.29540   24.26320
 7250.00000    9.79010    9.16930    9.79010    -999.25   67.79890    0.12740    2.37670    -999.25    0.16040    0.19490   14.74950    0.12740   71.34090   71.34090   75.88570   91.21600   91.21600   14.74950   15.56900   20.96510   15.56900    -999.25    0.33940    0.29570    2.37670    1.02700  -13.04270   20.96510
 7300.00000   10.59230    9.11620   10.59230    -999.25   61.01760    0.25860    2.42090    -999.25    0.17110    0.16900   16.39200    0.25860   72.27720   72.27720   81.79950  104.59700  104.59700   16.39200   17.93720   23.78130   17.93720    -999.25    0.29740    0.25340    2.42090    2.56210  -12.63300   23.78130
