~Version ---------------------------------------------------
VERS.      2.0 : CWLS log ASCII Standard -VERSION 2.0
WRAP.       NO : One line per depth step
CREA. 12/19/17 : LAS Creation Date
~Well ------------------------------------------------------
STRT.FT                   1500.0 : START DEPTH
STOP.FT                  10100.0 : STOP DEPTH
STEP.FT                 50.00000 : STEP LENGTH
NULL.                    -999.25 : NULL VALUE
COMP. PHILLIPS PETROLEUM COMPANY : COMPANY
WELL. PHILLIPS KAYBOB 2-18-63-18 : WELL
FLD .                     KAYBOB : FIELD
LOC .                            : LOCATION
CTRY.                     CANADA : COUNTRY
SRVC.                      Welex : SERVICE COMPANY
DATE.                15-Dec-1959 : LOGDATE
PROV.                    Alberta : PROVINCE
UWI .           100021806318W500 : UNIQUE WELL ID
SLAT.WGS84              54.44531 : SURFACE LATITUDE
SLON.WGS84             -116.7064 : SURFACE LONGITUDE
~Curve Information -----------------------------------------
DEPT  .FT    : Depth Curve
CALWS .IN    : CALIPER [MCALED]
CONDWS.MMHO  : CONDUCTIVITY [1000/DRESWS]
DRESWS.OHMM  : DEEP RESISTIVITY [LAT9ED]
GRNED .GAPI  : GAMMA RAY FROM GRN LOG [ADJ. TO RESISTIVITY LOG]
GRWS  .GAPI  : GAMMA RAY [GRNED]
LAT9ED.OHMM  : LATEROLOG 9' FROM RESISTIVITY LOG
LT16ED.OHMM  : LATERLOG 16' FROM RESISTIVITY LOG
MCALED.IN    : CALIPER FROM MICRO LOG
NEUTED.NAPI  : NEUTRON FROM GRN LOG [ADJ. TO RESISTIVITY LOG]
NEUTWS.NAPI  : NEUTRON [NEUTED]
SNED  .OHMM  : SHORT NORMAL FROM RESISTIVITY LOG
SPRED .MV    : SPONTANEOUS POTENTIAL FROM RESISTIVITY LOG
SPWS  .MV    : SPONTANEOUS POTENTIAL [BASELINE 0 MV, SPRED]
SRESWS.OHMM  : SHALLOW RESISTIVITY [SNED]
~Params ----------------------------------------------------
PD  .                         RKB : PERMANENT DATUM
LMF .                          KB : LOG MEASURED FROM
DMF .                          KB : DRILLING MEASURED FROM
EKB .FT                      2620 : KELLY BUSHING
EDF .FT                      2618 : DRILLING FLOOR
EGL .FT                      2605 : GROUND LEVEL
DATE.                    12/15/59 : RUN DATE
RUN .                           2 : RUN NUMBER
DD  .FT                     10140 : DEPTH DRILLER
DL  .FT                     10144 : DEPTH LOGGER
BLI .FT                     10143 : BOTTOM LOG INTERVAL
TLI .FT                      1510 : TOP LOG INTERVAL
CS  .IN                     9.625 : CASING SIZE
CBD .FT                    1510.5 : CASING BOTTOM DRILLER
CBL .FT                      1510 : CASING BOTTOM LOGGER
BS  .IN                     7.875 : BIT SIZE
BSD .FT                     10140 : BIT SIZE AT DEPTH
DFT . OIL EMULSION GEL QX CAUSTIC : DRILLING FLUID TYPE
DFD .                        10.4 : DRILLING FLUID DENSITY
DFV .                          95 : DRILLING FLUID VISCOSITY
DFPH.                         9.5 : DRILLING FLUID PH
DFL .                         6.4 : DRILLING FLUID LOSS
MSS .                  CIRCULATED : MUD SAMPLE SOURCE
RMS .OHMM                     1.8 : RESISTIVITY MUD SAMPLE
MST .DEGF                      60 : MUD SAMPLE TEMPERATURE
RMF .OHMM                     1.5 : RESISTIVITY MUD FILTRATE SAMPLE
MFST.DEGF                      60 : MUD FILTRATE SAMPLE TEMPERATURE
RMC .OHMM                     2.2 : RESISTIVITY MUD CAKE
MCST.DEGF                      60 : MUD CAKE SAMPLE TEMPERATURE
RMB .OHMM                     0.6 : RESISTIVITY MUD AT BHT
MRT .DEGF                     194 : MAXIMUM RECORDED TEMPERATURE
LUN .                        6101 : LOGGING UNIT NUMBER
ENGI.                      FOWLER : RECORDING ENGINEER
WITN.            TIBBITS FISHBUCK : WITNESSED BY
CLNT.                     A2DTECH : CLIENT CODE
ORIG.                 2" 5" PRINT : ORIGIN OF DATA
UWI .            100021806318W500 : UNIQUE WELL ID
DICO.      A2D Technologies, Inc. : DIGITIZING COMPANY
~Other -----------------------------------------------------
IEL-GRN-ML LOG RAN
DATA FROM SMALL SCALE
~ASCII -----------------------------------------------------
# ...
 8850.00000    9.57530   73.90870   13.53020   89.71710   89.71710   13.53020    6.54060    9.57530  365.97320  365.97320   12.89950  -38.67160   -3.55890   12.89950
 8900.00000    7.89530   33.10060   30.21090   99.37590   99.37590   30.21090   18.26330    7.89530  431.53530  431.53530   52.19430  -52.00630  -15.29370   52.19430
 8950.00000    9.53720   65.89090   15.17660   95.02730   95.02730   15.17660    9.35520    9.53720  399.32660  399.32660   13.99670  -70.70340  -32.39090   13.99670
 9000.00000   11.38780  158.19780    6.32120  107.20420  107.20420    6.32120    5.14820   11.38780  300.42360  300.42360    5.70650 -114.43450  -74.52210    5.70650
 9050.00000   12.63770  183.00270    5.46440  109.59750  109.59750    5.46440    4.91990   12.63770  307.02240  307.02240    6.63880 -120.04550  -78.53320    6.63880
 9100.00000   13.54990  154.88990    6.45620  104.27490  104.27490    6.45620    4.43370   13.54990  296.36410  296.36410    6.59500 -110.63800  -67.52580    6.59500
 9150.00000   11.74190  223.81880    4.46790   98.44870   98.44870    4.46790    3.69100   11.74190  290.07430  290.07430    7.04870  -94.72810  -50.01600    7.04870
 9200.00000    9.00970   44.25720   22.59520  118.04150  118.04150   22.59520   13.87790    9.00970  408.83050  408.83050   16.05760  -77.58360  -31.27150   16.05760
 9250.00000    9.42000   79.22170   12.62280  121.45580  121.45580   12.62280    8.72450    9.42000  419.37730  419.37730   13.70130  -69.79330  -21.88130   13.70130
 9300.00000    8.76540   55.01030   18.17840  105.44190  105.44190   18.17840   13.16800    8.76540  394.85300  394.85300   15.31180  -57.64810   -8.28850   15.31180
 9350.00000   10.15050   98.31290   10.17160  146.76410  146.76410   10.17160    6.99160   10.15050  341.83370  341.83370   10.95180  -82.10320  -32.31540   10.95180
 9400.00000    9.03460   73.19200   13.66270  111.69780  111.69780   13.66270    7.99170    9.03460  427.80570  427.80570   14.22320 -116.51530  -66.29930   14.22320
 9450.00000    9.59420  100.74250    9.92630  131.29050  131.29050    9.92630    7.44900    9.59420  374.64330  374.64330   12.00400 -131.15140  -80.50720   12.00400
 9500.00000    8.37520   74.00170   13.51320  136.03020  136.03020   13.51320    8.35030    8.37520  340.97090  340.97090   18.36930 -137.97920  -86.90680   18.36930
 9550.00000    8.73070    1.40050  714.02590  144.21560  144.21560  714.02590 1154.10880    8.73070  434.04360  434.04360  340.24500 -146.17830  -94.67760  340.24500
 9600.00000    7.97110    2.06690  483.80980  158.81770  158.81770  483.80980 1177.74380    7.97110  380.40850  380.40850  287.96990 -132.23260  -80.30370  287.96990
 9650.00000    8.58820    4.28010  233.63700  200.52570  200.52570  233.63700  293.16680    8.58820  361.14720  361.14720  146.54410 -118.27460  -65.91750  146.54410
 9700.00000    9.01200   50.26460   19.89470  108.61050  108.61050   19.89470   12.14650    9.01200  326.17720  326.17720   24.69750 -112.36530  -59.58000   24.69750
 9750.00000    8.97770    2.90080  344.73420   37.89170   37.89170  344.73420  446.41860    8.97770  608.31340  608.31340  162.90590 -152.49420  -99.28070  162.90590
 9800.00000    7.73610    2.29630  435.48020   34.95030   34.95030  435.48020  637.61290    7.73610  637.01610  637.01610  134.70150 -114.92330  -61.28160  134.70150
 9850.00000    7.86450    3.64890  274.05790   35.48750   35.48750  274.05790  323.32260    7.86450  690.25370  690.25370   99.03800 -158.58730 -104.51730   99.03800
 9900.00000    8.24910    5.25980  190.12000   35.12310   35.12310  190.12000  219.26380    8.24910  590.98470  590.98470   89.65530 -173.12020 -118.62200   89.65530
 9950.00000    8.60500    5.04380  198.26180   40.71010   40.71010  198.26180  155.78500    8.60500  638.27390  638.27390  109.75100 -140.47650  -85.55010  109.75100
 10000.00000    8.57410    1.48350  674.09820   37.00950   37.00950  674.09820 2317.74630    8.57410  716.48000  716.48000  451.56370 -112.33430  -56.97970  451.56370
 10050.00000    7.91810    0.88870 1125.19170   42.67100   42.67100 1125.19170 3620.10160    7.91810  739.29090  739.29090  307.68870  -85.16490  -29.38210  307.68870
 10100.00000    6.86160   56.97810   17.55060  162.03690  162.03690   17.55060    7.81460    6.86160  552.98830  552.98830   16.56950 -173.57610 -104.17730   16.56950
