~Version ---------------------------------------------------
VERS.      2.0 : CWLS log ASCII Standard -VERSION 2.0
WRAP.       NO : One line per depth step
CREA. 09/26/17 : LAS Creation Date
~Well ------------------------------------------------------
STRT.FT                            1050.0 : START DEPTH
STOP.FT                           10300.0 : STOP DEPTH
STEP.FT                          50.00000 : STEP LENGTH
NULL.                             -999.25 : NULL VALUE
COMP.        CANADIAN HOMESTEAD OILS LTD. : COMPANY
WELL. HOMESTEAD S. SNIPE LAKE 10-14-68-19 : WELL
FLD .                                     : FIELD
LOC .                                     : LOCATION
CTRY.                              CANADA : COUNTRY
SRVC.              Schlumberger of Canada : SERVICE COMPANY
DATE.                         04-Mar-1963 : LOGDATE
PROV.                             Alberta : PROVINCE
UWI .                    100101406819W500 : UNIQUE WELL ID
SLAT.WGS84                       54.88835 : SURFACE LATITUDE
SLON.WGS84                      -116.7806 : SURFACE LONGITUDE
~Curve Information -----------------------------------------
DEPT  .FT    : Depth Curve
CALSED.IN    : CALIPER FROM SONIC LOG [ADJ. TO RESISTIVITY LOG]
CALWS .IN    : CALIPER [CALSED]
CILDED.MMHO  : CONDUCTIVITY FROM RESISTIVITY LOG
CONDWS.MMHO  : CONDUCTIVITY [1000/DRESWS]
DRESWS.OHMM  : DEEP RESISTIVITY [1000/CILDED, IF ILDED<1, ILDED]
DTED  .US/F  : DELTA TIME FROM SONIC LOG [ADJ. TO RESISTIVITY LOG]
DTWS  .US/F  : COMPRESSIONAL SONIC [DTED]
GRSED .GAPI  : GAMMA RAY FROM SONIC LOG [ADJ. TO RESISTIVITY LOG]
GRWS  .GAPI  : GAMMA RAY [GRSED]
ILDED .OHMM  : DEEP INDUCTION RESISTIVITY FROM RESISTIVITY LOG
SNED  .OHMM  : SHORT NORMAL 16"  FROM RESISTIVITY LOG
SPRED .MV    : SPONTANEOUS POTENTIAL FROM RESISTIVITY LOG
SPWS  .MV    : SPONTANEOUS POTENTIAL [BASELINE 0 MV, SPRED]
SRESWS.OHMM  : SHALLOW RESISTIVITY [SNED]
~Params ----------------------------------------------------
PD  .                     GL : PERMANENT DATUM
EPD .FT               2807.4 : ELEVATION PERMANENT DATUM
LMF .                     KB : LOG MEASURED FROM
DAPD.FT                 13.6 : FEET ABOVE PERMANENT DATUM
EKB .FT                 2821 : KELLY BUSHING
EDF .FT               2807.4 : DRILLING FLOOR
DATE.               03/04/63 : RUN DATE
RUN .                      1 : RUN NUMBER
DD  .FT                10320 : DEPTH DRILLER
DL  .FT                10325 : DEPTH LOGGER
BLI .FT                10324 : BOTTOM LOG INTERVAL
TLI .FT                 1073 : TOP LOG INTERVAL
CBD .FT                 1075 : CASING BOTTOM DRILLER
CBL .FT                 1073 : CASING BOTTOM LOGGER
BS  .IN                    9 : BIT SIZE
BSD .FT                10320 : BIT SIZE AT DEPTH
DFT .                    GEL : DRILLING FLUID TYPE
DFD .                    9.9 : DRILLING FLUID DENSITY
DFV .                     84 : DRILLING FLUID VISCOSITY
DFPH.                      9 : DRILLING FLUID PH
DFL .                    8.6 : DRILLING FLUID LOSS
RMS .OHMM               3.51 : RESISTIVITY MUD SAMPLE
MST .DEGF                 55 : MUD SAMPLE TEMPERATURE
RMF .OHMM               1.98 : RESISTIVITY MUD FILTRATE SAMPLE
MFST.DEGF                 74 : MUD FILTRATE SAMPLE TEMPERATURE
RMC .OHMM               1.05 : RESISTIVITY MUD CAKE
MCST.DEGF                171 : MUD CAKE SAMPLE TEMPERATURE
RMB .OHMM               1.15 : RESISTIVITY MUD AT BHT
TCS .HRS                 3.5 : TIME CIRCULATED STOPPED
LUN .                   1571 : LOGGING UNIT NUMBER
LUL .                    WCT : LOGGING UNIT LOCATION
ENGI.                 PAVLIN : RECORDING ENGINEER
WITN.                   EARL : WITNESSED BY
CLNT.                A2DTECH : CLIENT CODE
ORIG.            2" 5" PRINT : ORIGIN OF DATA
UWI .       100101406819W500 : UNIQUE WELL ID
DICO. A2D Technologies, Inc. : DIGITIZING COMPANY
~Other -----------------------------------------------------
IEL-BHC SONIC TOOL RUN
RESISTIVITY LOG FROM (TOP TO 3960') HAS TAKEN FROM SMALL SECTION
~ASCII -----------------------------------------------------
# ...
 8400.00000   14.23320   14.23320  266.66830  264.18680    3.78520   81.24590   81.24590   66.27710   66.27710    3.78520    5.18210  -55.36540   -9.60590    5.18210
 8450.00000   14.23560   14.23560  263.32970  263.85920    3.78990   79.31530   79.31530   78.80910   78.80910    3.78990    4.90590  -46.90890   -3.53050    4.90590
 8500.00000   14.30600   14.30600  266.82330  257.14210    3.88890   82.55140   82.55140   69.32220   69.32220    3.88890    4.83560  -49.40020   -8.38740    4.83560
 8550.00000   14.06120   14.06120  276.74090  261.99960    3.81680   80.74160   80.74160   66.58260   66.58260    3.81680    5.21880  -44.65500   -6.00770    5.21880
 8600.00000   10.60460   10.60460   99.44580  104.75370    9.54620   64.98790   64.98790   60.83840   60.83840    9.54620   15.27210  -42.55730   -6.29110   15.27210
 8650.00000   10.38330   10.38330   94.56120   94.20990   10.61460   64.90340   64.90340   73.26310   73.26310   10.61460   16.09960  -41.58870   -7.68810   16.09960
 8700.00000   11.10070   11.10070  104.15250  106.36490    9.40160   67.56820   67.56820   79.68430   79.68430    9.40160   13.92940  -43.59770  -12.07820   13.92940
 8750.00000   10.91210   10.91210  119.01080  121.81160    8.20940   69.02950   69.02950   75.14330   75.14330    8.20940   12.75180  -42.54190  -13.38790   12.75180
 8800.00000   10.84960   10.84960   77.37270   73.10900   13.67820   62.11210   62.11210   70.57000   70.57000   13.67820   18.14480  -33.93990   -7.15150   18.14480
 8850.00000   11.27330   11.27330  138.34860  139.61410    7.16260   66.30580   66.30580   65.22710   65.22710    7.16260   11.37910  -36.18920  -11.78190   11.37910
 8900.00000   11.26720   11.26720  148.21290  151.63000    6.59500   72.56820   72.56820   87.65290   87.65290    6.59500   10.44520  -38.88130  -16.83950   10.44520
 8950.00000   10.03490   10.03490  102.10380  102.96960    9.71160   65.87020   65.87020   92.88390   92.88390    9.71160   15.47290  -37.16230  -17.50170   15.47290
 9000.00000   12.55530   12.55530  202.78200  187.80750    5.32460   77.52540   77.52540   85.94840   85.94840    5.32460    7.88950  -42.26030  -24.96520    7.88950
 9050.00000   13.78910   13.78910  227.03790  218.59830    4.57460   77.38220   77.38220   72.82690   72.82690    4.57460    6.98590  -35.05200  -20.12250    6.98590
 9100.00000    9.85570    9.85570   75.76770   77.42400   12.91590   65.27410   65.27410   58.39050   58.39050   12.91590   21.26460  -20.82340   -7.57510   21.26460
 9150.00000   13.47560   13.47560  242.12030  235.79340    4.24100   86.97460   86.97460   90.16110   90.16110    4.24100    8.14160  -45.11970  -32.06580    8.14160
 9200.00000   10.57310   10.57310   98.19320   98.71570   10.13010   66.81610   66.81610   59.89180   59.89180   10.13010   16.09410  -40.09740  -27.23920   16.09410
 9250.00000   10.26150   10.26150   52.52610   50.96480   19.62140   55.56840   55.56840   45.68410   45.68410   19.62140   27.94440  -24.04120  -11.37740   27.94440
 9300.00000   10.72830   10.72830   84.95960   79.48240   12.58140   58.12300   58.12300   61.64140   61.64140   12.58140   18.71670  -20.86720   -8.39790   18.71670
 9350.00000   10.37050   10.37050   60.38490   58.30940   17.14990   59.87530   59.87530   43.27210   43.27210   17.14990   23.57790  -27.95440  -15.68080   23.57790
 9400.00000   10.38790   10.38790   58.44630   56.70450   17.63530   58.88490   58.88490   60.17240   60.17240   17.63530   24.38660  -28.02100  -15.94180   24.38660
 9450.00000   10.45290   10.45290   54.96750   52.55800   19.02660   58.57730   58.57730   67.08300   67.08300   19.02660   24.20810  -18.63650   -6.75300   24.20810
 9500.00000    9.72900    9.72900    7.59550    5.98080  167.20100   49.89180   49.89180   21.14040   21.14040  167.20100  152.94480  -52.26530  -40.57630  152.94480
 9550.00000   10.00370   10.00370    1.02820    1.79730  556.38370   52.40260   52.40260   27.36300   27.36300  556.38370  315.81710  -19.87120   -8.37660  315.81710
 9600.00000   10.17080   10.17080   20.55260   20.70270   48.30280   52.93190   52.93190   28.46780   28.46780   48.30280   90.12230  -25.38320  -11.53510   90.12230
 9650.00000    8.00950    8.00950 1733.19310  853.46080    1.17170   68.83840   68.83840   53.56150   53.56150    1.17170    2.94380 -182.87450 -163.98470    2.94380
 9700.00000    9.32060    9.32060   77.01510   80.94020   12.35480   56.09310   56.09310  104.32710  104.32710   12.35480   22.80290  -54.87060  -30.90590   22.80290
 9750.00000    9.27840    9.27840  491.18050  386.86220    2.58490   66.68960   66.68960   91.89580   91.89580    2.58490   10.17540 -117.20530  -88.19890   10.17540
 9800.00000   13.33960   13.33960  163.52260  163.43610    6.11860   78.95280   78.95280  107.36250  107.36250    6.11860    9.49850  -50.43010  -20.26050    9.49850
 9850.00000    8.65350    8.65350   68.78060   69.04310   14.48370   51.69910   51.69910   25.93290   25.93290   14.48370   76.29950 -149.53020 -113.30970   76.29950
 9900.00000    8.59610    8.59610   62.36330   57.77510   17.30850   54.37460   54.37460   21.71430   21.71430   17.30850   63.36810 -160.69810 -107.55760   63.36810
 9950.00000    8.38560    8.38560  931.63420  487.44820    2.05150   69.31290   69.31290   36.48490   36.48490    2.05150    9.02860 -171.29840 -113.85210    9.02860
 10000.00000    8.32380    8.32380  344.65050  615.72560    1.62410   73.99780   73.99780   49.98660   49.98660    1.62410    6.95150 -178.42580 -122.30730    6.95150
 10050.00000    8.25090    8.25090  267.44310  209.91650    4.76380   69.95340   69.95340   80.10000   80.10000    4.76380   11.77740 -102.67730  -47.88670   11.77740
 10100.00000    9.70600    9.70600   91.57400   93.53750   10.69090   64.86230   64.86230  113.39140  113.39140   10.69090   15.12080  -73.73110  -22.16590   15.12080
 10150.00000    8.57150    8.57150  153.77210  148.96690    6.71290   62.68600   62.68600  107.45420  107.45420    6.71290   17.18390 -133.25340  -85.33140   17.18390
 10200.00000    8.88710    8.88710   80.02910   80.62890   12.40250   65.62180   65.62180  104.00040  104.00040   12.40250   17.94620  -50.33720   -6.08240   17.94620
 10250.00000    8.97550    8.97550  313.80670  263.78960    3.79090   65.57180   65.57180   37.92610   37.92610    3.79090    9.20770 -110.57710  -62.09240    9.20770
 10300.00000    8.89200    8.89200    9.79140    9.84600  101.56420   54.87020   54.87020    -999.25    -999.25  101.56420  138.11210 -111.98610  -58.65710  138.11210
