~Version ---------------------------------------------------
VERS.      2.0 : CWLS log ASCII Standard -VERSION 2.0
WRAP.       NO : One line per depth step
CREA. 12/13/17 : LAS Creation Date
~Well ------------------------------------------------------
STRT.FT                         1100.0 : START DEPTH
STOP.FT                        16100.0 : STOP DEPTH
STEP.FT                       50.00000 : STEP LENGTH
NULL.                          -999.25 : NULL VALUE
COMP. AQUITAINE COMPANY OF CANADA LTD. : COMPANY
WELL. AQUIT ET AL OWL RIVER 1-24-45-16 : WELL
FLD .                                  : FIELD
LOC .                                  : LOCATION
CTRY.                           CANADA : COUNTRY
SRVC.                     Schlumberger : SERVICE COMPANY
DATE.                      22-May-1976 : LOGDATE
PROV.                          Alberta : PROVINCE
UWI .                 100012404516W502 : UNIQUE WELL ID
SLAT.WGS84                    52.88968 : SURFACE LATITUDE
SLON.WGS84                    -116.182 : SURFACE LONGITUDE
~Curve Information -----------------------------------------
DEPT    .FT    : Depth Curve
CALDED  .IN    : CALIPER FROM DENSITY LOG [ADJ. TO DLL LOG]
CALSED  .IN    : CALIPER FROM SONIC LOG
CALWS   .IN    : CALIPER [CALSED]
CONDWS  .MMHO  : CONDUCTIVITY [1000/DRESWS]
DCORWS  .G/C3  : DENSITY CORRECTION [DRHOED]
DENWS   .G/C3  : FORMATION BULK DENSITY [CALC. FROM DPOLSWS, M=2.71, F=1.00 ASSUMED]
DPHILSED.V/V   : DENSITY POROSITY LIMESTONE [M=2.71, F=1.00 ASSUMED] FROM DENSITY LOG
DPOLSWS .V/V   : DENSITY POROSITY LIMESTONE [DPHILSED]
DRESWS  .OHMM  : DEEP RESISTIVITY [ILDED SPL. TO LLDED @ 13065']
DRHOED  .G/C3  : DENSITY CORRECTION FROM DENSITY LOG [ADJ. TO DPHILSED/ DLL LOG]
DTED    .US/F  : DELTA TIME FROM SONIC LOG
DTWS    .US/F  : COMPRESSIONAL SONIC [DTED]
GRDED   .GAPI  : GAMMA RAY FROM DENSITY LOG [ADJ. TO DLL LOG]
GRSED   .GAPI  : GAMMA RAY FROM SONIC LOG
GRWS    .GAPI  : GAMMA RAY [GRSED]
ILDED   .OHMM  : DEEP INDUCTION RESISTIVITY FROM DIL LOG
ILMED   .OHMM  : DEEP RESISTIVITY [ILDED SPL. TO LLDED @ 13065']
LL8ED   .OHMM  : LATEROLOG 8  RESISTIVITY FROM DIL LOG
LLDED   .OHMM  : DEEP LATEROLOG RESISTIVITY  FROM DLL LOG
LLSED   .OHMM  : SHALLOW  LATEROLOG RESISTIVITY FROM DLL LOG
MRESWS  .OHMM  : MEDIUM RESISTIVITY [ILMED]
NPHILSED.V/V   : NEUTRON POROSITY LIMESTONE FROM DENSITY LOG [ADJ. TO DLL LOG]
NPOLSWS .V/V   : NEUTRON POROSITY LIMESTONE [NPHILSED]
RHOBED  .G/C3  : BULK DENSITY FROM DENSITY LOG [ADJ. TO DPHILSED/DLL LOG]
SPED    .MV    : SPONTANEOUS POTENTIAL [SPR1ED SPL. TO SPRED @ 12893']
SPR1ED  .MV    : SPONTANEOUS POTENTIAL FROM DIL LOG
SPRED   .MV    : SPONTANEOUS POTENTIAL FROM DLL LOG
SPWS    .MV    : SPONTANEOUS POTENTIAL [BASELINE 0 MV, SPED]
SRESWS  .OHMM  : SHALLOW RESISTIVITY [LL8ED SPL. TO LLSED @ 12900']
~Params ----------------------------------------------------
PD  .                     GL : PERMANENT DATUM
EPD .FT                 4186 : ELEVATION PERMANENT DATUM
LMF .                     KB : LOG MEASURED FROM
DAPD.FT                   20 : FEET ABOVE PERMANENT DATUM
EKB .FT                 4206 : KELLY BUSHING
EGL .FT                 4186 : GROUND LEVEL
DATE.               22/05/76 : RUN DATE
RUN .                      4 : RUN NUMBER
DD  .FT                16151 : DEPTH DRILLER
DL  .FT                16146 : DEPTH LOGGER
BLI .FT                16144 : BOTTOM LOG INTERVAL
TLI .FT                15300 : TOP LOG INTERVAL
CBD .FT                12900 : CASING BOTTOM DRILLER
CBL .FT                12900 : CASING BOTTOM LOGGER
BS  .IN                    6 : BIT SIZE
BSD .FT                16151 : BIT SIZE AT DEPTH
DFT .                    KCL : DRILLING FLUID TYPE
DFD .                      9 : DRILLING FLUID DENSITY
DFV .                    114 : DRILLING FLUID VISCOSITY
DFPH.                     11 : DRILLING FLUID PH
DFL .                     15 : DRILLING FLUID LOSS
TCS .HRS                11.5 : TIME CIRCULATED STOPPED
LUN .              OSU C 264 : LOGGING UNIT NUMBER
LUL .                     RD : LOGGING UNIT LOCATION
ENGI.               FIGGURES : RECORDING ENGINEER
WITN.        LABADI CZERNIAK : WITNESSED BY
CLNT.                A2DTECH : CLIENT CODE
ORIG.            2" 5" PRINT : ORIGIN OF DATA
UWI .       100012404516W502 : UNIQUE WELL ID
DICO. A2D Technologies, Inc. : DIGITIZING COMPANY
~Other -----------------------------------------------------
DIL-DLL-FDC-CNL-LCS LOG RUN
RHOB & DRHO CURVES VERIFIED FROM 2" SCALE SECTION.
LCS- RUN4: PULLED TIGHT @ 12910' & 15140'
~ASCII -----------------------------------------------------
# ...
 14850.00000    7.29180    7.05430    7.05430    4.30010    0.02030    2.80830   -0.05750   -0.05750  232.55440    0.01700   50.72230   50.72230   21.29020   27.42550   27.42550    -999.25    -999.25    -999.25  232.55440  194.85910    -999.25    0.02490    0.02490    2.80790  -78.20950    -999.25  -78.20950  -46.85610  194.85910
 14900.00000    7.18290    7.15110    7.15110   14.38690    0.04000    2.84410   -0.07840   -0.07840   69.57760    0.03310   53.46230   53.46230   30.61310   32.59060   32.59060    -999.25    -999.25    -999.25   69.57760   67.28100    -999.25    0.03930    0.03930    2.83180  -53.06100    -999.25  -53.06100  -23.97430   67.28100
 14950.00000    7.06190    7.19910    7.19910  112.69380    0.02010    2.80390   -0.05490   -0.05490    8.87360    0.01810   67.98700   67.98700   74.17370   75.82470   75.82470    -999.25    -999.25    -999.25    8.87360    7.68040    -999.25    0.15720    0.15720    2.79590  -46.78660    -999.25  -46.78660  -19.98930    7.68040
 15000.00000    7.21820    6.96860    6.96860    0.08650    0.09970    2.98090   -0.15840   -0.15840 11561.54690    0.02570   49.00780   49.00780   17.55080   16.18970   16.18970    -999.25    -999.25    -999.25 11561.54690 1829.91600    -999.25    0.01630    0.01630    2.96970  -46.53550    -999.25  -46.53550  -22.01620 1829.91600
 15050.00000    5.78340    6.56310    6.56310   16.07620   -0.00290    2.96570   -0.14950   -0.14950   62.25820   -0.00430   53.79210   53.79210   30.80780   30.60300   30.60300    -999.25    -999.25    -999.25   62.25820   64.69420    -999.25    0.04610    0.04610    2.95310  -48.68340    -999.25  -48.68340  -25.94090   64.69420
 15100.00000    5.97420    6.53420    6.53420   25.35140    0.09770    2.93040   -0.12890   -0.12890   39.44550    0.12910   56.59820   56.59820   37.10290   38.55750   38.55750    -999.25    -999.25    -999.25   39.44550   41.41850    -999.25    0.07040    0.07040    2.93940  -90.10990    -999.25  -90.10990  -67.36740   41.41850
 15150.00000    5.71590    6.65040    6.65040   10.09500   -0.06050    2.97680   -0.15600   -0.15600  102.58210   -0.09560   56.40300   56.40300   38.16000   38.63810   38.63810    -999.25    -999.25    -999.25  102.58210   73.53560    -999.25    0.05820    0.05820    2.96310 -107.84750    -999.25 -107.84750  -85.10500   73.53560
 15200.00000    5.92710    6.45430    6.45430    0.05230    0.22150    2.84260   -0.07760   -0.07760 19106.92770    0.20470   49.10030   49.10030   12.87640   15.11010   15.11010    -999.25    -999.25    -999.25 19106.92770 2000.00000    -999.25    0.01620    0.01620    2.83630 -108.85380    -999.25 -108.85380  -86.11130 2000.00000
 15250.00000    5.84290    6.33120    6.33120    0.09510    0.09430    2.81070   -0.05890   -0.05890 10513.12600    0.05240   48.38660   48.38660   56.03520   58.21560   58.21560    -999.25    -999.25    -999.25 10513.12600 2000.00000    -999.25    0.04520    0.04520    2.81000 -163.94220    -999.25 -163.94220 -141.19970 2000.00000
 15300.00000    5.48040    6.43100    6.43100    7.73890    0.14850    2.85290   -0.08350   -0.08350  129.64380    0.15050   46.37030   46.37030   33.87750   16.58890   16.58890    -999.25    -999.25    -999.25  129.64380   70.54330    -999.25    0.06340    0.06340    2.83620  -49.43220    -999.25  -49.43220  -26.68960   70.54330
 15350.00000   12.16880   10.95910   10.95910    0.05990    0.20750    2.65530    0.03200    0.03200 16690.26170    0.23460   49.45020   49.45020   13.98680   18.41550   18.41550    -999.25    -999.25    -999.25 16690.26170  227.62660    -999.25    0.02370    0.02370    2.65120  -99.51600    -999.25  -99.51600  -76.77350  227.62660
 15400.00000   12.10080   10.51270   10.51270    0.02700   -0.10450    1.84580    0.44980    0.50540 37105.31060   -0.12140   53.41560   53.41560   15.92040   15.27310   15.27310    -999.25    -999.25    -999.25 37105.31060   71.22070    -999.25    0.07730    0.07730    1.84580 -119.59490    -999.25 -119.59490  -96.85230   71.22070
 15450.00000   10.81650    6.83110    6.83110    0.02710   -0.25000    2.78420   -0.04340   -0.04340 36932.36720   -0.25000   45.54850   45.54850   34.89710   43.83290   43.83290    -999.25    -999.25    -999.25 36932.36720 2000.00000    -999.25    0.02890    0.02890    2.74800  -50.35240    -999.25  -50.35240  -27.60990 2000.00000
 15500.00000    5.00000    9.44100    9.44100    0.05870    -999.25    2.64690    0.03690    0.03690 17030.96680    -999.25   47.90680   47.90680  113.06440   34.24190   34.24190    -999.25    -999.25    -999.25 17030.96680 1983.84400    -999.25    0.09930    0.09930    2.64840 -143.95340    -999.25 -143.95340 -121.21090 1983.84400
 15550.00000    -999.25    7.21810    7.21810    -999.25    -999.25    -999.25    -999.25    -999.25    -999.25    -999.25   48.44830   48.44830    -999.25   32.83080   32.83080    -999.25    -999.25    -999.25    -999.25    -999.25    -999.25    -999.25    -999.25    -999.25    -999.25    -999.25    -999.25    -999.25    -999.25
 15600.00000    -999.25    6.85910    6.85910    -999.25    -999.25    -999.25    -999.25    -999.25    -999.25    -999.25   62.01290   62.01290    -999.25  139.98530  139.98530    -999.25    -999.25    -999.25    -999.25    -999.25    -999.25    -999.25    -999.25    -999.25    -999.25    -999.25    -999.25    -999.25    -999.25
 15650.00000    -999.25    6.29010    6.29010    -999.25    -999.25    -999.25    -999.25    -999.25    -999.25    -999.25   54.70110   54.70110    -999.25  196.49970  196.49970    -999.25    -999.25    -999.25    -999.25    -999.25    -999.25    -999.25    -999.25    -999.25    -999.25    -999.25    -999.25    -999.25    -999.25
 15700.00000    -999.25    6.50160    6.50160    -999.25    -999.25    -999.25    -999.25    -999.25    -999.25    -999.25   60.16030   60.16030    -999.25  199.81270  199.81270    -999.25    -999.25    -999.25    -999.25    -999.25    -999.25    -999.25    -999.25    -999.25    -999.25    -999.25    -999.25    -999.25    -999.25
 15750.00000    -999.25    6.64750    6.64750    -999.25    -999.25    -999.25    -999.25    -999.25    -999.25    -999.25   49.78440   49.78440    -999.25   51.32450   51.32450    -999.25    -999.25    -999.25    -999.25    -999.25    -999.25    -999.25    -999.25    -999.25    -999.25    -999.25    -999.25    -999.25    -999.25
 15800.00000    -999.25    6.28250    6.28250    -999.25    -999.25    -999.25    -999.25    -999.25    -999.25    -999.25   46.82530   46.82530    -999.25   21.50400   21.50400    -999.25    -999.25    -999.25    -999.25    -999.25    -999.25    -999.25    -999.25    -999.25    -999.25    -999.25    -999.25    -999.25    -999.25
 15850.00000    -999.25    6.41530    6.41530    -999.25    -999.25    -999.25    -999.25    -999.25    -999.25    -999.25   48.25590   48.25590    -999.25   30.86260   30.86260    -999.25    -999.25    -999.25    -999.25    -999.25    -999.25    -999.25    -999.25    -999.25    -999.25    -999.25    -999.25    -999.25    -999.25
 15900.00000    -999.25    6.10620    6.10620    -999.25    -999.25    -999.25    -999.25    -999.25    -999.25    -999.25   55.06500   55.06500    -999.25  151.57470  151.57470    -999.25    -999.25    -999.25    -999.25    -999.25    -999.25    -999.25    -999.25    -999.25    -999.25    -999.25    -999.25    -999.25    -999.25
 15950.00000    -999.25    6.41510    6.41510    -999.25    -999.25    -999.25    -999.25    -999.25    -999.25    -999.25   50.48380   50.48380    -999.25   80.14640   80.14640    -999.25    -999.25    -999.25    -999.25    -999.25    -999.25    -999.25    -999.25    -999.25    -999.25    -999.25    -999.25    -999.25    -999.25
 16000.00000    -999.25    6.34440    6.34440    -999.25    -999.25    -999.25    -999.25    -999.25    -999.25    -999.25   56.55420   56.55420    -999.25   55.75170   55.75170    -999.25    -999.25    -999.25    -999.25    -999.25    -999.25    -999.25    -999.25    -999.25    -999.25    -999.25    -999.25    -999.25    -999.25
 16050.00000    -999.25    6.77300    6.77300    -999.25    -999.25    -999.25    -999.25    -999.25    -999.25    -999.25   77.43460   77.43460    -999.25  122.91440  122.91440    -999.25    -999.25    -999.25    -999.25    -999.25    -999.25    -999.25    -999.25    -999.25    -999.25    -999.25    -999.25    -999.25    -999.25
