~Version ---------------------------------------------------
VERS.      2.0 : CWLS log ASCII Standard -VERSION 2.0
WRAP.       NO : One line per depth step
CREA. 08/04/17 : LAS Creation Date
~Well ------------------------------------------------------
STRT.FT                             1100.0 : START DEPTH
STOP.FT                            11250.0 : STOP DEPTH
STEP.FT                           50.00000 : STEP LENGTH
NULL.                              -999.25 : NULL VALUE
COMP.                 PETROFINA CANADA LTD : COMPANY
WELL. FINA AMOCO HB SAKWATAMAU 10-21-62-15 : WELL
FLD .                                   WC : FIELD
LOC .                                      : LOCATION
CTRY.                               CANADA : COUNTRY
SRVC.                         Schlumberger : SERVICE COMPANY
DATE.                          21-Aug-1976 : LOGDATE
PROV.                              Alberta : PROVINCE
UWI .                     100102106215W500 : UNIQUE WELL ID
SLAT.WGS84                        54.37886 : SURFACE LATITUDE
SLON.WGS84                       -116.1857 : SURFACE LONGITUDE
~Curve Information -----------------------------------------
DEPT    .FT    : Depth Curve
CALDED  .IN    : CALIPER FROM CND LOG [ADJ. TO ILDED]
CALSED  .IN    : CALIPER FROM BCS LOG [ADJ. TO GRDED]
CALWS   .IN    : CALIPER [CALSED]
CILDED  .MMHO  : DEEP INDUCTION CONDUCTIVITY FROM DIL-LAT LOG
CONDWS  .MMHO  : CONDUCTIVITY [CILDED]
DCORWS  .G/C3  : DENSITY CORRECTION [DRHOED]
DENWS   .G/C3  : FROMATION BILK DENSITY [RHOBED]
DPHILSED.V/V   : DENSITY POROSITY LIMESTONE [M=2.71, F=1000] FROM CND LOG [ADJ. TO RHOBED]
DPHISSED.V/V   : DENSITY POROSITY SANDSTONE [M=2.65, F=1.00] FROM CND LOG [ADJ. TO RHOBED]
DPOLSWS .V/V   : DENSITY POROSITY LIMESTONE [CALCULATED FROM DENWS, M=2.71, F=1.00]
DRESWS  .OHMM  : DEEP RESISTIVITY [spl. 1000/CONDWS, IF ILDED <=1, ILDED/ILDED at 4490']
DRHOED  .G/C3  : BULK DENSITY CORRECTION FROM CND LOG [ADJ. TO ILDED]
DTED    .US/F  : DELTA-T (INTERVAL TRANSIT TIME) FROM BCS LOG  [ADJ. TO GRDED]
DTWS    .US/F  : COMPRESSIONA L SONIC [DTED]
GRDED   .GAPI  : GAMMA RAY FROM CND LOG [ADJ. TO ILDED]
GRSED   .GAPI  : GAMMA RAY FROM BCS LOG  [ADJ. TO GRDED]
GRWS    .GAPI  : GAMMA RAY [GRSED SPL. TO GRDED @ 11233.5']
ILDED   .OHMM  : DEEP INDUCTION RESISTIVITY FROM DIL-LAT LOG
ILMED   .OHMM  : MEDIUM INDUCTION  RESISTIVITY FROM DIL-LAT LOG
LL8ED   .OHMM  : LATEROLOG 8 FROM DIL-LAT LOG
MRESWS  .OHMM  : MEDIUM RESISTIVITY [ILMED]
NPHILSED.V/V   : NEUTRON POROSITY LIMESTONE FROM CND LOG [ADJ. TO RHOBED]
NPHISSED.V/V   : NEUTRON POROSITY SANDSTONE FROM CND LOG [ADJ. TO RHOBED]
NPOLSWS .V/V   : NEUTRON POROSITY LIMESTONE [NPHISSED MATRIX CONVERSION FRO LIMESTONE,SPL TO NPHILSED @ 6345']
RHOBED  .G/C3  : BULK DENSITY FROM CND LOG [ADJ. TO ILDED]
SPRED   .MV    : SPONTANEOUS POTENTIAL FROM DIL-LAT LOG
SPWS    .MV    : SPONTANEOUS POTENTIAL [BASELINE 0 MV, SPRED]
SRESWS  .OHMM  : SHALLOW RESISTIVITY [LL8ED]
~Params ----------------------------------------------------
PD  .                     GL : PERMANENT DATUM
EPD .FT               3315.9 : ELEVATION PERMANENT DATUM
LMF .                     KB : LOG MEASURED FROM
DAPD.FT                 15.1 : FEET ABOVE PERMANENT DATUM
EKB .FT                 3331 : KELLY BUSHING
EGL .FT               3315.9 : GROUND LEVEL
DATE.               08/21/76 : RUN DATE
RUN .                      1 : RUN NUMBER
DD  .FT                11275 : DEPTH DRILLER
DL  .FT                11270 : DEPTH LOGGER
BLI .FT                11267 : BOTTOM LOG INTERVAL
TLI .FT                 1134 : TOP LOG INTERVAL
CBD .FT                 1134 : CASING BOTTOM DRILLER
CBL .FT                 1134 : CASING BOTTOM LOGGER
BS  .IN                 8.75 : BIT SIZE
BSD .FT                11275 : BIT SIZE AT DEPTH
DFT .               GEL CHEM : DRILLING FLUID TYPE
DFD .                    9.5 : DRILLING FLUID DENSITY
DFV .                     95 : DRILLING FLUID VISCOSITY
DFPH.                   10.5 : DRILLING FLUID PH
DFL .                      7 : DRILLING FLUID LOSS
MSS .               FLOWLINE : MUD SAMPLE SOURCE
RMS .OHMM                2.7 : RESISTIVITY MUD SAMPLE
MST .DEGF                 55 : MUD SAMPLE TEMPERATURE
RMF .OHMM               2.65 : RESISTIVITY MUD FILTRATE SAMPLE
MFST.DEGF                 56 : MUD FILTRATE SAMPLE TEMPERATURE
RMB .OHMM               0.56 : RESISTIVITY MUD AT BHT
TCS .HRS                 3.5 : TIME CIRCULATED STOPPED
LUN .                   7691 : LOGGING UNIT NUMBER
LUL .                    WCT : LOGGING UNIT LOCATION
ENGI.                GOODMAN : RECORDING ENGINEER
WITN.                 TIFFIN : WITNESSED BY
CLNT.                A2DTECH : CLIENT CODE
ORIG.            2" 5" PRINT : ORIGIN OF DATA
UWI .       100102106215W500 : UNIQUE WELL ID
DICO. A2D Technologies, Inc. : DIGITIZING COMPANY
~Other -----------------------------------------------------
~ASCII -----------------------------------------------------
# ...
 8600.00000   11.17320   10.77990   10.77990    -999.25  101.87970    0.05740    2.68480    0.01500    -999.25    0.01480    9.81550    0.05740   65.52340   65.52340   65.24460   61.00720   61.00720    9.81550   10.19110   12.74850   10.19110    0.09400    -999.25    0.09400    2.68480   19.04410   -5.86340   12.74850
 8650.00000   10.59180   10.01570   10.01570    -999.25  118.75360    0.03210    2.71140   -0.00470    -999.25   -0.00080    8.42080    0.03210   67.11880   67.11880   68.52640   65.09920   65.09920    8.42080    8.76890   11.36200    8.76890    0.11040    -999.25    0.11040    2.71140   16.52540   -7.59010   11.36200
 8700.00000    9.81840    9.59960    9.59960    -999.25   84.28010    0.06860    2.78350   -0.05050    -999.25   -0.04300   11.86520    0.06860   63.07090   63.07090   61.27230   63.61890   63.61890   11.86520   12.46060   14.47730   12.46060    0.11040    -999.25    0.11040    2.78350   11.24860  -11.96850   14.47730
 8750.00000   10.32300   10.00700   10.00700    -999.25  129.49340    0.07740    2.69190    0.01010    -999.25    0.01060    7.72240    0.07740   70.17490   70.17490   82.01780   78.84640   78.84640    7.72240    8.06260    9.76850    8.06260    0.15100    -999.25    0.15100    2.69190   16.87580   -5.44880    9.76850
 8800.00000    9.91410    9.57890    9.57890    -999.25   17.17670    0.05010    2.65200    0.03170    -999.25    0.03390   58.21850    0.05010   69.20490   69.20490   83.45710   82.25070   82.25070   58.21850   63.13600  115.58910   63.13600    0.17510    -999.25    0.17510    2.65200   13.37100   -8.06110  115.58910
 8850.00000   10.50110    9.85690    9.85690    -999.25   58.50620    0.09650    2.71970   -0.00730    -999.25   -0.00560   17.09220    0.09650   60.53510   60.53510   54.49630   52.07270   52.07270   17.09220   17.52400   22.12530   17.52400    0.07320    -999.25    0.07320    2.71970    4.82560  -14.26320   22.12530
 8900.00000   10.79160    9.82580    9.82580    -999.25   99.74560    0.18900    2.67740    0.00890    -999.25    0.01910   10.02550    0.18900   67.76150   67.76150   63.66200   61.53810   61.53810   10.02550   10.22790   10.73470   10.22790    0.13920    -999.25    0.13920    2.67740    6.83810   -9.75190   10.73470
 8950.00000   12.94700   11.91730   11.91730    -999.25  122.09420    0.23180    2.57030    0.08730    -999.25    0.08170    8.19040    0.23180   68.31530   68.31530   73.54770   69.34300   69.34300    8.19040    8.90520   12.47400    8.90520    0.15720    -999.25    0.15720    2.57030   -0.32240  -15.41480   12.47400
 9000.00000   11.98610   10.90270   10.90270    -999.25  150.15920    0.22670    2.33830    0.23190    -999.25    0.21740    6.65960    0.22670   78.10500   78.10500   86.81670   81.39630   81.39630    6.65960    7.15600    8.32560    7.15600    0.25600    -999.25    0.25600    2.33830   -6.70740  -20.31190    8.32560
 9050.00000   11.25070   10.28480   10.28480    -999.25  110.63050    0.20580    2.66950    0.02940    -999.25    0.02370    9.03910    0.20580   68.11230   68.11230   74.65380   68.91070   68.91070    9.03910    9.41510   11.61090    9.41510    0.15610    -999.25    0.15610    2.66950   -4.50010  -16.61670   11.61090
 9100.00000   10.89850    9.88790    9.88790    -999.25   98.68450    0.18890    2.74480   -0.01930    -999.25   -0.02040   10.13330    0.18890   67.94990   67.94990   92.29180   80.11900   80.11900   10.13330   10.54820   13.81940   10.54820    0.15270    -999.25    0.15270    2.74480   -2.37250  -12.99140   13.81940
 9150.00000   10.41880    9.77730    9.77730    -999.25   77.01310    0.16410    2.75740   -0.03290    -999.25   -0.02770   12.98480    0.16410   65.23560   65.23560   90.86310   91.89260   91.89260   12.98480   13.69870   18.73220   13.69870    0.12710    -999.25    0.12710    2.75740    0.15490   -8.97620   18.73220
 9200.00000   13.24760   11.74530   11.74530    -999.25  175.89840    0.23970    2.49060    0.12890    -999.25    0.12830    5.68510    0.23970   76.78520   76.78520  105.55670   94.11580   94.11580    5.68510    5.82390    7.58720    5.82390    0.26060    -999.25    0.26060    2.49060  -13.38120  -21.01460    7.58720
 9250.00000   12.11620   11.09700   11.09700    -999.25  127.68290    0.24910    2.68910    0.02380    -999.25    0.01220    7.83190    0.24910   70.28400   70.28400   90.64420   79.97400   79.97400    7.83190    8.43600   11.16620    8.43600    0.16490    -999.25    0.16490    2.68910   -3.24620   -9.39170   11.16620
 9300.00000   12.26700   10.89160   10.89160    -999.25  142.16260    0.25140    2.60140    0.06840    -999.25    0.06350    7.03420    0.25140   72.18860   72.18860   91.18720   84.80280   84.80280    7.03420    7.72660    9.80550    7.72660    0.17350    -999.25    0.17350    2.60140   -4.51240   -9.17000    9.80550
 9350.00000   11.77690    9.96900    9.96900    -999.25  125.38400    0.25130    2.68780    0.01470    -999.25    0.01300    7.97550    0.25130   72.19500   72.19500   99.04150   91.61340   91.61340    7.97550    8.38340   11.50480    8.38340    0.16960    -999.25    0.16960    2.68780    0.28520   -4.52340   11.50480
 9400.00000    9.42560    9.03690    9.03690    -999.25    3.32880    0.01360    2.63090    0.04720    -999.25    0.04630  300.41160    0.01360   63.41420   63.41420   99.43410   83.59780   83.59780  300.41160 1369.15440 1192.41580 1369.15440    0.10130    -999.25    0.10130    2.63090   38.08590  -38.61930 1192.41580
 9450.00000    9.40070    8.68360    8.68360    -999.25    0.71540    0.06670    2.62010    0.05640    -999.25    0.05260 1397.78830    0.06670   72.44780   72.44780  190.01250  169.12920  169.12920 1397.78830 1456.61500 1492.93470 1456.61500    0.15130    -999.25    0.15130    2.62010   -2.20680  -12.55060 1492.93470
 9500.00000    9.79960    9.34070    9.34070    -999.25   12.34960    0.06230    2.78360   -0.05270    -999.25   -0.04300   80.97460    0.06230   55.18250   55.18250   47.56820   44.01840   44.01840   80.97460   90.96960  134.19330   90.96960    0.04080    -999.25    0.04080    2.78360    6.73800   -5.38300  134.19330
 9550.00000   10.14600    9.63310    9.63310    -999.25   21.25110    0.05770    2.72900   -0.02120    -999.25   -0.01110   47.05630    0.05770   68.52940   68.52940   96.86980   86.64870   86.64870   47.05630   52.58370   71.55570   52.58370    0.14160    -999.25    0.14160    2.72900   11.79990   -2.09830   71.55570
 9600.00000   10.27920    9.51200    9.51200    -999.25    3.45440    0.02670    2.72860   -0.01480    -999.25   -0.01090  289.48330    0.02670   48.28530   48.28530   13.84670   11.42290   11.42290  289.48330  649.08960  692.52000  649.08960   -0.00340    -999.25   -0.00340    2.72860  -32.36960  -47.39960  692.52000
 9650.00000   10.16770    9.60580    9.60580    -999.25    0.73420    0.05280    2.75100   -0.02690    -999.25   -0.02400 1361.97410    0.05280   48.53090   48.53090   12.23240   10.86290   10.86290 1361.97410 1445.42420  921.71830 1445.42420   -0.00170    -999.25   -0.00170    2.75100  -72.99230  -89.01090  921.71830
 9700.00000   10.13890    9.46550    9.46550    -999.25    1.06990    0.05080    2.75130   -0.03200    -999.25   -0.02410  934.63100    0.05080   48.33920   48.33920   15.08170   11.69430   11.69430  934.63100 1404.69810 1171.59070 1404.69810   -0.00610    -999.25   -0.00610    2.75130  -35.15190  -52.16550 1171.59070
 9750.00000   10.00370    9.62570    9.62570    -999.25    1.10870    0.08470    2.79900   -0.05920    -999.25   -0.05200  901.94130    0.08470   49.23780   49.23780   23.22090   21.54120   21.54120  901.94130 1058.19850  947.78400 1058.19850   -0.00160    -999.25   -0.00160    2.79900  -53.08450  -71.08670  947.78400
 9800.00000   10.06130    9.53630    9.53630    -999.25   16.76010    0.03330    2.73450   -0.02230    -999.25   -0.01430   59.66560    0.03330   48.48150   48.48150   13.97360   15.06790   15.06790   59.66560   57.80920  267.72330   57.80920    0.00340    -999.25    0.00340    2.73450  -71.49420  -90.48490  267.72330
