~Version ---------------------------------------------------
VERS.      2.0 : CWLS log ASCII Standard -VERSION 2.0
WRAP.       NO : One line per depth step
CREA. 08/04/17 : LAS Creation Date
~Well ------------------------------------------------------
STRT.FT                      550.0 : START DEPTH
STOP.FT                    12450.0 : STOP DEPTH
STEP.FT                   50.00000 : STEP LENGTH
NULL.                      -999.25 : NULL VALUE
COMP.       CALIFORNIA STANDARD CO : COMPANY
WELL. STANDARD CYNTHIA 16-21-49-13 : WELL
FLD .                           WC : FIELD
LOC .                              : LOCATION
CTRY.                       CANADA : COUNTRY
SRVC.                 Schlumberger : SERVICE COMPANY
DATE.                  28-Dec-1957 : LOGDATE
PROV.                      Alberta : PROVINCE
UWI .             100162104913W500 : UNIQUE WELL ID
SLAT.WGS84                53.24881 : SURFACE LATITUDE
SLON.WGS84               -115.8321 : SURFACE LONGITUDE
~Curve Information -----------------------------------------
DEPT  .FT         : Depth Curve
CALMED.IN         : CALIPER FROM FROM MLL LOG
CALWS .IN         : CALIPER [MCALED]
CILDED.MMHO       : DEEP INDUCTION CONDUCTIVITY FROM IL LOG [ADJ. TO SPRED]
CONDWS.MMHO       : CONDUCTIVITY [1000/DRESWS]
DRESWS.OHMM       : DEEP RESISTIVITY [LNED]
GRNED .UgRa-Eq/T  : GAMMA RAY FROM GRN LOG
GRWS  .GAPI       : GAMMA RAY[GRNED*16.5]
ILDED .OHMM       : DEEP INDUCTION RESISTIVITY FROM IL LOG [ADJ. TO SPRED]
LL7ED .OHMM       : LATEROLOG 7 FROM LL LOG
LNED  .OHMM       : LONG NORMAL RESISTIVITY FROM EL LOG
LT18ED.OHMM       : LATERAL 18' FROM EL LOG
MCALED.IN         : MLT (MICROLOG) CALIPER FROM ML LOG
MLLED .OHMM       : MICRO FOCUSED LATEROLOG RESISTIVITY FROM MLL LOG
MRESWS.OHMM       : MEDIUM RESISTIVITY [LL7ED]
NEUTED.CPS        : NEUTRON FROM GRN LOG
NEUTWS.CPS        : NEUTRON [NEUTED]
SNED  .OHMM       : SHORT NORMAL RESISTIVITY FROM EL LOG
SPR1ED.MV         : SPONTANEOUS POTENTIAL FROM IL LOG [ADJ. TO SPRED]
SPR2ED.MV         : SPONTANEOUS POTENTIAL FROM LL LOG
SPRED .MV         : SPONTANEOUS POTENTIAL FROM EL LOG
SPWS  .MV         : SPONTANEOUS POTENTIAL [SPR1ED SPL. TO SPRED @644']
SRESWS.OHMM       : SHALLOW RESISTIVITY [SNED]
~Params ----------------------------------------------------
PD  .                        : PERMANENT DATUM
EPD .FT                    0 : ELEVATION PERMANENT DATUM
LMF .                     KB : LOG MEASURED FROM
DAPD.FT                    0 : FEET ABOVE PERMANENT DATUM
DMF .                     KB : DRILLING MEASURED FROM
EKB .FT                 3297 : KELLY BUSHING
EDF .FT                    0 : DRILLING FLOOR
EGL .FT                    0 : GROUND LEVEL
DATE.               12/28/57 : RUN DATE
RUN .                      4 : RUN NUMBER
DD  .FT                12492 : DEPTH DRILLER
DL  .FT                12492 : DEPTH LOGGER
BLI .FT                12491 : BOTTOM LOG INTERVAL
TLI .FT                 8904 : TOP LOG INTERVAL
CS  .IN                    0 : CASING SIZE
CBD .FT                  616 : CASING BOTTOM DRILLER
CBL .FT                  616 : CASING BOTTOM LOGGER
BS  .IN                    9 : BIT SIZE
BSD .FT                12492 : BIT SIZE AT DEPTH
DFT .               OIL EMUL : DRILLING FLUID TYPE
DFD .                   10.7 : DRILLING FLUID DENSITY
DFV .                    140 : DRILLING FLUID VISCOSITY
DFPH.                     13 : DRILLING FLUID PH
DFL .                    3.6 : DRILLING FLUID LOSS
MSS .                        : MUD SAMPLE SOURCE
RMS .OHMM                1.1 : RESISTIVITY MUD SAMPLE
MST .DEGF                 50 : MUD SAMPLE TEMPERATURE
RMF .OHMM                  0 : RESISTIVITY MUD FILTRATE SAMPLE
MFST.DEGF                  0 : MUD FILTRATE SAMPLE TEMPERATURE
RMC .OHMM                  0 : RESISTIVITY MUD CAKE
MCST.DEGF                  0 : MUD CAKE SAMPLE TEMPERATURE
MFSS.                        : MUD FILTRATE SAMPLE SOURCE
MCSS.                        : MUD CAKE SAMPLE SOURCE
RMB .OHMM               0.28 : RESISTIVITY MUD AT BHT
TCS .HRS                   3 : TIME CIRCULATED STOPPED
TLAB.HRS                   0 : TIME LOGGER AT BOTTOM
LUN .                   1749 : LOGGING UNIT NUMBER
LUL .                     DV : LOGGING UNIT LOCATION
ENGI.                  GOETZ : RECORDING ENGINEER
WITN.             CHARLESTON : WITNESSED BY
CLNT.                A2DTECH : CLIENT CODE
ORIG.            2" 5" PRINT : ORIGIN OF DATA
UWI .       100162104913W500 : UNIQUE WELL ID
DICO. A2D Technologies, Inc. : DIGITIZING COMPANY
OS  .                        : OTHER SERVICES
PWI .                        : PRIMARY WELL IDENTIFIER
R1  .                        : REMARKS 1
R2  .                        : REMARKS 2
LSRV.                        : LOG MNEMONIC
~Other -----------------------------------------------------
~ASCII -----------------------------------------------------
# ...
 5350.00000    8.07300   12.16690    -999.25   99.67210   10.03290    6.16810  101.77370    -999.25    -999.25   10.03290   10.48250   12.16690   13.16830    -999.25  185.76240  185.76240   12.22570    -999.25    -999.25  -70.01940   -3.09200   12.22570
 5400.00000    -999.25   11.85710    -999.25   78.09530   12.80490    7.14430  117.88100    -999.25    -999.25   12.80490   14.46690   11.85710    -999.25    -999.25  198.67650  198.67650   12.30350    -999.25    -999.25  -70.17510   -3.48850   12.30350
 5450.00000    -999.25   13.00950    -999.25   69.92570   14.30090    6.99940  115.49010    -999.25    -999.25   14.30090   15.36570   13.00950    -999.25    -999.25  189.73370  189.73370   13.65980    -999.25    -999.25  -69.91180   -3.34150   13.65980
 5500.00000    -999.25   11.60270    -999.25   67.68020   14.77620    6.86980  113.35250    -999.25    -999.25   14.77620   17.89120   11.60270    -999.25    -999.25  199.74230  199.74230   14.16800    -999.25    -999.25  -70.78880   -4.36100   14.16800
 5550.00000    -999.25   13.04520    -999.25   65.51660   15.26330    7.25380  119.68850    -999.25    -999.25   15.26330   16.20870   13.04520    -999.25    -999.25  191.04730  191.04730   14.76380    -999.25    -999.25  -69.64580   -3.47720   14.76380
 5600.00000    -999.25   12.83910    -999.25   70.71840   14.14060    7.01830  115.80200    -999.25    -999.25   14.14060   17.00040   12.83910    -999.25    -999.25  199.09210  199.09210   14.55280    -999.25    -999.25  -68.63850   -2.69480   14.55280
 5650.00000    -999.25   13.15970    -999.25   64.61260   15.47690    7.70820  127.18530    -999.25    -999.25   15.47690   16.41560   13.15970    -999.25    -999.25  186.33460  186.33460   14.65120    -999.25    -999.25  -68.64640   -2.77770   14.65120
 5700.00000    -999.25   13.54840    -999.25   50.15420   19.93850    7.10440  117.22260    -999.25    -999.25   19.93850   18.50240   13.54840    -999.25    -999.25  191.78300  191.78300   19.02930    -999.25    -999.25  -67.94850   -2.22950   19.02930
 5750.00000    -999.25   12.24930    -999.25   56.22650   17.78530    7.97320  131.55740    -999.25    -999.25   17.78530   18.14850   12.24930    -999.25    -999.25  185.62400  185.62400   16.69210    -999.25    -999.25  -66.92680   -1.00530   16.69210
 5800.00000    -999.25   13.57900    -999.25   57.21180   17.47890    6.38640  105.37480    -999.25    -999.25   17.47890   20.76320   13.57900    -999.25    -999.25  190.75740  190.75740   15.15680    -999.25    -999.25  -67.32930   -2.05600   15.15680
 5850.00000    -999.25   13.24970    -999.25   81.96180   12.20080    7.09750  117.10880    -999.25    -999.25   12.20080   15.18200   13.24970    -999.25    -999.25  188.43280  188.43280   11.08540    -999.25    -999.25  -68.05300   -2.99750   11.08540
 5900.00000    -999.25   14.07310    -999.25  104.61160    9.55950    6.35980  104.93670    -999.25    -999.25    9.55950   13.94370   14.07310    -999.25    -999.25  186.38290  186.38290   10.42100    -999.25    -999.25  -69.38720   -4.35450   10.42100
 5950.00000    -999.25   14.74390    -999.25  102.82140    9.72560    5.90530   97.43750    -999.25    -999.25    9.72560   11.49450   14.74390    -999.25    -999.25  183.99330  183.99330   10.11890    -999.25    -999.25  -69.76540   -4.98280   10.11890
 6000.00000    -999.25   13.57190    -999.25   99.28890   10.07220    6.02910   99.48010    -999.25    -999.25   10.07220   11.22470   13.57190    -999.25    -999.25  183.39910  183.39910   10.70510    -999.25    -999.25  -69.86680   -5.31890   10.70510
 6050.00000    -999.25   14.73980    -999.25   95.45900   10.47570    6.31240  104.15380    -999.25    -999.25   10.47570   10.97590   14.73980    -999.25    -999.25  199.89570  199.89570    9.97970    -999.25    -999.25  -67.71800   -3.33990    9.97970
 6100.00000    -999.25    6.60850    -999.25   84.75510   11.79870    6.44310  106.31120    -999.25    -999.25   11.79870   12.52580    6.60850    -999.25    -999.25  200.25880  200.25880   11.26420    -999.25    -999.25  -68.63060   -4.39760   11.26420
 6150.00000    -999.25   14.02690    -999.25  129.42930    7.72690    7.04890  116.30690    -999.25    -999.25    7.72690   11.97690   14.02690    -999.25    -999.25  192.69710  192.69710    9.61660    -999.25    -999.25  -68.41190   -4.52120    9.61660
 6200.00000    -999.25   14.79060    -999.25  105.69930    9.46080    6.81070  112.37650    -999.25    -999.25    9.46080   13.46700   14.79060    4.88410    -999.25  182.69330  182.69330   10.00950    -999.25    -999.25  -68.46330   -4.60520   10.00950
 6250.00000    -999.25   14.76160  152.55000  102.43090    9.76350    6.51910  107.56430    8.34840    -999.25    9.76350   12.69560   14.76160    4.52300    -999.25  186.55820  186.55820    9.97550    -999.25    -999.25  -69.05040   -5.42320    9.97550
 6300.00000    -999.25   14.77130  155.92870  118.82130    8.41600    7.40930  122.25430    8.12670    -999.25    8.41600    9.84550   14.77130    5.57470    -999.25  183.95290  183.95290    9.00410    -999.25    -999.25  -69.22950   -5.74670    9.00410
 6350.00000    -999.25   14.74020  114.19570   65.53380   15.25930    6.61310  109.11620   13.07170    -999.25   15.25930   14.61050   14.74020    4.04310    -999.25  200.08940  200.08940   14.05380    -999.25    -999.25  -69.42780   -6.20150   14.05380
 6400.00000    -999.25   14.73090  129.67910   75.04400   13.32580    7.02890  115.97690   10.76530    -999.25   13.32580   14.47480   14.73090    3.71400    -999.25  194.55500  194.55500   12.43430    -999.25    -999.25  -67.12920   -3.91440   12.43430
 6450.00000    -999.25   11.29950   87.86960   41.08720   24.33850    6.37000  105.10500   21.15190    -999.25   24.33850   30.45360   11.29950    5.67550    -999.25  218.44910  218.44910   22.68680    -999.25    -999.25  -68.31270   -5.32640   22.68680
 6500.00000    -999.25   12.74740  105.97730   66.67670   14.99780    6.53110  107.76240   15.07560    -999.25   14.99780   17.37080   12.74740    4.04760    -999.25  198.58970  198.58970   16.17540    -999.25    -999.25  -68.64110   -6.29570   16.17540
 6550.00000    -999.25   13.53510  111.43370   71.35370   14.01470    6.09040  100.49160   13.57490    -999.25   14.01470   15.12130   13.53510    -999.25    -999.25  183.32080  183.32080   15.13390    -999.25    -999.25  -68.41210   -6.31950   15.13390
 6600.00000    -999.25   14.41780  123.73690   71.43270   13.99920    6.81470  112.44260   11.63090    -999.25   13.99920   13.61870   14.41780    -999.25    -999.25  181.65860  181.65860   13.18590    -999.25    -999.25  -67.84230   -6.07260   13.18590
 6650.00000    -999.25   13.42830    -999.25   80.84800   12.36890    7.19900  118.78350    -999.25    -999.25   12.36890   13.52670   13.42830    -999.25    -999.25  187.73580  187.73580   11.95270    -999.25    -999.25  -66.00840   -4.64690   11.95270
 6700.00000    -999.25   14.73560    -999.25   77.12780   12.96550    6.69510  110.46920    -999.25    -999.25   12.96550   12.25490   14.73560    -999.25    -999.25  197.58830  197.58830   11.48020    -999.25    -999.25  -64.60560   -3.77690   11.48020
 6750.00000    -999.25   14.76300    -999.25   82.01540   12.19350    6.26210  103.32430    -999.25    -999.25   12.19350   12.21840   14.76300    -999.25    -999.25  182.18540  182.18540   10.22160    -999.25    -999.25  -66.46000   -5.87540   10.22160
 6800.00000    -999.25   13.41970    -999.25   47.37900   21.10640    7.04500  116.24170    -999.25    -999.25   21.10640   20.24600   13.41970    -999.25    -999.25  193.39000  193.39000   21.20890    -999.25    -999.25  -65.14430   -4.83710   21.20890
 6850.00000    -999.25   14.47680    -999.25   53.43940   18.71280    7.36220  121.47630    -999.25    -999.25   18.71280   15.27350   14.47680    -999.25    -999.25  187.75610  187.75610   15.26340    -999.25    -999.25  -63.72010   -3.70680   15.26340
 6900.00000    -999.25   14.74340    -999.25   52.08770   19.19840    6.89940  113.84010    -999.25    -999.25   19.19840   18.45250   14.74340    -999.25    -999.25  180.19670  180.19670   16.95480    -999.25    -999.25  -61.87170   -2.20580   16.95480
