~Version ---------------------------------------------------
VERS.      2.0 : CWLS log ASCII Standard -VERSION 2.0
WRAP.       NO : One line per depth step
CREA. 10/24/17 : LAS Creation Date
~Well ------------------------------------------------------
STRT.FT                        500.0 : START DEPTH
STOP.FT                       6350.0 : STOP DEPTH
STEP.FT                     50.00000 : STEP LENGTH
NULL.                        -999.25 : NULL VALUE
COMP.         CALIFORNIA STANDARD CO : COMPANY
WELL. CALSTAN WEST CDN CAMAO 16-20-5 : WELL
FLD .                                : FIELD
LOC .                                : LOCATION
CTRY.                         CANADA : COUNTRY
SRVC.                        Unknown : SERVICE COMPANY
DATE.                    01-Jan-1960 : LOGDATE
PROV.                        Alberta : PROVINCE
UWI .               100162005425W400 : UNIQUE WELL ID
SLAT.WGS84                  53.68524 : SURFACE LATITUDE
SLON.WGS84                 -113.6417 : SURFACE LONGITUDE
~Curve Information -----------------------------------------
DEPT  .FT         : Depth Curve
CALMED.IN         : CALIPER FROM MICROLOG
CALWS .IN         : CALIPER [CALMED]
CILDED.MMHO       : CONDUCTIVITY FROM RESISTIVITY LOG
CONDWS.MMHO       : CONDUCTIVITY [CILDED]
DRESWS.OHMM       : DEEP RESISTIVITY [ILDED]
DTED  .US/F       : DELTA TIME FROM SONIC LOG
DTWS  .US/F       : DELTA TIME [DTED]
GRSED .UgRa-Eq/T  : GAMMA RAY FROM SONIC LOG
GRWS  .GAPI       : GAMMA RAY [GRSED*16.5]
ILDED .OHMM       : INDUCTION LOG DEEP RESISTIVITY
SNED  .OHMM       : 16 INCH SHORT NORMAL RESISTIVITY FROM IEL
SPRED .MV         : SPONTANEOUS POTENTIAL FROM RESISTIVITY LOG
SPWS  .MV         : SPONTANEOUS POTENTIAL [BASELINE 0 MV] [SPRED]
SRESWS.OHMM       : SHALLOW RESISTIVITY [SNED]
~Params ----------------------------------------------------
LMF .                     KB : LOG MEASURED FROM
DMF .                     KB : DRILLING MEASURED FROM
EKB .FT                 2268 : KELLY BUSHING
EGL .FT                 2255 : GROUND LEVEL
DATE.               01/01/60 : RUN DATE
RUN .                      1 : RUN NUMBER
DD  .FT                 6370 : DEPTH DRILLER
DL  .FT                 6376 : DEPTH LOGGER
BLI .FT                 6375 : BOTTOM LOG INTERVAL
TLI .FT                  611 : TOP LOG INTERVAL
CBD .FT                  611 : CASING BOTTOM DRILLER
CBL .FT                  611 : CASING BOTTOM LOGGER
BS  .IN                    9 : BIT SIZE
BSD .FT                 6370 : BIT SIZE AT DEPTH
DFT .                    GEL : DRILLING FLUID TYPE
DFD .                   10.4 : DRILLING FLUID DENSITY
DFV .                     77 : DRILLING FLUID VISCOSITY
DFPH.                    9.5 : DRILLING FLUID PH
DFL .                    9.6 : DRILLING FLUID LOSS
RMS .OHMM                2.9 : RESISTIVITY MUD SAMPLE
MST .DEGF                 46 : MUD SAMPLE TEMPERATURE
RMF .OHMM                1.2 : RESISTIVITY MUD FILTRATE SAMPLE
MFST.DEGF                 52 : MUD FILTRATE SAMPLE TEMPERATURE
RMC .OHMM                1.0 : RESISTIVITY MUD CAKE
MCST.DEGF                 58 : MUD CAKE SAMPLE TEMPERATURE
RMB .OHMM                0.9 : RESISTIVITY MUD AT BHT
TCS .HRS                 2.5 : TIME CIRCULATED STOPPED
LUN .                   1574 : LOGGING UNIT NUMBER
LUL .                    EDM : LOGGING UNIT LOCATION
ENGI.                  CAMUS : RECORDING ENGINEER
WITN.                BORWICK : WITNESSED BY
CLNT.                A2DTECH : CLIENT CODE
ORIG.            2" 5" PRINT : ORIGIN OF DATA
UWI .       100162005425W400 : UNIQUE WELL ID
DICO. A2D Technologies, Inc. : DIGITIZING COMPANY
~Other -----------------------------------------------------
~ASCII -----------------------------------------------------
  500.00000    -999.25    -999.25    -999.25    -999.25    -999.25    -999.25    -999.25    2.56510   42.32420    -999.25    -999.25    -999.25    -999.25    -999.25
  550.00000    -999.25    -999.25    -999.25    -999.25    -999.25    -999.25    -999.25    2.90930   48.00350    -999.25    -999.25    -999.25    -999.25    -999.25
  600.00000    -999.25    -999.25    -999.25    -999.25    -999.25    -999.25    -999.25    3.22130   53.15140    -999.25    -999.25    -999.25    -999.25    -999.25
  650.00000   15.86980   15.86980  216.54780  216.54780    4.92970  128.49960  128.49960    3.17360   52.36440    4.92970    3.94770  -28.08790   -3.49080    3.94770
  700.00000   15.09480   15.09480  172.80700  172.80700    5.72940  129.03850  129.03850    4.38380   72.33270    5.72940    4.09800  -30.67460   -6.01500    4.09800
  750.00000    9.64790    9.64790  118.18780  118.18780    8.44710  115.87740  115.87740    3.22450   53.20430    8.44710    6.85800  -50.62990  -25.90850    6.85800
  800.00000   10.06380   10.06380  108.21070  108.21070   10.07470  114.67830  114.67830    3.33330   54.99940   10.07470    8.10930  -57.45130  -32.66780    8.10930
  850.00000    9.58250    9.58250  119.35620  119.35620    8.11300  118.33090  118.33090    3.51430   57.98510    8.11300    5.85000  -40.48600  -15.64010    5.85000
  900.00000   13.36670   13.36670  146.17740  146.17740    7.66300  118.66180  118.66180    4.47030   73.76000    7.66300    5.17760  -36.90950  -12.00180    5.17760
  950.00000   14.24570   14.24570  164.11200  164.11200    5.93300  138.34600  138.34600    3.66260   60.43290    5.93300    4.40820  -35.08960  -10.11940    4.40820
 1000.00000   12.23550   12.23550  128.07150  128.07150    8.38720  111.86950  111.86950    3.74390   61.77430    8.38720    6.13180  -37.03450  -12.00250    6.13180
 1050.00000   14.51660   14.51660  194.42830  194.42830    5.54480  117.97730  117.97730    3.93430   64.91590    5.54480    3.89390  -35.73360  -10.63950    3.89390
 1100.00000   11.63240   11.63240  156.51030  156.51030    6.26020  124.75640  124.75640    4.08590   67.41740    6.26020    4.39930  -34.92880   -9.77230    4.39930
 1150.00000   10.69860   10.69860  151.30440  151.30440    6.39040  146.93990  146.93990    3.47530   57.34240    6.39040    6.42360  -42.20490  -16.98650    6.42360
 1200.00000    9.22790    9.22790  128.79370  128.79370    7.49970  118.57110  118.57110    3.45900   57.07430    7.49970    6.76280  -53.47770  -28.19690    6.76280
 1250.00000   10.85800   10.85800  196.86350  196.86350    5.30120  116.85010  116.85010    3.45380   56.98770    5.30120    4.12060  -37.67300  -12.33040    4.12060
 1300.00000   12.57220   12.57220  167.31050  167.31050    6.51700  110.23200  110.23200    4.17150   68.82980    6.51700    4.38120  -34.77370   -9.36900    4.38120
 1350.00000   12.49270   12.49270  183.07530  183.07530    5.44930  134.06640  134.06640    4.41350   72.82270    5.44930    4.67950  -34.68160   -9.21440    4.67950
 1400.00000   10.22640   10.22640  134.62370  134.62370    7.28610  151.25900  151.25900    3.60210   59.43470    7.28610    6.82740  -41.14680  -15.61780    6.82740
 1450.00000   13.63720   13.63720  197.29680  197.29680    5.09570  117.30570  117.30570    4.17480   68.88420    5.09570    4.27920  -35.48500   -9.89360    4.27920
 1500.00000   11.86920   11.86920  170.51530  170.51530    5.89970  112.19900  112.19900    4.01410   66.23270    5.89970    5.11810  -38.17960  -12.52640    5.11810
 1550.00000   13.26780   13.26780  202.60910  202.60910    4.97380  113.23270  113.23270    4.36750   72.06370    4.97380    4.38380  -35.19540   -9.48000    4.38380
 1600.00000   13.46470   13.46470  178.42540  178.42540    5.58920  117.54010  117.54010    4.75030   78.38000    5.58920    4.73920  -36.13010  -10.35230    4.73920
 1650.00000   13.30480   13.30480  166.71630  166.71630    6.07360  111.33600  111.33600    4.63430   76.46590    6.07360    5.00790  -35.93090  -10.09130    5.00790
 1700.00000   14.05560   14.05560  110.45500  110.45500    9.25280  105.10890  105.10890    5.92410   97.74760    9.25280    6.75470  -44.55470  -18.65270    6.75470
 1750.00000    -999.25    -999.25  111.17000  111.17000    9.00490  106.95370  106.95370    6.03860   99.63690    9.00490    6.62120  -43.64810  -17.68420    6.62120
 1800.00000    -999.25    -999.25  112.06920  112.06920    8.97540  107.01550  107.01550    6.71480  110.79420    8.97540    6.68880  -44.08210  -18.05610    6.68880
 1850.00000    -999.25    -999.25  134.47940  134.47940    7.33990  109.77550  109.77550    6.28200  103.65300    7.33990    6.00340  -43.26640  -17.17800    6.00340
 1900.00000    -999.25    -999.25  134.50210  134.50210    7.36550  112.47640  112.47640    6.82970  112.69010    7.36550    6.09560  -43.68070  -17.53050    6.09560
 1950.00000    -999.25    -999.25  131.41820  131.41820    7.51490  112.89820  112.89820    7.21870  119.10770    7.51490    6.74380  -39.76310  -13.55040    6.74380
 2000.00000    -999.25    -999.25  106.24460  106.24460   10.07120  109.17250  109.17250   10.99740  181.45710   10.07120    9.22140  -30.83140   -4.82240    9.22140
 2050.00000    -999.25    -999.25  127.71200  127.71200    7.84630  113.54490  113.54490    8.21550  135.55580    7.84630    7.07810  -36.56400  -11.06990    7.07810
 2100.00000    -999.25    -999.25  136.19920  136.19920    7.29200  114.59230  114.59230    7.24240  119.49960    7.29200    6.57320  -38.45290  -13.47620    6.57320
 2150.00000    -999.25    -999.25  122.03160  122.03160    8.15170  116.98830  116.98830    7.45190  122.95640    8.15170    6.97540  -39.14060  -14.67630    6.97540
 2200.00000    -999.25    -999.25  123.57650  123.57650    8.07020  103.44910  103.44910    6.25920  103.27600    8.07020    6.93820  -39.06940  -15.12260    6.93820
 2250.00000    -999.25    -999.25  107.14130  107.14130    9.57670   99.95860   99.95860    5.71290   94.26290    9.57670    7.30070  -43.07480  -19.64030    7.30070
 2300.00000    -999.25    -999.25  116.98610  116.98610    8.68650  103.35050  103.35050    6.03110   99.51320    8.68650    6.92620  -41.96360  -19.04400    6.92620
 2350.00000    -999.25    -999.25  102.23990  102.23990   10.32090   97.58260   97.58260    5.88720   97.13880   10.32090    7.27110  -44.64890  -22.24680    7.27110
 2400.00000    -999.25    -999.25  111.94860  111.94860    8.95860  104.73660  104.73660    6.62640  109.33560    8.95860    6.72850  -45.65040  -23.76060    6.72850
 2450.00000    -999.25    -999.25  115.74260  115.74260    8.68920  100.20750  100.20750    7.09140  117.00730    8.68920    6.72150  -37.66820  -16.29590    6.72150
 2500.00000    -999.25    -999.25  148.54890  148.54890    6.61910  112.72190  112.72190    6.50020  107.25330    6.61910    5.80710  -35.75580  -14.89580    5.80710
 2550.00000    -999.25    -999.25  115.52330  115.52330    8.74220  103.73200  103.73200    6.58690  108.68390    8.74220    7.66460  -31.52110  -11.17600    7.66460
 2600.00000    -999.25    -999.25   91.40800   91.40800   11.96790   97.79460   97.79460    6.41730  105.88540   11.96790   11.19820  -31.39790  -11.57030   11.19820
 2650.00000    9.28380    9.28380   77.09340   77.09340   12.68630  105.76520  105.76520    8.06470  133.06760   12.68630   14.49350  -28.87810   -9.56290   14.49350
 2700.00000   10.40240   10.40240  127.32280  127.32280    7.60240  115.00880  115.00880    8.87480  146.43340    7.60240    8.56350  -29.01970  -10.22190    8.56350
 2750.00000   10.01050   10.01050  106.89490  106.89490    9.58010  106.62130  106.62130    8.58870  141.71360    9.58010    9.82740  -24.76860   -6.48320    9.82740
 2800.00000   10.72010   10.72010  138.07530  138.07530    7.24360  108.79200  108.79200   10.77130  177.72650    7.24360    7.95730  -20.96090   -3.05220    7.95730
 2850.00000   12.13410   12.13410  237.43870  237.43870    3.92350  113.69090  113.69090    7.85670  129.63470    3.92350    4.24420  -21.79290   -3.53370    4.24420
 2900.00000   15.10640   15.10640  254.90200  254.90200    3.85130  102.34840  102.34840    6.46750  106.71380    3.85130    3.31530  -29.25510  -10.64900    3.31530
