~Version ---------------------------------------------------
VERS.      2.0 : CWLS log ASCII Standard -VERSION 2.0
WRAP.       NO : One line per depth step
CREA. 11/03/17 : LAS Creation Date
~Well ------------------------------------------------------
STRT.FT                            1500.0 : START DEPTH
STOP.FT                           10400.0 : STOP DEPTH
STEP.FT                          50.00000 : STEP LENGTH
NULL.                             -999.25 : NULL VALUE
COMP.                CHEVRON STANDARD LTD : COMPANY
WELL. CHEVRON ET AL HEAVYSOUND 3-25-61-17 : WELL
FLD .                                     : FIELD
LOC .                                     : LOCATION
CTRY.                              CANADA : COUNTRY
SRVC.                        Schlumberger : SERVICE COMPANY
DATE.                         27-Nov-1977 : LOGDATE
PROV.                             Alberta : PROVINCE
UWI .                    100032506117W500 : UNIQUE WELL ID
SLAT.WGS84                       54.30091 : SURFACE LATITUDE
SLON.WGS84                       -116.419 : SURFACE LONGITUDE
~Curve Information -----------------------------------------
DEPT    .FT    : Depth Curve
CALDED  .IN    : CALIPER FROM DENSITY LOG [ADJ. TO RESISTIVITY LOG]
CALSED  .IN    : CALIPER FROM SONIC LOG [ADJ. TO RESISTIVITY LOG]
CALWS   .IN    : CALIPER [CALSED SPL. TO CALDED @ 9702']
CONDWS  .MMHO  : CONDUCTIVITY [1000/DRESWS]
DCORWS  .G/C3  : DENSITY CORRECTION [DRHOED]
DENWS   .G/C3  : FORMATION BULK DENSITY [RHOBED]
DPHILSED.V/V   : DENSITY POROSITY LIMESTONE [M=2.71, F=1.00] FROM DENSITY LOG [ADJ. TO RESISTIVITY LOG]
DPHISSED.V/V   : DENSITY POROSITY SANDSTONE [M=2.65, F=1.00] FROM DENSITY LOG [ADJ. TO RESISTIVITY LOG]
DPOLSWS .V/V   : DENSITY POROSITY LIMESTONE [CALC FROM DENWS,M=2.71, F=1.00]
DRESWS  .OHMM  : DEEP RESISTIVITY [ILDED]
DRHOED  .G/C3  : BULK DENSITY CORRECTION FROM DENSITY LOG [ADJ. TO RESISTIVITY LOG]
DTED    .US/F  : DELTA-T FROM SONIC LOG [ADJ. TO RESISTIVITY LOG]
DTWS    .US/F  : COMPRESSIONAL SONIC [DTED]
GRDED   .GAPI  : GAMMA RAY FROM DENSITY LOG [ADJ. TO RESISTIVITY LOG]
GRNED   .GAPI  : GAMMA RAY FROM GRN LOG [ADJ. TO RESISTIVITY LOG]
GRSED   .GAPI  : GAMMA RAY FROM SONIC LOG [ADJ. TO RESISTIVITY LOG]
GRWS    .GAPI  : GAMMA RAY [GRSED]
ILDED   .OHMM  : DEEP  INDUCTION RESISTIVITY FROM RESISTIVITY LOG
ILMED   .OHMM  : MEDIUM INDUCTION RESISTIVITY FROM RESISTIVITY LOG
LL8ED   .OHMM  : LATEROLOG 8 RESISTIVITY FROM RESISTIVITY LOG
MRESWS  .OHMM  : MEDIUM RESISTIVITY [ILMED]
NEUTED  .NAPI  : NEUTRON FROM GRN LOG [ADJ. TO RESISTIVITY LOG]
NEUTWS  .NAPI  : NEUTRON [NEUTED]
NPHILSED.V/V   : NEUTRON POROSITY LIMESTONE FROM DENSITY LOG [ADJ. TO RESISTIVITY LOG]
NPHISSED.V/V   : NEUTRON POROSITY SANDSTONE FROM DENSITY LOG [ADJ. TO RESISTIVITY LOG]
NPOLSWS .V/V   : NEUTRON POROSITY LIMESTONE [NPHISSED MATRIX  CONVERSION FOR LIMESTONE & SPL. TO NPHILSED @ 9702']
RHOBED  .G/C3  : BULK DENSITY FROM DENSITY LOG [ADJ. TO RESISTIVITY LOG]
SPRED   .MV    : SPONTANEOUS POTENTIAL FROM RESISTIVITY LOG
SPWS    .MV    : SPONTANEOUS POTENTIAL [BASELINE 0 MV,SPRED]
SRESWS  .OHMM  : SHALLOW RESISTIVITY [LL8ED]
TENDED  .LBF   : TENSION FROM DENSITY LOG [ADJ. TO RESISTIVITY LOG]
TENSED  .LBF   : TENSION FROM SONIC LOG [ADJ. TO RESISTIVITY LOG]
~Params ----------------------------------------------------
PD  .                     GL : PERMANENT DATUM
EPD .FT                 3014 : ELEVATION PERMANENT DATUM
LMF .                     KB : LOG MEASURED FROM
DAPD.FT                   19 : FEET ABOVE PERMANENT DATUM
EKB .FT                 3033 : KELLY BUSHING
EGL .FT                 3014 : GROUND LEVEL
DATE.               11/27/77 : RUN DATE
RUN .                      1 : RUN NUMBER
DD  .FT                10428 : DEPTH DRILLER
DL  .FT                10435 : DEPTH LOGGER
BLI .FT                10429 : BOTTOM LOG INTERVAL
TLI .FT                 1501 : TOP LOG INTERVAL
CS  .IN                9.625 : CASING SIZE
CBD .FT                 1500 : CASING BOTTOM DRILLER
CBL .FT                 1501 : CASING BOTTOM LOGGER
DFT .                GEL OIL : DRILLING FLUID TYPE
DFD .                    9.1 : DRILLING FLUID DENSITY
DFV .                     83 : DRILLING FLUID VISCOSITY
MSS .               FLOWLINE : MUD SAMPLE SOURCE
RMS .OHMM               1.69 : RESISTIVITY MUD SAMPLE
MST .DEGF                 60 : MUD SAMPLE TEMPERATURE
RMF .OHMM               1.11 : RESISTIVITY MUD FILTRATE SAMPLE
MFST.DEGF                 54 : MUD FILTRATE SAMPLE TEMPERATURE
TCS .HRS                   4 : TIME CIRCULATED STOPPED
LUN .                   7670 : LOGGING UNIT NUMBER
LUL .                    EDM : LOGGING UNIT LOCATION
ENGI.                   DALY : RECORDING ENGINEER
WITN.     RICHARDSON SPRAGUE : WITNESSED BY
CLNT.                A2DTECH : CLIENT CODE
ORIG.            2" 5" PRINT : ORIGIN OF DATA
UWI .       100032506117W500 : UNIQUE WELL ID
DICO. A2D Technologies, Inc. : DIGITIZING COMPANY
~Other -----------------------------------------------------
DIL-CNFD-BHC-GRN LOG RUN
~ASCII -----------------------------------------------------
# ...
 5900.00000   11.34830   10.34790   10.34790   64.76010   -0.00090    2.60280    -999.25    0.03490    0.06270   15.44160   -0.00090   63.71130   63.71130   46.05470   20.56610   44.52970   44.52970   15.44160   20.47130   34.04060   20.47130  682.28480  682.28480    -999.25    0.13800    0.09360    2.60280 -171.85380  -34.07890   34.04060 1293.43630 1972.50280
 5950.00000   10.57690    9.89800    9.89800   90.08280    0.01010    2.45040    -999.25    0.12930    0.15180   11.10090    0.01010   74.31050   74.31050   56.63900   19.47410   53.38430   53.38430   11.10090   13.31120   19.00470   13.31120  387.22900  387.22900    -999.25    0.20780    0.15650    2.45040 -176.08980  -39.00390   19.00470 1311.54780 1908.52210
 6000.00000   10.59630   10.21280   10.21280  122.62570    0.08270    2.49990    -999.25    0.09400    0.12290    8.15490    0.08270   71.68200   71.68200   62.50370   36.81840   61.40520   61.40520    8.15490    9.49470   12.92690    9.49470  341.43340  341.43340    -999.25    0.23990    0.18740    2.49990 -152.46480  -16.06780   12.92690 1348.37710 1958.56120
 6050.00000   10.92210   10.25500   10.25500   87.63730    0.04560    2.66140    -999.25   -0.00580    0.02840   11.41130    0.04560   72.85380   72.85380   92.53770   34.56920   90.16140   90.16140   11.41130   12.06920   13.67260   12.06920  383.85320  383.85320    -999.25    0.25540    0.20280    2.66140 -138.61100   -2.92680   13.67260 1307.23780 1822.62960
 6100.00000   11.36860   10.69550   10.69550  108.32010    0.06970    2.55550    -999.25    0.06000    0.09040    9.23190    0.06970   68.85680   68.85680   85.41420   36.83560   80.62860   80.62860    9.23190    9.49080   12.70800    9.49080  420.89590  420.89590    -999.25    0.29200    0.24040    2.55550 -136.83750   -1.97320   12.70800 1340.38430 1871.86010
 6150.00000   11.59070   10.61610   10.61610  130.58240    0.16000    2.31920    -999.25    0.18490    0.22850    7.65800    0.16000   74.88970   74.88970   96.45630   34.46700   82.08630   82.08630    7.65800    8.24480   11.11620    8.24480  223.20160  223.20160    -999.25    0.28650    0.23460    2.31920 -135.80210   -1.75360   11.11620 1314.69920 1850.81120
 6200.00000   11.48770   11.29300   11.29300   68.93080    0.02550    2.54190    -999.25    0.06580    0.09830   14.50730    0.02550   73.66200   73.66200   52.80830   30.76770   47.77900   47.77900   14.50730   14.92710   21.66890   14.92710  300.53360  300.53360    -999.25    0.21030    0.15890    2.54190 -173.28680  -40.67780   21.66890 1336.95200 1867.74200
 6250.00000    9.17720    8.80170    8.80170   55.51550    0.05680    2.40110    -999.25    0.14360    0.18070   18.01300    0.05680   69.40520   69.40520   33.26470   17.03110   29.23530   29.23530   18.01300   29.09160   27.01920   29.09160  645.94580  645.94580    -999.25    0.15320    0.10670    2.40110 -193.75660  -62.77350   27.01920 1328.13460 1911.18790
 6300.00000   10.87980   10.09530   10.09530  149.18150    0.10840    2.42870    -999.25    0.14770    0.16450    6.70410    0.10840   71.28990   71.28990   67.94980   30.26170   68.77880   68.77880    6.70410    9.62480   15.97020    9.62480  419.61920  419.61920    -999.25    0.22790    0.17570    2.42870 -207.69460  -78.32920   15.97020 1433.40240 1913.25080
 6350.00000   14.55760   12.90690   12.90690  258.43130    0.09990    1.84610    -999.25    0.45740    0.50520    3.86950    0.09990   97.20000   97.20000   90.50620   35.21770   92.86430   92.86430    3.86950    4.10560    5.38780    4.10560  140.39660  140.39660    -999.25    0.57820    0.55240    1.84610 -132.28290   -4.55140    5.38780 1572.95320 1986.80630
 6400.00000   15.40650   12.74390   12.74390  212.59860    0.16440    1.90650    -999.25    0.45210    0.46990    4.70370    0.16440   92.57560   92.57560  101.10810   41.82480   92.66260   92.66260    4.70370    5.03300    6.96440    5.03300  166.58670  166.58670    -999.25    0.47100    0.43360    1.90650 -132.14160   -6.03590    6.96440 1278.53490 1969.46440
 6450.00000    -999.25   11.64640   11.64640  132.66820    -999.25    -999.25    -999.25    -999.25    -999.25    7.53760    -999.25   87.29350   87.29350    -999.25    -999.25   97.31410   97.31410    7.53760    8.44630   10.95040    8.44630    -999.25    -999.25    -999.25    -999.25    -999.25    -999.25 -134.74590  -10.26600   10.95040    -999.25 2044.28580
 6500.00000    -999.25   10.50520   10.50520  112.65700    -999.25    -999.25    -999.25    -999.25    -999.25    8.87650    -999.25   76.54570   76.54570    -999.25    -999.25   78.50920   78.50920    8.87650   10.14920   14.93400   10.14920    -999.25    -999.25    -999.25    -999.25    -999.25    -999.25 -134.08640  -11.08080   14.93400    -999.25 2076.54930
 6550.00000    9.62610    9.25970    9.25970   18.29540    -999.25    -999.25    -999.25    -999.25    -999.25   56.87100    -999.25   71.34000   71.34000  242.83820    -999.25  230.32950  230.32950   56.87100   67.52330   83.62590   67.52330    -999.25    -999.25    -999.25    -999.25    -999.25    -999.25 -140.41270  -18.33090   83.62590    -999.25 2044.88390
 6600.00000   10.08220    9.77660    9.77660   25.13640    0.00170    2.49870    -999.25    0.08150    0.12360   39.78300    0.00170   68.81540   68.81540  109.38390    -999.25  165.54400  165.54400   39.78300   42.38710   60.57290   42.38710    -999.25    -999.25    -999.25    0.24630    0.19370    2.49870 -153.12810  -31.97940   60.57290 1355.29880 2403.06600
 6650.00000   10.26090    9.90250    9.90250   54.88440   -0.00270    2.61830    -999.25    0.01510    0.05360   18.22010   -0.00270   64.45050   64.45050  109.42880    -999.25   90.26250   90.26250   18.22010   19.34810   24.21550   19.34810    -999.25    -999.25    -999.25    0.13280    0.08930    2.61830 -132.84160  -12.62130   24.21550 1342.49530 2387.80590
 6700.00000    9.16360    8.44910    8.44910  476.25850    0.02350    2.44810    -999.25    0.12420    0.15320    2.09970    0.02350   68.73370   68.73370   55.91170    -999.25   56.21580   56.21580    2.09970    3.81040   16.55210    3.81040    -999.25    -999.25    -999.25    0.25130    0.19870    2.44810 -235.48710 -116.19520   16.55210 1293.81160 1408.38820
 6750.00000   10.39640    9.94490    9.94490   38.62500    0.00090    2.57520    -999.25    0.03840    0.07880   25.89000    0.00090   50.63340   50.63340   30.33400    -999.25   24.42860   24.42860   25.89000   27.64430   47.55700   27.64430    -999.25    -999.25    -999.25    0.10930    0.06970    2.57520 -161.06900  -42.70550   47.55700 1361.75350 1522.72210
 6800.00000    -999.25    9.76920    9.76920  113.79700    -999.25    -999.25    -999.25    -999.25    -999.25    8.79880    -999.25   57.63370   57.63370    -999.25    -999.25   38.30190   38.30190    8.79880    9.68620   33.70520    9.68620    -999.25    -999.25    -999.25    -999.25    -999.25    -999.25 -153.55110  -36.11140   33.70520    -999.25 1580.82350
 6850.00000    -999.25    9.91310    9.91310   30.67850    -999.25    -999.25    -999.25    -999.25    -999.25   32.59610    -999.25   53.45520   53.45520    -999.25    -999.25   42.94750   42.94750   32.59610   47.68420   82.47920   47.68420    -999.25    -999.25    -999.25    -999.25    -999.25    -999.25 -161.63660  -45.13000   82.47920    -999.25 1612.34100
 6900.00000    -999.25    9.61270    9.61270   46.08020    -999.25    -999.25    -999.25    -999.25    -999.25   21.70130    -999.25   53.77320   53.77320    -999.25    -999.25   13.24220   13.24220   21.70130   24.44000   77.04070   24.44000    -999.25    -999.25    -999.25    -999.25    -999.25    -999.25 -184.13780  -68.55960   77.04070    -999.25 1499.68350
 6950.00000    -999.25    9.34150    9.34150   58.92270    -999.25    -999.25    -999.25    -999.25    -999.25   16.97140    -999.25   54.08370   54.08370    -999.25    -999.25   16.76190   16.76190   16.97140   28.75320  100.78700   28.75320    -999.25    -999.25    -999.25    -999.25    -999.25    -999.25 -236.39380 -121.74400  100.78700    -999.25 1465.45210
