~Version ---------------------------------------------------
VERS.      2.0 : CWLS log ASCII Standard -VERSION 2.0
WRAP.       NO : One line per depth step
CREA. 01/03/18 : LAS Creation Date
~Well ------------------------------------------------------
STRT.FT                          300.0 : START DEPTH
STOP.FT                         7500.0 : STOP DEPTH
STEP.FT                       50.00000 : STEP LENGTH
NULL.                          -999.25 : NULL VALUE
COMP.             IMPERIAL OIL LIMITED : COMPANY
WELL.  IMP-BAYSEL RIVERDALE 1-27-60-26 : WELL
FLD .                                  : FIELD
LOC .                                  : LOCATION
CTRY.                           CANADA : COUNTRY
SRVC. Schlumberger Well Surveying Corp : SERVICE COMPANY
DATE.                      11-Feb-1956 : LOGDATE
PROV.                          Alberta : PROVINCE
UWI .                 100012706026W400 : UNIQUE WELL ID
SLAT.WGS84                    54.21217 : SURFACE LATITUDE
SLON.WGS84                   -113.8027 : SURFACE LONGITUDE
~Curve Information -----------------------------------------
DEPT  .FT     : Depth Curve
CALWS .IN     : CALIPER [MCALED]
CONDWS.MMHO   : CONDUCTIVITY [1000/DRESWS]
DRESWS.OHMM   : DEEP RESISTIVITY [MERGED LNED/LL7ED AT 5848']
GRNED .MR/HR  : GAMMA RAY FROM GRN LOG
GRWS  .GAPI   : GAMMA RAY [GRNED] CONVERTED SCALE *10.4API
LL7ED .OHMM   : LATEROLOG 7
LNED  .OHMM   : 64 INCH LONG NORMAL RESISTIVITY FROM IEL
LT18ED.OHMM   : 18 FOOT 8 INCH LATERAL RESISTIVITY FROM EL LOG
MCALED.IN     : MICROCALIPER
NEUTED.CU     : NEUTRON FROM NEUTRON LOG [DEPTH ADJ TO RESISTIVITY]
NEUTWS.CU     : NEUTRON [NEUTED]
SNED  .OHMM   : 16 INCH SHORT NORMAL RESISTIVITY FROM IEL
SPRED .MV     : SPONTANEOUS POTENTIAL FROM RESISTIVITY LOG
SPWS  .MV     : SPONTANEOUS POTENTIAL [BASELINE 0 MV] [SPRED]
SRESWS.OHMM   : SHALLOW RESISTIVITY [SNED]
~Params ----------------------------------------------------
LMF .                     KB : LOG MEASURED FROM
DMF .                     KB : DRILLING MEASURED FROM
EKB .FT               2132.6 : KELLY BUSHING
EGL .FT               2118.5 : GROUND LEVEL
DATE.               02/11/56 : RUN DATE
RUN .                      1 : RUN NUMBER
DD  .FT                 7518 : DEPTH DRILLER
DL  .FT                 7519 : DEPTH LOGGER
BLI .FT                 7516 : BOTTOM LOG INTERVAL
TLI .FT                 5700 : TOP LOG INTERVAL
CBD .FT                  616 : CASING BOTTOM DRILLER
CBL .FT                  614 : CASING BOTTOM LOGGER
BS  .IN                    9 : BIT SIZE
BSD .FT                 7518 : BIT SIZE AT DEPTH
DFT .               GYP BASE : DRILLING FLUID TYPE
DFD .                   10.2 : DRILLING FLUID DENSITY
DFV .                    108 : DRILLING FLUID VISCOSITY
DFL .                    4.2 : DRILLING FLUID LOSS
MSS .               FLOWLINE : MUD SAMPLE SOURCE
RMS .OHMM               0.14 : RESISTIVITY MUD SAMPLE
MST .DEGF                 51 : MUD SAMPLE TEMPERATURE
RMB .OHMM                0.5 : RESISTIVITY MUD AT BHT
TCS .HRS                  12 : TIME CIRCULATED STOPPED
LUN .                   2794 : LOGGING UNIT NUMBER
LUL .                    EDM : LOGGING UNIT LOCATION
ENGI.                  JAMES : RECORDING ENGINEER
WITN.                  BLAND : WITNESSED BY
CLNT.                A2DTECH : CLIENT CODE
ORIG.            2" 5" PRINT : ORIGIN OF DATA
UWI .       100012706026W400 : UNIQUE WELL ID
DICO. A2D Technologies, Inc. : DIGITIZING COMPANY
~Other -----------------------------------------------------
~ASCII -----------------------------------------------------
# ...
 4900.00000    -999.25  206.13880    4.85110   10.39130  108.06950    -999.25    4.85110    5.14090    -999.25  171.40160  171.40160    5.15800  -42.16900  -10.57950    5.15800
 4950.00000    -999.25  134.85220    7.41600   10.15180  105.57920    -999.25    7.41600   23.62580    -999.25  282.30110  282.30110    5.73780  -44.99760  -13.69940    5.73780
 5000.00000    -999.25  196.58340    5.08690    9.50470   98.84890    -999.25    5.08690    5.58010    -999.25  337.17500  337.17500    4.31260  -54.00040  -22.99060    4.31260
 5050.00000    -999.25  168.98740    5.91760    9.30480   96.76990    -999.25    5.91760    5.60360    -999.25  303.45690  303.45690    5.55530  -38.50280   -7.78280    5.55530
 5100.00000    8.97840    9.57330  104.45770    2.74340   28.53140    -999.25  104.45770   15.03430    8.97840 1065.78750 1065.78750   62.99320  -72.52760  -42.09750   62.99320
 5150.00000    9.02400   24.33960   41.08530    6.22780   64.76910    -999.25   41.08530   87.64540    9.02400  485.84780  485.84780   27.29240  -39.42450   -9.28420   27.29240
 5200.00000    9.17940   50.79440   19.68760    6.07630   63.19350    -999.25   19.68760   21.90980    9.17940  452.58390  452.58390   17.13740  -32.88850   -3.03950   17.13740
 5250.00000    8.94800    8.88520  112.54690    1.80650   18.78760    -999.25  112.54690  240.04660    8.94800  695.62260  695.62260   58.44650  -86.68410  -57.12350   58.44650
 5300.00000    9.04890   47.16270   21.20320    8.95950   93.17880    -999.25   21.20320    6.08830    9.04890   32.67240   32.67240   12.19130  -36.47550   -7.20470   12.19130
 5350.00000    8.96260    9.11810  109.67150    2.15040   22.36420    -999.25  109.67150  218.13750    8.96260  840.61110  840.61110   53.94390  -89.04880  -60.06780   53.94390
 5400.00000    9.03140    8.84940  113.00190    3.63360   37.78940    -999.25  113.00190   22.04390    9.03140  619.82280  619.82280   58.99240  -53.02760  -24.33650   58.99240
 5450.00000    9.13180   46.08380   21.70050    5.79910   60.31010    -999.25   21.70050   44.11990    9.13180  287.84350  287.84350   17.07750  -26.37340    2.02640   17.07750
 5500.00000    -999.25   68.36440   14.62750    6.74700   70.16880    -999.25   14.62750   13.83070    -999.25  436.85880  436.85880   13.06040  -23.14750    4.96390   13.06040
 5550.00000    8.96120    9.67420  103.36810    2.01800   20.98720    -999.25  103.36810   17.83120    8.96120 1158.17870 1158.17870   64.39980  -56.58560  -28.76400   64.39980
 5600.00000    8.93490   40.69210   24.57480    7.42350   77.20440    -999.25   24.57480   36.31120    8.93490  725.00950  725.00950   21.39530  -37.43350   -9.90170   21.39530
 5650.00000    -999.25   32.41750   30.84750    6.31660   65.69260    -999.25   30.84750   36.59960    -999.25  868.73390  868.73390   27.38570  -40.17640  -12.93450   27.38570
 5700.00000    -999.25  163.12840    6.13130   10.80740  112.39640    5.03770    6.13130    7.47740    -999.25  327.84530  327.84530    6.87200  -31.11120   -4.16060    6.87200
 5750.00000    -999.25   22.30930   44.82440    3.86670   40.21370   53.47310   44.82440   19.43040    -999.25  791.55100  791.55100   31.10820  -30.48430   -3.82200   31.10820
 5800.00000    8.95930   65.02420   15.37890    7.23810   75.27620   18.52730   15.37890  148.60180    8.95930  840.64750  840.64750   20.38520  -40.33580  -13.74890   20.38520
 5850.00000    -999.25  135.03110    7.40570    9.18690   95.54380    7.40570    7.80020    2.52390    -999.25  612.96060  612.96060    5.42060  -62.81110  -36.22420    5.42060
 5900.00000    -999.25  176.49450    5.66590    8.95380   93.11950    5.66590    -999.25    -999.25    -999.25  281.12320  281.12320    -999.25    -999.25    -999.25    -999.25
 5950.00000    -999.25   72.63060   14.24970    7.26170   75.52170   14.24970    -999.25    -999.25    -999.25  522.78000  522.78000    -999.25    -999.25    -999.25    -999.25
 6000.00000    -999.25  160.60640    6.22640   12.57990  130.83100    6.22640    -999.25    -999.25    -999.25  307.60900  307.60900    -999.25    -999.25    -999.25    -999.25
 6050.00000    -999.25  145.23910    6.88520    8.00180   83.21870    6.88520    -999.25    -999.25    -999.25  330.97060  330.97060    -999.25    -999.25    -999.25    -999.25
 6100.00000    -999.25  138.66930    7.21140   11.03840  114.79940    7.21140    -999.25    -999.25    -999.25  384.13680  384.13680    -999.25    -999.25    -999.25    -999.25
 6150.00000    -999.25  100.74960    9.92560    2.28810   23.79620    9.92560    -999.25    -999.25    -999.25  768.58450  768.58450    -999.25    -999.25    -999.25    -999.25
 6200.00000    -999.25   91.56960   10.92330   10.22730  106.36390   10.92330    -999.25    -999.25    -999.25  389.51800  389.51800    -999.25    -999.25    -999.25    -999.25
 6250.00000    -999.25   95.77720   10.44090    8.25840   85.88740   10.44090    -999.25    -999.25    -999.25  608.85420  608.85420    -999.25    -999.25    -999.25    -999.25
 6300.00000    -999.25   14.22810   70.28340    3.20650   33.34760   70.28340    -999.25    -999.25    -999.25 1099.13810 1099.13810    -999.25    -999.25    -999.25    -999.25
 6350.00000    -999.25   53.83960   18.57370    6.84470   71.18490   18.57370    -999.25    -999.25    -999.25  846.65170  846.65170    -999.25    -999.25    -999.25    -999.25
 6400.00000    -999.25   68.93790   14.50580    9.34130   97.14950   14.50580    -999.25    -999.25    -999.25  798.30610  798.30610    -999.25    -999.25    -999.25    -999.25
 6450.00000    -999.25   18.64320   53.65260    5.87400   61.08910   53.65260    -999.25    -999.25    -999.25  904.50030  904.50030    -999.25    -999.25    -999.25    -999.25
 6500.00000    -999.25    1.96880  507.91790    8.79620   91.48050  507.91790    -999.25    -999.25    -999.25 1078.13490 1078.13490    -999.25    -999.25    -999.25    -999.25
 6550.00000    -999.25   16.84400   59.36820    4.54510   47.26900   59.36820    -999.25    -999.25    -999.25 1099.79850 1099.79850    -999.25    -999.25    -999.25    -999.25
 6600.00000    -999.25   13.27380   75.33640    3.75540   39.05620   75.33640    -999.25    -999.25    -999.25  781.53950  781.53950    -999.25    -999.25    -999.25    -999.25
 6650.00000    -999.25   24.91870   40.13050    8.21720   85.45890   40.13050    -999.25    -999.25    -999.25  727.82010  727.82010    -999.25    -999.25    -999.25    -999.25
 6700.00000    -999.25   13.84440   72.23160    7.29950   75.91530   72.23160    -999.25    -999.25    -999.25  880.42390  880.42390    -999.25    -999.25    -999.25    -999.25
 6750.00000    -999.25   13.17230   75.91660    8.05780   83.80110   75.91660    -999.25    -999.25    -999.25 1045.00230 1045.00230    -999.25    -999.25    -999.25    -999.25
 6800.00000    -999.25   39.63980   25.22720   11.22180  116.70670   25.22720    -999.25    -999.25    -999.25  779.31710  779.31710    -999.25    -999.25    -999.25    -999.25
 6850.00000    -999.25  155.83610    6.41700   12.88040  133.95620    6.41700    -999.25    -999.25    -999.25  531.58230  531.58230    -999.25    -999.25    -999.25    -999.25
 6900.00000    -999.25  105.33190    9.49380   13.30400  138.36160    9.49380    -999.25    -999.25    -999.25  673.26970  673.26970    -999.25    -999.25    -999.25    -999.25
 6950.00000    -999.25  253.90360    3.96040   10.71180  111.40300    3.96040    -999.25    -999.25    -999.25  452.10990  452.10990    -999.25    -999.25    -999.25    -999.25
 7000.00000    -999.25   87.89740   11.37690   11.99670  124.76570   11.37690    -999.25    -999.25    -999.25  441.85850  441.85850    -999.25    -999.25    -999.25    -999.25
 7050.00000    -999.25  176.22390    5.67460   11.06000  115.02350    5.67460    -999.25    -999.25    -999.25  416.96430  416.96430    -999.25    -999.25    -999.25    -999.25
 7100.00000    -999.25  162.28500    6.16200   10.56570  109.88330    6.16200    -999.25    -999.25    -999.25  434.21520  434.21520    -999.25    -999.25    -999.25    -999.25
 7150.00000    -999.25  117.58900    8.50420   12.86000  133.74400    8.50420    -999.25    -999.25    -999.25  345.28600  345.28600    -999.25    -999.25    -999.25    -999.25
