~Version ---------------------------------------------------
VERS.      2.0 : CWLS log ASCII Standard -VERSION 2.0
WRAP.       NO : One line per depth step
CREA. 09/22/17 : LAS Creation Date
~Well ------------------------------------------------------
STRT.FT                1200.0 : START DEPTH
STOP.FT               10800.0 : STOP DEPTH
STEP.FT              50.00000 : STEP LENGTH
NULL.                 -999.25 : NULL VALUE
COMP. SUN OIL COMPANY LIMITED : COMPANY
WELL. BEC ROSEVEAR 6-34-54-15 : WELL
FLD .                         : FIELD
LOC .                         : LOCATION
CTRY.                  CANADA : COUNTRY
SRVC.  Schlumberger of Canada : SERVICE COMPANY
DATE.             25-Mar-1971 : LOGDATE
PROV.                 Alberta : PROVINCE
UWI .        100063405415W500 : UNIQUE WELL ID
SLAT.WGS84           53.70553 : SURFACE LATITUDE
SLON.WGS84          -116.1304 : SURFACE LONGITUDE
~Curve Information -----------------------------------------
DEPT   .FT    : Depth Curve
CALIED .IN    : CALIPER FROM SNP LOG [ADJ. TO RESISTIVITY LOG]
CALSED .IN    : CALIPER FROM SONIC LOG [ADJ. TO RESISTIVITY LOG]
CALWS  .IN    : CALIPER [CALSED]
CILDED .MMHO  : CONDUCTIVITY FROM RESISTIVITY LOG
CONDWS .MMHO  : CONDUCTIVITY [1000/DRESWS]
DRESWS .OHMM  : DEEP RESISTIVITY [1000/CILDED IF ILDED<=5, ILDED]
DTED   .US/F  : DELTA T FROM SONIC LOG [ADJ. TO RESISTIVITY LOG]
DTWS   .US/F  : COMPRESSIONAL SONIC [DTED]
GRED   .GAPI  : GAMMA RAY FROM SNP LOG [ADJ. TO RESISTIVITY LOG]
GRNED  .GAPI  : GAMMA RAY NEUTRON FROM GRN LOG [ADJ. TO RESISTIVITY LOG]
GRSED  .GAPI  : GAMMA RAY FROM SONIC LOG [ADJ. TO RESISTIVITY LOG]
GRWS   .GAPI  : GAMMA RAY [GRSED SPL. TO GRNED @ 10735']
ILDED  .OHMM  : DEEP INDUCTION FROM RESISTIVITY LOG
ILMED  .OHMM  : MEDIUM INDUCTION FROM RESISTIVITY LOG
LL8ED  .OHMM  : LATEROLOG 8' FROM RESISTIVITY LOG
MRESWS .OHMM  : MEDIUM RESISTIVITY [ILMED]
NEUTED .NAPI  : NEUTRON FROM GRN LOG [ADJ. TO RESISTIVITY LOG]
NEUTWS .NAPI  : NEUTRON [NEUTED]
NPOLSWS.V/V   : NEUTRON POROSITY LIMESTONE [SNPLSED]
SNED   .OHMM  : SHORT NORMAL FROM RESISTIVITY LOG
SNPLSED.V/V   : SIDEWALL NEUTRON POROSITY LIMESTONE FROM SNP LOG [ADJ. TO RESISTIVITY LOG]
SPRED  .MV    : SPONTANEOUS POTENTIAL FROM RESISTIVITY LOG
SPWS   .MV    : SPONTANEOUS POTENTIAL [BASELINE 0 MV, SPRED]
SRESWS .OHMM  : SHALLOW RESISTIVITY [SNED SPL. TO LL8ED @ 4794']
~Params ----------------------------------------------------
PD  .                     GL : PERMANENT DATUM
EPD .FT               2803.5 : ELEVATION PERMANENT DATUM
LMF .                     KB : LOG MEASURED FROM
DAPD.FT                 15.5 : FEET ABOVE PERMANENT DATUM
EKB .FT                 2819 : KELLY BUSHING
EGL .FT               2803.5 : GROUND LEVEL
DATE.               03/25/71 : RUN DATE
RUN .                      1 : RUN NUMBER
DD  .FT                10590 : DEPTH DRILLER
DL  .FT                10587 : DEPTH LOGGER
BLI .FT                10581 : BOTTOM LOG INTERVAL
TLI .FT                 1243 : TOP LOG INTERVAL
CBD .FT                 1243 : CASING BOTTOM DRILLER
CBL .FT                 1243 : CASING BOTTOM LOGGER
BS  .IN                 8.75 : BIT SIZE
BSD .FT                10590 : BIT SIZE AT DEPTH
DFT .                    GEL : DRILLING FLUID TYPE
DFD .                   11.1 : DRILLING FLUID DENSITY
DFV .                    127 : DRILLING FLUID VISCOSITY
DFPH.                     10 : DRILLING FLUID PH
DFL .                      6 : DRILLING FLUID LOSS
MSS .                   CIRC : MUD SAMPLE SOURCE
RMS .OHMM               1.34 : RESISTIVITY MUD SAMPLE
MST .DEGF                 68 : MUD SAMPLE TEMPERATURE
RMF .OHMM               0.95 : RESISTIVITY MUD FILTRATE SAMPLE
MFST.DEGF                 50 : MUD FILTRATE SAMPLE TEMPERATURE
RMC .OHMM               1.98 : RESISTIVITY MUD CAKE
MCST.DEGF                 52 : MUD CAKE SAMPLE TEMPERATURE
RMB .OHMM               0.32 : RESISTIVITY MUD AT BHT
TCS .HRS                   4 : TIME CIRCULATED STOPPED
LUN .                   5628 : LOGGING UNIT NUMBER
ENGI.               PUOURSON : RECORDING ENGINEER
WITN.                 BAANUT : WITNESSED BY
CLNT.                A2DTECH : CLIENT CODE
ORIG.            2" 5" PRINT : ORIGIN OF DATA
UWI .       100063405415W500 : UNIQUE WELL ID
DICO. A2D Technologies, Inc. : DIGITIZING COMPANY
~Other -----------------------------------------------------
DIL-GRN-SNP-BCS LOG RAN.
~ASCII -----------------------------------------------------
# ...
 8450.00000   13.32590   10.40580   10.40580    -999.25    0.63080 1585.28850   49.69590   49.69590   11.94200    -999.25   15.82310   15.82310 1585.28850  152.67370  415.95830  152.67370    -999.25    -999.25    0.21300    -999.25    0.21300 -101.22810  -71.51860  415.95830
 8500.00000   11.29460    9.41510    9.41510    -999.25    0.88520 1129.63590   50.46560   50.46560    7.99750    -999.25   12.40230   12.40230 1129.63590  169.07050  273.34990  169.07050    -999.25    -999.25    0.02800    -999.25    0.02800 -113.28580  -83.32570  273.34990
 8550.00000   13.72630   10.60410   10.60410    -999.25    0.66240 1509.75100   54.02540   54.02540    8.86210    -999.25   14.60760   14.60760 1509.75100  116.96670  329.00620  116.96670    -999.25    -999.25    0.13130    -999.25    0.13130 -113.38850  -83.17960  329.00620
 8600.00000   13.21690   10.63450   10.63450    -999.25    3.02270  330.83130   50.81760   50.81760    9.71790    -999.25   17.08120   17.08120  330.83130  180.38730  155.59720  180.38730    -999.25    -999.25    0.29170    -999.25    0.29170  -99.98240  -69.52190  155.59720
 8650.00000   16.20640   10.30660   10.30660    -999.25    0.64750 1544.43620   51.69540   51.69540   11.44780    -999.25   18.78240   18.78240 1544.43620 1268.09940  467.07110 1268.09940    -999.25    -999.25    0.20680    -999.25    0.20680 -104.59780  -73.88860  467.07110
 8700.00000   13.49060    9.53780    9.53780    -999.25    1.19570  836.33440   51.62080   51.62080    8.80350    -999.25   12.32070   12.32070  836.33440   72.75440  275.19000   72.75440    -999.25    -999.25    0.08100    -999.25    0.08100 -102.40210  -71.44120  275.19000
 8750.00000   13.00110    9.99670    9.99670    -999.25    9.73070  102.76760   51.20160   51.20160   11.76060    -999.25   18.69620   18.69620  102.76760   68.78360  102.99160   68.78360    -999.25    -999.25    0.11540    -999.25    0.11540 -111.83650  -80.62500  102.99160
 8800.00000   10.24370    9.41420    9.41420    -999.25    6.65150  151.11240   50.06540   50.06540    7.52280    -999.25   12.97440   12.97440  151.11240  219.16450  317.09570  219.16450    -999.25    -999.25    0.01780    -999.25    0.01780 -124.53840  -93.07820  317.09570
 8850.00000   10.63800    9.41850    9.41850    -999.25    0.66190 1510.87590   48.25240   48.25240   10.90870    -999.25   15.26660   15.26660 1510.87590 1386.06150 1665.34310 1386.06150    -999.25    -999.25    0.01460    -999.25    0.01460  -83.59440  -51.88260 1665.34310
 8900.00000   12.37970    9.40000    9.40000    -999.25    0.65080 1536.72210   49.21080   49.21080   14.49410    -999.25   21.00160   21.00160 1536.72210 1436.73620 1663.58120 1436.73620    -999.25    -999.25    0.06460    -999.25    0.06460  -89.27660  -57.93650 1663.58120
 8950.00000   13.79960    9.98750    9.98750    -999.25    6.25650  159.83250   52.96680   52.96680   15.02330    -999.25   23.20720   23.20720  159.83250  106.25730  133.36700  106.25730    -999.25    -999.25    0.18560    -999.25    0.18560  -92.50170  -62.76230  133.36700
 9000.00000   14.44380    9.89410    9.89410    -999.25    3.91510  255.41880   50.62720   50.62720   14.68510    -999.25   34.49040   34.49040  255.41880  117.06640   92.94950  117.06640    -999.25    -999.25    0.22370    -999.25    0.22370  -67.41540  -39.26870   92.94950
 9050.00000   14.37640   10.23190   10.23190    -999.25   15.85120   63.11130   52.53540   52.53540   17.02300    -999.25   23.95720   23.95720   63.11130   85.28920   61.92350   85.28920    -999.25    -999.25    0.19160    -999.25    0.19160  -69.00610  -42.44420   61.92350
 9100.00000   11.06690    9.48840    9.48840    -999.25   14.02460   71.30350   53.44300   53.44300   23.92640    -999.25   31.68610   31.68610   71.30350   77.41090   95.20210   77.41090    -999.25    -999.25    0.05690    -999.25    0.05690  -29.33070   -4.36940   95.20210
 9150.00000   10.21260    9.34820    9.34820    -999.25   26.52100   37.70930   55.49540   55.49540   26.90880    -999.25   45.10450   45.10450   37.70930   44.43150   52.20750   44.43150    -999.25    -999.25    0.04210    -999.25    0.04210  -34.83260  -10.07340   52.20750
 9200.00000   10.48470    9.67070    9.67070    -999.25   73.93930   13.52460   62.57530   62.57530   35.61470    -999.25   60.99400   60.99400   13.52460   15.84690   19.16830   15.84690    -999.25    -999.25    0.11450    -999.25    0.11450  -39.37790  -14.82300   19.16830
 9250.00000   10.50930    9.36350    9.36350    -999.25   50.33020   19.86880   58.06310   58.06310   27.82120    -999.25   49.33730   49.33730   19.86880   24.02480   27.85920   24.02480    -999.25    -999.25    0.05320    -999.25    0.05320  -40.71710  -16.36530   27.85920
 9300.00000   10.44460    9.35480    9.35480    -999.25   57.68550   17.33730   60.25300   60.25300   31.53920    -999.25   53.49990   53.49990   17.33730   20.56520   25.77760   20.56520    -999.25    -999.25    0.06500    -999.25    0.06500  -37.55080  -13.40120   25.77760
 9350.00000   14.13600   12.35240   12.35240    -999.25  187.06270    5.34580   81.78880   81.78880   44.82320    -999.25   75.37430   75.37430    5.34580    4.92160    6.82230    4.92160    -999.25    -999.25    0.50630    -999.25    0.50630  -51.56360  -27.61820    6.82230
 9400.00000   10.38670    9.35160    9.35160    -999.25   30.61870   32.69810   67.52690   67.52690   50.50030    -999.25   80.58470   80.58470   32.69810   36.26420   45.66110   36.26420    -999.25    -999.25    0.12880    -999.25    0.12880  -35.62380  -11.88050   45.66110
 9450.00000   11.01780    9.91120    9.91120    -999.25   65.32830   15.30730   66.35090   66.35090   45.48110    -999.25   70.15130   70.15130   15.30730   16.16020   24.11410   16.16020    -999.25    -999.25    0.17200    -999.25    0.17200  -32.92810  -10.20420   24.11410
 9500.00000   13.28510   11.89140   11.89140    -999.25  176.51630    5.66520   79.61150   79.61150   47.98660    -999.25   79.29740   79.29740    5.66520    5.44570    7.32620    5.44570    -999.25    -999.25    0.46300    -999.25    0.46300  -28.76930  -10.77680    7.32620
 9550.00000   11.04800    9.48960    9.48960    -999.25   44.73150   22.38310   62.59320   62.59320   48.78490    -999.25   71.86510   71.86510   22.38310   24.17400   30.21720   24.17400    -999.25    -999.25    0.13320    -999.25    0.13320  -16.27960   -2.99490   30.21720
 9600.00000   11.95530    9.55320    9.55320    -999.25   73.61710   13.58380   66.46940   66.46940   56.76410    -999.25   85.09470   85.09470   13.58380   16.75770   20.10010   16.75770    -999.25    -999.25    0.18620    -999.25    0.18620  -25.18920  -16.65960   20.10010
 9650.00000   10.74810    9.61090    9.61090    -999.25   73.27680   13.64690   64.90930   64.90930   48.15710    -999.25   77.29030   77.29030   13.64690   16.39090   20.18720   16.39090    -999.25    -999.25    0.15340    -999.25    0.15340  -15.57350  -11.75170   20.18720
 9700.00000   10.68830    9.40450    9.40450    -999.25   69.20220   14.45040   65.18360   65.18360   47.16580    -999.25   77.69050   77.69050   14.45040   17.16840   21.32040   17.16840    -999.25    -999.25    0.12240    -999.25    0.12240  -16.48340  -17.41670   21.32040
 9750.00000   11.55930   10.05890   10.05890    -999.25  103.10980    9.69840   71.29820   71.29820   60.30990    -999.25  101.36820  101.36820    9.69840   11.20930   13.96570   11.20930    -999.25    -999.25    0.22110    -999.25    0.22110  -25.42060  -30.98590   13.96570
 9800.00000   10.34060    9.36410    9.36410    -999.25   66.64690   15.00490   65.66900   65.66900   51.09560    -999.25   88.95850   88.95850   15.00490   17.67510   23.17150   17.67510    -999.25    -999.25    0.10980    -999.25    0.10980  -25.38820  -32.36240   23.17150
 9850.00000   11.20870    9.92470    9.92470    -999.25  102.87640    9.72040   69.30580   69.30580   51.20120    -999.25   85.87660   85.87660    9.72040   11.30460   14.51950   11.30460    -999.25    -999.25    0.23170    -999.25    0.23170  -31.03810  -39.43560   14.51950
