~Version ---------------------------------------------------
VERS. 2.0 : CWLS log ASCII Standard -VERSION 2.0
WRAP.  NO : ONE LINE PER DEPTH STEP
~Well ------------------------------------------------------
STRT.M                        300.0 : START DEPTH
STOP.M                       3400.0 : STOP DEPTH
STEP.M                     50.00000 : STEP LENGTH
NULL.                       -999.25 : NULL VALUE
COMP. AMOCO CANADA PETROLEUM CO LTD : COMPANY
WELL.    AMOCO HB PEMBINA 7-1-48-10 : WELL
FLD .                               : FIELD
LOC .                               : LOCATION
CTRY.                        CANADA : COUNTRY
SRVC.                       Unknown : SERVICE COMPANY
DATE.                   18-Dec-1980 : LOGDATE
PROV.                       Alberta : PROVINCE
UWI .              100070104810W500 : UNIQUE WELL ID
SLAT.WGS84                 53.11174 : SURFACE LATITUDE
SLON.WGS84                -115.3255 : SURFACE LONGITUDE
~Curve Information -----------------------------------------
DEPT   .M      : 
GRS    .GAPI   : GAMMA RAY FROM SONIC LOG
CALS   .MM     : CALIPER FROM SONIC LOG
DT     .US/M   : DELTA TIME FROM SONIC LOG
DRHO   .KG/M3  : DENSITY CORRECTION
RHOB   .KG/M3  : BULK DENSITY
GRD    .GAPI   : GAMMA RAY FROM DENSITY LOG
NPHI_SS.DEC    : NEUTRON POROSITY SANDSTONE
CALD   .MM     : CALIPER FROM DENSITY LOG
DPHI_SS.DEC    : DENSITY POROSITY SANDSTONE
NPHI_LS.DEC    : NEUTRON POROSITY LIMESTONE
DPHI_LS.DEC    : DENSITY POROSITY LIMESTONE
ILM    .OHMM   : INDUCTION MEDIUM RESISTIVITY
SPR    .MV     : SPONTANEOUS POTENTIAL FROM RESISTIVITY LOG
SFL    .OHMM   : SHALLOW FOCUSED LOG
ILD    .OHMM   : DEEP INDUCTION RESISTIVITY
~Params ----------------------------------------------------
PD  .                                 GL : PERMANENT DATUM
EPD .M                            904.78 : ELEVATION PERMANENT DATUM
LMF .                                 KB : LOG MEASURED FROM
DAPD.M                              7.57 : FEET ABOVE PERMANENT DATUM
DMF .                                 KB : DRILLING MEASURED FROM
EKB .M                            912.35 : KELLY BUSHING
EGL .M                            904.78 : GROUND LEVEL
DATE.                           12/18/80 : RUN DATE
RUN .                                  2 : RUN NUMBER
DD  .M                              3430 : DEPTH DRILLER
DL  .M                              3432 : DEPTH LOGGER
BLI .M                              3431 : BOTTOM LOG INTERVAL
TLI .M                              2758 : TOP LOG INTERVAL
CS  .MM                              244 : CASING SIZE
CBD .M                              2760 : CASING BOTTOM DRILLER
CBL .M                              2758 : CASING BOTTOM LOGGER
BS  .MM                              216 : BIT SIZE
BSD .M                              3430 : BIT SIZE AT DEPTH
DFT .                          GEL BENEX : DRILLING FLUID TYPE
DFD .                               1100 : DRILLING FLUID DENSITY
DFV .                                 74 : DRILLING FLUID VISCOSITY
DFPH.                                 10 : DRILLING FLUID PH
DFL .                                 10 : DRILLING FLUID LOSS
MSS .                           FLOWLINE : MUD SAMPLE SOURCE
RMS .OHMM                           1.49 : RESISTIVITY MUD SAMPLE
MST .DEGC                           23.3 : MUD SAMPLE TEMPERATURE
RMF .OHMM                           1.26 : RESISTIVITY MUD FILTRATE SAMPLE
MFST.DEGC                           22.2 : MUD FILTRATE SAMPLE TEMPERATURE
RMC .OHMM                            1.2 : RESISTIVITY MUD CAKE
MCST.DEGC                           22.2 : MUD CAKE SAMPLE TEMPERATURE
MFSS.                              PRESS : MUD FILTRATE SAMPLE SOURCE
RMB .OHMM                           0.64 : RESISTIVITY MUD AT BHT
TCS .HRS                             800 : TIME CIRCULATED STOPPED
TLAB.HRS                            2000 : TIME LOGGER AT BOTTOM
LUN .                               8112 : LOGGING UNIT NUMBER
LUL .                              EDSON : LOGGING UNIT LOCATION
ENGI.                              LLOYD : RECORDING ENGINEER
CLNT.                            A2DTECH : CLIENT CODE
ORIG. 5"/100M 6.5"/100M 16.5"/100M PRINT : ORIGIN OF DATA
UWI .                   100070104810W500 : UNIQUE WELL ID
DICO.             A2D Technologies, Inc. : DIGITIZING COMPANY
~Other -----------------------------------------------------
~ASCII -----------------------------------------------------
  300.00000    -999.25    -999.25    -999.25    -999.25    -999.25    -999.25    -999.25    -999.25    -999.25    -999.25    -999.25    -999.25    -999.25    -999.25    -999.25
  350.00000    -999.25    -999.25    -999.25    -999.25    -999.25    -999.25    -999.25    -999.25    -999.25    -999.25    -999.25    -999.25    -999.25    -999.25    -999.25
  400.00000    -999.25    -999.25    -999.25    -999.25    -999.25    -999.25    -999.25    -999.25    -999.25    -999.25    -999.25    -999.25    -999.25    -999.25    -999.25
  450.00000   33.43800    -999.25    -999.25    -999.25    -999.25   34.29480    0.54730    -999.25    -999.25    -999.25    -999.25    -999.25    -999.25    -999.25    -999.25
  500.00000   67.41980  324.50960  394.75600    5.30970 1747.74050   57.52450    0.61800  378.32050    0.57050    -999.25    -999.25   10.47290  -48.09220   44.49500   13.68840
  550.00000   90.89920  308.05600  330.89230   74.68390 2109.75320   86.08850    0.41390  345.81880    0.32910    -999.25    -999.25    6.18730  -68.52060    5.86060    8.31790
  600.00000   53.90910  310.19090  276.26530   31.20370 2385.01760   59.51790    0.27520  319.85720    0.16090    -999.25    -999.25   11.19410  -84.61760   11.72360   13.56600
  650.00000   48.16970  318.99690  239.79930   39.64310 2499.86500   52.40070    0.21860  340.95800    0.08830    -999.25    -999.25   12.65960  -89.01940   10.65250   14.19900
  700.00000   75.00120  322.39360  292.35210   70.34320 2435.60840   77.88840    0.32920  320.61670    0.12920    -999.25    -999.25    5.79330  -83.72070    5.34290    6.85450
  750.00000   77.77410  327.73630  304.94590   55.18540 2445.32620   91.35300    0.38290  322.21030    0.12300    -999.25    -999.25    4.23420  -84.13670    4.36760    5.09450
  800.00000  102.97360  331.33520  320.12020   40.01870 2352.40870  106.82670    0.42940  308.26360    0.18110    -999.25    -999.25    3.17850  -84.52670    3.00690    3.57150
  850.00000   59.66390  325.34590  271.51490   34.15200 2487.02470   66.16780    0.26710  350.42490    0.09740    -999.25    -999.25    5.77370  -89.46830    6.41530    6.51810
  900.00000   75.29370  333.77310  314.44080   41.98700 2439.20700   80.14030    0.42010  367.66760    0.12610    -999.25    -999.25    4.48690  -89.82610    4.15170    5.01760
  950.00000   70.98830  317.77160  282.66490   61.29610 2482.96680   68.10960    0.27740  323.20010    0.10200    -999.25    -999.25    5.90390  -91.78040    5.58560    6.91250
 1000.00000   65.68040  314.08770  263.78980  163.74000 2331.74560   67.46440    0.25910  344.97460    0.18640    -999.25    -999.25    5.46570  -91.33890    6.26490    6.55500
 1050.00000   68.40440  317.72110  270.49460   33.01850 2468.72290   74.61520    0.31430  313.56430    0.11010    -999.25    -999.25    7.70990  -91.69870    6.74810    9.10530
 1100.00000   76.46150  315.91060  296.85490   17.41470 2433.07010   77.38140    0.34210  317.14960    0.13280    -999.25    -999.25    4.10190  -90.00560    3.80140    4.61200
 1150.00000   65.15140  315.68970  250.97470  233.43280 2369.34160   63.77430    0.31510  350.12630    0.17010    -999.25    -999.25    9.79800  -90.82200   12.10870   10.84600
 1200.00000   49.06450  308.48820  254.91070   50.01990 2423.45480   41.45240    0.24120  342.54950    0.13820    -999.25    -999.25   10.51780  -94.61200   11.95290   12.35040
 1250.00000   35.27600  306.33760  253.67050   49.57580 2405.20260   33.93020    0.37920  311.75440    0.14890    -999.25    -999.25   24.46790 -103.67580   28.71650   28.53030
 1300.00000   62.74130  313.12290  337.03770   48.55180 2172.68730   56.01680    0.52600  350.69040    0.28400    -999.25    -999.25    5.65750  -88.78460    5.01690    6.95540
 1350.00000   51.68380  320.23130  278.94890   96.13040 2104.41140   51.37980    0.41570  332.61350    0.32380    -999.25    -999.25    8.53750  -93.77090    7.68570   10.42400
 1400.00000   63.50470  328.84380  270.45100  200.83870 2115.36010   54.65710    0.44700  346.51160    0.32460    -999.25    -999.25    7.33940  -88.59350    6.96840    7.79800
 1450.00000   91.43470  346.69520  269.49140  137.68150 2486.56710   87.59850    0.41690  317.53130    0.09910    -999.25    -999.25    8.74090  -91.90140    8.65120    9.95510
 1500.00000   87.99170  328.43170  268.97250   65.34530 2548.20410   90.04570    0.32020  317.96540    0.06010    -999.25    -999.25   10.13020  -92.28240   10.88580   11.13770
 1550.00000  129.05760  327.70440  288.82540   89.42890 2548.70850  116.38330    0.39200  317.99980    0.06240    -999.25    -999.25   11.76580  -92.45790   14.73390   13.00780
 1600.00000   91.27910  332.65610  261.40940  203.54750 2203.96340   92.88750    0.35430  361.58630    0.27910    -999.25    -999.25    8.27970  -91.68420    8.90780    9.36580
 1650.00000   95.92650  334.42880  266.37870   52.08540 2047.88670   90.17800    0.41450  370.52290    0.35120    -999.25    -999.25    7.25810  -92.92750    7.92660    8.39910
 1700.00000   82.42660  314.07390  245.34830  150.68320 2436.73270   82.01120    0.23330  338.82210    0.12230    -999.25    -999.25   11.71530  -93.92880   12.56040   13.22890
 1750.00000   96.48620  311.85490  253.30000   70.47840 2588.69630   95.17210    0.26430  339.12390    0.03790    -999.25    -999.25   10.01870  -92.64140   10.73330   11.21350
 1800.00000   89.05700  304.97560  257.68980   67.41460 2567.23100  100.20420    0.30530  327.59650    0.04960    -999.25    -999.25    8.98120  -92.40410    9.44980    9.83000
 1850.00000  105.79180  315.26620  274.86380  146.64540 2587.00710  106.32220    0.36470  347.68170    0.03950    -999.25    -999.25   10.90510  -92.00440   12.31790   12.02830
 1900.00000   96.76980  323.43810  292.30050  149.86660 2427.85910  101.44340    0.34750  385.35640    0.13090    -999.25    -999.25   10.41800  -91.33290   14.94290   12.08610
 1950.00000   94.81420  320.94870  268.26600   85.17900 2569.30080   95.38380    0.30050  358.73660    0.04680    -999.25    -999.25    8.41000  -89.95610    9.82780    9.31600
 2000.00000   83.10000  328.98770  302.69970  183.18280 2302.19580   85.60660    0.43760  372.08340    0.19770    -999.25    -999.25    3.63840  -88.03430    3.97450    3.94080
 2050.00000   72.68830  321.18730  250.72100   31.84600 2578.28880   75.69410    0.26020  329.62200    0.03850    -999.25    -999.25    8.33070  -90.41760    9.14450    8.48200
 2100.00000   77.83930  314.37580  228.69210   22.94280 2572.91060   64.23970    0.23720  332.92440    0.04710    -999.25    -999.25   13.19700  -96.68110   14.11960   13.72650
 2150.00000   81.43540  342.81670  321.69770   75.10340 2042.08290   97.61900    0.45870  386.40320    0.36140    -999.25    -999.25   13.21210  -86.67260   99.03510   25.43360
 2200.00000   79.66910  312.41080  231.65930    1.88510 2611.63770   80.19570    0.23110  328.02800    0.02320    -999.25    -999.25   15.70400  -87.53850   19.32550   17.05940
 2250.00000   26.24550  314.93110  204.06260   27.94670 2594.47310   27.01010    0.08480  335.96000    0.03350    0.04590    0.06780   33.66450  -97.01470   74.40650   37.18960
 2300.00000   10.69930  308.10940  185.21370   71.69010 2548.83570   10.22400    0.10640  318.55740    0.06010    0.05660    0.08900   94.93190  -99.18920  216.23180  533.11540
 2350.00000   10.92710  304.43460  165.91720  113.89110 2689.08010   11.72350    0.06740  311.02170   -0.02130    0.07500    0.05600   41.26620 -134.76960  289.39330   31.43780
 2400.00000   55.57390  309.64760  182.62870    6.02300 2698.66460   48.75040    -999.25  323.77210    -999.25    0.16560    0.00560   46.47400  -75.01040   81.57470   77.77440
 2450.00000   22.44490  311.88000  170.42370    5.17000 2711.72680   18.18390    -999.25  328.33670    -999.25    0.05420   -0.00070   83.57710  -94.87410  308.29970  414.75250
 2500.00000   21.67290  310.18250  169.67730   -0.02740 2684.95580   19.48140    -999.25  320.51370    -999.25    0.10560    0.01490  150.14120  -95.37790  284.16160 1811.18850
 2550.00000   16.64540  329.81210  173.10270   12.57100 2714.18040   21.11110    -999.25  315.73190    -999.25    0.02600   -0.00470   21.37960 -144.04630  161.02810   19.78520
