~Version ---------------------------------------------------
VERS.      2.0 : CWLS log ASCII Standard -VERSION 2.0
WRAP.       NO : One line per depth step
CREA. 11/12/18 : LAS Creation Date
~Well ------------------------------------------------------
STRT.FT                      1000.0 : START DEPTH
STOP.FT                     11050.0 : STOP DEPTH
STEP.FT                    50.00000 : STEP LENGTH
NULL.                       -999.25 : NULL VALUE
COMP. HUDSON'S BAY OIL & GAS CO LTD : COMPANY
WELL.   H B UNION KAYBOB 2-19-61-19 : WELL
FLD .                               : FIELD
LOC .                               : LOCATION
CTRY.                        CANADA : COUNTRY
SRVC.        Schlumberger of Canada : SERVICE COMPANY
DATE.                   14-Mar-1958 : LOGDATE
PROV.                       Alberta : PROVINCE
UWI .              100021906119W500 : UNIQUE WELL ID
SLAT.WGS84                 54.28469 : SURFACE LATITUDE
SLON.WGS84                 -116.835 : SURFACE LONGITUDE
~Curve Information -----------------------------------------
DEPT.FT    : Depth Curve
CIL .MMHO  : CONDUCTIVITY INDUCTION LOG
GRN .CPS   : GAMMA RAY
IL  .OHMM  : INDUCTION LOG RESISTIVITY
LL7 .OHMM  : LATEROLOG-7 RES.
NEUT.CPS   : NEUTRON
SN  .OHMM  : SHORT NORMAL 10"
SPR .MV    : SPONTANEOUS POTENTIAL FROM RESISTIVITY
~Params ----------------------------------------------------
LMF .                     KB : LOG MEASURED FROM
DMF .                     KB : DRILLING MEASURED FROM
EKB .FT                 2944 : KELLY BUSHING
EGL .FT               2930.6 : GROUND LEVEL
DATE.               03/14/58 : RUN DATE
RUN .                      1 : RUN NUMBER
DD  .FT                11092 : DEPTH DRILLER
DL  .FT                11092 : DEPTH LOGGER
BLI .FT                11086 : BOTTOM LOG INTERVAL
TLI .FT                 1000 : TOP LOG INTERVAL
CBD .FT                 1000 : CASING BOTTOM DRILLER
CBL .FT                 1000 : CASING BOTTOM LOGGER
BS  .IN                8.625 : BIT SIZE
BSD .FT                11092 : BIT SIZE AT DEPTH
DFT .                    GEL : DRILLING FLUID TYPE
DFD .                  10.21 : DRILLING FLUID DENSITY
DFV .                    195 : DRILLING FLUID VISCOSITY
DFPH.                      9 : DRILLING FLUID PH
DFL .                    6.1 : DRILLING FLUID LOSS
MSS .            CIRCULATION : MUD SAMPLE SOURCE
RMS .OHMM                2.5 : RESISTIVITY MUD SAMPLE
MST .DEGF                 53 : MUD SAMPLE TEMPERATURE
RMF .OHMM                1.5 : RESISTIVITY MUD FILTRATE SAMPLE
MFST.DEGF                 74 : MUD FILTRATE SAMPLE TEMPERATURE
RMC .OHMM                2.2 : RESISTIVITY MUD CAKE
MCST.DEGF                 72 : MUD CAKE SAMPLE TEMPERATURE
MFSS.                   MEAS : MUD FILTRATE SAMPLE SOURCE
MCSS.                   MEAS : MUD CAKE SAMPLE SOURCE
RMB .OHMM               0.52 : RESISTIVITY MUD AT BHT
TCS .HRS                   6 : TIME CIRCULATED STOPPED
LUN .                   1573 : LOGGING UNIT NUMBER
LUL .                     WC : LOGGING UNIT LOCATION
ENGI.                LAVERTY : RECORDING ENGINEER
WITN.                  SMITH : WITNESSED BY
CLNT.                A2DTECH : CLIENT CODE
ORIG.            2" 5" PRINT : ORIGIN OF DATA
UWI .       100021906119W500 : UNIQUE WELL ID
DICO. A2D Technologies, Inc. : DIGITIZING COMPANY
~Other -----------------------------------------------------
~ASCII -----------------------------------------------------
# ...
 5500.00000  102.34930    -999.25    9.81770    -999.25    -999.25   11.74810  -88.47990
 5550.00000  148.90740    -999.25    7.02070    -999.25    -999.25    8.17300  -84.70760
 5600.00000  207.90180    -999.25    5.63270    -999.25    -999.25    6.00250  -88.51320
 5650.00000  161.00210    -999.25    6.57980    -999.25    -999.25    7.84210  -89.78650
 5700.00000  239.58250    -999.25    4.68410    -999.25    -999.25    6.00090  -89.34450
 5750.00000  336.49690    -999.25    3.41010    -999.25    -999.25    4.19260  -87.69180
 5800.00000  182.89620    -999.25    5.74590    -999.25    -999.25    6.61470  -85.70140
 5850.00000  185.28360    -999.25    5.37080    -999.25    -999.25    6.93100  -87.49340
 5900.00000   27.34700    -999.25   38.90310    -999.25    -999.25   36.55540 -110.26020
 5950.00000  123.33990    -999.25    8.12210    -999.25    -999.25    9.39850  -87.48450
 6000.00000  121.25380    -999.25    8.75760    -999.25    -999.25   11.08220  -85.71840
 6050.00000   81.23490    -999.25   12.77550    -999.25    -999.25   16.72590  -88.56850
 6100.00000   69.32020    -999.25   14.62580    -999.25    -999.25   19.47040  -90.98570
 6150.00000   69.88590    -999.25   13.66310    -999.25    -999.25   20.23460  -87.98920
 6200.00000   95.31160    -999.25   10.60000    -999.25    -999.25   15.07280  -86.49050
 6250.00000   66.14160    -999.25   13.97070    -999.25    -999.25   15.80490  -83.76380
 6300.00000    7.54550    -999.25  354.44640    -999.25    -999.25   49.66800  -84.41130
 6350.00000   53.33260    -999.25   17.87100    -999.25    -999.25   24.12450 -103.98080
 6400.00000   68.96260    -999.25   13.75850    -999.25    -999.25   19.81740 -132.95720
 6450.00000   65.69000    -999.25   16.24760    -999.25    -999.25   24.71520 -113.52240
 6500.00000   53.35380    -999.25   19.27920    -999.25    -999.25   22.07150 -122.89790
 6550.00000   82.19950    -999.25   12.80720    -999.25    -999.25   16.01080  -61.59520
 6600.00000   68.14230    -999.25   14.80980    -999.25    -999.25   18.53070  -56.22390
 6650.00000   69.14060    -999.25   14.38410    -999.25    -999.25   16.88750  -26.84020
 6700.00000   85.84090    -999.25   12.17000    -999.25    -999.25   15.28200  -44.90730
 6750.00000   54.57540    -999.25   19.72620    -999.25    -999.25   26.52330  -99.01350
 6800.00000   46.52770    -999.25   20.14470    -999.25    -999.25   19.59680 -108.41090
 6850.00000   55.84250    -999.25   17.12420    -999.25    -999.25   19.56620  -85.06610
 6900.00000   64.41770    -999.25   15.03950    -999.25    -999.25   16.96870  -66.85720
 6950.00000  219.68190    -999.25    5.15050    -999.25    -999.25    6.31610  -61.47820
 7000.00000  255.50090   33.71390    4.96210    -999.25  880.97780    5.65770  -61.31620
 7050.00000  414.63710   25.67940    2.88550    -999.25  860.57190    4.04870  -75.19520
 7100.00000   22.85180   61.85360   41.72380    -999.25 1140.77470   49.15710  -38.94620
 7150.00000    8.83850  127.93600  286.21050    -999.25 1389.72200  157.05840  -40.31740
 7200.00000   24.01670   36.19900   35.45980    -999.25 1323.54870   41.57630  -52.97380
 7250.00000   38.03640   38.22980   23.34050    -999.25 1326.78450   28.12360  -87.33630
 7300.00000   51.45620   37.47870   20.71060   21.32180 1418.38000   27.43980  -71.97820
 7350.00000   56.82890   41.55610   15.95560   22.28820 1284.15870   20.09820  -46.15210
 7400.00000   61.07260    3.41010   18.46530   87.14090 1348.04350   63.68930 -120.82570
 7450.00000   13.84610    6.85780   85.86860  348.63880 1944.18930   89.93740 -161.13500
 7500.00000    9.78550    9.67490  172.47970 1314.83090 1803.29960  104.04660 -119.25700
 7550.00000   78.64360   23.89310   14.41580   50.87640 1697.93990   28.49850 -163.30480
 7600.00000    9.63890    8.74750  260.07890 2007.47790 1949.44540   96.73000 -121.45750
 7650.00000   52.64930   17.40040   19.33650   80.80740 2065.72730   37.96950  -96.34070
 7700.00000    9.79180    3.59920  277.82180 2363.06450 1845.88570  164.23780  -99.24680
 7750.00000  100.64160    4.98430   10.69350   68.36870 1594.41190   62.85110 -224.91490
 7800.00000   11.80890    4.79510   93.82540  220.34150 1769.20120   93.86260 -302.54890
 7850.00000  208.79210   25.18590    5.57650    8.99410 1342.48570   10.77240 -301.44760
 7900.00000  143.53190   25.16020    8.06020   11.54610 1473.59800   12.43100 -268.46640
 7950.00000   91.45500   29.03000   11.13900   16.82430 1530.47680   17.42180 -134.63670
 8000.00000   27.35900   17.46490   37.20410   51.01120 1731.84510   48.72040  -52.94460
 8050.00000    7.69720    6.37700  235.83020    -999.25 2321.70850  124.83610  -44.50760
 8100.00000   14.74700   13.70440  101.31730    -999.25 2001.03530   74.61650 -141.42390
 8150.00000    8.12740   10.11660  233.22140    -999.25 2504.54100  120.01330 -205.35340
 8200.00000   10.37390   10.79020  184.89580    -999.25 2380.56810  108.12610 -184.24800
 8250.00000   10.04750   11.66680  200.43310    -999.25 2180.25000  111.19390  -69.57800
 8300.00000   11.99520   18.01990   95.91690    -999.25 2183.39180   80.15340   -7.15330
 8350.00000    9.91810   15.51240  284.27760    -999.25 2057.76390  132.57020   -5.29420
 8400.00000    6.82540   35.75540  281.06770    -999.25 1853.25260  124.32840  -15.86810
 8450.00000    8.05720  108.03130  331.72810    -999.25 1454.96620  125.53430 -205.81540
 8500.00000    8.31060    6.33160  487.79500    -999.25 2006.55660  161.97350 -301.43460
 8550.00000   10.39490    5.55480  503.27040    -999.25 1811.36390  134.31130 -263.01510
 8600.00000    9.33750    6.03640  193.46370    -999.25 2244.39040  135.22700 -127.75330
 8650.00000   11.49920    3.74850  241.76640    -999.25 2350.19210  122.03500 -133.36050
 8700.00000   14.41400    4.21980  140.35980    -999.25 2620.17070  106.61460 -127.74330
 8750.00000   11.95530    4.68810  170.06030    -999.25 1887.65830  147.33270 -137.21970
 8800.00000   15.25460    3.15060  106.11780    -999.25 1503.69200  102.16530 -144.61500
 8850.00000   10.02670    4.86570  119.13680    -999.25 1247.65800  102.69060  -85.66910
 8900.00000    7.24860    6.98640  248.00780    -999.25 1615.27380  128.77580  -93.02340
 8950.00000    7.71350    5.45710  248.42150    -999.25 1561.99340  118.93350 -126.80450
 9000.00000   10.31990    3.92570  201.43560    -999.25 1828.86820  125.33940  -84.09230
 9050.00000    6.41460    4.08190  403.02450    -999.25 1703.02290  111.51220  -63.61060
 9100.00000   10.81010    3.22940  163.29130    -999.25 1898.83290   84.65940 -126.43900
 9150.00000    7.54290    4.52410  498.92660    -999.25 1727.76200  108.33540 -208.58780
 9200.00000   20.32160   11.18870  142.50140  421.11960 1551.77230  100.40780 -270.47770
 9250.00000  104.23010   27.48630   12.27190   38.40400 1691.78540   27.80320 -298.38770
 9300.00000    8.44180    5.73000  386.43070  311.65190 1823.74730  101.18890 -266.48840
 9350.00000   15.85290    5.91140   99.43090  709.64170 1470.29910   84.92640 -264.84170
 9400.00000   28.77570   10.37890   41.15410   67.59260 1610.72180   71.58970 -276.16090
 9450.00000   12.56590   16.03010  103.71690  151.21840 1674.56310   81.97610 -285.04490
 9500.00000   11.85150   13.20460  124.90580  186.51360 1649.53800   84.72500 -225.23120
 9550.00000   10.99380   12.13320  496.69740  536.08640 2056.36470  119.24770 -259.42630
 9600.00000   11.46050   12.30490  128.29430  207.58860 1779.65710   90.99400 -287.39590
 9650.00000    9.71740    -999.25  149.24130  333.84770    -999.25  103.90340 -293.43710
 9700.00000    9.68840    -999.25  262.65880  618.87750    -999.25  117.11120 -289.90700
 9750.00000   18.08070    -999.25   65.19740   68.97550    -999.25   52.90440 -138.48130
 9800.00000   31.78170    -999.25   30.85460   38.94340    -999.25   32.29740 -152.79700
 9850.00000   73.04980    -999.25   13.67100   18.46350    -999.25   19.00860 -248.15070
 9900.00000   51.51010    -999.25   21.13180   28.64780    -999.25   29.81090  -93.61320
 9950.00000   19.40920    -999.25   71.85160    -999.25    -999.25   53.24920  -76.36720
