~Version ---------------------------------------------------
VERS.      2.0 : CWLS log ASCII Standard -VERSION 2.0
WRAP.       NO : One line per depth step
CREA. 08/26/14 : LAS Creation Date
~Well ------------------------------------------------------
STRT.M                              300.0 : START DEPTH
STOP.M                             4800.0 : STOP DEPTH
STEP.M                           50.00000 : STEP LENGTH
NULL.                             -999.25 : NULL VALUE
COMP.    AMOCO CANADA PETROLEUM CO., LTD. : COMPANY
WELL. AMOCO ET AL BROWN CREEK 11-22-44-16 : WELL
FLD .                                     : FIELD
LOC .                                     : LOCATION
CTRY.                              CANADA : COUNTRY
SRVC.                        Schlumberger : SERVICE COMPANY
DATE.                         04-Apr-1979 : LOGDATE
PROV.                             Alberta : PROVINCE
UWI .                    100112204416W500 : UNIQUE WELL ID
SLAT.WGS84                       52.80888 : SURFACE LATITUDE
SLON.WGS84                       -116.243 : SURFACE LONGITUDE
~Curve Information -----------------------------------------
DEPT   .M      : Depth Curve
CALD   .MM     : CALIPER FROM DENSITY LOG
CALM   .MM     : CALIPER FROM MICROLATEROLOG
CALS   .MM     : CALIPER FROM SONIC LOG
CORR   .KG/M3  : DENSITY CORRECTION
DCOR   .KG/M3  : DENSITY CORRECTION
DPHI_LS.DEC    : DENSITY POROSITY LIMESTONE
DPHI_SS.DEC    : DENSITY POROSITY SANDSTONE
DT     .US/M   : DELTA-T (INTERVAL TRANSIT TIME)
GR     .GAPI   : GAMMA RAY
GR_1   .GAPI   : GAMMA RAY
GRD    .GAPI   : GAMMA RAY FROM DENSITY LOG
GRR    .GAPI   : GAMMA RAY FROM RESISTIVITY LOG
GRS    .GAPI   : GAMMA RAY FROM SONIC LOG
LLD    .OHMM   : LATEROLOG DEEP RESISTIVITY FROM RESISTIVITY LOG
LLS    .OHMM   : LATEROLOG SHALLOW RESISTIVITY FROM RESISTIVITY LOG
MLL    .OHMM   : MICRO FOCUSED LATEROLOG RESISTIVITY
NPHI_LS.DEC    : NEUTRON POROSITY LIMESTONE
NPHI_SS.DEC    : NEUTRON POROSITY SANDSTONE
RHOB   .KG/M3  : BULK DENSITY FROM DENSITY LOG
TEND   .LBF    : TENSION FROM DENSITY LOG
~Params ----------------------------------------------------
ORIG.          40",24"/100M PRINT : ORIGIN OF DATA
PD  .                GROUND LEVEL : PERMANENT DATUM
EPD .M                     1166.8 : ELEVATION PERMANENT DATUM
LMF .                          KB : LOG MEASURED FROM
DAPD.M                       10.7 : FEET ABOVE PERMANENT DATUM
DMF .                          KB : DRILLING MEASURED FROM
EKB .M                      11775 : KELLY BUSHING
EGL .M                     1166.8 : GROUND LEVEL
DATE.                  04/04/1979 : RUN DATE
RUN .                           1 : RUN NUMBER
DD  .M                       4805 : DEPTH DRILLER
DL  .M                       4805 : DEPTH LOGGER
BLI .M                       4805 : BOTTOM LOG INTERVAL
TLI .M                     4062.5 : TOP LOG INTERVAL
CS  .MM                       194 : CASING SIZE
CBD .M                       4060 : CASING BOTTOM DRILLER
CBL .M                     4062.5 : CASING BOTTOM LOGGER
BS  .MM                       159 : BIT SIZE
BSD .M                       4805 : BIT SIZE AT DEPTH
DFT .                    GEL CHEM : DRILLING FLUID TYPE
DFD .                        1120 : DRILLING FLUID DENSITY
DFV .                          50 : DRILLING FLUID VISCOSITY
DFPH.                           9 : DRILLING FLUID PH
DFL .                        12.2 : DRILLING FLUID LOSS
MSS .                    FLOWLINE : MUD SAMPLE SOURCE
RMS .OHMM                    1.42 : RESISTIVITY MUD SAMPLE
MST .DEGC                    22.2 : MUD SAMPLE TEMPERATURE
RMF .OHMM                    1.15 : RESISTIVITY MUD FILTRATE SAMPLE
MFST.DEGC                      20 : MUD FILTRATE SAMPLE TEMPERATURE
MFSS.                         MUD : MUD FILTRATE SAMPLE SOURCE
MCSS.                       PRESS : MUD CAKE SAMPLE SOURCE
TCS .HRS                     2330 : TIME CIRCULATED STOPPED
TLAB.HRS                     1800 : TIME LOGGER AT BOTTOM
LUN .                        8037 : LOGGING UNIT NUMBER
LUL .                          RD : LOGGING UNIT LOCATION
ENGI.     CATHCART, MAURO, DOWNIE : RECORDING ENGINEER
WITN. DIXON, MULHOLLAND, MCKELLAR : WITNESSED BY
CLNT.                     A2DTECH : CLIENT CODE
UWI .            100112204416W500 : UNIQUE WELL ID
DICO.      A2D Technologies, Inc. : DIGITIZING COMPANY
~Other -----------------------------------------------------
~ASCII -----------------------------------------------------
# ...
 3800.00000    -999.25    -999.25    -999.25    -999.25    -999.25    -999.25    -999.25    -999.25    -999.25    -999.25    -999.25    -999.25    -999.25    -999.25    -999.25    -999.25    -999.25    -999.25    -999.25    -999.25
 3850.00000    -999.25    -999.25    -999.25    -999.25    -999.25    -999.25    -999.25    -999.25    -999.25    -999.25    -999.25    -999.25    -999.25    -999.25    -999.25    -999.25    -999.25    -999.25    -999.25    -999.25
 3900.00000    -999.25    -999.25    -999.25    -999.25    -999.25    -999.25    -999.25    -999.25    -999.25    -999.25    -999.25    -999.25    -999.25    -999.25    -999.25    -999.25    -999.25    -999.25    -999.25    -999.25
 3950.00000    -999.25    -999.25    -999.25    -999.25    -999.25    -999.25    -999.25    -999.25    -999.25    -999.25    -999.25    -999.25    -999.25    -999.25    -999.25    -999.25    -999.25    -999.25    -999.25    -999.25
 4000.00000    -999.25    -999.25    -999.25    -999.25    -999.25    -999.25    -999.25    -999.25    -999.25    -999.25    -999.25    -999.25   19.04400    -999.25    -999.25    -999.25    -999.25    -999.25    -999.25    -999.25
 4050.00000    -999.25    -999.25    -999.25    -999.25    -999.25    -999.25    -999.25    -999.25    -999.25    -999.25   12.42750    -999.25   10.47360    -999.25    -999.25    -999.25    0.04140    -999.25    -999.25    -999.25
 4100.00000  201.82030  178.50960  183.00750    -999.25  250.57850    0.05790    -999.25  157.31760    -999.25    -999.25    8.62180    9.30820    7.11930 29935.91020 11410.00390    5.89230    0.00180    -999.25 2624.05300    -999.25
 4150.00000  177.78570  165.59810  182.15360    -999.25  246.13340    0.03260    -999.25  160.93100    -999.25    -999.25    8.41060    6.12440    6.44280  217.13380  267.82890    3.75800    0.02400    -999.25 2689.51070    -999.25
 4200.00000  200.99710  159.21100  179.77040    -999.25  249.83050    0.12770    -999.25  158.92720    -999.25    -999.25    5.90370    7.22960    5.63500 18418.53130 8285.15920    9.39220    0.00270    -999.25 2491.40600    -999.25
 4250.00000  154.44140  157.82920  178.11120    -999.25    0.52530   -0.03780    -999.25  158.84170    -999.25    -999.25   14.04110   13.89580   12.23670  805.73430  928.54920    1.45890    0.06090    -999.25 2803.43900    -999.25
 4300.00000  198.15630  201.34990  188.44620    -999.25  247.36800    0.00600    -999.25  168.90660    -999.25    -999.25   28.27200   30.60600   16.55990  875.56600  378.91710    4.75870    0.03490    -999.25 2645.96260    -999.25
 4350.00000  178.48840  156.87490  181.19930    -999.25  104.94820    0.04350    -999.25  154.90120    -999.25    -999.25   10.45970   10.18230    7.17570  163.36480  265.65100    2.59930    0.05290    -999.25 2644.86620    -999.25
 4400.00000  201.52280  162.42080  182.84540    -999.25  249.56750   -0.02040    -999.25  161.81560    -999.25    -999.25   17.51640   21.66290   22.84360  696.88270  905.16400    8.73950    0.00420    -999.25 2711.59400    -999.25
 4450.00000  200.04590  172.09390  188.03620    -999.25   -2.60030   -0.00750    -999.25  227.81350    -999.25    -999.25  110.78290  112.81510   96.06110    8.59160    7.18840    2.25650    0.16670    -999.25 2698.40890    -999.25
 4500.00000  176.15330  164.65150  184.42850    -999.25    9.69850    0.00130    -999.25  227.17160    -999.25    -999.25  105.45370  105.20220  100.40400    7.17010    8.30020   42.32340    0.16650    -999.25 2704.69870    -999.25
 4550.00000  177.91930  157.73900  179.15590    -999.25   43.39000   -0.00580    -999.25  217.02530   42.59040    -999.25   86.69460   88.00520   76.35540    8.80320   10.22470   33.89000    0.13090    -999.25 2717.81690    -999.25
 4600.00000  174.32310  155.70080  179.50680    -999.25   12.20150    0.02430    -999.25  225.24210   52.28140    -999.25   93.09550   87.73510   83.62790    8.52810    9.05440    4.30820    0.14700    -999.25 2675.78590    -999.25
 4650.00000  183.68780  160.35940  182.00140    -999.25  182.13760    0.02380    -999.25  249.50370   55.38860    -999.25  118.85750  129.89890  120.92110   13.99040   13.50620   12.65700    0.16990    -999.25 2676.27200    -999.25
 4700.00000  183.96690  154.71780  174.98770    -999.25   13.66340   -0.01860    -999.25  176.11690    -999.25    -999.25   44.82790    0.00000   41.03980  202.30790  172.52190   39.47490    0.04410    -999.25 2737.42580    -999.25
 4750.00000  159.01120  157.30760  178.61430    -999.25   15.03090    0.10370    -999.25  184.29710    -999.25    -999.25    6.63800    5.30740    4.23340 4094.28300  772.34850   11.62390    0.07900    -999.25 2569.15580    -999.25
 4800.00000  204.84210  214.42270  180.86290    -999.25  249.53610   -0.02410    -999.25  149.71950    -999.25    -999.25    -999.25    -999.25    -999.25    -999.25    -999.25    3.83540    0.03090    -999.25 2739.01100    -999.25
