~Version ---------------------------------------------------
VERS. 2.0 : CWLS log ASCII Standard -VERSION 2.0
WRAP.  NO : ONE LINE PER DEPTH STEP
~Well ------------------------------------------------------
STRT.F                      1350.0 : START DEPTH
STOP.F                     12700.0 : STOP DEPTH
STEP.F                    50.00000 : STEP LENGTH
NULL.                      -999.25 : NULL VALUE
COMP. TRANS-PRAIRIES PIPELINES LTD : COMPANY
WELL. TPPL DEEP VALLEY 11-21-64-25 : WELL
FLD .                              : FIELD
LOC .                              : LOCATION
CTRY.                       CANADA : COUNTRY
SRVC.                 Schlumberger : SERVICE COMPANY
DATE.                  04-Jan-1974 : LOGDATE
PROV.                      Alberta : PROVINCE
UWI .             100112106425W500 : UNIQUE WELL ID
SLAT.WGS84                54.55513 : SURFACE LATITUDE
SLON.WGS84               -117.7228 : SURFACE LONGITUDE
~Curve Information -----------------------------------------
DEPT   .F    0   1   0  0 : 1 MEASURED DEPTH
SPR    .MV   05 010 01 00 : SPONTANEOUS POTENTIAL FROM RESISTIVITY LOG
ILD    .OHMM 05 120 46 00 : INDUCTION DEEP RESISTIVITY
CILD   .MMHO 05 110 46 00 : INDUCTION DEEP CONDUCTIVITY
SN     .OHMM 05 040 16 00 : SHORT NORMAL RESISTIVITY
GRS    .GAPI 60 310 01 00 : GAMMA RAY FROM SONIC LOG
DT     .US/F 60 500 00 00 : DELTA-T (INTERVAL TRANSIT TIME)
CALS   .IN   60 280 50 00 : CALIPER FROM SONIC LOG
GRD    .GAPI 45 310 01 00 : GAMMA RAY FROM DENSITY LOG
CALD   .IN   45 280 60 00 : CALIPER FROM DENSITY LOG
RHOB   .G/C3 45 350 01 00 : BULK DENSITY
DRHO   .G/C3 45 356 01 00 : BULK DENSITY CORRECTION
NPHI_SS.DEC  42 890 03 00 : NEUTRON POROSITY SANDSTONE
DPHI_SS.DEC  45 890 12 00 : DENSITY POROSITY SANDSTONE
DPHI_LS.DEC  45 890 10 00 : DENSITY POROSITY LIMESTONE
NPHI_LS.DEC  42 890 01 00 : NEUTRON POROSITY LIMESTONE
~Params ----------------------------------------------------
PD  .                     GL : PERMANENT DATUM
EPD .FT                 2726 : ELEVATION PERMANENT DATUM
LMF .                     KB : LOG MEASURED FROM
DAPD.FT                   22 : FEET ABOVE PERMANENT DATUM
EKB .FT                 2748 : KELLY BUSHING
EDF .FT                 2726 : DRILLING FLOOR
DATE.               01/04/74 : RUN DATE
RUN .                      3 : RUN NUMBER
DD  .FT                12720 : DEPTH DRILLER
DL  .FT                12719 : DEPTH LOGGER
BLI .FT                12713 : BOTTOM LOG INTERVAL
TLI .FT                11088 : TOP LOG INTERVAL
CBD .FT                 1313 : CASING BOTTOM DRILLER
CBL .FT                 1314 : CASING BOTTOM LOGGER
BS  .IN                 8.75 : BIT SIZE
BSD .FT                12720 : BIT SIZE AT DEPTH
DFT .               GEL CHEM : DRILLING FLUID TYPE
DFD .                    9.6 : DRILLING FLUID DENSITY
DFV .                     97 : DRILLING FLUID VISCOSITY
DFL .                   10.9 : DRILLING FLUID LOSS
RMS .OHMM               2.08 : RESISTIVITY MUD SAMPLE
MST .DEGF                 50 : MUD SAMPLE TEMPERATURE
RMF .OHMM               1.51 : RESISTIVITY MUD FILTRATE SAMPLE
MFST.DEGF                 58 : MUD FILTRATE SAMPLE TEMPERATURE
RMC .OHMM               2.27 : RESISTIVITY MUD CAKE
MCST.DEGF                 52 : MUD CAKE SAMPLE TEMPERATURE
TCS .HRS                 2.5 : TIME CIRCULATED STOPPED
LUN .                   7691 : LOGGING UNIT NUMBER
LUL .                    EDM : LOGGING UNIT LOCATION
ENGI.                  LEITH : RECORDING ENGINEER
WITN.        SLOAN MCDONNELL : WITNESSED BY
CLNT.                A2DTECH : CLIENT CODE
ORIG.            2" 5" PRINT : ORIGIN OF DATA
UWI .       100112106425W500 : UNIQUE WELL ID
DICO. A2D Technologies, Inc. : DIGITIZING COMPANY
~Other -----------------------------------------------------
~ASCII -----------------------------------------------------
# ...
 5950.00000  -75.24510   12.14630   79.29360   20.68860   85.24710   73.19970    9.40190    -999.25    -999.25    -999.25    -999.25    -999.25    -999.25    -999.25    -999.25
 6000.00000  -74.04860   10.43780   91.23650   15.13080   73.60370   72.01010    9.54160    -999.25    -999.25    -999.25    -999.25    -999.25    -999.25    -999.25    -999.25
 6050.00000  -75.30330    8.58980  101.09750   17.46490   89.76340   82.22360   10.15030    -999.25    -999.25    -999.25    -999.25    -999.25    -999.25    -999.25    -999.25
 6100.00000  -72.89710   10.40440   92.91130   18.27030  100.26280   78.72570    9.65480    -999.25    -999.25    -999.25    -999.25    -999.25    -999.25    -999.25    -999.25
 6150.00000  -76.15340   19.87600   48.07700   28.14110   93.10380   76.04410    9.43980    -999.25    -999.25    -999.25    -999.25    -999.25    -999.25    -999.25    -999.25
 6200.00000  -74.52380   11.98520   79.57290   16.94280   83.78280   72.85500    9.38560    -999.25    -999.25    -999.25    -999.25    -999.25    -999.25    -999.25    -999.25
 6250.00000  -75.40220   12.57660   75.80100   19.41790  101.08890   78.55310    9.64320    -999.25    -999.25    -999.25    -999.25    -999.25    -999.25    -999.25    -999.25
 6300.00000  -79.42020   65.70850   16.70090  116.77820   17.67620  128.77160   10.06110    -999.25    -999.25    -999.25    -999.25    -999.25    -999.25    -999.25    -999.25
 6350.00000  -98.57400   14.16490   65.99180   26.84180   61.81430   66.20040    9.34110    -999.25    -999.25    -999.25    -999.25    -999.25    -999.25    -999.25    -999.25
 6400.00000  -73.57530   16.07940   59.55880   24.87750   80.60280   71.33640    9.48470    -999.25    -999.25    -999.25    -999.25    -999.25    -999.25    -999.25    -999.25
 6450.00000  -71.48960   10.16520   94.62130   15.64610   77.47500   75.26820    9.65480    -999.25    -999.25    -999.25    -999.25    -999.25    -999.25    -999.25    -999.25
 6500.00000  -82.13270   13.78450   69.93770   19.05520   66.38850   70.95290    9.38280    -999.25    -999.25    -999.25    -999.25    -999.25    -999.25    -999.25    -999.25
 6550.00000 -105.99060   12.50940   77.58950   29.26090   51.76520   75.53310    9.22130    -999.25    -999.25    -999.25    -999.25    -999.25    -999.25    -999.25    -999.25
 6600.00000  -92.39850   12.29430   78.41170   22.12110   65.96470   72.57230    9.49020    -999.25    -999.25    -999.25    -999.25    -999.25    -999.25    -999.25    -999.25
 6650.00000  -70.02000   25.35000   38.81680   46.49830   45.89800   57.03620    9.32060    -999.25    -999.25    -999.25    -999.25    -999.25    -999.25    -999.25    -999.25
 6700.00000  -68.54720   12.70900   75.26700   19.46940  104.62310   75.06150    9.50790    -999.25    -999.25    -999.25    -999.25    -999.25    -999.25    -999.25    -999.25
 6750.00000  -67.66770    8.26690  120.30570   12.45460  115.81220   81.31370    9.66540   97.44580   11.25870    2.44870    0.19690    0.36110    0.13900    -999.25    -999.25
 6800.00000  -76.22400   27.20480   35.77250   37.68460   73.13590   64.37650    9.38660   75.57270    9.14940    2.70890    0.02710    0.18310   -0.05790    -999.25    -999.25
 6850.00000  -68.95240   31.93640   29.16350   50.60490   80.03120   88.54680    9.39810   79.74430    9.12480    2.45460    0.13670    0.36050    0.09540    -999.25    -999.25
 6900.00000 -125.24910   16.96110   55.95580   47.94380   36.56590   72.37570    9.09830   35.72290    8.45290    2.52850    0.06300    0.19240    0.07230    -999.25    -999.25
 6950.00000  -62.73360   25.77420   36.50310   39.54350  101.93770   69.01700    9.22850   97.11710    9.34370    2.53840    0.08930    0.33640    0.12370    -999.25    -999.25
 7000.00000  -89.99120   20.28790   45.97580   33.83540   39.09530   69.85520    9.35890   41.16560    9.52800    2.59820    0.14340    0.15870    0.03490    -999.25    -999.25
 7050.00000  -64.77070   16.87380   57.70400   29.72560  106.23170   70.01210    9.34390   92.37830   10.06780    2.66210    0.14050    0.21830    0.02000    -999.25    -999.25
 7100.00000  -57.83380   16.89350   55.76890   29.01280  119.95620   72.37760    9.20850   92.63180    9.03940    2.61520    0.14860    -999.25    0.07520    -999.25    -999.25
 7150.00000  -57.28850    9.67530   98.40760   14.99820  104.55170   67.70890    9.16670   95.09790   10.88340    2.49560    0.20690    -999.25    0.11210    -999.25    -999.25
 7200.00000  -56.94200   11.20710   87.81620   17.71610   96.53090   69.00090    9.04160   80.42950    8.89560    2.56370    0.14780    -999.25    0.12390    -999.25    -999.25
 7250.00000  -59.81570    4.70810  210.89910    7.05550  118.52930   85.27470    9.09990   87.94660   11.56520    2.20280    0.23340    -999.25    0.27200    -999.25    -999.25
 7300.00000  -62.59870    4.64530  208.21130    7.20060  117.92570   88.87660    9.24510   88.05670   11.62320    2.16390    0.21410    -999.25    0.30000    -999.25    -999.25
 7350.00000  -61.67990   34.47570   31.49090   97.71920  100.68200   94.92520    8.90930  114.79480    9.56620    2.38450    0.08030    -999.25    0.18430    -999.25    -999.25
 7400.00000  -70.57280  151.56740    8.12970  299.86070    -999.25   78.11910    8.83170  222.25540    8.86100    2.47110    0.01470    -999.25    0.10510    -999.25    -999.25
 7450.00000 -117.18700    7.96300  132.22790   17.68850    -999.25   68.60020    9.12550   94.58870    8.92370    2.60840    0.01580    -999.25    0.03510    -999.25    -999.25
 7500.00000 -117.17950   25.74340   45.04550   31.44680    -999.25   66.59650    9.20060   76.20450    9.05130    2.64380    0.06860    -999.25    0.01840    -999.25    -999.25
 7550.00000 -104.22690   28.51020   40.68550   32.07580    -999.25   64.86590    9.04200   96.75090    9.03260    2.70590    0.03230    -999.25   -0.04950    -999.25    -999.25
 7600.00000 -125.06050    9.62320  116.36920   18.59590    -999.25   63.17280    9.16270   76.64100    8.93370    2.66340    0.03830    -999.25   -0.00910    -999.25    -999.25
 7650.00000 -115.43070   14.56330   75.88910   20.81410    -999.25   63.96680    9.03980   79.17050    8.97070    2.66650    0.04170    -999.25    0.00220    -999.25    -999.25
 7700.00000  -96.30890   98.02140   15.39190   66.06250    -999.25   58.02570    8.96130   73.56000    8.96830    2.74980    0.03260    -999.25   -0.04170    -999.25    -999.25
 7750.00000  -93.99400   39.27550   30.10910   37.48320    -999.25   62.46510    9.18090   84.00150    9.08200    2.68030    0.02810    -999.25   -0.03070    -999.25    -999.25
 7800.00000  -91.83500   38.30190   32.79360   37.90730    -999.25   61.61860    9.07550   96.06360    9.01800    2.74090    0.04700    -999.25   -0.04340    -999.25    -999.25
 7850.00000  -73.29620   67.35010   21.41490   52.54250    -999.25   62.78500    9.22450  100.27280    9.08560    2.73260    0.02020    -999.25   -0.04200    -999.25    -999.25
 7900.00000 -190.48950   12.06850   85.25910   53.48570    -999.25   58.18780    8.37630   10.01140    8.46230    2.61940    0.08650    -999.25    -999.25    0.05150    -999.25
 7950.00000 -171.95210    4.11120  272.22760   25.46790    -999.25   58.04090    8.32890   65.06390    8.53370    2.71340    0.05510    -999.25    -999.25    0.02940    -999.25
 8000.00000  -98.53050   56.68160   22.80400   49.29110    -999.25   51.35970    8.88950   28.47960    9.01500    2.84300    0.21390    -999.25    -999.25   -0.04000    -999.25
 8050.00000  -89.24560    -999.25    6.10480  209.14040    -999.25   48.94100    9.01070   25.42340    8.95970    2.96420    0.02930    -999.25    -999.25   -0.14580    -999.25
 8100.00000 -100.93140  242.91370    9.90290  121.83870    -999.25   50.82150    8.81080   35.61460    8.82550    2.80690    0.01510    -999.25    -999.25   -0.05930    -999.25
 8150.00000 -156.60550    -999.25    4.89930  284.13880    -999.25   46.62360    9.00130   21.31790    8.68990    2.88470    0.05990    -999.25    -999.25   -0.09910    -999.25
 8200.00000 -167.13660    8.99680  107.74370   77.05050    -999.25   56.37470    8.68320   26.27370    8.58990    2.71690    0.09140    -999.25    -999.25    0.00510    -999.25
