~Version ---------------------------------------------------
VERS.      2.0 : CWLS log ASCII Standard -VERSION 2.0
WRAP.       NO : One line per depth step
CREA. 10/25/17 : LAS Creation Date
~Well ------------------------------------------------------
STRT.FT                             1050.0 : START DEPTH
STOP.FT                            10000.0 : STOP DEPTH
STEP.FT                           50.00000 : STEP LENGTH
NULL.                              -999.25 : NULL VALUE
COMP.               FRONTIER PRODUCING INC : COMPANY
WELL. FRONT HUBER B.A. EAGLE T 12-28-63-16 : WELL
FLD .                                   WC : FIELD
LOC .                                      : LOCATION
CTRY.                               CANADA : COUNTRY
SRVC.                           Lane Wells : SERVICE COMPANY
DATE.                          16-Feb-1966 : LOGDATE
PROV.                              Alberta : PROVINCE
UWI .                     100122806316W500 : UNIQUE WELL ID
SLAT.WGS84                        54.48142 : SURFACE LATITUDE
SLON.WGS84                       -116.3666 : SURFACE LONGITUDE
~Curve Information -----------------------------------------
DEPT  .FT    : Depth Curve
ACED  .US/F  : ACOUSTIC FROM SONIC LOG [ADJ TO ILED]
CALWS .IN    : CALIPER [MCALED]
CILED .MMHO  : DEEP INDUCTION CONDUCTIVITY FROM IEL LOG
CONDWS.MMHO  : CONDUCTIVITY [1000/DRESWS]
DRESWS.OHMM  : DEEP RESISTIVITY [1000/CILDED IF ILDED <4, ILDED]
DTWS  .US/F  : COMPRESSIONAL SONIC [ACED]
GRSED .GAPI  : GAMMA RAY FROM SONIC LOG [ADJ TO ILED]
GRWS  .GAPI  : GAMMA RAY [GRSED]
ILED  .OHMM  : DEEP INDUCTION FROM IEL LOG
MCALED.IN    : MLT CALIPER FROM ML LOG
MINVED.OHMM  : MICRO INVERSE RESISTIVITY FROM ML LOG
MNORED.OHMM  : MICRO NORMAL RESISTIVITY FROM ML LOG
SNED  .OHMM  : SHORT NORMAL 10" FROM IEL LOG
SPRED .MV    : SPONTANEOUS POTENTIAL FROM IEL LOG
SPWS  .MV    : SPONTANEOUS POTENTIAL [BASELINE 0 MV, SPRED]
SRESWS.OHMM  : SHALLOW RESISTIVITY [SNED]
~Params ----------------------------------------------------
PD  .                     GL : PERMANENT DATUM
EPD .FT                 3184 : ELEVATION PERMANENT DATUM
LMF .                     KB : LOG MEASURED FROM
DAPD.FT                   14 : FEET ABOVE PERMANENT DATUM
DMF .                     KB : DRILLING MEASURED FROM
EKB .FT                 3198 : KELLY BUSHING
EGL .FT                 3184 : GROUND LEVEL
DATE.               02/16/66 : RUN DATE
RUN .                      1 : RUN NUMBER
DD  .FT                10035 : DEPTH DRILLER
DL  .FT                10036 : DEPTH LOGGER
BLI .FT                10032 : BOTTOM LOG INTERVAL
TLI .FT                 1022 : TOP LOG INTERVAL
CS  .IN                8.625 : CASING SIZE
CBD .FT                 1023 : CASING BOTTOM DRILLER
CBL .FT                 1022 : CASING BOTTOM LOGGER
BS  .IN                7.875 : BIT SIZE
BSD .FT                10035 : BIT SIZE AT DEPTH
DFT .                MUD GEL : DRILLING FLUID TYPE
DFD .                   10.2 : DRILLING FLUID DENSITY
DFV .                    114 : DRILLING FLUID VISCOSITY
DFPH.                   10.5 : DRILLING FLUID PH
DFL .                    4.8 : DRILLING FLUID LOSS
MSS .                   CIRC : MUD SAMPLE SOURCE
RMS .OHMM                2.9 : RESISTIVITY MUD SAMPLE
MST .DEGF                 71 : MUD SAMPLE TEMPERATURE
RMF .OHMM                1.6 : RESISTIVITY MUD FILTRATE SAMPLE
MFST.DEGF                 74 : MUD FILTRATE SAMPLE TEMPERATURE
RMC .OHMM                2.4 : RESISTIVITY MUD CAKE
MCST.DEGF                 74 : MUD CAKE SAMPLE TEMPERATURE
MFSS.                   MEAS : MUD FILTRATE SAMPLE SOURCE
MCSS.                   MEAS : MUD CAKE SAMPLE SOURCE
RMB .OHMM                1.2 : RESISTIVITY MUD AT BHT
TCS .HRS                 3.5 : TIME CIRCULATED STOPPED
LUN .                   8038 : LOGGING UNIT NUMBER
LUL .                     SL : LOGGING UNIT LOCATION
ENGI.                 WOOLAM : RECORDING ENGINEER
WITN.                HESKETH : WITNESSED BY
CLNT.                A2DTECH : CLIENT CODE
ORIG.            2" 5" PRINT : ORIGIN OF DATA
UWI .       100122806316W500 : UNIQUE WELL ID
DICO. A2D Technologies, Inc. : DIGITIZING COMPANY
~Other -----------------------------------------------------
~ASCII -----------------------------------------------------
# ...
 7500.00000   50.76820    9.62900    3.05000    3.60550  277.35140   50.76820   21.29660   21.29660  277.35140    9.62900   33.15190   40.02390  150.06050  -93.07560  -51.37950  150.06050
 7550.00000   52.12660    9.73800   15.80180   17.03420   58.70720   52.12660   15.71150   15.71150   58.70720    9.73800   17.45320   13.94720  104.68880 -113.64480  -59.30200  104.68880
 7600.00000   49.76960    9.05780    9.20380    8.24780  121.24470   49.76960   19.31770   19.31770  121.24470    9.05780   36.73790   30.89780  132.74460  -78.59530  -11.47910  132.74460
 7650.00000   53.05240   10.43460   20.53550   17.16160   58.27730   53.05240    4.57540    4.57540   58.27730   10.43460    4.51900    7.68470  132.92840 -141.77570  -62.01280  132.92840
 7700.00000   56.17930    7.77290   42.03460   41.97680   23.82270   56.17930    5.35260    5.35260   23.82270    7.77290    3.14180    5.60810  127.07450 -167.71410  -75.17760  127.07450
 7750.00000   53.89750    8.70640   22.35660   21.43950   46.64290   53.89750    8.35580    8.35580   46.64290    8.70640    1.77790    3.76810  133.05520 -157.40430  -58.95860  133.05520
 7800.00000   53.68800    9.98650   19.34090   17.66530   56.61020   53.68800   13.54930   13.54930   56.61020    9.98650    4.89480    6.91490   87.39840 -108.07850  -14.33600   87.39840
 7850.00000   49.57110    9.59010   14.21780   11.79020   84.81640   49.57110   11.78240   11.78240   84.81640    9.59010   16.68490   12.56130  102.18300 -100.76900  -11.77750  102.18300
 7900.00000   52.54270   10.44660    9.26290    6.96450  143.66870   52.54270   12.30580   12.30580  143.66870   10.44660    4.89020    7.38960  127.25020  -86.96290   -2.90270  127.25020
 7950.00000   52.13730    9.57650   20.24610   20.59930   48.54540   52.13730   10.83410   10.83410   48.54540    9.57650    1.87420    3.45230  109.62450 -112.31430  -30.55140  109.62450
 8000.00000   55.09060    8.03550   60.27880   60.63950   16.49090   55.09060    5.43880    5.43880   16.49090    8.03550    3.06840    6.33550  107.51640 -161.62110  -81.94980  107.51640
 8050.00000   52.17000    8.81450   30.33770   30.41260   32.88130   52.17000   11.01330   11.01330   32.88130    8.81450    2.26150    4.10600  113.69340 -164.32320  -86.74080  113.69340
 8100.00000   49.29270    8.97590    8.11550    7.03400  142.16660   49.29270   12.76950   12.76950  142.16660    8.97590   31.55450   29.59120  151.98850 -144.10870  -68.63080  151.98850
 8150.00000   51.79810    8.86540   17.22080   13.88880   72.42200   51.79810   31.50040   31.50040   72.42200    8.86540   11.24390   15.13930  143.28800 -100.69950  -32.19280  143.28800
 8200.00000   48.47370    9.10730   20.80510   20.75920   48.17130   48.47370   17.32640   17.32640   48.17130    9.10730    1.28980    2.39300  119.29630 -176.19920 -117.43680  119.29630
 8250.00000   53.37170    9.77510   13.44470   12.02010   83.19390   53.37170   18.47350   18.47350   83.19390    9.77510    1.25730    2.27530   99.64410 -164.78130 -115.71540   99.64410
 8300.00000   53.56210    9.16270   31.39850   23.92710   42.46300   53.56210   28.06780   28.06780   42.46300    9.16270    8.31560   11.30240   77.14500 -106.17950  -66.75950   77.14500
 8350.00000   54.57310    8.73650   16.18840   14.97010   66.79960   54.57310   35.41860   35.41860   66.79960    8.73650    -999.25   36.38570   96.74420  -36.72940   -7.05380   96.74420
 8400.00000   57.46810    9.07410   36.79600   37.61740   26.58950   57.46810   35.45650   35.45650   26.58950    9.07410   24.83270   34.33220   46.82820  -28.68030   -8.74320   46.82820
 8450.00000   55.98350    8.60380   30.44870   30.94850   32.31170   55.98350   41.64810   41.64810   32.31170    8.60380   31.42750   40.08260   62.80520  -31.67770  -16.75690   62.80520
 8500.00000   56.23210    8.52710   44.56750   45.32820   22.06130   56.23210   49.11090   49.11090   22.06130    8.52710   34.98500   23.32690   42.42370  -31.57650  -19.61260   42.42370
 8550.00000   66.99210    9.56650   90.91920   91.84360   10.88820   66.99210   54.26960   54.26960   10.88820    9.56650    9.10230    5.82830   21.39060  -23.57500  -14.55210   21.39060
 8600.00000   60.76480    8.53440   71.74010   72.80190   13.73590   60.76480   49.03050   49.03050   13.73590    8.53440   21.56270   13.34200   27.38580  -14.14360   -8.09210   27.38580
 8650.00000   76.13260   15.61140  183.68360  177.13450    5.64550   76.13260   63.06490   63.06490    5.64550   15.61140    1.05070    1.28840    6.47800  -29.49860  -22.34220    6.47800
 8700.00000   80.21220   15.33720  191.18950  190.77050    5.24190   80.21220   61.99730   61.99730    5.24190   15.33720    1.17380    1.59150    7.54250  -34.32120  -25.96550    7.54250
 8750.00000   69.24330    8.45800   29.65480   29.61510   33.76660   69.24330   75.31630   75.31630   33.76660    8.45800    -999.25    -999.25   77.30360  -48.13280  -38.58430   77.30360
 8800.00000   62.58070    8.90270   80.94300   78.89110   12.67700   62.58070   53.82310   53.82310   12.67700    8.90270   11.63670    8.67900   24.37030  -44.22150  -33.48510   24.37030
 8850.00000   71.95200   12.49760  191.37150  182.54500    5.47810   71.95200   71.00050   71.00050    5.47810   12.49760    1.31320    1.95670    8.04030  -63.56610  -51.63040    8.04030
 8900.00000   86.87980   12.82940  188.71040  184.64260    5.41650   86.87980   83.95150   83.95150    5.41650   12.82940    1.28040    1.64580    7.61840  -67.35630  -54.23260    7.61840
 8950.00000   62.49660   12.73650  154.60110  152.58560    6.55370   62.49660   68.10750   68.10750    6.55370   12.73650    1.59120    2.43260    9.56530  -58.56050  -44.23760    9.56530
 9000.00000   73.52010    9.90030  111.50290  113.13620    8.83890   73.52010   64.70270   64.70270    8.83890    9.90030    2.29740    2.95520   15.86080  -44.83910  -29.32330   15.86080
 9050.00000   67.57120    9.66790  121.16420  123.52700    8.09540   67.57120   66.86700   66.86700    8.09540    9.66790    3.39060    3.96410   14.06500  -22.38530   -5.68150   14.06500
 9100.00000   67.22560    9.49030  119.18460  119.13410    8.39390   67.22560   81.11370   81.11370    8.39390    9.49030    4.76970    5.40270   15.09260  -26.50060   -9.46510   15.09260
 9150.00000   67.29730    8.79320  104.65300  106.37620    9.40090   67.29730   71.49180   71.49180    9.40090    8.79320   13.42870    8.34670   17.61950  -27.71690  -11.91440   17.61950
 9200.00000   71.21350   10.03550  100.64180  102.71790    9.73540   71.21350   99.39760   99.39760    9.73540   10.03550    3.14180    4.41790   22.19860  -41.04320  -26.48670   22.19860
 9250.00000   67.70930   10.54820   86.90290   88.89600   11.24910   67.70930   97.02710   97.02710   11.24910   10.54820    2.68450    3.46200   20.15740  -58.61250  -45.29600   20.15740
 9300.00000   82.71940   10.58620   88.23250   86.75170   11.53480   82.71940   95.32200   95.32200   11.53480   10.58620    2.16550    2.63200   18.80840  -53.86350  -41.77990   18.80840
 9350.00000   68.66150    9.27170   92.89940   92.89620   10.76470   68.66150   84.47540   84.47540   10.76470    9.27170    3.99970    5.00500   19.02550  -45.84270  -35.00500   19.02550
 9400.00000   72.54000    8.06000    4.45190    2.45350  407.58950   72.54000  119.12190  119.12190  407.58950    8.06000    -999.25    -999.25  269.11830  -80.11030  -70.50570  269.11830
 9450.00000   71.83900    8.05510    4.37400    3.51080  284.83450   71.83900  166.82910  166.82910  284.83450    8.05510    -999.25    -999.25  233.70840  -76.67290  -68.31420  233.70840
 9500.00000   56.48820    8.07780   36.72480   37.59810   26.59710   56.48820   35.30110   35.30110   26.59710    8.07780   29.98690   19.22520   50.12990  -43.28650  -36.16780   50.12990
 9550.00000   60.78860    8.95780  101.07370  105.63860    9.47580   60.78860   88.40040   88.40040    9.47580    8.95780    3.84130    6.28590   22.55090  -37.38220  -31.49650   22.55090
 9600.00000   51.87480    8.00520   25.71840   25.19690   39.68750   51.87480   45.44950   45.44950   39.68750    8.00520   39.96820   39.94320   76.51300  -20.20980  -14.44080   76.51300
