~Version ---------------------------------------------------
VERS.      2.0 : CWLS log ASCII Standard -VERSION 2.0
WRAP.       NO : One line per depth step
CREA. 07/28/13 : LAS Creation Date
~Well ------------------------------------------------------
STRT.M                          300.0 : START DEPTH
STOP.M                         3050.0 : STOP DEPTH
STEP.M                       50.00000 : STEP LENGTH
NULL.                         -999.25 : NULL VALUE
COMP.               SABINE CANADA LTD : COMPANY
WELL. SABINE ET AL GIROUX 10-23-65-20 : WELL
FLD .                                 : FIELD
LOC .                                 : LOCATION
CTRY.                          CANADA : COUNTRY
SRVC.                    Schlumberger : SERVICE COMPANY
DATE.                     13-Jan-1979 : LOGDATE
PROV.                         Alberta : PROVINCE
UWI .                100102306520W500 : UNIQUE WELL ID
SLAT.WGS84                   54.64278 : SURFACE LATITUDE
SLON.WGS84                  -116.9066 : SURFACE LONGITUDE
~Curve Information -----------------------------------------
DEPT    .M      : DEPTH METER
CALDED  .MM     : CALIPER FROM DENSITY LOG [ADJ. TO RESISTIVITY LOG]
CALSED  .MM     : CALIPER FROM SONIC LOG [ADJ. TO RESISTIVITY LOG]
CALWS   .MM     : CALIPER [CALDED]
CONDWS  .MMHO   : CONDUCTIVITY [1000/DRESWS]
DCORWS  .KG/M3  : DENSITY CORRECTION [DRHOED]
DENWS   .KG/M3  : FORMATION BULK DENSITY [CALC FROM DPOLSWS, M=2710, F=1000]
DPHILSED.V/V    : DENSITY POROSITY LIMESTONE [M=2710, F=1000] FROM DENSITY LOG [ADJ. TO RESISTIVITY LOG]
DPHISSED.V/V    : DENSITY POROSITY SANDSTONE [M=2650, F=1000] FROM DENSITY LOG [ADJ. TO RESISTIVITY LOG]
DPOLSWS .V/V    : DENSITY POROSITY LIMESTONE [DPHISSED MATRIX CONVERTED TO LIMESTONE & SPL. TO DPHILSED @ 1901.1 M]
DRESWS  .OHMM   : DEEP RESISTIVITY [ILDED]
DRHOED  .KG/M3  : DENSITY CORRECTION FROM DENSITY LOG [ADJ. TO RESISTIVITY LOG]
DTED    .US/M   : DELTA T FROM SONIC LOG [ADJ. TO RESISTIVITY LOG]
DTWS    .US/M   : COMPRESSIONAL SONIC [DTED]
GRDED   .GAPI   : GAMMA RAY FROM DENSITY LOG [ADJ. TO RESISTIVITY LOG]
GRED    .GAPI   : GAMMA RAY FROM CBL LOG
GRSED   .GAPI   : GAMMA RAY FROM SONIC LOG [ADJ. TO RESISTIVITY LOG]
GRWS    .GAPI   : GAMMA RAY [GRED SPL. TO GRSED @ 448 M]
ILDED   .OHMM   : DEEP INDUCTION RESISTIVITY FROM RESISTIVITY LOG
ILMED   .OHMM   : MEDIUM INDUCTION RESISTIVITY FROM RESISTIVITY LOG
MCALED  .MM     : CALIPER FROM MICROLOG
MRESWS  .OHMM   : MEDIUM RESISTIVITY [ILMED]
NPHILSED.V/V    : NEUTRON POROSITY LIMESTONE FROM DENSITY LOG [ADJ. TO RESISTIVITY LOG]
NPHISSED.V/V    : NEUTRON POROSITY SANDSTONE FROM DENSITY LOG [ADJ. TO RESISTIVITY LOG]
NPOLSWS .V/V    : NEUTRON POROSITY LIMESTONE [NPHISSED MATRIX CONVERTED TO LIMESTONE & SPL. TO NPHILSED @ 1901.1 M]
RHOBED  .KG/M3  : BULK DENSITY FROM DENSITY LOG [ADJ. TO RESISTIVITY LOG]
SFLED   .OHMM   : SPHERICALLY FOCUSED LOG FROM RESISTIVITY LOG
SPRED   .MV     : SPONTANEOUS POTENTIAL FROM RESISTIVITY LOG
SPWS    .MV     : SPONTANEOUS POTENTIAL [BASELINE 0 MV, SPRED]
SRESWS  .OHMM   : SHALLOW RESISTIVITY [SFLED]
~Params ----------------------------------------------------
PD  .                       GL : PERMANENT DATUM
EPD .M                  764.08 : ELEVATION PERMANENT DATUM
LMF .                       KB : LOG MEASURED FROM
DAPD.M                       5 : FEET ABOVE PERMANENT DATUM
DMF .                       KB : DRILLING MEASURED FROM
EKB .M                  769.08 : KELLY BUSHING
EGL .M                  764.08 : GROUND LEVEL
DATE.                 01/13/79 : RUN DATE
RUN .                        2 : RUN NUMBER
DD  .M                    3074 : DEPTH DRILLER
DL  .M                    3074 : DEPTH LOGGER
BLI .M                    3073 : BOTTOM LOG INTERVAL
TLI .M                    1370 : TOP LOG INTERVAL
CS  .MM                    244 : CASING SIZE
CBD .M                     462 : CASING BOTTOM DRILLER
CBL .M                     461 : CASING BOTTOM LOGGER
BS  .MM                    222 : BIT SIZE
BSD .M                    3074 : BIT SIZE AT DEPTH
DFT .                GEL BENEX : DRILLING FLUID TYPE
DFD .                     1150 : DRILLING FLUID DENSITY
DFV .                      125 : DRILLING FLUID VISCOSITY
DFPH.                        9 : DRILLING FLUID PH
DFL .                     10.2 : DRILLING FLUID LOSS
MSS .                     CIRC : MUD SAMPLE SOURCE
RMS .OHMM                 2.29 : RESISTIVITY MUD SAMPLE
MST .DEGC                 12.2 : MUD SAMPLE TEMPERATURE
RMF .OHMM                 2.26 : RESISTIVITY MUD FILTRATE SAMPLE
MFST.DEGC                 11.7 : MUD FILTRATE SAMPLE TEMPERATURE
RMC .OHMM                  2.2 : RESISTIVITY MUD CAKE
MCST.DEGC                 11.1 : MUD CAKE SAMPLE TEMPERATURE
MFSS.                    PRESS : MUD FILTRATE SAMPLE SOURCE
MCSS.                    PRESS : MUD CAKE SAMPLE SOURCE
RMB .OHMM                 0.63 : RESISTIVITY MUD AT BHT
TCS .HRS                  1345 : TIME CIRCULATED STOPPED
TLAB.HRS                  2000 : TIME LOGGER AT BOTTOM
LUN .                     7802 : LOGGING UNIT NUMBER
LUL .                      EDM : LOGGING UNIT LOCATION
ENGI.                CROCKFORD : RECORDING ENGINEER
WITN.                   SIFERD : WITNESSED BY
CLNT.                  A2DTECH : CLIENT CODE
ORIG. 6IN/100M 16IN/100M PRINT : ORIGIN OF DATA
UWI .         100102306520W500 : UNIQUE WELL ID
DICO.   A2D Technologies, Inc. : DIGITIZING COMPANY
~Other -----------------------------------------------------
CNL-LDT-DIL-SFL-LM-BCS LOG RAN.
RHOB & DRHO ARE FROM SMALL SECTION
SOME NOISE ON SP CURVE BETWEEN 1950 M & 2750 M.
NEUTRON CONVERSION: SCHLUMBERGER, DESCRIPTION: CNL(NPHI)
~ASCII -----------------------------------------------------
  300.00000    -999.25    -999.25    -999.25    -999.25    -999.25    -999.25    -999.25    -999.25    -999.25    -999.25    -999.25    -999.25    -999.25    -999.25   96.97960    -999.25   96.97960    -999.25    -999.25    -999.25    -999.25    -999.25    -999.25    -999.25    -999.25    -999.25    -999.25    -999.25    -999.25
  350.00000    -999.25    -999.25    -999.25    -999.25    -999.25    -999.25    -999.25    -999.25    -999.25    -999.25    -999.25    -999.25    -999.25    -999.25   42.22230    -999.25   42.22230    -999.25    -999.25    -999.25    -999.25    -999.25    -999.25    -999.25    -999.25    -999.25    -999.25    -999.25    -999.25
  400.00000    -999.25    -999.25    -999.25    -999.25    -999.25    -999.25    -999.25    -999.25    -999.25    -999.25    -999.25    -999.25    -999.25    -999.25   73.18340    -999.25   73.18340    -999.25    -999.25    -999.25    -999.25    -999.25    -999.25    -999.25    -999.25    -999.25    -999.25    -999.25    -999.25
  450.00000    -999.25    -999.25    -999.25    -999.25    -999.25    -999.25    -999.25    -999.25    -999.25    -999.25    -999.25    -999.25    -999.25    -999.25   68.17900   56.52340   56.52340    -999.25    -999.25    -999.25    -999.25    -999.25    -999.25    -999.25    -999.25    -999.25    -999.25    -999.25    -999.25
  500.00000  234.25360  253.91410  234.25360  141.97490   32.29920 2366.69340    -999.25    0.17170    0.20080    7.04350   32.29920  332.69680  332.69680   88.62320    -999.25   77.36960   77.36960    7.04350    6.24320    -999.25    6.24320    -999.25    0.35980    0.31630 2364.61210    8.88740  -20.97340   -4.48490    8.88740
  550.00000  225.77050  247.40930  225.77050  153.89110   47.84990 2243.27660    -999.25    0.24650    0.27290    6.49810   47.84990  369.34540  369.34540   73.27480    -999.25   68.24440   68.24440    6.49810    5.04250    -999.25    5.04250    -999.25    0.40360    0.36080 2251.76030    5.46410  -24.41950   -6.76870    5.46410
  600.00000  236.49490  235.64720  236.49490  239.50370   92.66830 2321.67640    -999.25    0.19900    0.22710    4.17530   92.66830  401.20480  401.20480   76.67250    -999.25   71.36180   71.36180    4.17530    3.61570    -999.25    3.61570    -999.25    0.45840    0.41670 2301.45850    3.60910  -23.45390   -4.60670    3.60910
  650.00000  226.33500  245.96700  226.33500   82.83910   32.86590 2370.02300    -999.25    0.16970    0.19880   12.07160   32.86590  256.99460  256.99460   53.92260    -999.25   52.02010   52.02010   12.07160   10.03770    -999.25   10.03770    -999.25    0.25650    0.21260 2375.37060   15.57390  -27.54610   -7.50250   15.57390
  700.00000  233.52270  242.32560  233.52270  205.82910   83.17920 2364.54170    -999.25    0.17300    0.20200    4.85840   83.17920  371.03100  371.03100   74.64830    -999.25   61.33910   61.33910    4.85840    4.23360    -999.25    4.23360    -999.25    0.39380    0.35080 2357.45170    4.65270  -25.85860   -4.86700    4.65270
  750.00000  243.03790  259.13820  243.03790  218.78010   60.15480 2394.01240    -999.25    0.15510    0.18480    4.57080   60.15480  348.90020  348.90020   88.29350    -999.25   72.36740   72.36740    4.57080    4.17510    -999.25    4.17510    -999.25    0.43280    0.39060 2404.11110    5.14530  -25.27380   -3.50930    5.14530
  800.00000  242.44880  276.65410  242.44880  130.41210  195.97710 2288.68630    -999.25    0.21900    0.24640    7.66800  195.97710  311.90320  311.90320  108.86240    -999.25   95.41920   95.41920    7.66800    6.61820    -999.25    6.61820    -999.25    0.35200    0.30840 2286.18600    8.63740  -28.65730   -5.59790    8.63740
  850.00000  240.48380  237.88580  240.48380  123.52540   85.99720 2448.71820    -999.25    0.12200    0.15280    8.09550   85.99720  328.72740  328.72740  142.15300    -999.25  140.94410  140.94410    8.09550    7.07040    -999.25    7.07040    -999.25    0.38150    0.33830 2460.06130   10.82180  -26.88190   -2.52760   10.82180
  900.00000  241.28940  247.16890  241.28940  121.92590  153.83700 2397.02370    -999.25    0.15330    0.18300    8.20170  153.83700  301.21010  301.21010  112.58000    -999.25  111.41210  111.41210    8.20170    6.99600    -999.25    6.99600    -999.25    0.33750    0.29380 2405.34230    9.42590  -30.16870   -4.51960    9.42590
  950.00000  243.87990  255.44120  243.87990  140.63710  103.79250 2451.99180    -999.25    0.12000    0.15090    7.11050  103.79250  292.05830  292.05830  119.47440    -999.25  110.27130  110.27130    7.11050    6.23670    -999.25    6.23670    -999.25    0.37450    0.33120 2444.87430    8.76170  -30.71440   -4.30450    8.76170
 1000.00000  220.57050  261.35410  220.57050  105.23100  125.04930 2352.53800    -999.25    0.18030    0.20900    9.50290  125.04930  294.49220  294.49220  116.22540    -999.25  103.17060  103.17060    9.50290    7.90270    -999.25    7.90270    -999.25    0.32490    0.28100 2376.08150   11.25980  -29.02930   -3.27680   11.25980
 1050.00000  220.34720  261.14070  220.34720  117.02200   28.37760 2245.49760    -999.25    0.24520    0.27160    8.54540   28.37760  303.67820  303.67820  124.39430    -999.25  116.26590  116.26590    8.54540    7.24970    -999.25    7.24970    -999.25    0.33110    0.28730 2241.97850   10.11230  -27.33120   -3.99660   10.11230
 1100.00000  218.02920  255.44180  218.02920  129.88870  132.91980 2355.42720    -999.25    0.17850    0.20740    7.69890  132.91980  322.16850  322.16850  148.65210    -999.25  129.91850  129.91850    7.69890    6.63340    -999.25    6.63340    -999.25    0.40170    0.35890 2357.39500   10.31550  -25.48280   -4.14260   10.31550
 1150.00000  221.23710  225.58510  221.23710   93.50340   20.23050 2400.02170    -999.25    0.15150    0.18130   10.69480   20.23050  308.92380  308.92380  168.92340    -999.25  158.40840  158.40840   10.69480    8.48440    -999.25    8.48440    -999.25    0.40290    0.36000 2403.93380   15.58440  -24.55360   -4.12340   15.58440
 1200.00000  227.48490  242.93080  227.48490  160.57290   39.25050 2536.44370    -999.25    0.06880    0.10150    6.22770   39.25050  277.87160  277.87160  123.33280    -999.25  113.56760  113.56760    6.22770    5.78620    -999.25    5.78620    -999.25    0.28530    0.24130 2561.57010    9.37130  -25.32140   -2.56880    9.37130
 1250.00000  224.26070  239.89780  224.26070  174.59620   72.59470 2531.60100    -999.25    0.07180    0.10430    5.72750   72.59470  290.30440  290.30440  134.28460    -999.25  116.01330  116.01330    5.72750    5.25030    -999.25    5.25030    -999.25    0.32610    0.28230 2563.78560    9.81600  -24.18010   -2.93370    9.81600
 1300.00000  224.06390  262.13850  224.06390  215.21110   67.53460 2479.16730    -999.25    0.10350    0.13500    4.64660   67.53460  305.94050  305.94050  146.71280    -999.25  130.11220  130.11220    4.64660    4.46800    -999.25    4.46800    -999.25    0.37610    0.33280 2496.31840    7.34810  -22.78140   -3.04120    7.34810
 1350.00000  224.27980  234.88330  224.27980  216.45020   50.07350 2493.67730    -999.25    0.09470    0.12650    4.62000   50.07350  287.71220  287.71220  117.20090    -999.25  108.03720  108.03720    4.62000    4.30260    -999.25    4.30260    -999.25    0.30670    0.26270 2487.75070    6.54930  -21.69570   -3.46340    6.54930
 1400.00000  220.87390  240.43010  220.87390  329.76090   76.27380 2474.89380    -999.25    0.10610    0.13750    3.03250   76.27380  343.92260  343.92260  117.57750    -999.25   95.42610   95.42610    3.03250    2.77650  241.95850    2.77650    -999.25    0.35980    0.31630 2481.00780    3.11750  -22.58020   -3.80300    3.11750
 1450.00000  221.60990  230.70820  221.60990  116.04700   36.93070 2475.10000    -999.25    0.10600    0.13740    8.61720   36.93070  246.21320  246.21320   80.40270    -999.25   62.64130   62.64130    8.61720    7.57420  235.06960    7.57420    -999.25    0.26340    0.21940 2465.49540   14.93640  -22.53050   -4.26660   14.93640
 1500.00000  240.54530  243.43950  240.54530   89.34870  111.92880 2484.79540    -999.25    0.10010    0.13170   11.19210  111.92880  228.47390  228.47390   55.53030    -999.25   50.16470   50.16470   11.19210   10.60960  226.88810   10.60960    -999.25    0.27280    0.22880 2487.02270   15.04570  -28.79550  -12.64480   15.04570
