~Version ---------------------------------------------------
VERS.      2.0 : CWLS log ASCII Standard -VERSION 2.0
WRAP.       NO : One line per depth step
CREA. 09/06/14 : LAS Creation Date
~Well ------------------------------------------------------
STRT.FT                         300.0 : START DEPTH
STOP.FT                       11250.0 : STOP DEPTH
STEP.FT                      50.00000 : STEP LENGTH
NULL.                         -999.25 : NULL VALUE
COMP.            MOBIL OIL CANADA LTD : COMPANY
WELL. MOBIL ET AL ROSEVEAR 10-4-54-15 : WELL
FLD .                              WC : FIELD
LOC .                                 : LOCATION
CTRY.                          CANADA : COUNTRY
SRVC.                    Schlumberger : SERVICE COMPANY
DATE.                     09-Jul-1971 : LOGDATE
PROV.                         Alberta : PROVINCE
UWI .                100100405415W500 : UNIQUE WELL ID
SLAT.WGS84                   53.63557 : SURFACE LATITUDE
SLON.WGS84                  -116.1457 : SURFACE LONGITUDE
~Curve Information -----------------------------------------
DEPT   .FT                : DEPTH FEET
CALD   .IN   45 280 60 00 : CALIPER FROM DENSITY LOG
CALN   .IN   41 280 60 00 : CALIPER FROM NEUTRON LOG
CALS   .IN   60 280 50 00 : CALIPER FROM SONIC LOG
CILD   .MMHO 05 110 46 00 : INDUCTION DEEP CONDUCTIVITY
DPHI_LS.DEC  45 890 10 00 : DENSITY POROSITY LIMESTONE
DRHO   .G/C3 45 356 01 00 : BULK DENSITY CORRECTION
DT     .US/F 60 500 00 00 : DELTA-T (INTERVAL TRANSIT TIME)
GRD    .GAPI 45 310 01 00 : GAMMA RAY FROM DENSITY LOG
GRN    .GAPI 41 310 01 00 : GAMMA RAY FROM GRN LOG
GRS    .GAPI 60 310 01 00 : GAMMA RAY FROM SONIC LOG
ILD    .OHMM 05 120 46 00 : INDUCTION DEEP RESISTIVITY
MCAL   .IN   15 280 01 00 : MLT (MICROLOG) CALIPER
RHOB   .G/C3 45 350 01 00 : BULK DENSITY
SN     .OHMM 05 040 16 00 : SHORT NORMAL RESISTIVITY
SNP_LS .DEC  41 890 01 00 : SIDEWALL NEUTRON POROSITY [LIMESTONE]
SPR    .MV   05 010 01 00 : SPONTANEOUS POTENTIAL FROM RESISTIVITY LOG
~Params ----------------------------------------------------
PD  .                     GL : PERMANENT DATUM
EPD .FT                 2903 : ELEVATION PERMANENT DATUM
LMF .                     KB : LOG MEASURED FROM
DAPD.FT                   13 : FEET ABOVE PERMANENT DATUM
EKB .FT                 2916 : KELLY BUSHING
EGL .FT                 2903 : GROUND LEVEL
DATE.               07/09/71 : RUN DATE
RUN .                      1 : RUN NUMBER
DD  .FT                11300 : DEPTH DRILLER
DL  .FT                11289 : DEPTH LOGGER
BLI .FT                11288 : BOTTOM LOG INTERVAL
TLI .FT                 1176 : TOP LOG INTERVAL
CBD .FT                 1176 : CASING BOTTOM DRILLER
CBL .FT                 1176 : CASING BOTTOM LOGGER
BS  .IN                 8.75 : BIT SIZE
BSD .FT                11300 : BIT SIZE AT DEPTH
DFT .                    GEL : DRILLING FLUID TYPE
DFD .                    9.1 : DRILLING FLUID DENSITY
DFV .                    100 : DRILLING FLUID VISCOSITY
DFPH.                     11 : DRILLING FLUID PH
DFL .                    8.2 : DRILLING FLUID LOSS
RMS .OHMM               2.46 : RESISTIVITY MUD SAMPLE
MST .DEGF                 71 : MUD SAMPLE TEMPERATURE
RMF .OHMM               2.36 : RESISTIVITY MUD FILTRATE SAMPLE
MFST.DEGF                 72 : MUD FILTRATE SAMPLE TEMPERATURE
RMC .OHMM               2.22 : RESISTIVITY MUD CAKE
MCST.DEGF                 72 : MUD CAKE SAMPLE TEMPERATURE
TCS .HRS                   5 : TIME CIRCULATED STOPPED
LUN .                   7501 : LOGGING UNIT NUMBER
LUL .                    EDM : LOGGING UNIT LOCATION
ENGI.                  PLUNE : RECORDING ENGINEER
WITN.                   DOAN : WITNESSED BY
CLNT.                A2DTECH : CLIENT CODE
ORIG.            2" 5" PRINT : ORIGIN OF DATA
UWI .       100100405415W500 : UNIQUE WELL ID
DICO. A2D Technologies, Inc. : DIGITIZING COMPANY
~Other -----------------------------------------------------
~ASCII -----------------------------------------------------
# ...
 4600.00000    -999.25    -999.25   11.75080   80.08060    -999.25    -999.25   78.24790    -999.25    -999.25   99.15800   12.72840    -999.25    -999.25   13.54240    -999.25  -46.28880
 4650.00000    -999.25    -999.25   11.44260   79.43720    -999.25    -999.25   80.76520    -999.25    -999.25   97.51360   12.77210    -999.25    -999.25   13.88740    -999.25  -45.63740
 4700.00000    -999.25    -999.25   11.22810   73.77160    -999.25    -999.25   82.25220    -999.25    -999.25   97.51200   13.83790    -999.25    -999.25   15.16330    -999.25  -44.94400
 4750.00000    -999.25    -999.25   10.67060   82.59690    -999.25    -999.25   87.04840    -999.25    -999.25  111.34430   12.31830    -999.25    -999.25   14.59620    -999.25  -43.24170
 4800.00000    -999.25    -999.25   10.87420   66.19080    -999.25    -999.25   85.02260    -999.25    -999.25  107.23450   15.24670    -999.25    -999.25   19.72330    -999.25  -42.78120
 4850.00000    -999.25    -999.25   10.83130   87.73460    -999.25    -999.25   83.50600    -999.25    -999.25  104.26470   11.51840    -999.25    -999.25   13.09140    -999.25  -43.36510
 4900.00000    -999.25    -999.25   10.35540   95.40070    -999.25    -999.25   81.88930    -999.25    -999.25   97.80800   10.77380    -999.25    -999.25   12.20630    -999.25  -44.34150
 4950.00000    -999.25    -999.25   10.04180  113.72900    -999.25    -999.25   82.87470    -999.25    -999.25   86.63560    8.73790    -999.25    -999.25    9.76250    -999.25  -44.68030
 5000.00000    -999.25    -999.25   10.11100  104.31790    -999.25    -999.25   81.02130    -999.25    -999.25   97.01060    9.89370    -999.25    -999.25   10.54450    -999.25 -124.49990
 5050.00000    -999.25    -999.25   10.30240  109.78320    -999.25    -999.25   80.37360    -999.25    -999.25   93.90720    9.21810    -999.25    -999.25   10.17440    -999.25 -123.47690
 5100.00000    -999.25    -999.25   10.56510   91.65940    -999.25    -999.25   76.99030    -999.25    -999.25   87.01330   11.00910    -999.25    -999.25   11.68770    -999.25 -123.17800
 5150.00000    -999.25    -999.25   10.92910  115.02530    -999.25    -999.25   79.01730    -999.25    -999.25   94.74720    8.74450    -999.25    -999.25   10.27090    -999.25 -121.91360
 5200.00000    -999.25    -999.25   10.83930   90.96210    -999.25    -999.25   85.17950    -999.25    -999.25  104.29280   11.07380    -999.25    -999.25   12.08380    -999.25 -121.13520
 5250.00000    -999.25    -999.25   10.37360  140.94940    -999.25    -999.25   83.53490    -999.25    -999.25   99.83020    7.12280    -999.25    -999.25    8.10850    -999.25 -121.43960
 5300.00000   12.90300   13.28200   10.25250  103.77130    0.40180    -999.25   80.68460  120.81130   95.85920   95.50510    9.70890    9.50370    2.03910   10.57310    0.39350 -121.24230
 5350.00000   12.33700   12.23800   10.60210  108.77140    0.40850    0.22190   83.03300  125.08910  100.17880  100.51260    9.29290   10.08160    2.03180   10.33700    0.39070 -121.65930
 5400.00000   10.87960   10.70150    9.80180   56.67440    0.21190    -999.25   70.93570  107.77110   78.57630   79.67720   17.90510    9.10260    2.41780   19.56940    0.22060 -120.21620
 5450.00000   12.05700   11.63210   10.20820   84.49520    0.34880    -999.25   77.31700  130.21060  102.80200   93.15650   11.91820    9.32150    2.12540   12.50480    0.34020 -118.62530
 5500.00000   11.45750   11.44960   10.28900   79.02250    0.36130    -999.25   76.57110  123.48200   92.99960   90.72600   12.84170   10.10220    2.12130   14.13650    0.32270 -119.46890
 5550.00000   12.20520   11.85150   10.11970   91.84500    0.22470    -999.25   80.02120  121.24220   90.51070   82.60000   10.98950    9.94860    2.27190   11.89780    0.35750 -118.97210
 5600.00000   11.90100   11.28970   10.16870   88.25280    0.31700    -999.25   78.10550  128.76360   97.11480   94.72190   11.41650   10.16130    2.26220   12.81240    0.32420 -118.36930
 5650.00000   11.20440   11.01700    9.92400   98.97510    0.33940    0.24910   82.31300  135.86220  103.60260   94.96370   10.14250    9.85680    2.13060   11.81340    0.36880 -116.15120
 5700.00000   12.45980   11.85900   10.23550  107.77300    0.36300    -999.25   90.65680  141.96690  102.11280  101.56260    9.35010    9.74600    2.16650   11.22610    0.40240 -115.65750
 5750.00000   10.44680   10.50750    9.97070   71.38600    0.20460    -999.25   87.12170  150.30840  118.40500  114.89850   14.16510    9.13690    2.38860   18.14870    0.27490 -114.87020
 5800.00000   10.86120    -999.25    9.93290   81.51890    -999.25    -999.25   84.20520  135.54920    -999.25  105.50150   12.37700    -999.25    2.36950   15.71280    -999.25 -114.09550
 5850.00000   11.20020    -999.25   10.19850   69.43600    -999.25    -999.25   87.14730  136.60680    -999.25  104.99830   14.49260    -999.25    2.22840   18.83300    -999.25 -113.71900
 5900.00000   10.34440    -999.25    9.69820   56.04500    -999.25    -999.25   88.88530  139.58520    -999.25  114.00730   18.01690    -999.25    2.49420   23.77100    -999.25 -113.01840
 5950.00000   11.15480    -999.25    9.86820   43.74210    -999.25    0.24900   83.11910  149.34350    -999.25  110.88620   22.62880    -999.25    2.35200   28.90230    -999.25 -110.97740
 6000.00000   10.53430    -999.25   10.05830   66.12430    -999.25    -999.25   88.24120  148.98500    -999.25  105.81770   15.23690    -999.25    2.34400   18.87160    -999.25 -110.75340
 6050.00000   11.14650    -999.25    9.90970   56.69470    -999.25    -999.25   97.82610  140.53590    -999.25  128.51800   17.88280    -999.25    2.16580   23.29920    -999.25 -110.26410
 6100.00000   12.02830    -999.25    9.85640  114.44460    -999.25    -999.25   78.30670   95.76230    -999.25   91.52420    8.80820    -999.25    2.22680   10.20720    -999.25 -112.25790
 6150.00000   11.75790    -999.25   10.79450  115.08490    -999.25    -999.25   87.05760  106.70630    -999.25  105.47060    8.71960    -999.25    2.07420   10.49080    -999.25 -111.54130
 6200.00000   12.65480    -999.25   10.74490  131.44170    -999.25    0.24780   83.91190  102.52910    -999.25   98.71990    7.65510    -999.25    2.08130    9.38610    -999.25 -110.97160
 6250.00000   12.49350    -999.25   10.28110   97.39370    -999.25    -999.25   79.04620   94.65070    -999.25   94.19080   10.33670    -999.25    2.23450   12.37480    -999.25 -110.69290
 6300.00000   13.09290    -999.25   10.60380  113.30630    -999.25    0.17630   81.38810  111.56960    -999.25  104.77040    8.86750    -999.25    2.06590   10.98430    -999.25 -110.02300
 6350.00000   13.81820   15.14980   10.49700  108.59640    -999.25    0.20940   89.36100  119.99800  122.10380  127.82150    9.27530    -999.25    2.21610   11.23560    -999.25 -109.55030
 6400.00000   14.55760    -999.25   11.93610  215.35840    0.30010    0.23730   90.26440   87.65380   85.55230   86.82530    4.66730   13.52020    2.16480    5.64860    0.24030 -109.08650
 6450.00000    -999.25    -999.25   12.82690  199.00110    0.52110    0.18540   97.70520   95.63800   90.22270   81.33440    4.96310   13.46700    1.83820    5.63500    0.42120 -111.11830
 6500.00000   12.59080    9.93080   11.82700   46.02330    0.46020    0.21910   81.64720   76.26080   56.10440   61.56520   20.64580   12.63230    2.00240   23.07670    0.35120 -109.76790
 6550.00000    9.90780   10.15550    9.99140   43.10070    0.17850    0.08250   70.19680   89.36970   80.48920   79.51580   22.45500    9.99690    2.48990   25.54570    0.08630 -108.97590
 6600.00000   12.11240   13.59150   10.30110   98.42300    0.38870    0.24930   78.08780   89.75670   83.74120   85.75020   10.23880   11.12300    2.05600   12.33120    0.24170 -107.15470
 6650.00000   15.00020   14.99500   15.34050  208.46040    0.59620    0.15490  146.98350   59.09960   49.50540   49.93140    4.83960   17.87530    1.66060    7.77090    0.45260 -108.25080
 6700.00000    9.36900    9.12120    9.41450   46.97960    0.06030    0.04640   66.75810   77.70140   68.36860   67.58180   20.88550    9.01960    2.67830   25.82120    0.10590 -107.70970
