~Version ---------------------------------------------------
VERS.      2.0 : CWLS log ASCII Standard -VERSION 2.0
WRAP.       NO : One line per depth step
CREA. 10/01/14 : LAS Creation Date
~Well ------------------------------------------------------
STRT.FT                                        800.0 : START DEPTH
STOP.FT                                       7700.0 : STOP DEPTH
STEP.FT                                     50.00000 : STEP LENGTH
NULL.                                        -999.25 : NULL VALUE
COMP. GREAT PLAINS DEVELOPMENT COMPANY OF CANADA LTD : COMPANY
WELL.                   GRT PLNS THUNDER LK 2-6-59-4 : WELL
FLD .                                                : FIELD
LOC .                                                : LOCATION
CTRY.                                         CANADA : COUNTRY
SRVC.                                   Schlumberger : SERVICE COMPANY
DATE.                                    23-Jun-1962 : LOGDATE
PROV.                                        Alberta : PROVINCE
UWI .                               100020605904W500 : UNIQUE WELL ID
SLAT.WGS84                                  54.06654 : SURFACE LATITUDE
SLON.WGS84                                 -114.5851 : SURFACE LONGITUDE
~Curve Information -----------------------------------------
DEPT.FT    : DEPTH FEET
CALS.IN    : CALIPER FROM SONIC LOG
CILD.MMHO  : CONDUCTIVITY FROM IE LOG
DT  .US/F  : DELTA TIME SPACING 3' PICKUP SPAN 3' FROM SONIC LOG
DT1 .US/F  : DELTA TIME SPACING 3' PICKUP SPAN 1' FROM SONIC LOG
DT2 .US/F  : DELTA TIME SPACING 3' PICKUP SPAN 3' FROM SONIC LOG
DT3 .US/F  : DELTA TIME SPACING 3' PICKUP SPAN 1' FROM SONIC LOG
GRS .GAPI  : GAMMA RAY FROM SONIC LOG
ILD .OHMM  : INDUCTION LOG DEEP RESISTIVITY FROM IE LOG
SN  .OHMM  : 16 INCH SHORT NORMAL RESISTIVITY FROM IE LOG
SPR .MV    : SPONTANEOUS POTENTIAL FROM IE LOG
~Params ----------------------------------------------------
PD  .                 GROUND : PERMANENT DATUM
EPD .FT                 2131 : ELEVATION PERMANENT DATUM
LMF .                     KB : LOG MEASURED FROM
DAPD.FT                 12.3 : FEET ABOVE PERMANENT DATUM
EKB .FT               2143.3 : KELLY BUSHING
EGL .FT                 2131 : GROUND LEVEL
DATE.             06/23/1962 : RUN DATE
RUN .                      2 : RUN NUMBER
CBD .FT                  804 : CASING BOTTOM DRILLER
BS  .IN                 8.75 : BIT SIZE
DFT .              SALT& GEL : DRILLING FLUID TYPE
DFD .                   10.6 : DRILLING FLUID DENSITY
DFV .                     70 : DRILLING FLUID VISCOSITY
DFPH.                      7 : DRILLING FLUID PH
DFL .                    6.6 : DRILLING FLUID LOSS
RMF .OHMM               1.02 : RESISTIVITY MUD FILTRATE SAMPLE
MFST.DEGF                 69 : MUD FILTRATE SAMPLE TEMPERATURE
RMC .OHMM               1.85 : RESISTIVITY MUD CAKE
MCST.DEGF                 69 : MUD CAKE SAMPLE TEMPERATURE
ENGI.             ARMBRUSTER : RECORDING ENGINEER
WITN.                GOODMAN : WITNESSED BY
CLNT.                A2DTECH : CLIENT CODE
ORIG.           2", 5" PRINT : ORIGIN OF DATA
UWI .       100020605904W500 : UNIQUE WELL ID
DICO. A2D Technologies, Inc. : DIGITIZING COMPANY
~Other -----------------------------------------------------
~ASCII -----------------------------------------------------
  800.00000    -999.25    -999.25    -999.25    -999.25    -999.25    -999.25   47.91870    -999.25    -999.25    -999.25
  850.00000    8.92590  108.63620  113.63270    -999.25    -999.25    -999.25   63.51800    8.75210    9.22970  -52.07000
  900.00000    9.76470  130.58370  122.38980    -999.25    -999.25    -999.25   58.40560    8.14720    8.77820  -60.54860
  950.00000    9.35550  109.62590  122.17890    -999.25    -999.25    -999.25   69.76870    9.05370   10.15930  -64.02110
 1000.00000   12.10530  194.97230  114.27380    -999.25    -999.25    -999.25   57.52610    5.31340    5.84010  -55.45360
 1050.00000    9.79220  182.52730  138.49870    -999.25    -999.25    -999.25   60.74020    5.65920    6.22130  -53.21160
 1100.00000   11.31740  217.32080  133.62490    -999.25    -999.25    -999.25   60.31670    4.52620    4.88420  -51.28940
 1150.00000   13.71000  210.54820  117.66890    -999.25    -999.25    -999.25   53.82310    4.79450    5.55110  -52.12460
 1200.00000    9.55640  192.83070    -999.25    -999.25    -999.25    -999.25   58.62390    4.96540    5.51740  -52.47830
 1250.00000    9.35060  171.84700  129.18140    -999.25    -999.25    -999.25   69.59180    5.90460    6.24450  -52.45950
 1300.00000   11.68630  180.83970  114.27910    -999.25    -999.25    -999.25   65.20560    5.81750    6.11730  -52.07360
 1350.00000   11.73370  172.20540   97.09490    -999.25    -999.25    -999.25   53.87180    6.01710    6.53210  -53.18360
 1400.00000   10.27580  156.97220  109.15330    -999.25    -999.25    -999.25   52.41770    6.20930    6.79350  -53.47590
 1450.00000   10.64950  238.89310  114.37770    -999.25    -999.25    -999.25   64.54130    4.32760    5.29630  -54.79020
 1500.00000    9.31670  190.37550   84.72030    -999.25   80.00160    -999.25   45.00890    5.45210    6.61760  -55.69830
 1550.00000    9.84240  185.21360  109.74680    -999.25    -999.25    -999.25   66.81180    5.57660    6.35110  -54.69520
 1600.00000   11.95710  213.19970  114.42520    -999.25    -999.25    -999.25   71.67000    4.94300    5.87870  -54.04190
 1650.00000   11.47430  177.09570  109.61250    -999.25    -999.25    -999.25   78.81290    5.82240    6.48150  -53.69410
 1700.00000   10.92870  106.94750  102.59970    -999.25    -999.25    -999.25   72.40390    9.34240   10.35890  -55.37690
 1750.00000   10.37310  131.52630  102.06030    -999.25    -999.25    -999.25   81.14650    7.59010    8.33610  -57.44560
 1800.00000   10.64870  115.41600  112.51210    -999.25    -999.25    -999.25   87.15980    8.53890    9.23310  -59.89920
 1850.00000   12.24730  120.15240  105.34750    -999.25    -999.25    -999.25   82.62540    8.33750    8.72690  -57.46390
 1900.00000    9.63100  146.85050  117.64140    -999.25    -999.25    -999.25   93.09750    6.89200    8.22440  -63.45910
 1950.00000    9.93530  142.21010  109.32430    -999.25    -999.25    -999.25   95.68650    7.24320    8.94990  -70.16740
 2000.00000   10.27900  125.63480  110.13420    -999.25    -999.25    -999.25  106.07490    8.10820   10.64600  -38.40470
 2050.00000   10.32430  143.20760  114.68060    -999.25    -999.25    -999.25   95.25850    7.16470    8.68400  -41.91380
 2100.00000   10.38380  173.56760  113.13560    -999.25    -999.25    -999.25   89.76530    5.97790    7.34030  -40.54580
 2150.00000   10.72670  130.98420   98.43820    -999.25    -999.25    -999.25   85.30240    7.72260    9.25520  -40.26200
 2200.00000   10.39250   97.80560   93.06570    -999.25    -999.25    -999.25   90.68540   10.20640   11.34500  -42.33490
 2250.00000   10.22630  119.10270   99.99940    -999.25    -999.25    -999.25   85.97930    8.62010    9.10450  -42.24220
 2300.00000   10.07770  128.01490  100.53030    -999.25    -999.25    -999.25   90.28800    7.99120    8.93430  -41.14930
 2350.00000   10.08730  135.43010   99.83900    -999.25    -999.25    -999.25   91.80810    7.48060    8.09450    2.96990
 2400.00000   10.63390   94.71680   93.70320    -999.25    -999.25    -999.25   83.47080   10.39520   10.58220    2.70340
 2450.00000   10.11360  119.14580   84.67580    -999.25    -999.25    -999.25   98.73270    8.53680    9.34890    0.73460
 2500.00000   10.15600  118.30590   99.32530    -999.25    -999.25    -999.25   96.93490    8.56290    9.77420  -54.87880
 2550.00000   10.19770  145.93630  103.36550    -999.25    -999.25    -999.25   98.76950    6.95710    8.38880  -50.14540
 2600.00000    9.46750  122.92400  103.95050    -999.25    -999.25    -999.25  113.10080    8.12060   10.56980  -49.69270
 2650.00000    9.66830  111.51510  103.12030    -999.25    -999.25    -999.25  101.57960    8.98620   11.53640  -50.80710
 2700.00000    9.73440  118.57810  102.69630    -999.25    -999.25    -999.25  118.33530    8.48540   13.10210  -48.63190
 2750.00000    9.72780   99.25680  110.18870    -999.25    -999.25    -999.25  125.19400   10.08000   13.65480  -48.74580
 2800.00000   10.31980  106.71320   88.90040    -999.25    -999.25    -999.25   98.51310    9.42220   11.41560  -50.01260
 2850.00000   11.05120  146.16610   99.98070    -999.25    -999.25    -999.25  100.45350    6.92060    8.56360  -46.96520
 2900.00000   11.87880  183.96530  105.17140    -999.25    -999.25    -999.25  100.13000    5.39120    7.62620  -46.02820
 2950.00000   10.61020  167.81120   99.71730    -999.25    -999.25    -999.25  111.29590    6.04010    8.41340  -46.77780
 3000.00000   10.41120  400.57950  119.78650    -999.25    -999.25    -999.25  239.84610    2.55500    3.73900  -43.89900
 3050.00000    9.85590  361.32390  107.80230    -999.25    -999.25    -999.25   98.51420    2.73520    3.47630  -44.89510
 3100.00000   10.47070  285.34690  101.03410   97.83990    -999.25    -999.25   95.78600    3.53170    4.45200  -46.29340
 3150.00000    9.20280  114.48870   80.07670   83.56940   79.81420   79.95180   84.29330    8.85080   10.48930  -46.03510
 3200.00000    8.84810  175.12410   81.36860   80.57480   80.51970   78.90430   57.02760    5.76310   12.92620  -78.82310
 3250.00000   10.58350  237.07950   86.75060   90.98290    -999.25   74.37470   84.91570    4.69010    7.53590  -51.23800
 3300.00000    9.61130   81.43590   98.89740  110.87470    -999.25    -999.25   78.90600   12.68590   18.55070  -46.88870
 3350.00000    9.19770  137.88180   82.05410   84.51820   80.54640    -999.25   76.28230    7.28340    9.84500  -48.23940
 3400.00000    9.39790  110.33600   83.83850   86.08030    -999.25    -999.25   74.21600    9.10270   11.76590  -51.27600
 3450.00000    9.46240  136.41870   93.42020   83.85570    -999.25    -999.25   70.05040    7.46050   11.27130  -46.40640
 3500.00000    9.21510   41.53730   63.41630   64.38830   63.34000   64.66350   45.49490   24.81090   38.18250  -54.02000
 3550.00000    9.62530  217.01200   83.04630   81.71110    -999.25    -999.25   76.08530    4.79520   10.25080  -71.41380
 3600.00000    9.74840  149.08440   82.76350   83.17690    -999.25    -999.25   81.52830    6.79280   10.11650  -60.70640
 3650.00000    9.67450  147.39490   80.28170   80.34270   79.87300   79.90090   84.60810    7.03240    9.80250  -54.16710
 3700.00000    9.40130  120.70790   85.42300   88.02950    -999.25    -999.25   67.73150    8.35240   11.16650  -55.83180
 3750.00000   10.23500  135.11560   88.42490  105.92210   80.04120   79.98090   74.06880    7.57850   10.23280  -40.45450
 3800.00000    9.73670   88.42330   86.13430   88.76010    -999.25   79.92870   87.44010   11.34900   16.43450  -37.51270
 3850.00000    9.76630   80.01950   83.72000  131.09230   79.50340   79.96670  130.58870   12.82820   13.24560  -47.47340
 3900.00000    8.84590    9.49520   52.06840   50.46960   51.75080   50.63350   26.89350  110.19760  108.41450  -39.97640
 3950.00000    8.81450    6.86280   51.20740   50.29820   51.05270   49.82260   30.84690  153.44840  131.06490  -39.72880
 4000.00000    8.92120   20.48860   56.74880   58.36110   56.48460   57.92450   30.53890   51.22100   53.86460  -47.67370
 4050.00000    9.09860   29.99680   57.37000   56.76730   56.97280   56.17920   35.57740   35.04560   39.97920  -48.66060
