~Version ---------------------------------------------------
VERS.      2.0 : CWLS log ASCII Standard -VERSION 2.0
WRAP.       NO : One line per depth step
CREA. 11/22/17 : LAS Creation Date
~Well ------------------------------------------------------
STRT.FT                        650.0 : START DEPTH
STOP.FT                       4150.0 : STOP DEPTH
STEP.FT                     50.00000 : STEP LENGTH
NULL.                        -999.25 : NULL VALUE
COMP. CANADIAN OIL COMPANIES LIMITED : COMPANY
WELL.    WHITE ROSE RADWAY 4-7-59-20 : WELL
FLD .                                : FIELD
LOC .                                : LOCATION
CTRY.                         CANADA : COUNTRY
SRVC.         Schlumberger of Canada : SERVICE COMPANY
DATE.                    19-Jun-1960 : LOGDATE
PROV.                        Alberta : PROVINCE
UWI .               100040705920W400 : UNIQUE WELL ID
SLAT.WGS84                  54.08042 : SURFACE LATITUDE
SLON.WGS84                 -112.9972 : SURFACE LONGITUDE
~Curve Information -----------------------------------------
DEPT  .FT    : Depth Curve
CALWS .IN    : CALIPER [MCALED]
CILDED.MMHO  : CONDUCTIVITY FROM RESISTIVITY LOG
CONDWS.MMHO  : CONDUCTIVITY [1000/DRESWS]
DRESWS.OHMM  : DEEP RESISTIVITY [1000/CILDED, IF ILDED<2, ILDED]
ILDED .OHMM  : DEEP INDUCTION RESISTIVITY FROM RESISTIVITY LOG
MCALED.IN    : MICROCALIPER FROM MICROLOG
SNED  .OHMM  : SHORT NORMAL 16" RESISTIVITY FROM RESISTIVITY LOG
SPRED .MV    : SPONTANEOUS POTENTIAL FROM RESISTIVITY LOG
SPWS  .MV    : SPONTANEOUS POTENTIAL [BASELINE 0 MV, SPRED]
SRESWS.OHMM  : SHALLOW RESISTIVITY [SNED]
~Params ----------------------------------------------------
LMF .                     KB : LOG MEASURED FROM
DMF .                     KB : DRILLING MEASURED FROM
EKB .FT                 2094 : KELLY BUSHING
EGL .FT               2083.5 : GROUND LEVEL
DATE.               06/19/60 : RUN DATE
RUN .                      1 : RUN NUMBER
DD  .FT                 4200 : DEPTH DRILLER
DL  .FT                 4202 : DEPTH LOGGER
BLI .FT                 4196 : BOTTOM LOG INTERVAL
TLI .FT                  631 : TOP LOG INTERVAL
CBD .FT                  631 : CASING BOTTOM DRILLER
CBL .FT                  631 : CASING BOTTOM LOGGER
BS  .IN                7.875 : BIT SIZE
BSD .FT                 4200 : BIT SIZE AT DEPTH
DFT .                    GEL : DRILLING FLUID TYPE
DFD .                   10.2 : DRILLING FLUID DENSITY
DFV .                     60 : DRILLING FLUID VISCOSITY
DFPH.                    9.5 : DRILLING FLUID PH
DFL .                    7.8 : DRILLING FLUID LOSS
RMF .OHMM               1.56 : RESISTIVITY MUD FILTRATE SAMPLE
MFST.DEGF                 72 : MUD FILTRATE SAMPLE TEMPERATURE
RMC .OHMM               2.66 : RESISTIVITY MUD CAKE
MCST.DEGF                 73 : MUD CAKE SAMPLE TEMPERATURE
TCS .HRS                 1.5 : TIME CIRCULATED STOPPED
LUN .                   1574 : LOGGING UNIT NUMBER
LUL .                    SKW : LOGGING UNIT LOCATION
ENGI.               WILLIAMS : RECORDING ENGINEER
WITN.                  LIKES : WITNESSED BY
CLNT.                A2DTECH : CLIENT CODE
ORIG.            2" 5" PRINT : ORIGIN OF DATA
UWI .       100040705920W400 : UNIQUE WELL ID
DICO. A2D Technologies, Inc. : DIGITIZING COMPANY
~Other -----------------------------------------------------
IEL-ML TOOL RUN
RESISTIVITY LOG (TOP TO 1490') FROM SMALL SECTION
~ASCII -----------------------------------------------------
  650.00000    -999.25  343.88960  339.85860    2.94240    2.94240    -999.25    4.17920  -99.41000   -1.24010    4.17920
  700.00000    -999.25  261.96380  254.64350    3.92710    3.92710    -999.25    4.47240 -101.17880   -3.45270    4.47240
  750.00000    -999.25  252.95790  245.90570    4.06660    4.06660    -999.25    4.84960 -104.36560   -7.08050    4.84960
  800.00000    -999.25  198.60450  194.90140    5.13080    5.13080    -999.25    6.16110 -111.06820  -14.22410    6.16110
  850.00000    -999.25  215.49020  216.78810    4.61280    4.61280    -999.25    5.32730 -107.55740  -11.15720    5.32730
  900.00000    -999.25  209.63360  203.40090    4.91640    4.91640    -999.25    5.59730 -108.05250  -12.09330    5.59730
  950.00000    -999.25  206.03340  203.96660    4.90280    4.90280    -999.25    5.66710 -119.17520  -23.65990    5.66710
 1000.00000    -999.25  232.56220  227.29860    4.39950    4.39950    -999.25    5.18810 -119.46390  -24.38960    5.18810
 1050.00000    -999.25  235.60360  231.37970    4.32190    4.32190    -999.25    5.29610 -118.67130  -24.03790    5.29610
 1100.00000    -999.25  239.05630  232.66640    4.29800    4.29800    -999.25    5.50950 -114.51570  -20.32620    5.50950
 1150.00000    -999.25  236.22410  231.28340    4.32370    4.32370    -999.25    5.59770 -118.84190  -25.09340    5.59770
 1200.00000    -999.25  222.42190  220.16380    4.54210    4.54210    -999.25    5.92330 -115.21990  -21.91530    5.92330
 1250.00000    -999.25  208.34320  205.83760    4.85820    4.85820    -999.25    6.05810 -118.85820  -25.99460    6.05810
 1300.00000    -999.25  190.35710  193.74960    5.16130    5.16130    -999.25    5.64400 -120.33060  -27.90800    5.64400
 1350.00000    -999.25  227.16110  222.26170    4.49920    4.49920    -999.25    5.64800 -115.86870  -23.89000    5.64800
 1400.00000    -999.25  180.11430  180.06010    5.55370    5.55370    -999.25    6.46520 -121.28320  -29.74540    6.46520
 1450.00000    -999.25  209.31700  206.07950    4.85260    4.85260    -999.25    5.69570 -117.18920  -26.09530    5.69570
 1500.00000    9.36130  251.59670  243.33860    4.10950    4.10950    9.36130    5.00450 -110.71110  -20.05820    5.00450
 1550.00000    8.95360  206.81000  198.15320    5.04660    5.04660    8.95360    6.30310 -101.51370  -11.30180    6.30310
 1600.00000    8.76250  215.09890  208.35940    4.79940    4.79940    8.76250    6.27780 -102.20120  -12.43320    6.27780
 1650.00000    8.78480  250.33820  243.16110    4.11250    4.11250    8.78480    5.63690 -114.75820  -25.43120    5.63690
 1700.00000    9.43400  227.95220  219.66560    4.55240    4.55240    9.43400    5.93370 -101.09750  -12.21440    5.93370
 1750.00000    9.53290  333.38000  330.10930    3.02930    3.02930    9.53290    3.70330  -98.35740   -9.91520    3.70330
 1800.00000    9.74220  372.46310  371.84400    2.68930    2.68930    9.74220    3.33140  -97.27810   -9.01230    3.33140
 1850.00000   10.43560  447.16520  454.13260    2.20200    2.20200   10.43560    2.77190  -97.97460   -9.74360    2.77190
 1900.00000   10.17670  385.64470  382.08770    2.61720    2.61720   10.17670    3.32310  -98.17100   -9.97460    3.32310
 1950.00000   10.06460  297.84130  291.41480    3.43160    3.43160   10.06460    4.10030  -99.63490  -11.47340    4.10030
 2000.00000   12.00690  455.95890  456.01710    2.19290    2.19290   12.00690    2.59910  -96.33610   -8.20920    2.59910
 2050.00000   12.37810  569.78980  569.78980    1.75500    1.74940   12.37810    2.19540  -91.71360   -3.62140    2.19540
 2100.00000    8.93390  280.82890  275.95340    3.62380    3.62380    8.93390    4.08240 -100.32940  -12.27200    4.08240
 2150.00000    8.62330  239.98590  242.23630    4.12820    4.12820    8.62330    5.32790  -93.53950   -5.51680    5.32790
 2200.00000    8.59400  309.46930  308.12850    3.24620    3.24620    8.59400    4.29320 -101.04650  -13.05860    4.29320
 2250.00000    7.70830  357.62940  356.76060    2.80300    2.80300    7.70830    6.57940 -128.53110  -40.57790    6.57940
 2300.00000    8.14810   79.82790   69.64220   14.35910   14.35910    8.14810   23.49270 -120.58910  -32.67050   23.49270
 2350.00000    8.14360  114.53030   83.93980   11.91330   11.91330    8.14360   15.61050  -88.96260   -1.07880   15.61050
 2400.00000    8.10190   76.90760   64.40970   15.52560   15.52560    8.10190   32.34150 -100.57220  -12.72310   32.34150
 2450.00000    7.92100  242.23140  243.10680    4.12110    4.12110    7.92100    7.79630 -119.77680  -31.96250    7.79630
 2500.00000    8.78540  374.61560  372.84220    2.68210    2.68210    8.78540    3.27240 -111.82880  -24.04920    3.27240
 2550.00000    8.10990  288.08640  287.87750    3.47370    3.47370    8.10990    7.67030 -122.30380  -34.55880    7.67030
 2600.00000    7.46020  477.86850  477.86850    2.09260    1.98550    7.46020    7.38900 -164.30270  -76.59260    7.38900
 2650.00000    8.11250  373.86010  376.91760    2.65310    2.65310    8.11250    5.07560 -111.23810  -23.56260    5.07560
 2700.00000    7.55700  359.98820  364.00250    2.74740    2.74740    7.55700   16.70050 -196.47250 -108.83180   16.70050
 2750.00000    7.51140  171.82700  160.80270    6.21880    6.21880    7.51140   24.07370 -186.95240  -99.34640   24.07370
 2800.00000    8.07870  162.37480  158.33060    6.31590    6.31590    8.07870    7.51180 -116.70460  -29.13320    7.51180
 2850.00000    7.53050  100.48390   91.19010   10.96610   10.96610    7.53050   41.32500 -182.87380  -95.33730   41.32500
 2900.00000    7.61950   80.08710   69.47290   14.39410   14.39410    7.61950   56.48360 -189.23820 -101.73630   56.48360
 2950.00000    7.44450  101.87080   94.27260   10.60760   10.60760    7.44450   32.85150 -185.27390  -97.80690   32.85150
 3000.00000    7.91360   89.99020   74.00560   13.51250   13.51250    7.91360   20.17780 -108.87580  -21.44340   20.17780
 3050.00000    8.01640   84.36270   62.50310   15.99920   15.99920    8.01640   22.80250  -91.23240   -3.83460   22.80250
 3100.00000    8.07540  144.49590  142.83270    7.00120    7.00120    8.07540   10.25300 -115.30160  -27.93870   10.25300
 3150.00000    7.98420   99.40540   83.07510   12.03730   12.03730    7.98420   20.08670  -95.93320   -8.60490   20.08670
 3200.00000    9.14550  317.54330  323.33850    3.09300    3.09300    9.14550    3.96650 -121.74750  -34.45410    3.96650
 3250.00000    8.49720  267.61560  268.53570    3.72390    3.72390    8.49720    4.49580  -97.63900  -10.38020    4.49580
 3300.00000    7.93360   62.87660   54.47780   18.35610   18.35610    7.93360   21.56910  -97.31050  -10.48050   21.56910
 3350.00000    8.18520  217.02810  215.72650    4.63550    4.63550    8.18520    5.84220  -88.56580   -3.02710    5.84220
 3400.00000    7.78990   60.65550   50.40350   19.83990   19.83990    7.78990   22.55450 -107.80070  -23.54490   22.55450
 3450.00000    7.77920   58.31580   45.81300   21.83020   21.83020    7.77920   22.87870 -108.37820  -25.41360   22.87870
 3500.00000    7.94860  104.32260   93.70140   10.67220   10.67220    7.94860   13.56220  -91.27630   -9.59460   13.56220
 3550.00000    8.01120  171.01240  167.35280    5.97540    5.97540    8.01120    7.74860  -88.40330   -8.00440    7.74860
 3600.00000    8.07040  220.69650  212.83840    4.69840    4.69840    8.07040    6.70630  -91.36790  -12.26030    6.70630
 3650.00000    7.78070   49.25870   37.03090   27.00450   27.00450    7.78070   32.57930  -88.25890  -10.43420   32.57930
 3700.00000    8.09580  181.60860  179.67230    5.56820    5.56820    8.09580    7.44600  -79.37790   -2.84450    7.44600
 3750.00000    8.74920  273.72710  239.07430    4.18280    4.18280    8.74920    7.32550  -98.38140  -23.13080    7.32550
 3800.00000    7.81440   82.10320   72.43230   13.80600   13.80600    7.81440   21.56750  -78.77770   -4.79140   21.56750
 3850.00000    7.84530  115.18490  100.50450    9.94980    9.94980    7.84530   14.21820  -76.45340   -3.52140   14.21820
 3900.00000    7.36020  155.53490  151.35000    6.60720    6.60720    7.36020   43.15380 -171.41650  -99.53190   43.15380
