~Version ---------------------------------------------------
VERS.      2.0 : CWLS log ASCII Standard -VERSION 2.0
WRAP.       NO : One line per depth step
CREA. 09/27/17 : LAS Creation Date
~Well ------------------------------------------------------
STRT.FT                             850.0 : START DEPTH
STOP.FT                            7200.0 : STOP DEPTH
STEP.FT                          50.00000 : STEP LENGTH
NULL.                             -999.25 : NULL VALUE
COMP.                  FORGOTSON AND BURK : COMPANY
WELL. FORGOTSON-BURK ROWLEY W 10-34-32-21 : WELL
FLD .                                     : FIELD
LOC .                                     : LOCATION
CTRY.                              CANADA : COUNTRY
SRVC.              Schlumberger of Canada : SERVICE COMPANY
DATE.                         18-Nov-1962 : LOGDATE
PROV.                             Alberta : PROVINCE
UWI .                    100103403221W400 : UNIQUE WELL ID
SLAT.WGS84                       51.78894 : SURFACE LATITUDE
SLON.WGS84                      -112.8948 : SURFACE LONGITUDE
~Curve Information -----------------------------------------
DEPT  .FT    : Depth Curve
ACED  .US/F  : ACOUSTIC FROM SONIC LOG [ADJ. TO RESISTIVITY LOG]
CALIED.IN    : CALIPER FROM CALIPER LOG
CALWS .IN    : CALIPER [CALIED]
CILDED.MMHO  : CONDUCTIVITY INDUCTION FROM RESISTIVITY LOG
CONDWS.MMHO  : CONDUCTIVITY [1000/DRESWS]
DRESWS.OHMM  : DEEP RESISTIVITY [ILDED]
DTWS  .US/F  : COMPRESSIONNAL SONIC [ACED]
GRRED .GAPI  : GAMMA RAY FROM RESISTIVITY LOG
GRWS  .GAPI  : GAMMA RAY [GRRED]
ILDED .OHMM  : DEEP INDUCTION RESISTIVITY  FROM RESISTIVITY LOG
SNED  .OHMM  : SHORT NORMAL  FROM RESISTIVITY LOG
SPRED .MV    : SPONTANEOUS POTENTIAL FROM RESISTIVITY
SPWS  .MV    : SPONTANEOUS POTENTIAL [BASELINE 0 MV, SPRED]
SRESWS.OHMM  : SHALLOW RESISTIVITY [SNED]
~Params ----------------------------------------------------
PD  .                     GL : PERMANENT DATUM
EPD .FT               3003.4 : ELEVATION PERMANENT DATUM
LMF .                     KB : LOG MEASURED FROM
DAPD.FT                 12.6 : FEET ABOVE PERMANENT DATUM
EKB .FT                 3016 : KELLY BUSHING
EGL .FT               3003.4 : GROUND LEVEL
DATE.               11/18/62 : RUN DATE
RUN .                      1 : RUN NUMBER
DD  .FT                 7224 : DEPTH DRILLER
DL  .FT                 7223 : DEPTH LOGGER
BLI .FT                 7222 : BOTTOM LOG INTERVAL
TLI .FT                  794 : TOP LOG INTERVAL
CBD .FT                  794 : CASING BOTTOM DRILLER
CBL .FT                  794 : CASING BOTTOM LOGGER
BS  .IN                7.875 : BIT SIZE
BSD .FT                 7224 : BIT SIZE AT DEPTH
DFT .               GYP BASE : DRILLING FLUID TYPE
DFD .                   10.4 : DRILLING FLUID DENSITY
DFV .                     70 : DRILLING FLUID VISCOSITY
DFPH.                   10.5 : DRILLING FLUID PH
DFL .                    9.4 : DRILLING FLUID LOSS
MSS .                  0.285 : MUD SAMPLE SOURCE
RMS .OHMM                 71 : RESISTIVITY MUD SAMPLE
MST .DEGF              0.155 : MUD SAMPLE TEMPERATURE
RMF .OHMM                 67 : RESISTIVITY MUD FILTRATE SAMPLE
MFST.DEGF               0.68 : MUD FILTRATE SAMPLE TEMPERATURE
RMC .OHMM                 67 : RESISTIVITY MUD CAKE
RMB .OHMM               0.14 : RESISTIVITY MUD AT BHT
TCS .HRS                   3 : TIME CIRCULATED STOPPED
LUN .                   3815 : LOGGING UNIT NUMBER
ENGI.                 GORITZ : RECORDING ENGINEER
WITN.                  CLARK : WITNESSED BY
CLNT.                A2DTECH : CLIENT CODE
ORIG.        2" 5" 25" PRINT : ORIGIN OF DATA
UWI .       100103403221W400 : UNIQUE WELL ID
DICO. A2D Technologies, Inc. : DIGITIZING COMPANY
~Other -----------------------------------------------------
IEL & COMPOSITE LOG
~ASCII -----------------------------------------------------
# ...
 5750.00000   77.00000   13.24300   13.24300   22.26620    8.71130  114.79350   77.00000   20.91600   20.91600  114.79350   58.13320  -23.92640  -19.70930   58.13320
 5800.00000   54.01200    8.50300    8.50300    0.00040    5.92220  180.87610   54.01200   14.96400   14.96400  180.87610   60.35860  -35.51300  -31.80470   60.35860
 5850.00000   52.41600    8.29700    8.29700    0.00040    5.41250  184.75920   52.41600   13.78800   13.78800  184.75920   70.80440  -63.53380  -60.33770   70.80440
 5900.00000   53.45000    8.61700    8.61700    -999.25    2.10770  531.56800   53.45000   14.82000   14.82000  531.56800   44.84280  -38.89610  -36.20880   44.84280
 5950.00000   53.29200    8.29300    8.29300    8.97490    9.48600  105.41860   53.29200   14.41200   14.41200  105.41860   54.80240  -56.42550  -54.25040   54.80240
 6000.00000   48.97600    8.08200    8.08200   30.37960   29.08910   34.37710   48.97600   40.88400   40.88400   34.37710   45.32340  -57.92480  -56.25860   45.32340
 6050.00000   51.44000    7.95450    7.95450    0.53650    1.27280  785.66350   51.44000   19.47000   19.47000  785.66350   71.11250  -49.98690  -48.82950   71.11250
 6100.00000   58.20800    7.62700    7.62700   76.62980   77.36700   12.92540   58.20800   12.68400   12.68400   12.92540   21.09360  -48.59440  -47.94920   21.09360
 6150.00000   51.26400    7.91000    7.91000   34.49140   31.24540   32.11270   51.26400   17.80200   17.80200   32.11270   28.94960  -65.36240  -65.22600   28.94960
 6200.00000   58.65200    8.22800    8.22800   36.83100   35.02270   28.55290   58.65200   52.65600   52.65600   28.55290   19.71230  -50.09170  -50.46750   19.71230
 6250.00000   54.26400    8.21800    8.21800   11.67740   10.07350   99.27040   54.26400   51.43200   51.43200   99.27040   28.30740  -17.61230  -18.49690   28.30740
 6300.00000   67.99600    8.22450    8.22450   53.70150   51.28750   19.49960   67.99600   72.06600   72.06600   19.49960   15.45990  -27.61330  -29.00680   15.45990
 6350.00000   65.11400    7.99700    7.99700   38.92940   36.84540   27.14040   65.11400   91.40400   91.40400   27.14040   19.76240  -29.99280  -31.89850   19.76240
 6400.00000   60.51600    8.08900    8.08900   27.26530   25.86730   38.65950   60.51600   69.88200   69.88200   38.65950   23.42930  -24.37150  -26.78600   23.42930
 6450.00000   62.03200    8.06700    8.06700   35.46840   33.82050   29.56790   62.03200   61.02000   61.02000   29.56790   20.40820  -19.29640  -22.22310   20.40820
 6500.00000   67.33600    8.14500    8.14500   55.32050   51.84010   19.29010   67.33600   66.03600   66.03600   19.29010   15.45750  -27.26360  -30.69910   15.45750
 6550.00000   67.61000    8.17200    8.17200   54.21730   50.83390   19.67200   67.61000   85.80600   85.80600   19.67200   15.89080  -60.03640  -63.98080   15.89080
 6600.00000   71.59200    8.19500    8.19500   49.40390   45.93500   21.76990   71.59200   78.49200   78.49200   21.76990   19.82320  -30.77340  -35.23000   19.82320
 6650.00000   57.34000    8.11550    8.11550   27.30770   26.35570   38.49380   57.34000   42.21600   42.21600   38.49380   34.02330   -5.21490  -10.18030   34.02330
 6700.00000   61.20800    7.99600    7.99600    0.00040    1.26640  789.65300   61.20800   72.63600   72.63600  789.65300   43.26250  -50.98120  -56.00350   43.26250
 6750.00000   72.10800    7.97600    7.97600    0.37680    1.27230  785.98860   72.10800   40.24800   40.24800  785.98860   79.42140  -32.08070  -37.10300   79.42140
 6800.00000   52.61200    7.93600    7.93600    0.00040    1.27200  786.16740   52.61200   13.53000   13.53000  786.16740   67.13020  -21.23320  -26.25550   67.13020
 6850.00000   54.72600    7.43900    7.43900  147.91870  134.56050    7.43160   54.72600   12.90000   12.90000    7.43160   20.76230  -49.24170  -54.26400   20.76230
 6900.00000   51.60000    7.79000    7.79000    6.02560    5.05690  198.46140   51.60000   15.26400   15.26400  198.46140   54.28910  -25.03190  -30.05420   54.28910
 6950.00000   54.55000    7.90400    7.90400    8.18980    6.45310  154.96350   54.55000   22.63200   22.63200  154.96350   52.89300  -25.58590  -30.60820   52.89300
 7000.00000   56.70800    7.71800    7.71800   44.75640   42.02140   23.79740   56.70800    7.74000    7.74000   23.79740   30.81590  -59.91270  -64.93500   30.81590
 7050.00000   56.69000    7.95400    7.95400    7.68610    6.22860  160.62650   56.69000   38.37000   38.37000  160.62650   45.52810  -77.02620  -82.04850   45.52810
 7100.00000   62.14400    7.94300    7.94300   16.82310   15.57790   64.19340   62.14400   51.68400   51.68400   64.19340   42.08930  -73.87740  -78.89970   42.08930
 7150.00000   57.26000    7.75100    7.75100   21.77020   19.53730   51.33480   57.26000    8.95200    8.95200   51.33480   32.73270  -56.18970  -61.21200   32.73270
 7200.00000   50.87600    7.83500    7.83500    0.00040    1.27520  784.17290   50.87600    0.18000    0.18000  784.17290   59.76670  -81.51550  -86.53780   59.76670
