~Version ---------------------------------------------------
VERS.      2.0 : CWLS log ASCII Standard -VERSION 2.0
WRAP.       NO : One line per depth step
CREA. 01/04/18 : LAS Creation Date
~Well ------------------------------------------------------
STRT.FT                               650.0 : START DEPTH
STOP.FT                             10100.0 : STOP DEPTH
STEP.FT                            50.00000 : STEP LENGTH
NULL.                               -999.25 : NULL VALUE
COMP. HUDSONS BAY OIL & GAS COMPANY LIMITED : COMPANY
WELL.        HUDSONS BAY KAYBOB 12-22-63-19 : WELL
FLD .                                       : FIELD
LOC .                                       : LOCATION
CTRY.                                CANADA : COUNTRY
SRVC.                Schlumberger of Canada : SERVICE COMPANY
DATE.                           23-Nov-1959 : LOGDATE
PROV.                               Alberta : PROVINCE
UWI .                      100122206319W500 : UNIQUE WELL ID
SLAT.WGS84                         54.46704 : SURFACE LATITUDE
SLON.WGS84                        -116.7943 : SURFACE LONGITUDE
~Curve Information -----------------------------------------
DEPT  .FT    : Depth Curve
CALWS .IN    : CALIPER [MCALED]
CILED .MMHO  : CONDUCTIVITY FROM RESISTIVITY LOG
CONDWS.MMHO  : CONDUCTIVITY [1000/DRESWS]
DRESWS.OHMM  : DEEP RESISTIVITY [IF ILED<1;1000/CILED;ELSE ILED]
GRED  .GAPI  : GAMMA RAY [DEPTH ADJ. TO ILED]
GRNED .RU    : GAMMA RAY FROM NEUTRON LOG [DEPTH ADJ. TO ILED]
GRWS  .GAPI  : GAMMA RAY [GRNED*2.16]
ILED  .OHMM  : INDUCTION LOG RESISTIVITY
MCALED.IN    : CALIPER MICROLOG
NEUTED.EU    : NEUTRON FROM GRN LOG [DEPTH ADJ. TO ILED]
NEUTWS.EU    : NEUTRON [NEUTED]
SNED  .OHMM  : 16 INCH SHORT NORMAL RESISTIVITY FROM IEL
SPRED .MV    : SPONTANEOUS POTENTIAL FROM RESISTIVITY LOG
SPWS  .MV    : SPONTANEOUS POTENTIAL [BASELINE 0 MV] [SPRED]
SRESWS.OHMM  : SHALLOW RESISTIVITY [SNED]
~Params ----------------------------------------------------
LMF .                     KB : LOG MEASURED FROM
DMF .                     KB : DRILLING MEASURED FROM
EKB .FT                 2583 : KELLY BUSHING
DATE.               11/23/59 : RUN DATE
RUN .                      1 : RUN NUMBER
DD  .FT                10107 : DEPTH DRILLER
DL  .FT                10109 : DEPTH LOGGER
BLI .FT                10104 : BOTTOM LOG INTERVAL
TLI .FT                  619 : TOP LOG INTERVAL
CBD .FT                  619 : CASING BOTTOM DRILLER
CBL .FT                  619 : CASING BOTTOM LOGGER
BS  .IN                 8.75 : BIT SIZE
BSD .FT                10107 : BIT SIZE AT DEPTH
DFT .                    GEL : DRILLING FLUID TYPE
DFD .                   10.4 : DRILLING FLUID DENSITY
DFV .                     97 : DRILLING FLUID VISCOSITY
DFPH.                      9 : DRILLING FLUID PH
DFL .                    5.8 : DRILLING FLUID LOSS
RMS .OHMM                1.6 : RESISTIVITY MUD SAMPLE
MST .DEGF                 62 : MUD SAMPLE TEMPERATURE
RMF .OHMM                1.5 : RESISTIVITY MUD FILTRATE SAMPLE
MFST.DEGF                 76 : MUD FILTRATE SAMPLE TEMPERATURE
RMC .OHMM                2.5 : RESISTIVITY MUD CAKE
MCST.DEGF                 74 : MUD CAKE SAMPLE TEMPERATURE
RMB .OHMM                0.5 : RESISTIVITY MUD AT BHT
TCS .HRS                 3.5 : TIME CIRCULATED STOPPED
LUN .                  15730 : LOGGING UNIT NUMBER
LUL .                     WC : LOGGING UNIT LOCATION
ENGI.              PATTERSON : RECORDING ENGINEER
WITN.                 STUART : WITNESSED BY
CLNT.                A2DTECH : CLIENT CODE
ORIG.            2" 5" PRINT : ORIGIN OF DATA
UWI .       100122206319W500 : UNIQUE WELL ID
DICO. A2D Technologies, Inc. : DIGITIZING COMPANY
~Other -----------------------------------------------------
~ASCII -----------------------------------------------------
# ...
 7550.00000    9.23580   32.84280   29.11640   34.34490    -999.25  102.47000  102.47000   34.34480    9.23580 2397.30460 2397.30450   77.84500  -82.73320  -58.67930   77.84500
 7600.00000    8.91030   28.37590   22.28610   44.87100    -999.25  161.49180  161.49180   44.87100    8.91030 2462.19560 2462.19560  150.57780  -76.00090  -51.37590  150.57780
 7650.00000    9.08230   23.93650   15.35560   65.12280    -999.25  134.32260  134.32260   65.12280    9.08230 2772.10130 2772.10130  145.47800 -127.31460 -102.12140  145.47800
 7700.00000    8.99590   24.38720   16.98880   58.86240    -999.25  128.31090  128.31090   58.86240    8.99590 2733.94360 2733.94360  163.24910 -125.74720  -99.98570  163.24910
 7750.00000   10.02130   24.96190   20.86520   47.92680    -999.25  152.35750  152.35750   47.92680   10.02130 2739.70460 2739.70460  150.85340 -132.63430 -106.30460  150.85340
 7800.00000   10.94060   28.79460   22.52620   44.39280    -999.25  122.42060  122.42060   44.39280   10.94060 2379.51920 2379.51920  121.95100 -142.72820 -115.83300  121.95090
 7850.00000   12.03800   27.01630   21.27300   47.00790    -999.25  117.29970  117.29970   47.00790   12.03800 2189.43460 2189.43460  157.06240 -129.77390 -102.30770  157.06240
 7900.00000   11.06460   33.56430   27.81400   35.95310    -999.25  109.94380  109.94380   35.95310   11.06460 2460.09330 2460.09330   81.41690 -144.47060 -116.43610   81.41690
 7950.00000   10.89700   30.57180   24.09340   41.50520    -999.25   86.88580   86.88580   41.50520   10.89700 2331.71020 2331.71020  108.26650 -131.13230 -102.52960  108.26650
 8000.00000   12.24210   27.50340   21.57070   46.35910    -999.25  114.94180  114.94180   46.35910   12.24210 2329.63570 2329.63570  155.86380 -124.61590  -95.44500  155.86380
 8050.00000   10.60320   35.75780   31.04300   32.21340    -999.25   93.53960   93.53960   32.21330   10.60320 2365.84460 2365.84460  102.39960 -141.07860 -111.34220  102.39970
 8100.00000   12.85100   27.31410   21.52270   46.46260    -999.25  107.62050  107.62050   46.46260   12.85100 1918.34390 1918.34390  138.89960 -129.88200  -99.57460  138.89960
 8150.00000    9.31510   29.96640   24.96150   40.06170    -999.25  107.01310  107.01310   40.06170    9.31510 2388.08060 2388.08060  101.77340 -143.74070 -112.86500  101.77340
 8200.00000    9.04300   52.07010   45.54960   21.95410    -999.25  110.13880  110.13880   21.95410    9.04300 2057.05320 2057.05320   70.02300 -158.77550 -127.33160   70.02300
 8250.00000    8.99910   53.98350   49.64450   20.14320    -999.25   88.25110   88.25110   20.14320    8.99910 2106.26710 2106.26710   88.92820 -220.52310 -188.51090   88.92820
 8300.00000   10.77300   30.64530   24.33260   41.09710    -999.25   89.27610   89.27610   41.09710   10.77300 1785.00630 1785.00640  111.26990 -148.62160 -116.04400  111.26990
 8350.00000    8.91740   57.52790   52.50940   19.04420    -999.25  135.91370  135.91370   19.04420    8.91740 2188.95090 2188.95090   62.16300 -149.29810 -116.14940   62.16300
 8400.00000    9.85600   32.39980   27.65480   36.16010    -999.25   95.73080   95.73080   36.16010    9.85600 2544.67500 2544.67500  101.96050 -162.25300 -128.53610  101.96050
 8450.00000    9.02970   29.43430   25.24000   39.61970    -999.25  103.67610  103.67610   39.61970    9.02970 2462.85570 2462.85570  111.29780 -181.40030 -147.11510  111.29780
 8500.00000    8.57160   55.25580   46.77990   21.37670    -999.25  106.13420  106.13420   21.37670    8.57160 2094.04910 2094.04910   78.51500 -195.32490 -160.47150   78.51500
 8550.00000   11.96920   34.69530   27.62170   36.20340    -999.25   98.64680   98.64680   36.20340   11.96920 2182.35210 2182.35200  100.22180 -128.41600  -92.99720  100.22180
 8600.00000    9.02280   24.78060   17.06040   58.61520    -999.25  108.17090  108.17090   58.61520    9.02280 2617.50390 2617.50390  138.11700  -64.36190  -28.37200  138.11700
 8650.00000    9.03490   35.79230   28.74540   34.78820    -999.25  150.41010  150.41010   34.78820    9.03490 2548.81420 2548.81420   83.03470  -42.74840   -6.25540   83.03470
 8700.00000   10.88040   89.20630   82.19760   12.16580    -999.25  107.81640  107.81640   12.16580   10.88040 1579.36520 1579.36520   23.70050  -59.57790  -25.77570   23.70050
 8750.00000    9.40810   89.11390   80.89370   12.36190    -999.25  109.60960  109.60960   12.36190    9.40810 1841.36710 1841.36710   25.30980  -60.34840  -29.23700   25.30980
 8800.00000    9.31130   89.81900   83.33400   11.99990    -999.25  101.03280  101.03280   11.99990    9.31130 1882.92450 1882.92450   24.43090  -47.96750  -19.53350   24.43090
 8850.00000    9.72410  117.69320  109.71770    9.11430    -999.25   94.28160   94.28160    9.11430    9.72410 1534.91420 1534.91420   18.25820  -58.63390  -32.90410   18.25820
 8900.00000    9.26660   67.85650   60.29400   16.58540    -999.25   77.05040   77.05040   16.58540    9.26660 1628.01340 1628.01340   29.72600  -58.39970  -35.36070   29.72600
 8950.00000    9.13160  104.08650   97.26300   10.28140    -999.25  101.88810  101.88810   10.28140    9.13160 1610.61660 1610.61660   20.54330  -67.60490  -47.25670   20.54330
 9000.00000    9.03840   50.42630   39.72940   25.17030    -999.25  102.40730  102.40730   25.17030    9.03840 1627.28050 1627.28050   40.03260  -60.86750  -43.21010   40.03260
 9050.00000    9.29110  160.70600  142.88160    6.99880    -999.25   80.21880   80.21880    6.99880    9.29110 1482.87650 1482.87650   11.37880  -57.93760  -42.95760   11.37880
 9100.00000   12.01460  201.19270  177.35530    5.63840    -999.25   93.73040   93.73040    5.63840   12.01460 1304.31570 1304.31570    8.81450  -51.78960  -39.51380    8.81450
 9150.00000   12.50740  224.77630  185.84250    5.38090    -999.25   92.06980   92.06980    5.38090   12.50740 1298.90980 1298.90980    7.99090  -38.73180  -29.14680    7.99090
 9200.00000   13.58310  238.02560  182.84210    5.46920    -999.25   92.52100   92.52100    5.46920   13.58310 1371.77890 1371.77890    7.59970  -35.24390  -28.34970    7.59970
 9250.00000    9.10320   70.16290   64.74750   15.44460    -999.25  110.46780  110.46780   15.44460    9.10320 1845.64780 1845.64780   27.08130  -26.24690  -22.04350   27.08130
 9300.00000    9.00060  109.36290  103.18370    9.69140    -999.25   99.63170   99.63170    9.69140    9.00060 1712.28620 1712.28620   18.35000  -15.35780  -13.83170   18.35000
 9350.00000    9.04060  117.84780  105.32750    9.49420    -999.25  114.47850  114.47850    9.49420    9.04060 1638.14490 1638.14490   15.14570   -2.21230   -3.39050   15.14570
 9400.00000    9.04600  126.89150  118.83260    8.41520    -999.25  108.16440  108.16440    8.41520    9.04600 1707.12480 1707.12480   15.10860    0.13650   -3.73250   15.10860
 9450.00000    9.03400  124.23640  112.92290    8.85560    -999.25  113.81860  113.81860    8.85560    9.03400 1615.22920 1615.22920   15.88880   -5.61950   -9.62300   15.88880
 9500.00000    9.27020  121.71530  112.27120    8.90700    -999.25  108.53960  108.53960    8.90700    9.27020 1240.31400 1240.31400   14.39860  -10.23390  -14.23740   14.39860
 9550.00000    8.96900  101.52220   93.79100   10.66200   55.92080   73.84080   73.84080   10.66200    8.96900 1453.89960 1453.89960   20.25970   -0.81630   -4.81980   20.25970
 9600.00000    9.03160   16.23870    9.29050  107.63640   77.71010   58.45910   58.45910  107.63640    9.03160 1531.72070 1531.72070  142.72190   -1.77640   -5.77990  142.72190
 9650.00000    8.94980   16.25670    9.04090  110.60890  106.36110  134.27550  134.27550  110.60890    8.94980 1673.94730 1673.94730  132.10810  -23.47280  -27.47630  132.10810
 9700.00000    8.92440   24.87660   17.10010   58.47910   36.23920   33.99880   33.99880   58.47910    8.92440 1933.34090 1933.34090   81.11100   -6.11520  -10.11870   81.11100
 9750.00000   10.44170   51.97440   43.22550   23.13450   81.00800   94.69350   94.69350   23.13450   10.44170 1404.52050 1404.52050   34.83910  -34.39120  -38.39470   34.83910
 9800.00000    8.90920   26.47550   20.78300   48.11630   26.52710   33.29810   33.29810   48.11630    8.90920 1940.46550 1940.46550  100.65590  -38.33700  -42.34050  100.65590
