~Version ---------------------------------------------------
VERS.      2.0 : CWLS log ASCII Standard -VERSION 2.0
WRAP.       NO : One line per depth step
CREA. 11/16/17 : LAS Creation Date
~Well ------------------------------------------------------
STRT.FT                       1100.0 : START DEPTH
STOP.FT                      10650.0 : STOP DEPTH
STEP.FT                     50.00000 : STEP LENGTH
NULL.                        -999.25 : NULL VALUE
COMP.           PETROFINA CANADA LTD : COMPANY
WELL. FINA AMOCO HB PASSCK 10-6-61-1 : WELL
FLD .                             WC : FIELD
LOC .                                : LOCATION
CTRY.                         CANADA : COUNTRY
SRVC.                   Schlumberger : SERVICE COMPANY
DATE.                    16-Nov-1976 : LOGDATE
PROV.                        Alberta : PROVINCE
UWI .               100100606117W500 : UNIQUE WELL ID
SLAT.WGS84                  54.24964 : SURFACE LATITUDE
SLON.WGS84                 -116.5333 : SURFACE LONGITUDE
~Curve Information -----------------------------------------
DEPT    .FT    : Depth Curve
CALDED  .IN    : CALIPER FROM DENSITY LOG
CALSED  .IN    : CALIPER FROM SONIC LOG [ADJ. TO GRDED]
CALWS   .IN    : CALIPER [CALSED SPL. TO CALDED @ 2270']
CILDED  .MMHO  : CONDUCTIVITY FROM RESISTIVITY LOG
CONDWS  .MMHO  : CONDUCTIVITY [1000/DRESWS]
DCORED  .G/C3  : DENSITY CORRECTION FROM DENSITY LOG
DCORWS  .G/C3  : DENSITY CORRECTION [DCORED]
DENWS   .G/C3  : FORMATION BULK DENSITY [RHOBED]
DPHILSED.V/V   : DENSITY POROSITY LIMESTONE [M=2.71, F=1.00] FROM DENSITY LOG [ADJ. TO RHOBED]
DPHISSED.V/V   : DENSITY POROSITY SANDSTONE [M=2.65, F=1.00] FROM DENSITY LOG [ADJ. TO RHOBED]
DPOLSWS .V/V   : DENSITY POROSITY LIMESTONE [CALC FROM DENWS, M=2.71, F=1.00]
DRESWS  .OHMM  : DEEP RESISTIVITY [1000/CILDED IF ILDED<=1.9, ILDED & SPL. TO ILDED @ 2250']
DTED    .US/F  : DELTA TIME FROM SONIC LOG [ADJ. TO GRDED]
DTWS    .US/F  : COMPRESSIONAL SONIC [DTED]
GRDED   .GAPI  : GAMMA RAY FROM DENSITY LOG
GRSED   .GAPI  : GAMMA RAY FROM SONIC LOG [ADJ. TO GRDED]
GRWS    .GAPI  : GAMMA RAY [GRSED SPL. TO GRDED @ 2276']
ILDED   .OHMM  : DEEP INDUCTION RESISTIVITY FROM RESISTIVITY LOG
ILMED   .OHMM  : MEDIUM INDUCTION RESISTIVITY FROM RESISTIVITY LOG
LL8ED   .OHMM  : 8 INCH LATEROLOG RESISTIVITY FROM RESISTIVITY LOG
MRESWS  .OHMM  : MEDIUM RESISTIVITY [ILMED]
NPHILSED.V/V   : NEUTRON POROSITY LIMESTONE FROM DENSITY LOG [ADJ. TO RHOBED]
NPHISSED.V/V   : NEUTRON POROSITY SANDSTONE FROM DENSITY LOG [ADJ. TO RHOBED]
NPOLSWS .V/V   : NEUTRON POROSITY LIMESTONE [SS CONVERTED TO  LS & SPL. TO NPHILSED @ 6854.5']
RHOBED  .G/C3  : BULK DENSITY FROM DENSITY LOG
SPRED   .MV    : SPONTANEOUS POTENTIAL FROM RESISTIVITY LOG
SPWS    .MV    : SPONTANEOUS POTENTIAL [BASELINE 0 MV, SPRED]
SRESWS  .OHMM  : SHALLOW RESISTIVITY [LL8ED]
~Params ----------------------------------------------------
PD  .                     GL : PERMANENT DATUM
EPD .FT                 3080 : ELEVATION PERMANENT DATUM
LMF .                     KB : LOG MEASURED FROM
DAPD.FT                   16 : FEET ABOVE PERMANENT DATUM
EKB .FT                 3096 : KELLY BUSHING
EGL .FT                 3080 : GROUND LEVEL
DATE.               11/16/76 : RUN DATE
RUN .                      2 : RUN NUMBER
DD  .FT                10680 : DEPTH DRILLER
DL  .FT                10679 : DEPTH LOGGER
BLI .FT                10673 : BOTTOM LOG INTERVAL
TLI .FT                 7468 : TOP LOG INTERVAL
CBD .FT                 1102 : CASING BOTTOM DRILLER
CBL .FT                 1102 : CASING BOTTOM LOGGER
BS  .IN                 8.75 : BIT SIZE
BSD .FT                10680 : BIT SIZE AT DEPTH
DFT .                    GEL : DRILLING FLUID TYPE
DFD .                    9.2 : DRILLING FLUID DENSITY
DFV .                     94 : DRILLING FLUID VISCOSITY
DFPH.                     10 : DRILLING FLUID PH
DFL .                    8.2 : DRILLING FLUID LOSS
MSS .               FLOWLINE : MUD SAMPLE SOURCE
RMS .OHMM               1.57 : RESISTIVITY MUD SAMPLE
MST .DEGF                 65 : MUD SAMPLE TEMPERATURE
RMF .OHMM               1.76 : RESISTIVITY MUD FILTRATE SAMPLE
MFST.DEGF                 68 : MUD FILTRATE SAMPLE TEMPERATURE
TCS .HRS                 2.5 : TIME CIRCULATED STOPPED
LUN .                   7800 : LOGGING UNIT NUMBER
LUL .                    EDM : LOGGING UNIT LOCATION
ENGI.     ROBELLI LEDUG BIGG : RECORDING ENGINEER
WITN.                CHARLES : WITNESSED BY
CLNT.                A2DTECH : CLIENT CODE
ORIG.            2" 5" PRINT : ORIGIN OF DATA
UWI .       100100606117W500 : UNIQUE WELL ID
DICO. A2D Technologies, Inc. : DIGITIZING COMPANY
~Other -----------------------------------------------------
~ASCII -----------------------------------------------------
# ...
 3600.00000    9.77090    9.30960    9.77090    -999.25   71.57740    0.05310    0.05310    2.46060    -999.25    0.12200    0.14580   13.97090   83.33850   83.33850   44.08520   48.27280   44.08520   13.97090   13.40290   16.65660   13.40290    -999.25    0.27880    0.23480    2.46060  -34.05890  -20.12170   16.65660
 3650.00000    9.94870    9.76550    9.94870    -999.25  129.24290    0.11300    0.11300    2.46330    -999.25    0.10960    0.14420    7.73760   86.35460   86.35460   62.85120   70.42750   62.85120    7.73760    6.98910    8.09410    6.98910    -999.25    0.34330    0.29960    2.46330  -18.59370   -4.74030    8.09410
 3700.00000    9.66170    9.14510    9.66170    -999.25   85.53810    0.06690    0.06690    2.49210    -999.25    0.11390    0.12740   11.69070   80.10460   80.10460   54.43390   62.56470   54.43390   11.69070   10.81980   10.14080   10.81980    -999.25    0.30070    0.25670    2.49210  -22.42330   -9.56560   10.14080
 3750.00000   10.06810    9.88930   10.06810    -999.25  152.05790    0.16540    0.16540    2.48870    -999.25    0.09930    0.12940    6.57660   89.90370   89.90370   73.86180   86.26880   73.86180    6.57660    6.09230    7.01190    6.09230    -999.25    0.33970    0.29600    2.48870  -16.68320   -4.81460    7.01190
 3800.00000   11.41650   10.59070   11.41650    -999.25  115.45330    0.19080    0.19080    2.12650    -999.25    0.30320    0.34130    8.66170   85.57290   85.57290   86.07950   89.69120   86.07950    8.66170    7.82330    8.25710    7.82330    -999.25    0.32000    0.27620    2.12650  -16.30630   -4.43940    8.25710
 3850.00000   11.37720    9.73230   11.37720    -999.25  119.31750    0.22920    0.22920    2.05800    -999.25    0.37570    0.38130    8.38100   81.89580   81.89580   86.13720  100.39770   86.13720    8.38100    7.89300    8.04180    7.89300    -999.25    0.35760    0.31410    2.05800  -18.72390   -5.94020    8.04180
 3900.00000   11.84080   10.44570   11.84080    -999.25  119.07710    0.22100    0.22100    2.11390    -999.25    0.32610    0.34860    8.39810   86.48000   86.48000   86.05900   97.83410   86.05900    8.39810    7.89480    9.03970    7.89480    -999.25    0.34820    0.30460    2.11390  -19.11990   -5.42540    9.03970
 3950.00000   12.65490   10.55950   12.65490    -999.25  136.59150    0.20880    0.20880    2.05160    -999.25    0.35280    0.38500    7.32110   93.69100   93.69100  102.06630  114.00170  102.06630    7.32110    6.92200    8.18550    6.92200    -999.25    0.37260    0.32930    2.05160  -18.70390   -4.51860    8.18550
 4000.00000   10.35850    9.51470   10.35850    -999.25  115.46370    0.25070    0.25070    2.36630    -999.25    0.18500    0.20090    8.67240   97.72650   97.72650  130.61050  143.62040  130.61050    8.67240    8.18900   11.86000    8.18900    -999.25    0.35550    0.31190    2.36630  -19.01290   -5.05280   11.86000
 4050.00000   10.25510    9.90750   10.25510    -999.25   87.22180    0.15020    0.15020    2.50730    -999.25    0.09680    0.11860   11.46540   88.17530   88.17530  105.73720  116.49060  105.73720   11.46540   10.82060   12.92220   10.82060    -999.25    0.32190    0.27800    2.50730  -18.96920   -5.23440   12.92220
 4100.00000   11.45280   10.47820   11.45280    -999.25  114.84090    0.07440    0.07440    2.54080    -999.25    0.07070    0.09890    8.70770   88.63790   88.63790   97.59960  108.38750   97.59960    8.70770    8.23310    9.56310    8.23310    -999.25    0.29490    0.25090    2.54080  -18.99500   -5.48690    9.56310
 4150.00000   12.09050   10.56270   12.09050    -999.25  148.92220    0.16030    0.16030    2.44250    -999.25    0.13200    0.15640    6.71800   90.55820   90.55820   97.64420  104.42760   97.64420    6.71800    6.26170    7.14380    6.26170    -999.25    0.37080    0.32740    2.44250  -18.52610   -5.14490    7.14380
 4200.00000   12.89560   10.86690   12.89560    -999.25  129.31260    0.14960    0.14960    2.18910    -999.25    0.28120    0.30460    7.73320   87.92180   87.92180   91.50280  102.36270   91.50280    7.73320    7.25020    7.88800    7.25020    -999.25    0.31350    0.26960    2.18910  -18.56690   -4.62040    7.88800
 4250.00000   11.55810   10.28830   11.55810    -999.25  113.49000    0.17450    0.17450    2.04330    -999.25    0.36570    0.38990    8.81160   84.05590   84.05590   84.85730   93.99870   84.85730    8.81160    8.28980    8.89680    8.28980    -999.25    0.34270    0.29900    2.04330  -18.70250   -4.19440    8.89680
 4300.00000   12.84540   10.60640   12.84540    -999.25  101.40180    0.21650    0.21650    2.15690    -999.25    0.30600    0.32350    9.86340   82.05780   82.05780   86.81840   97.99980   86.81840    9.86340    9.22090   10.20900    9.22090    -999.25    0.25480    0.21090    2.15690  -20.27340   -5.20370   10.20900
 4350.00000   12.09310   10.37620   12.09310    -999.25  119.94000    0.25220    0.25220    2.21880    -999.25    0.26890    0.28730    8.33750   85.56180   85.56180   97.87330  111.48820   97.87330    8.33750    7.68700    9.27010    7.68700    -999.25    0.32240    0.27850    2.21880  -17.53200   -3.01130    9.27010
 4400.00000   12.54730   10.48160   12.54730    -999.25  134.28390    0.21620    0.21620    2.19620    -999.25    0.28100    0.30050    7.44700   85.61320   85.61320   98.91820  109.28640   98.91820    7.44700    6.98380    8.41990    6.98380    -999.25    0.29980    0.25580    2.19620  -18.08920   -4.54660    8.41990
 4450.00000   12.81320   10.99970   12.81320    -999.25  150.77730    0.22790    0.22790    2.13050    -999.25    0.31980    0.33890    6.63230   90.49750   90.49750  100.59820  107.16570  100.59820    6.63230    6.14450    6.83310    6.14450    -999.25    0.38790    0.34480    2.13050  -17.07910   -4.52090    6.83310
 4500.00000   12.18350   10.31700   12.18350    -999.25  107.59520    0.19720    0.19720    2.23630    -999.25    0.24000    0.27700    9.29420   83.07040   83.07040   88.64780   97.08070   88.64780    9.29420    8.66050   10.06070    8.66050    -999.25    0.31460    0.27060    2.23630  -15.88390   -4.30380   10.06070
 4550.00000    9.57940    9.38450    9.57940    -999.25   65.99200    0.11330    0.11330    2.52430    -999.25    0.08270    0.10860   15.15340   81.27300   81.27300   79.45150   88.77210   79.45150   15.15340   13.57240   16.35350   13.57240    -999.25    0.22440    0.18070    2.52430  -20.85220   -9.82710   16.35350
 4600.00000   11.29360   10.31820   11.29360    -999.25   96.02370    0.21690    0.21690    2.37870    -999.25    0.16380    0.19370   10.41410   81.01910   81.01910   92.09940  105.61750   92.09940   10.41410    9.80840   11.04840    9.80840    -999.25    0.30610    0.26210    2.37870  -14.47720   -3.91020   11.04840
 4650.00000   11.03090   10.01740   11.03090    -999.25   94.74950    0.21860    0.21860    2.36710    -999.25    0.17680    0.20060   10.55540   82.54480   82.54480   89.40980  101.57000   89.40980   10.55540    9.92150   12.37280    9.92150    -999.25    0.27590    0.23190    2.36710  -14.24020   -4.12850   12.37280
 4700.00000   10.96510   10.25300   10.96510    -999.25  120.94380    0.22960    0.22960    2.28760    -999.25    0.22320    0.24700    8.26830   84.21210   84.21210   93.75770  106.13500   93.75770    8.26830    7.79320    9.06320    7.79320    -999.25    0.33160    0.28780    2.28760  -12.49420   -2.84060    9.06320
 4750.00000   11.79020   10.32510   11.79020    -999.25  105.50830    0.24940    0.24940    2.36020    -999.25    0.17680    0.20460    9.47800   83.26750   83.26750   96.34590  104.18400   96.34590    9.47800    9.05800    9.66550    9.05800    -999.25    0.28850    0.24450    2.36020  -14.01060   -4.81220    9.66550
 4800.00000   11.87720   10.21150   11.87720    -999.25  128.19430    0.21510    0.21510    2.40990    -999.25    0.14820    0.17540    7.80100   89.40910   89.40910  104.26900  114.96910  104.26900    7.80100    7.36480    8.54160    7.36480    -999.25    0.34120    0.29740    2.40990  -12.93900   -4.19580    8.54160
