~Version ---------------------------------------------------
VERS.      2.0 : CWLS log ASCII Standard -VERSION 2.0
WRAP.       NO : One line per depth step
CREA. 09/29/17 : LAS Creation Date
~Well ------------------------------------------------------
STRT.FT                      2600.0 : START DEPTH
STOP.FT                     12600.0 : STOP DEPTH
STEP.FT                    50.00000 : STEP LENGTH
NULL.                       -999.25 : NULL VALUE
COMP. AMOCO CANADA COMPANY LIMITED. : COMPANY
WELL.        AMOCO NIPAC 6-20-50-15 : WELL
FLD .                               : FIELD
LOC .                               : LOCATION
CTRY.                        CANADA : COUNTRY
SRVC.                  Schlumberger : SERVICE COMPANY
DATE.                   07-Aug-1978 : LOGDATE
PROV.                       Alberta : PROVINCE
UWI .              100062005015W500 : UNIQUE WELL ID
SLAT.WGS84                 53.32816 : SURFACE LATITUDE
SLON.WGS84                -116.1619 : SURFACE LONGITUDE
~Curve Information -----------------------------------------
DEPT    .FT    : Depth Curve
CALDED  .IN    : CALIPER FROM DENSITY LOG [ADJ. TO RESISTIVITY LOG]
CALSED  .IN    : CALIPER FROM SONIC LOG [ADJ. TO RESISTIVITY LOG]
CALWS   .IN    : CALIPER [CALSED]
CONDWS  .MMHO  : CONDUCTIVITY [1000/DRESWS]
DCORED  .G/C3  : DENSITY CORRECTION FROM DENSITY LOG [ADJ. TO RESISTIVITY LOG]
DCORWS  .G/C3  : DENSITY CORRECTION [DCORED]
DENWS   .G/C3  : BULK DENSITY [RHOBED]
DPHILSED.V/V   : DENSITY POROSITY LIMESTONE [M=2.71, F=1.00] FROM DENSITY LOG [ADJ. TO RESISTIVITY LOG]
DPHISSED.V/V   : DENSITY POROSITY SANDSTONE [M=2.65, F=1.00] FROM DENSITY LOG [ADJ. TO RESISTIVITY LOG]
DPOLSWS .V/V   : DENSITY POROSITY LIMESTONE [CALC FROM DENWS,M=2.71, F=1.00]
DRESWS  .OHMM  : DEEP RESISTIVITY [ILDED]
DTED    .US/F  : DELTA-T FROM SONIC LOG [ADJ. TO RESISTIVITY LOG]
DTWS    .US/F  : COMPRESSIONAL SONIC [DTED]
GRDED   .GAPI  : GAMMA RAY FROM DENSITY LOG [ADJ. TO RESISTIVITY LOG]
GRSED   .GAPI  : GAMMA RAY  FRPM SONIC LOG [ADJ. TO RESISTIVITY LOG]
GRWS    .GAPI  : GAMMA RAY [GRDED]
ILDED   .OHMM  : DEEP INDUCTION RESISTIVITY FROM RESISTIVITY LOG
ILMED   .OHMM  : MEDIUM INDUCTION RESISTIVITY FROM RESISTIVITY LOG
LL8ED   .OHMM  : LATEROLOG 8 RESISTIVITY FROM RESISTIVITY LOG
MRESWS  .OHMM  : MEDIUM RESISTIVITY [ILMED]
NPHILSED.V/V   : NEUTRON POROSITY LIMESTONE FROM DENSITY LOG [ADJ. TO RESISTIVITY LOG]
NPHISSED.V/V   : NEUTRON POROSITY SANDSTONE FROM DENSITY LOG [ADJ. TO RESISTIVITY LOG]
NPOLSWS .V/V   : NEUTRON POROSITY LIMESTONE [NPHISSED CONVERTED TO LIMESTONE MATRIX, SPL. TO NPHILSED @ 8990' ]
RHOBED  .G/C3  : BULK DENSITY  FROM DENSITY LOG [ADJ. TO RESISTIVITY LOG]
SFLED   .OHMM  : SPHERICALLY FOCUSED RESISTIVITY FROM RESISTIVITY LOG
SPRED   .MV    : SPONTANEOUS POTENTIAL FROM RESISTIVITY LOG
SPWS    .MV    : SPONTANEOUS POTENTIAL [BASELINE 0 MV,SPRED]
SRESWS  .OHMM  : SHALLOW RESISTIVITY [LL8ED SPL. TO SFLED @ 8997']
~Params ----------------------------------------------------
PD  .                     GL : PERMANENT DATUM
EPD .FT               101.84 : ELEVATION PERMANENT DATUM
LMF .                     KB : LOG MEASURED FROM
DAPD.FT                 6.22 : FEET ABOVE PERMANENT DATUM
DMF .                     KB : DRILLING MEASURED FROM
EKB .FT              1017.06 : KELLY BUSHING
EGL .FT              1010.84 : GROUND LEVEL
DATE.               08/07/78 : RUN DATE
RUN .                      3 : RUN NUMBER
DD  .FT               3846.6 : DEPTH DRILLER
DL  .FT                 3846 : DEPTH LOGGER
BLI .FT                 3845 : BOTTOM LOG INTERVAL
TLI .FT                 3290 : TOP LOG INTERVAL
CBD .FT                 2742 : CASING BOTTOM DRILLER
CBL .FT                 2741 : CASING BOTTOM LOGGER
BS  .MM                  216 : BIT SIZE
BSD .FT               3846.6 : BIT SIZE AT DEPTH
RMF .OHMM               1.36 : RESISTIVITY MUD FILTRATE SAMPLE
MFST.DEGF               22.2 : MUD FILTRATE SAMPLE TEMPERATURE
RMC .OHMM               0.94 : RESISTIVITY MUD CAKE
MCST.DEGF               24.4 : MUD CAKE SAMPLE TEMPERATURE
LUN .                   7809 : LOGGING UNIT NUMBER
LUL .                    EDM : LOGGING UNIT LOCATION
ENGI.            GUNN DRONEN : RECORDING ENGINEER
WITN.                CULSHAW : WITNESSED BY
CLNT.                A2DTECH : CLIENT CODE
ORIG.            2" 5" PRINT : ORIGIN OF DATA
UWI .       100062005015W500 : UNIQUE WELL ID
DICO. A2D Technologies, Inc. : DIGITIZING COMPANY
~Other -----------------------------------------------------
DIL-SFL/CNFD/BCS LOG RAN
SPRED HAS GAPS AT MANY INTERVAL DUE TO NOT VISIBILITY OF SP IN PRINT
GR RAN RAN THROUGH CASING FROM 8980'-9000' SO GRWS ADDED +10 API.
NEUTRON MATRIX CONVERSION FOR LIMESTONE USING SCHLUMBERGER CHART
MUD CONTAIN BARITE
~ASCII -----------------------------------------------------
# ...
 3850.00000   13.16300   12.95910   12.95910  136.90000    0.04380    0.04380    2.35710    -999.25    0.17790    0.20640    7.30460   86.70650   86.70650   71.75450   84.98440   71.75450    7.30460    7.52300    7.90730    7.52300    -999.25    0.39200    0.34900    2.35710    -999.25  -52.71060   -5.51940    7.90730
 3900.00000   13.87330   13.22010   13.22010  231.22990    0.01330    0.01330    2.29200    -999.25    0.21740    0.24440    4.32470   83.58540   83.58540   73.84000   98.10410   73.84000    4.32470    4.97560    7.75980    4.97560    -999.25    0.40430    0.36150    2.29200    -999.25  -51.31670   -4.02220    7.75980
 3950.00000   13.10540   12.89500   12.89500   35.07470    0.04780    0.04780    2.41110    -999.25    0.14650    0.17480   28.51060   69.12030   69.12030   44.86220   51.29580   44.86220   28.51060   26.02310   24.34740   26.02310    -999.25    0.24800    0.20410    2.41110    -999.25  -53.58240   -6.18400   24.34740
 4000.00000   13.94290   12.88930   12.88930  135.87880   -0.00290   -0.00290    1.99280    -999.25    0.38950    0.41940    7.35950   84.33140   84.33140   86.02600  108.20000   86.02600    7.35950    7.84690    9.14700    7.84690    -999.25    0.37400    0.33070    1.99280    -999.25  -51.68220   -4.18050    9.14700
 4050.00000   13.43060   12.80690   12.80690   43.58830    0.04090    0.04090    2.34910    -999.25    0.18280    0.21110   22.94210   72.09250   72.09250   62.86400   69.68000   62.86400   22.94210   24.62950   22.13510   24.62950    -999.25    0.29840    0.25440    2.34910    -999.25  -58.65410  -11.04940   22.13510
 4100.00000   14.11250   12.51930   12.51930  105.79660   -0.01110   -0.01110    1.93470    -999.25    0.43350    0.45340    9.45210   77.79660   77.79660   62.00090   76.87560   62.00090    9.45210    9.78030    9.80880    9.78030    -999.25    0.40590    0.36310    1.93470    -999.25  -52.11450   -4.40590    9.80880
 4150.00000   14.13390   12.57590   12.57590  116.88520    0.01960    0.01960    2.07500    -999.25    0.34320    0.37130    8.55540   83.28780   83.28780   66.70610   82.15200   66.70610    8.55540    8.84850   10.76010    8.84850    -999.25    0.37960    0.33640    2.07500    -999.25  -53.41820   -5.60630   10.76010
 4200.00000   16.49620   12.86420   12.86420  177.29870    0.12470    0.12470    1.85370    -999.25    0.45240    0.50080    5.64020   86.96820   86.96820   63.32290   80.60620   63.32290    5.64020    6.12400    6.79500    6.12400    -999.25    0.40070    0.35780    1.85370    -999.25  -53.65580   -5.74000    6.79500
 4250.00000   14.13890   12.73510   12.73510  129.13720    0.02740    0.02740    2.02110    -999.25    0.37700    0.40290    7.74370   77.69550   77.69550   59.03970   74.95900   59.03970    7.74370    8.73810   11.52870    8.73810    -999.25    0.37170    0.32830    2.02110    -999.25  -54.66160   -6.64260   11.52870
 4300.00000   13.62050   12.40800   12.40800   46.30070    0.07850    0.07850    2.31690    -999.25    0.20270    0.22990   21.60380   73.73190   73.73190   47.16690   54.98740   47.16690   21.60380   22.15020   24.06730   22.15020    -999.25    0.35490    0.31140    2.31690    -999.25  -60.45220  -12.33010   24.06730
 4350.00000   15.13910   12.76870   12.76870  266.74490    0.01060    0.01060    2.06520    -999.25    0.35230    0.37710    3.74890   99.27660   99.27660   74.37520   94.53450   74.37520    3.74890    4.04160    5.19810    4.04160    -999.25    0.44990    0.40820    2.06520    -999.25  -53.63930   -5.41330    5.19810
 4400.00000   13.10590   12.54530   12.54530   68.70920    0.12970    0.12970    2.25770    -999.25    0.24080    0.26450   14.55410   72.84240   72.84240   54.73580   59.12310   54.73580   14.55410   14.96620   15.99410   14.96620    -999.25    0.30440    0.26040    2.25770    -999.25  -54.96330   -6.63410   15.99410
 4450.00000   14.46270   12.67110   12.67110  109.89370   -0.00410   -0.00410    2.16770    -999.25    0.29110    0.31710    9.09970   77.48290   77.48290   66.91670   68.48240   66.91670    9.09970    9.78210   11.98480    9.78210    -999.25    0.31320    0.26930    2.16770    -999.25  -54.19930   -5.76610   11.98480
 4500.00000   12.42200   12.27570   12.27570   18.14350    0.06410    0.06410    2.59660    -999.25    0.03050    0.06630   55.11610   61.76750   61.76750   34.63990   36.10800   34.63990   55.11610   42.39410   49.89850   42.39410    -999.25    0.13340    0.09100    2.59660    -999.25  -73.57560  -25.03920   49.89850
 4550.00000   11.91350   12.21980   12.21980   24.16320   -0.05150   -0.05150    2.41960    -999.25    0.14260    0.16980   41.44550   74.83250   74.83250   34.60260   38.83320   34.60260   41.44550   38.07000   34.23360   38.07000    -999.25    0.20560    0.16210    2.41960    -999.25  -74.51520  -25.87570   34.23360
 4600.00000   14.49870   12.74360   12.74360   56.84760    0.00450    0.00450    2.36530    -999.25    0.18320    0.20160   17.59090   72.71300   72.71300   55.97450   57.33620   55.97450   17.59090   17.02010   15.88860   17.02010    -999.25    0.24300    0.19910    2.36530    -999.25  -52.99540   -4.25200   15.88860
 4650.00000   12.49350   12.51070   12.51070   24.47650    0.04580    0.04580    2.65930    -999.25    0.00670    0.02960   40.85550   70.11490   70.11490   35.59400   37.12030   35.59400   40.85550   46.28870   45.25640   46.28870    -999.25    0.12540    0.08310    2.65930    -999.25  -56.64770   -7.80110   45.25640
 4700.00000   13.15620   12.65200   12.65200   35.38190    0.04330    0.04330    2.58640    -999.25    0.03650    0.07230   28.26300   68.61720   68.61720   38.19070   49.07690   38.19070   28.26300   29.47220   32.10710   29.47220    -999.25    0.20030    0.15690    2.58640    -999.25  -61.44520  -12.49470   32.10710
 4750.00000   14.85800   12.83050   12.83050   94.74090    0.01040    0.01040    1.84430    -999.25    0.45650    0.50630   10.55510   74.74130   74.74130   58.54430   65.97170   58.54430   10.55510   12.55130   12.21200   12.55130    -999.25    0.39190    0.34890    1.84430    -999.25  -53.64390   -4.59010   12.21200
 4800.00000   14.86700   12.75030   12.75030   63.52230   -0.02470   -0.02470    1.99910    -999.25    0.40130    0.41570   15.74630   73.24880   73.24880   55.99040   59.84380   55.99040   15.74630   14.18930   17.35230   14.18930    -999.25    0.26530    0.22140    1.99910    -999.25  -53.11600   -3.95910   17.35230
 4850.00000   17.00540   12.69940   12.69940   66.06330   -0.00680   -0.00680    1.97020    -999.25    0.40320    0.43260   15.13700   78.05050   78.05050   58.22160   60.56370   58.22160   15.13700   15.98360   17.18210   15.98360    -999.25    0.32420    0.28030    1.97020    -999.25  -52.12280   -2.86210   17.18210
 4900.00000   13.77610   12.49530   12.49530   39.00480   -0.01440   -0.01440    2.11670    -999.25    0.32240    0.34700   25.63790   74.31380   74.31380   39.86030   43.17160   39.86030   25.63790   28.63890   43.60260   28.63890    -999.25    0.24960    0.20570    2.11670    -999.25  -54.60980   -5.24580   43.60260
 4950.00000   12.88260   12.57480   12.57480   27.90650    0.08970    0.08970    2.59430    -999.25    0.03000    0.06770   35.83400   70.90530   70.90530   31.75870   35.77550   31.75870   35.83400   31.92350   39.29810   31.92350    -999.25    0.17800    0.13490    2.59430    -999.25  -71.19590  -21.72800   39.29810
 5000.00000   15.46920   12.93270   12.93270   74.76360    0.00660    0.00660    1.97490    -999.25    0.40150    0.42990   13.37550   75.78040   75.78040   56.61340   56.61640   56.61340   13.37550   13.72860   14.25710   13.72860    -999.25    0.31910    0.27520    1.97490    -999.25  -56.07310   -6.50190   14.25710
 5050.00000   16.63270   13.31120   13.31120   94.20610   -0.02440   -0.02440    1.72120    -999.25    0.53390    0.57820   10.65650   81.68460   81.68460   46.67960   51.15660   46.67960   10.65650    9.95540   13.58500    9.95540    -999.25    0.39470    0.35180    1.72120    -999.25  -54.98680   -5.31260   13.58500
