~Version ---------------------------------------------------
VERS.      2.0 : CWLS log ASCII Standard -VERSION 2.0
WRAP.       NO : One line per depth step
CREA. 08/31/17 : LAS Creation Date
~Well ------------------------------------------------------
STRT.FT                        1000.0 : START DEPTH
STOP.FT                       11500.0 : STOP DEPTH
STEP.FT                      50.00000 : STEP LENGTH
NULL.                         -999.25 : NULL VALUE
COMP.       ATLANTIC REFINING COMPANY : COMPANY
WELL. ATLANTIC ANTE CREEK 10-29-64-23 : WELL
FLD .                                 : FIELD
LOC .                                 : LOCATION
CTRY.                          CANADA : COUNTRY
SRVC.                    Schlumberger : SERVICE COMPANY
DATE.                     16-Jul-1964 : LOGDATE
PROV.                         Alberta : PROVINCE
UWI .                100102906423W500 : UNIQUE WELL ID
SLAT.WGS84                    54.5688 : SURFACE LATITUDE
SLON.WGS84                   -117.438 : SURFACE LONGITUDE
~Curve Information -----------------------------------------
DEPT  .FT    : Depth Curve
CALSED.IN    : CALIPER FROM BCS LOG
CALWS .IN    : CALIPER [CALSED]
CILDED.MMHO  : DEEP INDUCTION CONDUCTIVITY LOG FROM IEL LOG
CONDWS.MMHO  : CONDUCTIVITY [CILDED]
DRESWS.OHMM  : DEEP RESISTIVITY [1000/CONDWS IF ILDED <= 4, ILDED]
DT1ED .US/F  : ACOUSTIC TRANSIT TIME SLOWNESS, DELTA T FROM BCS LOG
DTED  .US/F  : ACOUSTIC TRANSIT TIME SLOWNESS, DELTA T FROM BCS LOG
DTWS  .US/F  : COMPRESSIONAL SONIC [DTED]
GRSED .GAPI  : GAMMA RAY FROM BCS LOG
GRWS  .GAPI  : GAMMA RAY [GRSED]
ILDED .OHMM  : DEEP INDUCTION FROM IEL LOG
SNED  .OHMM  : SHORT NORMAL FROM IEL LOG
SPRED .MV    : SPONTANEOUS POTENTIAL FROM IEL LOG
SPWS  .MV    : SPONTANEOUS POTENTIAL [BASELINE 0 MV, SPRED]
SRESWS.OHMM  : SHALLOW RESISTIVITY [SNED]
~Params ----------------------------------------------------
PD  .                     GL : PERMANENT DATUM
LMF .                     KB : LOG MEASURED FROM
EKB .FT               2850.5 : KELLY BUSHING
DATE.               07/16/64 : RUN DATE
RUN .                      1 : RUN NUMBER
DD  .FT                11510 : DEPTH DRILLER
DL  .FT                11517 : DEPTH LOGGER
BLI .FT                11516 : BOTTOM LOG INTERVAL
TLI .FT                 1173 : TOP LOG INTERVAL
CBD .FT                 1175 : CASING BOTTOM DRILLER
CBL .FT                 1173 : CASING BOTTOM LOGGER
BS  .IN                7.875 : BIT SIZE
BSD .FT                11510 : BIT SIZE AT DEPTH
DFT .                    GEL : DRILLING FLUID TYPE
DFD .                    9.4 : DRILLING FLUID DENSITY
DFV .                    110 : DRILLING FLUID VISCOSITY
DFPH.                      9 : DRILLING FLUID PH
DFL .                    8.7 : DRILLING FLUID LOSS
RMS .OHMM               3.06 : RESISTIVITY MUD SAMPLE
MST .DEGF                 62 : MUD SAMPLE TEMPERATURE
RMF .OHMM               2.13 : RESISTIVITY MUD FILTRATE SAMPLE
MFST.DEGF                 62 : MUD FILTRATE SAMPLE TEMPERATURE
RMC .OHMM               2.09 : RESISTIVITY MUD CAKE
MCST.DEGF                 62 : MUD CAKE SAMPLE TEMPERATURE
RMB .OHMM               0.99 : RESISTIVITY MUD AT BHT
TCS .HRS                   3 : TIME CIRCULATED STOPPED
LUN .                   3532 : LOGGING UNIT NUMBER
ENGI.               CROCKETT : RECORDING ENGINEER
WITN.                 RUSSIN : WITNESSED BY
CLNT.                A2DTECH : CLIENT CODE
ORIG.            2" 5" PRINT : ORIGIN OF DATA
UWI .       100102906423W500 : UNIQUE WELL ID
DICO. A2D Technologies, Inc. : DIGITIZING COMPANY
~Other -----------------------------------------------------
~ASCII -----------------------------------------------------
# ...
 10200.00000    8.32610    8.32610    1.12990    2.00000  500.00000    -999.25   48.79990   48.79990   26.60360   26.60360  500.00000  386.21780 -171.69600  -96.05630  386.21780
 10250.00000    8.34090    8.34090    0.89050    2.00000  500.00000    -999.25   48.74780   48.74780   24.34320   24.34320  500.00000  465.07050 -165.92580  -88.67400  465.07050
 10300.00000    8.34290    8.34290    0.32600    2.00000  500.00000    -999.25   50.53490   50.53490   30.26770   30.26770  500.00000  264.32440 -138.47190  -59.60790  264.32440
 10350.00000    8.38150    8.38150    5.96790    6.89700  144.99030    -999.25   51.02520   51.02520   25.89260   25.89260  144.99030  162.24170 -112.80390  -32.31710  162.24170
 10400.00000    8.53850    8.53850   40.33410   40.68760   24.57750    -999.25   56.85770   56.85770   32.89910   32.89910   24.57750   38.87110  -89.18850   -7.08950   38.87110
 10450.00000    9.32360    9.32360  126.49150  128.04590    7.80970    -999.25   85.47170   85.47170   91.22250   91.22250    7.80970   15.82490  -92.05200  -12.33480   15.82490
 10500.00000    9.84310    9.84310  175.64530  165.03830    6.05920    -999.25   67.85340   67.85340   61.06260   61.06260    6.05920    8.38960  -88.31060  -12.89080    8.38960
 10550.00000   13.41910   13.41910  326.56390  326.56260    3.06220    -999.25   83.51740   83.51740   83.95410   83.95410    3.39230    4.60460  -94.32000  -23.19760    4.60460
 10600.00000   12.33090   12.33090  244.67350  230.20260    4.34400    -999.25   70.60060   70.60060   73.37930   73.37930    4.34400    6.02350  -75.62070   -8.82400    6.02350
 10650.00000   12.60380   12.60380  335.29610  335.30040    2.98240    -999.25   84.30320   84.30320   74.06030   74.06030    3.31000    4.46180  -81.00080  -18.50150    4.46180
 10700.00000    8.46040    8.46040  126.75170  125.10480    7.99330    -999.25   63.74620   63.74620   69.48830   69.48830    7.99330   11.59440  -63.47480   -2.72840   11.59440
 10750.00000    8.71360    8.71360  176.44860  162.50390    6.15370    -999.25   66.12440   66.12440   93.07440   93.07440    6.15370    8.85070  -74.43230  -13.68590    8.85070
 10800.00000    8.60460    8.60460   91.59330   92.35740   10.82750    -999.25   63.01440   63.01440   60.50520   60.50520   10.82750   15.75910  -83.77730  -23.03090   15.75910
 10850.00000    8.53990    8.53990  178.47830  168.87900    5.92140    -999.25   74.52490   74.52490   96.18280   96.18280    5.92140    9.34530  -84.75080  -24.00440    9.34530
 10900.00000    8.67200    8.67200  186.46790  179.18580    5.58080   71.53730   70.85400   70.85400   81.20300   81.20300    5.58080    8.73840  -94.12650  -33.38010    8.73840
 10950.00000    8.77550    8.77550  234.06080  224.86560    4.44710   79.76080   76.68100   76.68100   97.09780   97.09780    4.44710    6.74680 -112.93070  -52.18430    6.74680
 11000.00000    8.50320    8.50320  149.18460  146.22880    6.83860   69.90540   69.77800   69.77800   71.53040   71.53040    6.83860   10.86090 -114.00420  -53.25780   10.86090
 11050.00000    8.24990    8.24990    8.20920    7.50980  133.15850   78.91810   76.46950   76.46950  152.22510  152.22510  133.15850  152.43230 -128.16840  -67.42200  152.43230
 11100.00000    8.28460    8.28460   10.21180   10.11170   98.89490   52.04690   52.15830   52.15830   31.05380   31.05380   98.89490  111.54050 -141.24830  -80.50190  111.54050
 11150.00000    8.34700    8.34700   41.32210   41.94610   23.84010   75.12420   78.09750   78.09750   84.95780   84.95780   23.84010   42.82110 -144.04830  -83.30190   42.82110
 11200.00000    7.93160    7.93160    3.51400    5.26870  189.79930   58.75550   54.72900   54.72900   45.74050   45.74050  189.79930  161.46970 -141.11680  -80.37040  161.46970
 11250.00000    7.91990    7.91990    1.84760    2.28080  438.44240   49.55380   49.84400   49.84400   18.73540   18.73540  438.44240  206.47920 -201.75830 -141.01190  206.47920
 11300.00000    7.95980    7.95980    5.00420    5.63080  177.59460   46.91060   47.56000   47.56000   12.49100   12.49100  177.59460  178.09630 -232.20620 -171.45980  178.09630
 11350.00000    8.00070    8.00070    3.14860    2.04910  488.01510   47.82070   47.59050   47.59050   15.64660   15.64660  488.01510  277.01790 -220.35890 -159.61250  277.01790
 11400.00000    8.02750    8.02750    2.32740    2.00000  500.00000   48.90670   47.23230   47.23230   14.00430   14.00430  500.00000  399.84270 -192.30610 -131.55970  399.84270
 11450.00000    7.67600    7.67600    1.05540    2.00000  500.00000   45.38720   46.58870   46.58870   16.91340   16.91340  500.00000  435.05410 -149.34320  -88.59680  435.05410
 11500.00000    7.50180    7.50180   14.57860   13.90330   71.92550   61.22420   58.07800   58.07800    -999.25    -999.25   71.92550  173.78990  -80.22240  -19.47600  173.78990
