~Version ---------------------------------------------------
VERS.      2.0 : CWLS log ASCII Standard -VERSION 2.0
WRAP.       NO : One line per depth step
CREA. 08/01/17 : LAS Creation Date
~Well ------------------------------------------------------
STRT.FT                           1450.0 : START DEPTH
STOP.FT                          10150.0 : STOP DEPTH
STEP.FT                         50.00000 : STEP LENGTH
NULL.                            -999.25 : NULL VALUE
COMP.               CHEVRON STANDARD LTD : COMPANY
WELL. CHEVRON GULF PASS CREEK 6-10-61-17 : WELL
FLD .                                    : FIELD
LOC .                                    : LOCATION
CTRY.                             CANADA : COUNTRY
SRVC.                       Schlumberger : SERVICE COMPANY
DATE.                        29-Nov-1977 : LOGDATE
PROV.                            Alberta : PROVINCE
UWI .                   100061006117W500 : UNIQUE WELL ID
SLAT.WGS84                      54.25885 : SURFACE LATITUDE
SLON.WGS84                     -116.4678 : SURFACE LONGITUDE
~Curve Information -----------------------------------------
DEPT    .FT    : Depth Curve
CALDED  .IN    : CALIPER FROM DENSITY LOG [ADJ TO GRSED]
CALSED  .IN    : CALIPER FROM SONIC LOG
CALWS   .IN    : CALIPER [CALSED]
CONDWS  .MMHO  : CONDUCTIVITY [1000/DRESWS]
DCORWS  .G/C3  : DENSITY CORRECTION [DRHOED]
DENWS   .G/C3  : BULK DENSITY RHOBED]
DPHILSED.V/V   : DENSITY POROSITY [M=2.71, F=1.00] FROM DENSITY LOG [ADJ TO GRSED]
DPHISSED.V/V   : DENSITY POROSITY [M=2.65, F=1.00] FROM DENSITY LOG [ADJ TO GRSED]
DPOLSWS .V/V   : DENSITY POROSITY [M=2.71, F=1.00] [CALCULATED FROM DENWS]
DRESWS  .OHMM  : DEEP RESISTIVITY [ILDED]
DRHOED  .G/C3  : DENSITY CORRECTION FROM DENSITY LOG[ADJ TO GRSED]
DTED    .US/F  : DELTA TIME FROM SONIC LOG
DTWS    .US/F  : DELTA TIME [DTED]
GRDED   .GAPI  : GAMMA RAY FROM DENSITY LOG[ADJ TO GRSED]
GRSED   .GAPI  : GAMMA RAY FROM SONIC LOG
GRWS    .GAPI  : GAMMA RAY [GRSED, CSG <1537']
ILDED   .OHMM  : INDUCTION LOG DEEP RESISTIVITY
ILMED   .OHMM  : INDUCTION LOG MEDIUM RESISTIVITY
LL8ED   .OHMM  : 8 INCH LATEROLOG RESISTIVITY
MRESWS  .OHMM  : MEDIUM RESISTIVITY [ILMED]
NPHILSED.V/V   : NEUTRON POROSITY LIMESTONE FROM DENSITY LOG [ADJ TO GRSED]
NPHISSED.V/V   : NEUTRON POROSITY SANDSTONE FROM DENSITY LOG [ADJ TO GRSED]
NPOLSWS .V/V   : NEUTRON POROSITY LIMESTONE [CONVERTED NPHISSED TO LIMESTONE SPL WITH NPHILSED @9598']
RHOBED  .G/C3  : BULK DENSITY FROM DENSITY LOG [ADJ TO GRSED]
SPRED   .MV    : SPONTANEOUS POTENTIAL FROM RESISTIVITY LOG
SPWS    .MV    : SPONTANEOUS POTENTIAL [BASELINE 0 MV] [SPRED]
SRESWS  .OHMM  : SHALLOW RESISTIVITY [LL8ED]
TENDED  .LBF   : TENSION FROM DENSITY LOG [ADJ TO GRSED]
TENSED  .LBF   : TENSION FROM SONIC LOG
~Params ----------------------------------------------------
PD  .                     GL : PERMANENT DATUM
LMF .                     GL : LOG MEASURED FROM
EKB .FT                 2726 : KELLY BUSHING
DATE.               11/29/77 : RUN DATE
RUN .                      1 : RUN NUMBER
DFD .                    9.7 : DRILLING FLUID DENSITY
DFV .                    145 : DRILLING FLUID VISCOSITY
DFPH.                    9.5 : DRILLING FLUID PH
DFL .                    7.6 : DRILLING FLUID LOSS
MSS .               FLOWLINE : MUD SAMPLE SOURCE
TCS .HRS                 7.5 : TIME CIRCULATED STOPPED
ENGI.              BIGG GUNN : RECORDING ENGINEER
WITN.               WILLIAMS : WITNESSED BY
CLNT.                A2DTECH : CLIENT CODE
ORIG.            2" 5" PRINT : ORIGIN OF DATA
UWI .       100061006117W500 : UNIQUE WELL ID
DICO. A2D Technologies, Inc. : DIGITIZING COMPANY
~Other -----------------------------------------------------
~ASCII -----------------------------------------------------
 1450.00000    -999.25    -999.25    -999.25    -999.25    -999.25    -999.25    -999.25    -999.25    -999.25    -999.25    -999.25    -999.25    -999.25    -999.25   38.78990   38.78990    -999.25    -999.25    -999.25    -999.25    -999.25    -999.25    -999.25    -999.25    -999.25    -999.25    -999.25    -999.25    -999.25
 1500.00000    -999.25    -999.25    -999.25    -999.25    -999.25    -999.25    -999.25    -999.25    -999.25    -999.25    -999.25    -999.25    -999.25    -999.25   49.79090   49.79090    -999.25    -999.25    -999.25    -999.25    -999.25    -999.25    -999.25    -999.25    -999.25    -999.25    -999.25    -999.25    -999.25
 1550.00000    -999.25   10.05650   10.05650  288.06820    -999.25    -999.25    -999.25    -999.25    -999.25    3.47140    -999.25  106.96240  106.96240    -999.25   92.35970   92.35970    3.47140    3.90290    4.33990    3.90290    -999.25    -999.25    -999.25    -999.25  -57.33150   -7.62190    4.33990    -999.25 2052.53540
 1600.00000    -999.25    9.97000    9.97000  239.06860    -999.25    -999.25    -999.25    -999.25    -999.25    4.18290    -999.25   99.10080   99.10080    -999.25   78.18660   78.18660    4.18290    4.48390    4.12550    4.48390    -999.25    -999.25    -999.25    -999.25  -52.40290   -2.84560    4.12550    -999.25 2148.24250
 1650.00000    -999.25    9.91400    9.91400  283.33430    -999.25    -999.25    -999.25    -999.25    -999.25    3.52940    -999.25  100.85390  100.85390    -999.25   94.84390   94.84390    3.52940    3.70580    3.96770    3.70580    -999.25    -999.25    -999.25    -999.25  -52.63080   -3.22590    3.96770    -999.25 2125.02940
 1700.00000    -999.25    9.88060    9.88060  221.46520    -999.25    -999.25    -999.25    -999.25    -999.25    4.51540    -999.25  106.18870  106.18870    -999.25   96.58130   96.58130    4.51540    4.84900    5.48660    4.84900    -999.25    -999.25    -999.25    -999.25  -52.25100   -2.99920    5.48660    -999.25 2166.27620
 1750.00000    -999.25   10.20010   10.20010  153.99780    -999.25    -999.25    -999.25    -999.25    -999.25    6.49360    -999.25   90.91570   90.91570    -999.25   78.09100   78.09100    6.49360    6.65790    5.92530    6.65790    -999.25    -999.25    -999.25    -999.25  -51.93460   -2.83440    5.92530    -999.25 2336.68880
 1800.00000    -999.25   10.15430   10.15430  323.85520    -999.25    -999.25    -999.25    -999.25    -999.25    3.08780    -999.25  113.95020  113.95020    -999.25  101.69670  101.69670    3.08780    3.35860    3.61690    3.35860    -999.25    -999.25    -999.25    -999.25  -52.64060   -3.69280    3.61690    -999.25 2348.97670
 1850.00000    -999.25    9.66590    9.66590  290.18310    -999.25    -999.25    -999.25    -999.25    -999.25    3.44610    -999.25  115.73700  115.73700    -999.25  104.33340  104.33340    3.44610    3.83250    4.33840    3.83250    -999.25    -999.25    -999.25    -999.25  -52.33150   -3.53610    4.33840    -999.25 2260.85970
 1900.00000    -999.25    9.90170    9.90170   97.91440    -999.25    -999.25    -999.25    -999.25    -999.25   10.21300    -999.25   83.36020   83.36020    -999.25   87.36960   87.36960   10.21300   11.06260   11.86330   11.06260    -999.25    -999.25    -999.25    -999.25  -52.97650   -4.33340   11.86330    -999.25 2462.94930
 1950.00000    -999.25   10.15010   10.15010  191.53800    -999.25    -999.25    -999.25    -999.25    -999.25    5.22700    -999.25   99.01070   99.01070    -999.25   86.79800   86.79800    5.22700    5.43750    6.51490    5.43750    -999.25    -999.25    -999.25    -999.25  -51.40290   -2.91300    6.51490    -999.25 2547.32650
 2000.00000    -999.25    9.83010    9.83010  281.54740    -999.25    -999.25    -999.25    -999.25    -999.25    3.55180    -999.25   95.12670   95.12670    -999.25  103.89830  103.89830    3.55180    3.96340    4.30270    3.96340    -999.25    -999.25    -999.25    -999.25  -51.15160   -2.81330    4.30270    -999.25 2611.09740
 2050.00000    -999.25   10.03480   10.03480  194.69650    -999.25    -999.25    -999.25    -999.25    -999.25    5.13620    -999.25   96.74870   96.74870    -999.25   94.32240   94.32240    5.13620    5.38890    5.70190    5.38890    -999.25    -999.25    -999.25    -999.25  -52.61550   -4.42950    5.70190    -999.25 2734.33740
 2100.00000    -999.25    9.62280    9.62280  317.10800    -999.25    -999.25    -999.25    -999.25    -999.25    3.15350    -999.25  108.22190  108.22190    -999.25   99.39550   99.39550    3.15350    3.38050    3.78160    3.38050    -999.25    -999.25    -999.25    -999.25  -50.34260   -2.30900    3.78160    -999.25 2710.89130
 2150.00000    -999.25    9.76000    9.76000  310.80030    -999.25    -999.25    -999.25    -999.25    -999.25    3.21750    -999.25  101.25050  101.25050    -999.25  118.93840  118.93840    3.21750    3.58180    3.91370    3.58180    -999.25    -999.25    -999.25    -999.25  -50.26650   -2.38530    3.91370    -999.25 1994.40830
 2200.00000    -999.25    9.76980    9.76980  125.12940    -999.25    -999.25    -999.25    -999.25    -999.25    8.00370    -999.25   91.49990   91.49990    -999.25   71.37800   71.37800    8.00370    8.44760    7.06410    8.44760    -999.25    -999.25    -999.25    -999.25  -52.82630   -5.09810    7.06410    -999.25 1156.54150
 2250.00000    -999.25    9.40530    9.40530  354.03240    -999.25    -999.25    -999.25    -999.25    -999.25    2.82460    -999.25  102.07050  102.07050    -999.25  106.31760  106.31760    2.82460    3.20180    3.55070    3.20180    -999.25    -999.25    -999.25    -999.25  -49.10870   -1.53220    3.55070    -999.25 1228.31700
 2300.00000    -999.25    9.63110    9.63110  197.74570    -999.25    -999.25    -999.25    -999.25    -999.25    5.05700    -999.25   91.68160   91.68160    -999.25   77.78030   77.78030    5.05700    5.74440    5.18140    5.74440    -999.25    -999.25    -999.25    -999.25  -49.48820   -2.06410    5.18140    -999.25 1341.80970
 2350.00000    -999.25    9.66520    9.66520  213.88540    -999.25    -999.25    -999.25    -999.25    -999.25    4.67540    -999.25   97.25500   97.25500    -999.25   88.80280   88.80280    4.67540    5.01180    4.92540    5.01180    -999.25    -999.25    -999.25    -999.25  -49.82650   -2.55470    4.92540    -999.25 1357.23000
 2400.00000    -999.25   10.87460   10.87460  361.23250    -999.25    -999.25    -999.25    -999.25    -999.25    2.76830    -999.25  107.62510  107.62510    -999.25   96.80920   96.80920    2.76830    3.00400    3.17480    3.00400    -999.25    -999.25    -999.25    -999.25  -48.83870   -1.71930    3.17480    -999.25 1425.07860
 2450.00000    -999.25    9.42990    9.42990   53.56470    -999.25    -999.25    -999.25    -999.25    -999.25   18.67300    -999.25   75.18740   75.18740    -999.25   57.37570   57.37570   18.67300   20.32250   17.41260   20.32250    -999.25    -999.25    -999.25    -999.25  -56.04700   -9.08070   17.41260    -999.25 1446.09860
 2500.00000    -999.25    9.62860    9.62860   72.72090    -999.25    -999.25    -999.25    -999.25    -999.25   13.75120    -999.25   93.47790   93.47790    -999.25   60.70600   60.70600   13.75120   12.26350   12.70150   12.26350    -999.25    -999.25    -999.25    -999.25  -54.54640   -7.73170   12.70150    -999.25 1481.98380
 2550.00000    -999.25   11.05430   11.05430  248.69440    -999.25    -999.25    -999.25    -999.25    -999.25    4.02100    -999.25   96.97550   96.97550    -999.25   84.96130   84.96130    4.02100    4.22650    4.45380    4.22650    -999.25    -999.25    -999.25    -999.25  -48.96720   -2.30490    4.45380    -999.25 1561.77260
 2600.00000    -999.25   10.34670   10.34670  166.01090    -999.25    -999.25    -999.25    -999.25    -999.25    6.02370    -999.25   75.16190   75.16190    -999.25   63.64020   63.64020    6.02370    6.33740    8.11460    6.33740    -999.25    -999.25    -999.25    -999.25  -49.78860   -3.27860    8.11460    -999.25 1578.08890
 2650.00000    -999.25   12.14240   12.14240  236.39540    -999.25    -999.25    -999.25    -999.25    -999.25    4.23020    -999.25  103.34490  103.34490    -999.25   71.97360   71.97360    4.23020    4.61660    4.47500    4.61660    -999.25    -999.25    -999.25    -999.25  -48.09620   -1.74380    4.47500    -999.25 1713.76190
