~Version ---------------------------------------------------
VERS.      2.0 : CWLS log ASCII Standard -VERSION 2.0
WRAP.       NO : One line per depth step
CREA. 12/14/17 : LAS Creation Date
~Well ------------------------------------------------------
STRT.FT                      600.0 : START DEPTH
STOP.FT                     5700.0 : STOP DEPTH
STEP.FT                   50.00000 : STEP LENGTH
NULL.                      -999.25 : NULL VALUE
COMP.              SUN OIL COMPANY : COMPANY
WELL. SUN ET AL STROME 10-18-43-16 : WELL
FLD .                              : FIELD
LOC .                              : LOCATION
CTRY.                       CANADA : COUNTRY
SRVC.                 Schlumberger : SERVICE COMPANY
DATE.                  12-Jul-1972 : LOGDATE
PROV.                      Alberta : PROVINCE
UWI .             100101804316W400 : UNIQUE WELL ID
SLAT.WGS84                52.70708 : SURFACE LATITUDE
SLON.WGS84               -112.3082 : SURFACE LONGITUDE
~Curve Information -----------------------------------------
DEPT  .FT    : Depth Curve
CALSED.IN    : CALIPER FROM SONIC LOG
CALWS .IN    : CALIPER [CALSED]
CILDED.MMHO  : CONDUCTIVITY FROM RESISTIVITY LOG
CONDWS.MMHO  : CONDUCTIVITY [1000/DRESWS]
DRESWS.OHMM  : DEEP RESISTIVITY [ILDED] FROM START TO 2695' IF ILDED<2;1000/CILDED;ELSE ILDED
DTED  .US/F  : DELTA TIME FROM SONIC LOG
DTWS  .US/F  : DELTA TIME [DTED]
GRSED .GAPI  : GAMMA RAY FROM SONIC LOG
GRWS  .GAPI  : GAMMA RAY [GRSED]
ILDED .OHMM  : INDUCTION LOG DEEP RESISTIVITY
ILMED .OHMM  : INDUCTION LOG MEDIUM RESISTIVITY
LL8ED .OHMM  : 8 INCH LATEROLOG RESISTIVITY
MRESWS.OHMM  : MEDIUM RESISTIVITY [ILMED]
SPRED .MV    : SPONTANEOUS POTENTIAL FROM RESISTIVITY LOG
SPWS  .MV    : SPONTANEOUS POTENTIAL [BASELINE 0 MV] [SPRED]
SRESWS.OHMM  : SHALLOW RESISTIVITY [LL8ED]
~Params ----------------------------------------------------
PD  .                     GL : PERMANENT DATUM
EPD .FT                 2349 : ELEVATION PERMANENT DATUM
LMF .                     KB : LOG MEASURED FROM
DAPD.FT                   13 : FEET ABOVE PERMANENT DATUM
EKB .FT                 2362 : KELLY BUSHING
EGL .FT                 2349 : GROUND LEVEL
DATE.               07/12/72 : RUN DATE
RUN .                      1 : RUN NUMBER
DD  .FT                 5745 : DEPTH DRILLER
DL  .FT                 5739 : DEPTH LOGGER
BLI .FT                 5733 : BOTTOM LOG INTERVAL
TLI .FT                  650 : TOP LOG INTERVAL
CBD .FT                  649 : CASING BOTTOM DRILLER
CBL .FT                  650 : CASING BOTTOM LOGGER
BS  .IN                7.875 : BIT SIZE
BSD .FT                 5745 : BIT SIZE AT DEPTH
DFT .               CHEM GEL : DRILLING FLUID TYPE
DFD .                    9.2 : DRILLING FLUID DENSITY
DFV .                     70 : DRILLING FLUID VISCOSITY
DFPH.                   10.5 : DRILLING FLUID PH
DFL .                   10.6 : DRILLING FLUID LOSS
MSS .               FLOWLINE : MUD SAMPLE SOURCE
RMS .OHMM              0.531 : RESISTIVITY MUD SAMPLE
MST .DEGF                 82 : MUD SAMPLE TEMPERATURE
RMF .OHMM               0.34 : RESISTIVITY MUD FILTRATE SAMPLE
MFST.DEGF                 83 : MUD FILTRATE SAMPLE TEMPERATURE
RMB .OHMM               0.25 : RESISTIVITY MUD AT BHT
TCS .HRS                 2.5 : TIME CIRCULATED STOPPED
LUN .                   7640 : LOGGING UNIT NUMBER
LUL .                     RD : LOGGING UNIT LOCATION
ENGI.    SLUSARCHUK WILLIGAR : RECORDING ENGINEER
WITN.                PATMORE : WITNESSED BY
CLNT.                A2DTECH : CLIENT CODE
ORIG.            2" 5" PRINT : ORIGIN OF DATA
UWI .       100101804316W400 : UNIQUE WELL ID
DICO. A2D Technologies, Inc. : DIGITIZING COMPANY
~Other -----------------------------------------------------
DIL-SON LOG RUN
ALL CURVES FROM DIL LOG AT START TO 2695' AVAILABLE FROM 2" SCALES.
~ASCII -----------------------------------------------------
  600.00000    -999.25    -999.25    -999.25    -999.25    -999.25    -999.25    -999.25   10.64810   10.64810    -999.25    -999.25    -999.25    -999.25    -999.25    -999.25    -999.25
  650.00000    8.80240    8.80240    -999.25    -999.25    -999.25    -999.25    -999.25   15.01420   15.01420    -999.25    -999.25    -999.25    -999.25    -999.25    -999.25    -999.25
  700.00000    7.78030    7.78030  145.72760  118.87540    8.41230  117.19350  117.19350   14.52580   14.52580    8.41230    -999.25    5.07370    -999.25  -81.27360  -23.65990    5.07370
  750.00000   11.32790   11.32790  248.23210  196.95900    5.07720  138.67090  138.67090   18.98260   18.98260    5.07720    -999.25    3.24980    -999.25  -79.81180  -21.87400    3.24980
  800.00000    8.21250    8.21250  200.11310  161.91970    6.17590  116.03990  116.03990   16.96410   16.96410    6.17590    -999.25    3.84410    -999.25  -74.63190  -16.36840    3.84410
  850.00000    9.01120    9.01120  226.75040  181.07090    5.52270  115.81470  115.81470   18.05800   18.05800    5.52270    -999.25    3.49010    -999.25  -72.45590  -13.86670    3.49010
  900.00000    9.07840    9.07840  177.34110  138.80980    7.20410  139.37460  139.37460   13.20540   13.20540    7.20410    -999.25    4.75900    -999.25  -75.55350  -16.63860    4.75900
  950.00000   10.84720   10.84720  210.94820  171.96190    5.81520  130.69370  130.69370   15.27550   15.27550    5.81520    -999.25    3.95620    -999.25  -72.57500  -13.33270    3.95620
 1000.00000    8.33450    8.33450  181.01580  143.71740    6.95810  110.85230  110.85230   13.31260   13.31260    6.95810    -999.25    5.36230    -999.25  -76.76890  -17.20250    5.36230
 1050.00000    9.41800    9.41800  183.76700  152.59250    6.55340  127.35000  127.35000   15.53460   15.53460    6.55340    -999.25    4.52580    -999.25  -74.88910  -14.99700    4.52580
 1100.00000    9.25220    9.25220  174.67570  144.46480    6.92210  132.06460  132.06460   16.08660   16.08660    6.92210    -999.25    4.34530    -999.25  -72.96870  -12.75090    4.34530
 1150.00000    9.82650    9.82650  188.54640  152.52270    6.55640  139.09410  139.09410   15.61110   15.61110    6.55640    -999.25    4.75020    -999.25  -70.96790  -10.42440    4.75020
 1200.00000    9.47950    9.47950  160.33800  130.91540    7.63980  122.49930  122.49930   11.16150   11.16150    7.63980    -999.25    5.01580    -999.25  -71.75200  -10.88120    5.01580
 1250.00000    9.31380    9.31380  247.86790  198.64520    5.03410  136.55400  136.55400   13.74620   13.74620    5.03410    -999.25    3.82480    -999.25  -72.53100  -11.33610    3.82480
 1300.00000    8.98080    8.98080  206.67630  167.80210    5.95940  117.79990  117.79990   13.71140   13.71140    5.95940    -999.25    4.62870    -999.25  -75.37990  -13.85930    4.62870
 1350.00000    8.43690    8.43690   97.08950   76.01090   13.15600  105.59310  105.59310   14.76270   14.76270   13.15600    -999.25    8.68410    -999.25  -74.54640  -12.70000    8.68410
 1400.00000   10.19990   10.19990  320.38390  254.73810    3.92560  125.93800  125.93800   17.12800   17.12800    3.92560    -999.25    2.85410    -999.25  -68.18410   -6.01200    2.85410
 1450.00000   10.37370   10.37370  304.48330  245.36870    4.07550  128.31420  128.31420   19.91420   19.91420    4.07550    -999.25    2.87270    -999.25  -67.41710   -4.91770    2.87270
 1500.00000   10.73560   10.73560  247.62470  202.34310    4.94210  119.50390  119.50390   19.24390   19.24390    4.94210    -999.25    3.69550    -999.25  -67.42690   -4.60340    3.69550
 1550.00000   10.80200   10.80200  219.87350  180.87110    5.52880  118.27970  118.27970   24.17350   24.17350    5.52880    -999.25    4.24020    -999.25  -68.21840   -5.06920    4.24020
 1600.00000   10.99750   10.99750  180.33690  149.90930    6.67070  113.44440  113.44440   22.77100   22.77100    6.67070    -999.25    5.03000    -999.25  -71.44790   -8.46840    5.03000
 1650.00000   10.39110   10.39110  183.97680  149.52150    6.68800  117.19350  117.19350   22.85790   22.85790    6.68800    -999.25    4.78750    -999.25  -71.94500   -9.84810    4.78750
 1700.00000    9.69730    9.69730  157.94880  128.92560    7.75650  101.03280  101.03280   21.20500   21.20500    7.75650    -999.25    5.60510    -999.25  -71.14060   -9.93070    5.60510
 1750.00000   11.22160   11.22160  182.56110  149.98350    6.66740  123.56800  123.56800   20.89020   20.89020    6.66740    -999.25    4.88200    -999.25  -75.04360  -14.71190    4.88200
 1800.00000   11.54540   11.54540  190.66990  157.21790    6.36060  123.05540  123.05540   23.44230   23.44230    6.36060    -999.25    4.75200    -999.25  -72.95060  -13.50150    4.75200
 1850.00000    9.21420    9.21420  194.55350  161.71550    6.18370  115.78800  115.78800   23.72250   23.72250    6.18370    -999.25    4.93210    -999.25  -74.36520  -15.79870    4.93210
 1900.00000    9.60750    9.60750  174.83640  144.21480    6.93410  110.04710  110.04710   34.86660   34.86660    6.93410    -999.25    6.54970    -999.25  -70.98390  -13.30000    6.54970
 1950.00000    8.63500    8.63500  165.55540  136.61430    7.31990  105.48430  105.48430   30.77900   30.77900    7.31990    -999.25    6.79160    -999.25  -70.24410  -13.44720    6.79160
 2000.00000   10.04090   10.04090  192.28030  158.77050    6.29840  112.50190  112.50190   28.54720   28.54720    6.29840    -999.25    5.59510    -999.25  -69.18120  -13.26250    5.59510
 2050.00000   10.99050   10.99050  202.32450  173.09720    5.77710  123.55370  123.55370   29.75700   29.75700    5.77710    -999.25    5.48790    -999.25  -67.11010  -12.07400    5.48790
 2100.00000    9.72700    9.72700  206.52490  166.98390    5.98860  112.32290  112.32290   27.55310   27.55310    5.98860    -999.25    5.39390    -999.25  -68.87550  -14.72200    5.39390
 2150.00000   10.43590   10.43590  175.56020  143.45140    6.97100   96.61150   96.61150   23.68280   23.68280    6.97100    -999.25    5.07340    -999.25  -71.91100  -18.64010    5.07340
 2200.00000   10.10230   10.10230  187.42190  155.90750    6.41420   97.51080   97.51080   27.02030   27.02030    6.41420    -999.25    5.26500    -999.25  -71.49310  -19.10920    5.26500
 2250.00000   10.15070   10.15070  197.21880  160.08200    6.24680   98.90690   98.90690   24.99260   24.99260    6.24680    -999.25    5.22880    -999.25  -71.97130  -20.46560    5.22880
 2300.00000   10.82290   10.82290  156.38100  133.11680    7.51220  102.45860  102.45860   21.21670   21.21670    7.51220    -999.25    5.53230    -999.25  -75.27790  -24.65480    5.53230
 2350.00000   10.86080   10.86080  187.57570  154.78920    6.46040   94.88490   94.88490   26.62930   26.62930    6.46040    -999.25    4.79000    -999.25  -74.85650  -25.11600    4.79000
 2400.00000   11.48950   11.48950  174.92170  143.96980    6.94590   94.57420   94.57420   27.04560   27.04560    6.94590    -999.25    5.16050    -999.25  -73.35860  -24.50070    5.16050
 2450.00000    9.80580    9.80580  202.60980  167.04820    5.98640  105.02810  105.02810   27.56170   27.56170    5.98640    -999.25    5.16760    -999.25  -69.99680  -22.02590    5.16760
 2500.00000    9.74740    9.74740  244.83860  199.01290    5.02480  107.49090  107.49090   29.19180   29.19180    5.02480    -999.25    4.47870    -999.25  -66.69100  -19.59830    4.47870
 2550.00000    8.15810    8.15810  152.26080  128.02130    7.81120   90.09490   90.09490   39.72910   39.72910    7.81120    -999.25    8.02410    -999.25  -73.82410  -27.61400    8.02410
 2600.00000    8.11080    8.11080  147.16330  120.07400    8.32820   96.15460   96.15460   30.53860   30.53860    8.32820    -999.25    9.13190    -999.25  -79.03800  -33.71050    9.13190
 2650.00000    8.13070    8.13070  151.84500  124.71320    8.01840  105.15130  105.15130   66.82170   66.82170    8.01840    -999.25   10.25980    -999.25  -75.21290  -30.76800   10.25980
 2700.00000    9.25680    9.25680    -999.25  310.11240    3.22470  108.37650  108.37650   37.81780   37.81780    3.22470    3.50490    3.87010    3.50490  -55.72920  -12.17130    3.87010
