~Version ---------------------------------------------------
VERS. 2.0 : CWLS log ASCII Standard -VERSION 2.0
WRAP.  NO : ONE LINE PER DEPTH STEP
~Well ------------------------------------------------------
STRT.F                                   347.3 : START DEPTH
STOP.F                                  9458.8 : STOP DEPTH
STEP.F                                 0.50000 : STEP LENGTH
NULL.                                  -999.25 : NULL VALUE
COMP. THE BRITISH AMERICAN OIL COMPANY LIMITED : COMPANY
WELL.              B.A. GOOSE RIVER 4-32-66-18 : WELL
FLD .                                          : FIELD
LOC .                                          : LOCATION
CTRY.                                   CANADA : COUNTRY
SRVC.                             Schlumberger : SERVICE COMPANY
DATE.                              02-Dec-1964 : LOGDATE
PROV.                                  Alberta : PROVINCE
UWI .                         100043206618W500 : UNIQUE WELL ID
SLAT.WGS84                            54.75185 : SURFACE LATITUDE
SLON.WGS84                           -116.6939 : SURFACE LONGITUDE
~Curve Information -----------------------------------------
DEPT.F    0   1   0  0 : 1 MEASURED DEPTH
GRN .GAPI 35 310 01 00 : GAMMA RAY FROM GRN LOG
NEUT.NAPI 35 330 01 00 : NEUTRON
GR  .GAPI 30 310 00 00 : GAMMA RAY
CILD.MMHO 05 110 46 00 : INDUCTION DEEP CONDUCTIVITY
ILD .OHMM 05 120 46 00 : INDUCTION DEEP RESISTIVITY
SN  .OHMM 05 040 16 00 : SHORT NORMAL RESISTIVITY
SPR .MV   05 010 01 00 : SPONTANEOUS POTENTIAL FROM RESISTIVITY LOG
GRS .GAPI 60 310 01 00 : GAMMA RAY FROM SONIC LOG
DT  .US/F 60 500 00 00 : DELTA-T (INTERVAL TRANSIT TIME)
CALS.IN   60 280 50 00 : CALIPER FROM SONIC LOG
DT_1.US/F 60 500 31 00 : DELTA-T (INTERVAL TRANSIT TIME)
~Params ----------------------------------------------------
PD  .                     GL : PERMANENT DATUM
EPD .FT                 2485 : ELEVATION PERMANENT DATUM
LMF .                     KB : LOG MEASURED FROM
DAPD.FT                   15 : FEET ABOVE PERMANENT DATUM
EKB .FT                 2500 : KELLY BUSHING
EGL .FT                 2485 : GROUND LEVEL
DATE.               12/02/64 : RUN DATE
RUN .                      1 : RUN NUMBER
DD  .FT                 9461 : DEPTH DRILLER
DL  .FT                 9460 : DEPTH LOGGER
BLI .FT                 9459 : BOTTOM LOG INTERVAL
TLI .FT                  781 : TOP LOG INTERVAL
CBD .FT                  784 : CASING BOTTOM DRILLER
CBL .FT                  781 : CASING BOTTOM LOGGER
BS  .IN                7.625 : BIT SIZE
BSD .FT                 9461 : BIT SIZE AT DEPTH
DFT .               GEL CHEM : DRILLING FLUID TYPE
DFD .                    9.8 : DRILLING FLUID DENSITY
DFV .                     95 : DRILLING FLUID VISCOSITY
DFPH.                    9.5 : DRILLING FLUID PH
DFL .                    7.4 : DRILLING FLUID LOSS
RMS .OHMM               2.38 : RESISTIVITY MUD SAMPLE
MST .DEGF                 64 : MUD SAMPLE TEMPERATURE
RMF .OHMM                2.1 : RESISTIVITY MUD FILTRATE SAMPLE
MFST.DEGF                 66 : MUD FILTRATE SAMPLE TEMPERATURE
RMC .OHMM               2.32 : RESISTIVITY MUD CAKE
MCST.DEGF                 66 : MUD CAKE SAMPLE TEMPERATURE
RMB .OHMM               0.84 : RESISTIVITY MUD AT BHT
TCS .HRS                   6 : TIME CIRCULATED STOPPED
LUN .                   3534 : LOGGING UNIT NUMBER
LUL .                    V V : LOGGING UNIT LOCATION
ENGI.               CHENOSKY : RECORDING ENGINEER
WITN.                  WEISS : WITNESSED BY
CLNT.                A2DTECH : CLIENT CODE
ORIG.            2" 5" PRINT : ORIGIN OF DATA
UWI .       100043206618W500 : UNIQUE WELL ID
DICO. A2D Technologies, Inc. : DIGITIZING COMPANY
~Other -----------------------------------------------------
~ASCII -----------------------------------------------------
# ...
 7697.80000    -999.25    -999.25    -999.25   87.25340   11.04060   24.69390 -103.98340   35.09570   52.82320    8.46970    -999.25
 7698.30000    -999.25    -999.25    -999.25   87.18020   11.38310   24.38290 -103.69380   32.73680   53.41390    8.44620    -999.25
 7698.80000    -999.25    -999.25    -999.25   84.02800   11.77030   24.79490 -104.64870   32.96580   54.08000    8.43780    -999.25
 7699.30000    -999.25    -999.25    -999.25   81.74670   11.81520   25.50070 -106.94640   36.88850   54.81210    8.42210    -999.25
 7699.80000    -999.25    -999.25    -999.25   82.92270   11.52270   26.42410 -109.66290   40.81120   55.39360    8.40640    -999.25
 7700.30000    -999.25    -999.25    -999.25   89.24370   10.47520   27.03350 -111.98920   40.27250   55.70740    8.39160    -999.25
 7700.80000    -999.25    -999.25    -999.25   98.90570    9.48550   27.17750 -113.40060   35.92920   55.12920    8.39370    -999.25
 7701.30000    -999.25    -999.25    -999.25  110.57480    8.53050   26.25940 -114.08490   35.23960   54.40970    8.39570    -999.25
 7701.80000    -999.25    -999.25    -999.25  123.46650    7.60860   23.96570 -115.03110   35.58090   53.48930    8.41180    -999.25
 7702.30000    -999.25    -999.25    -999.25  139.06190    6.72650   21.66740 -114.36880   31.94860   52.67210    8.47220    -999.25
 7702.80000    -999.25    -999.25    -999.25  156.61620    5.83280   20.16840 -113.90470   31.14080   52.86350    8.60090    -999.25
 7703.30000    -999.25    -999.25    -999.25  173.92340    5.36300   19.62220 -113.49600   30.80230   53.49270    8.56340    -999.25
 7703.80000    -999.25    -999.25    -999.25  185.67660    5.32580   19.86860 -113.22990   31.13490   54.35440    8.49640    -999.25
 7704.30000    -999.25    -999.25    -999.25  185.28180    5.43240   20.77560 -113.19050   32.75260   55.28760    8.46900    -999.25
 7704.80000    -999.25    -999.25    -999.25  171.03720    5.96310   22.03470 -113.44970   34.35360   56.27810    8.45800    -999.25
 7705.30000    -999.25    -999.25    -999.25  149.88600    7.05260   23.88760 -114.15730   36.32660   57.36400    8.45900    -999.25
 7705.80000    -999.25    -999.25    -999.25  129.69440    8.48560   26.36500 -115.32010   37.56700   57.60790    8.45730    -999.25
 7706.30000    -999.25    -999.25    -999.25  109.11510   10.08040   29.33090 -115.84510   37.94520   57.34880    8.44830    -999.25
 7706.80000    -999.25    -999.25    -999.25   90.60480   12.60540   32.67510 -115.60620   37.94520   56.65230    8.44220    -999.25
 7707.30000    -999.25    -999.25    -999.25   71.46580   16.75060   36.32790 -115.24340   37.51110   55.54520    8.43820    -999.25
 7707.80000    -999.25    -999.25    -999.25   52.67740   22.87430   39.54770 -114.22110   34.87680   54.32030    8.42530    -999.25
 7708.30000    -999.25    -999.25    -999.25   38.76630   29.87630   41.45900 -113.56390   31.58810   52.85500    8.40460    -999.25
 7708.80000    -999.25    -999.25    -999.25   29.29680   36.33440   42.03290 -113.22550   27.57090   51.54900    8.39530    -999.25
 7709.30000    -999.25    -999.25    -999.25   27.11690   38.19680   41.90250 -113.06680   26.92530   50.80100    8.38880    -999.25
 7709.80000    -999.25    -999.25    -999.25   30.30190   32.70990   41.07610 -113.43740   28.10310   50.41770    8.37900    -999.25
 7710.30000    -999.25    -999.25    -999.25   38.90370   24.71690   39.63420 -113.81360   27.29910   50.51720    8.37270    -999.25
 7710.80000    -999.25    -999.25    -999.25   51.86030   17.12780   37.48650 -113.93410   26.59520   50.68560    8.36570    -999.25
 7711.30000    -999.25    -999.25    -999.25   65.22520   14.05520   34.41380 -113.81410   26.19770   50.81760    8.35770    -999.25
 7711.80000    -999.25    -999.25    -999.25   75.21360   12.54870   30.38570 -113.54410   26.38030   50.75900    8.35660    -999.25
 7712.30000    -999.25    -999.25    -999.25   79.83550   11.95650   26.74840 -113.00210   26.91250   50.37550    8.33760    -999.25
 7712.80000    -999.25    -999.25    -999.25   82.59150   11.60570   24.69720 -112.80620   28.04420   50.82840    8.36190    -999.25
 7713.30000    -999.25    -999.25    -999.25   84.44200   11.33070   24.07650 -112.76890   30.26670   51.89080    8.38080    -999.25
 7713.80000    -999.25    -999.25    -999.25   86.84460   11.20460   24.50650 -113.04750   31.53610   52.93250    8.37570    -999.25
 7714.30000    -999.25    -999.25    -999.25   87.58890   10.99220   25.57150 -114.06460   32.63010   53.59340    8.36380    -999.25
 7714.80000    -999.25    -999.25    -999.25   87.58890   11.08460   26.69680 -114.60940   33.72410   54.19560    8.36310    -999.25
 7715.30000    -999.25    -999.25    -999.25   87.58890   11.11820   27.01630 -114.60120   34.43730   54.17570    8.35780    -999.25
 7715.80000    -999.25    -999.25    -999.25   88.13930   10.76990   26.38790 -114.35940   35.06440   53.47860    8.34900    -999.25
 7716.30000    -999.25    -999.25    -999.25   89.90840   10.71490   24.98860 -113.76320   34.31530   52.55940    8.33830    -999.25
 7716.80000    -999.25    -999.25    -999.25   93.24050   10.22420   23.13440 -113.41860   30.27220   51.69600    8.33510    -999.25
 7717.30000    -999.25    -999.25    -999.25   96.23850    9.94480   21.33110 -113.18620   28.57320   51.64810    8.33660    -999.25
 7717.80000    -999.25    -999.25    -999.25   98.65040    9.88570   19.99640 -113.00430   29.30170   52.35420    8.34290    -999.25
 7718.30000    -999.25    -999.25    -999.25   99.29050    9.85900   19.85880 -112.80450   30.71120   53.48370    8.33860    -999.25
 7718.80000    -999.25    -999.25    -999.25   97.18140   10.22940   20.67310 -112.80460   30.79310   54.83680    8.33830    -999.25
 7719.30000    -999.25    -999.25    -999.25   89.84610   11.70090   21.82700 -112.47390   31.22920   55.62520    8.33810    -999.25
 7719.80000    -999.25    -999.25    -999.25   79.77100   13.34360   23.55430 -112.48230   33.43290   55.81830    8.34010    -999.25
 7720.30000    -999.25    -999.25    -999.25   67.82260   15.82950   25.19030 -112.78590   35.63660   55.74550    8.33020    -999.25
 7720.80000    -999.25    -999.25    -999.25   56.18860   18.54940   26.61070 -112.69860   37.32600   54.95610    8.32410    -999.25
 7721.30000    -999.25    -999.25    -999.25   49.11840   20.77480   27.56380 -112.36510   33.67320   53.88570    8.33500    -999.25
 7721.80000    -999.25    -999.25    -999.25   45.23380   21.40290   27.89750 -111.54910   30.09340   52.80310    8.33400    -999.25
 7722.30000    -999.25    -999.25    -999.25   47.35210   20.82270   27.79430 -111.17530   26.36200   52.13290    8.33120    -999.25
 7722.80000    -999.25    -999.25    -999.25   50.41120   18.98300   26.93340 -110.90910   24.58220   51.76790    8.33820    -999.25
 7723.30000    -999.25    -999.25    -999.25   54.79250   17.31400   25.82820 -110.86610   25.30230   51.62770    8.34590    -999.25
 7723.80000    -999.25    -999.25    -999.25   58.96420   16.50010   24.77980 -110.63320   26.70500   51.67750    8.35370    -999.25
 7724.30000    -999.25    -999.25    -999.25   60.81750   15.90640   24.03080 -110.11500   29.08660   51.87940    8.36150    -999.25
 7724.80000    -999.25    -999.25    -999.25   61.65680   15.84120   23.51110 -109.29270   31.25340   52.18400    8.36950    -999.25
 7725.30000    -999.25    -999.25    -999.25   60.93860   16.17740   23.37450 -108.47350   32.18550   52.44300    8.36420    -999.25
 7725.80000    -999.25    -999.25    -999.25   59.04360   16.73460   23.78340 -107.80170   30.32270   52.83170    8.36120    -999.25
 7726.30000    -999.25    -999.25    -999.25   56.90440   17.53750   24.62510 -106.77780   29.07660   53.33670    8.37000    -999.25
 7726.80000    -999.25    -999.25    -999.25   53.47920   18.86400   25.80740 -105.81530   31.35210   53.30110    8.35820    -999.25
 7727.30000    -999.25    -999.25    -999.25   50.30100   20.64330   27.34300 -104.25460   31.72530   53.08000    8.34930    -999.25
 7727.80000    -999.25    -999.25    -999.25   44.52070   23.70110   28.90120 -102.73410   30.56880   52.65520    8.34030    -999.25
