~Version ---------------------------------------------------
VERS. 2.0 : CWLS log ASCII Standard -VERSION 2.0
WRAP.  NO : ONE LINE PER DEPTH STEP
~Well ------------------------------------------------------
STRT.F                              300.0 : START DEPTH
STOP.F                             8850.0 : STOP DEPTH
STEP.F                           50.00000 : STEP LENGTH
NULL.                             -999.25 : NULL VALUE
COMP.            HOME OIL COMPANY LIMITED : COMPANY
WELL. HOME FPC ET AL MORSE RIVER 4-2-66-9 : WELL
FLD .                                     : FIELD
LOC .                                     : LOCATION
CTRY.                              CANADA : COUNTRY
SRVC.              Schlumberger of Canada : SERVICE COMPANY
DATE.                         16-Jan-1959 : LOGDATE
PROV.                             Alberta : PROVINCE
UWI .                    100040206609W500 : UNIQUE WELL ID
SLAT.WGS84                       54.67779 : SURFACE LATITUDE
SLON.WGS84                      -115.2573 : SURFACE LONGITUDE
~Curve Information -----------------------------------------
DEPT.F    0   1   0  0 : 1 MEASURED DEPTH
CILD.MMHO 05 110 46 00 : INDUCTION DEEP CONDUCTIVITY
ILD .OHMM 05 120 46 00 : INDUCTION DEEP RESISTIVITY
SN  .OHMM 05 040 16 00 : SHORT NORMAL RESISTIVITY
SPR .MV   05 010 01 00 : SPONTANEOUS POTENTIAL FROM RESISTIVITY LOG
MCAL.IN   15 280 01 00 : MLT (MICROLOG) CALIPER
SPS .MV   60 010 01 00 : SPONTANEOUS POTENTIAL FROM SONIC LOG
DT  .US/F 60 500 33 00 : DELTA-T (INTERVAL TRANSIT TIME)
LL  .OHMM 10 220 04 00 : FOCUSED LATEROLOG RESISTIVITY
GR  .CU   30 310 30 00 : GAMMA RAY
CALD.IN   45 280 60 00 : CALIPER FROM DENSITY LOG
DEN .G/C3 45 350 01 00 : COMPENSATED BULK DENSITY
~Params ----------------------------------------------------
LMF .                     KB : LOG MEASURED FROM
DMF .                     KB : DRILLING MEASURED FROM
EKB .FT                 3358 : KELLY BUSHING
EGL .FT                 3345 : GROUND LEVEL
DATE.               01/16/59 : RUN DATE
RUN .                      2 : RUN NUMBER
DD  .FT                 8880 : DEPTH DRILLER
DL  .FT                 8891 : DEPTH LOGGER
BLI .FT                 8886 : BOTTOM LOG INTERVAL
TLI .FT                 5006 : TOP LOG INTERVAL
BS  .IN                    9 : BIT SIZE
BSD .FT                 8880 : BIT SIZE AT DEPTH
DFT .                    GEL : DRILLING FLUID TYPE
DFD .                   10.3 : DRILLING FLUID DENSITY
DFV .                    109 : DRILLING FLUID VISCOSITY
DFPH.                    9.5 : DRILLING FLUID PH
DFL .                    6.2 : DRILLING FLUID LOSS
RMS .OHMM                3.2 : RESISTIVITY MUD SAMPLE
MST .DEGF                 54 : MUD SAMPLE TEMPERATURE
RMF .OHMM                2.4 : RESISTIVITY MUD FILTRATE SAMPLE
MFST.DEGF                 64 : MUD FILTRATE SAMPLE TEMPERATURE
RMC .OHMM                3.4 : RESISTIVITY MUD CAKE
MCST.DEGF                 56 : MUD CAKE SAMPLE TEMPERATURE
RMB .OHMM                1.1 : RESISTIVITY MUD AT BHT
TCS .HRS                 2.5 : TIME CIRCULATED STOPPED
LUN .                   2765 : LOGGING UNIT NUMBER
LUL .                     SH : LOGGING UNIT LOCATION
ENGI.                  KEYES : RECORDING ENGINEER
WITN.                  BEARD : WITNESSED BY
CLNT.                A2DTECH : CLIENT CODE
ORIG.            2" 5" PRINT : ORIGIN OF DATA
UWI .       100040206609W500 : UNIQUE WELL ID
DICO. A2D Technologies, Inc. : DIGITIZING COMPANY
~Other -----------------------------------------------------
~ASCII -----------------------------------------------------
# ...
 3350.00000  170.82440    5.84120    7.10660  -96.46930    -999.25    -999.25    -999.25    -999.25   55.74140    -999.25    2.36380
 3400.00000  131.89090    8.01620   11.54670  -93.62210    -999.25    -999.25    -999.25    -999.25   95.97690    -999.25    2.21720
 3450.00000  205.23240    4.33600    5.38630  -97.45940    -999.25    -999.25    -999.25    -999.25   53.83330    -999.25    2.29000
 3500.00000  173.04500    5.62480    6.46610  -95.86460    -999.25    -999.25    -999.25    -999.25   54.40140    -999.25    2.34460
 3550.00000  167.76350    5.92720    6.86310  -94.74140    -999.25    -999.25    -999.25    -999.25   48.34460    -999.25    2.28060
 3600.00000  204.21590    4.49610    5.76480  -93.62270    -999.25    -999.25    -999.25    -999.25   54.13980    -999.25    2.28670
 3650.00000  251.23400    3.25700    4.63800  -94.69850    -999.25    -999.25    -999.25    -999.25   56.82060    -999.25    2.28170
 3700.00000  233.00070    3.57730    5.03540  -91.74450    -999.25    -999.25    -999.25    -999.25   58.18960    -999.25    2.25100
 3750.00000  422.20450    1.41160    2.56920  -85.44160    -999.25    -999.25    -999.25    -999.25   72.61200    -999.25    2.06530
 3800.00000  477.36850    1.35380    2.30620  -85.21820    -999.25    -999.25    -999.25    -999.25   55.49990    -999.25    2.24980
 3850.00000  308.19480    2.41560    3.59970  -85.65190    -999.25    -999.25    -999.25    -999.25   47.23600    -999.25    2.38870
 3900.00000  331.39760    2.04870    3.22120  -88.48750    -999.25    -999.25    -999.25    -999.25   49.02330    -999.25    2.47360
 3950.00000  211.84840    4.20680    5.44650  -84.27440    -999.25    -999.25    -999.25    -999.25   41.30190    -999.25    2.46210
 4000.00000  436.62590    1.53760    2.40710  -84.39510    9.99540    -999.25    -999.25    -999.25   48.61040   10.87040    2.17500
 4050.00000  306.61370    2.38390    4.97530 -110.51010    8.97540    -999.25    -999.25    -999.25   32.49300    9.28570    2.33430
 4100.00000  209.72790    4.37180   10.25340 -144.78380    8.72490    -999.25    -999.25    -999.25   28.76970    9.26890    2.27880
 4150.00000  212.18940    4.22850    5.49330 -113.40100    9.15070    -999.25    -999.25    -999.25   30.31180    9.07600    2.32000
 4200.00000  202.04850    4.60300    5.27800  -87.14570    9.36720    -999.25    -999.25    -999.25   35.13940    9.39220    2.49370
 4250.00000  123.71620    8.74700    9.74480  -85.23810    9.17020    -999.25    -999.25    -999.25   30.35200    8.72000    2.28700
 4300.00000  358.48150    1.91950   14.19230 -174.68350    8.57030    -999.25    -999.25    -999.25   28.06720    8.71410    2.27130
 4350.00000  259.58430    2.92140   10.10390 -153.60580    8.81340    -999.25    -999.25    -999.25   39.94420    8.67760    2.37210
 4400.00000  242.83320    3.37730    6.79160 -115.78720    8.90820    -999.25    -999.25    -999.25   39.15760    8.85510    2.29770
 4450.00000  287.94260    2.57390   21.23440 -186.29390    8.75190    -999.25    -999.25    -999.25   20.33310    8.90340    2.33430
 4500.00000  156.08820    6.57170    7.28980  -88.21160    9.29710    -999.25    -999.25    -999.25   45.84140    9.40650    2.54390
 4550.00000  147.63600    6.89260    7.08450  -82.01450    9.28080    -999.25    -999.25    -999.25   49.67320    9.36540    2.50450
 4600.00000  213.60090    4.21260    5.15350  -79.38800    9.32540    -999.25    -999.25    -999.25   42.27390    9.42100    2.50820
 4650.00000  218.00550    4.14420    5.86790  -84.21410    8.78740    -999.25    -999.25    -999.25   26.21160    8.54120    2.33810
 4700.00000   37.02800   30.84990   42.34800  -88.76580    8.94090    -999.25    -999.25    -999.25   37.38450    8.83400    2.45660
 4750.00000  109.29900    9.90840   10.11130  -81.67260    9.05280    -999.25    -999.25    -999.25   43.74950    9.29800    2.59950
 4800.00000  128.00550    8.10740    8.53000  -81.53190    9.14080    -999.25    -999.25    -999.25   36.98450    9.10570    2.60260
 4850.00000  138.17150    7.61050    9.22100  -84.50850    9.18480    -999.25    -999.25    -999.25   31.68310    9.96710    2.58450
 4900.00000   23.53200   46.98940   89.45620 -150.83290    9.08590    -999.25    -999.25    -999.25   26.75660    9.27730    2.43260
 4950.00000  111.17060    9.95990   25.41510 -139.49790    9.00880    -999.25    -999.25    -999.25   20.34020    9.07790    2.68580
 5000.00000  104.14000   10.54080   11.18900  -92.94380    9.06610    -999.25    -999.25    -999.25   42.15090    9.47600    2.62330
 5050.00000  176.82700    5.72920    7.32900  -99.81210   10.27710    -999.25    -999.25    -999.25   48.04780   10.44760    2.66840
 5100.00000  166.65800    6.10590    7.91900  -98.74040    9.99160    -999.25    -999.25    -999.25   52.34390   10.00680    2.64610
 5150.00000  155.85190    6.61890    8.37910  -97.92750   10.11840    -999.25    -999.25    -999.25   44.58090   10.20100    2.59890
 5200.00000  118.88170    8.88440   11.01690 -104.42790    9.73950    -999.25    -999.25    -999.25   36.59160    9.62320    2.65460
 5250.00000  105.24060   10.02130   12.05350 -100.37080    9.75290    -999.25    -999.25    -999.25   42.07880    9.74640    2.67720
 5300.00000   45.68780   24.89070   28.01510 -119.76050    9.43820    -999.25    -999.25    -999.25   30.43230    9.62870    2.66270
 5350.00000   97.77760   10.78690   12.47330 -104.72970    9.65490    -999.25    -999.25    -999.25   32.75500    9.75090    2.66370
 5400.00000    5.98150  353.84340  111.03800 -122.67130    9.25160    -999.25    -999.25    -999.25   14.10610    9.22720    2.76440
 5450.00000   15.62290  109.62200  109.76870 -253.70870    8.78730    -999.25    -999.25    -999.25   11.42010    9.16210    2.74780
 5500.00000    9.48420  218.85160   97.69960 -155.81390    8.99970    -999.25    -999.25    -999.25    7.01640    8.56180    2.52220
 5550.00000   12.43420  121.12100  138.31970    -999.25    8.55980    -999.25    -999.25    -999.25    8.79450    9.04820    2.71120
 5600.00000    5.20650    -999.25  127.56430 -207.49660    9.18170    -999.25    -999.25    -999.25   10.51140    9.18650    2.45820
 5650.00000   29.77950   38.60340   90.56820 -232.83490    8.25460    -999.25    -999.25    -999.25   10.93610    8.19680    2.28640
 5700.00000   23.94150   63.50150   92.65590 -248.13460    8.91700    -999.25    -999.25    -999.25    7.89470    8.98120    2.62440
 5750.00000  650.16660    2.44670   10.06760 -259.70420    8.44890    -999.25    -999.25    -999.25    6.92940    8.43580    2.32140
 5800.00000  176.67700    5.87120   38.51750 -258.81880    8.68670    -999.25    -999.25    -999.25    7.83570    8.52100    2.57100
 5850.00000   66.32850   16.28160   73.73240 -262.60740    8.55230    -999.25    -999.25    -999.25    6.86040    8.42200    2.54110
 5900.00000   49.57020   26.00030   87.63290 -247.75520    8.43140    -999.25    -999.25    -999.25    8.18590    8.24480    2.55100
 5950.00000   10.43480  237.54410  134.53790 -196.15970    9.01530    -999.25    -999.25    -999.25    6.71100    8.95090    2.71630
 6000.00000    9.73550  500.31120  116.79300 -215.94840    9.13300    -999.25    -999.25    -999.25    6.75970    8.41820    2.59870
 6050.00000  123.47690    8.25450   49.35640 -257.80060    8.28110    -999.25    -999.25    -999.25    8.79020    8.18550    2.44830
 6100.00000   79.37390   14.35500   73.84660 -247.82280    8.21590    -999.25    -999.25    -999.25    8.40670    9.03650    2.79250
 6150.00000   12.89550  122.80070   77.43900 -171.13370    9.08270    -999.25    -999.25    -999.25    6.96950    9.07400    2.82100
 6200.00000    7.15950  474.96230   94.21610 -151.87640    8.90080    -999.25    -999.25    -999.25   20.14560    8.66260    2.28050
 6250.00000   13.39760   73.15650  102.20620 -184.32600    -999.25    -999.25    -999.25    -999.25    8.82720    -999.25    2.65140
 6300.00000   62.42630   14.27080   55.40130 -218.99340    -999.25    -999.25    -999.25    -999.25   16.52730    -999.25    2.31470
 6350.00000    2.29030  304.43300  115.86690 -201.54570    -999.25    -999.25    -999.25    -999.25   11.18930    -999.25    2.81700
