~Version ---------------------------------------------------
VERS.      2.0 : CWLS log ASCII Standard -VERSION 2.0
WRAP.       NO : One line per depth step
CREA. 08/31/17 : LAS Creation Date
~Well ------------------------------------------------------
STRT.FT                         1000.0 : START DEPTH
STOP.FT                        10100.0 : STOP DEPTH
STEP.FT                       50.00000 : STEP LENGTH
NULL.                          -999.25 : NULL VALUE
COMP.             PETROFINA CANADA LTD : COMPANY
WELL. FINA AMOCO HB PASS CK 6-33-62-17 : WELL
FLD .                                  : FIELD
LOC .                                  : LOCATION
CTRY.                           CANADA : COUNTRY
SRVC.                     Schlumberger : SERVICE COMPANY
DATE.                      14-Feb-1977 : LOGDATE
PROV.                          Alberta : PROVINCE
UWI .                 100063306217W500 : UNIQUE WELL ID
SLAT.WGS84                    54.40414 : SURFACE LATITUDE
SLON.WGS84                   -116.4922 : SURFACE LONGITUDE
~Curve Information -----------------------------------------
DEPT    .FT    : Depth Curve
CALDED  .IN    : CALIPER FROM CNFD LOG
CALSED  .IN    : CALIPER FROM BCS LOG [ADJ.TO GRDED]
CALWS   .IN    : CALIPER [CALSED]
CILDED  .MMHO  : CONDUCTIVITY FROM DIL-LAT LOG
CONDWS  .MMHO  : CONDUCTIVITY [CILDED SPL.TO 1000/ILDED @ 1035.5' TO 1151.5' & 4943' TO 10143']
DCORED  .G/C3  : DENSITY CORRECTION FROM CNFD LOG
DCORWS  .G/C3  : DENSITY CORRECTION [DCORED]
DENWS   .G/C3  : FORMATION BULK DENSITY [RHOBED]
DPHILSED.V/V   : DENSITY POROSITY LIMESTONE [M=2.71, F=1.0] FROM CNFD LOG [ADJ.TO RHOBED]
DPHISSED.V/V   : DENSITY POROSITY SANDSTONE [M=2.65, F=1.0] FROM CNFD LOG [ADJ.TO RHOBED]
DPOLSWS .V/V   : DENSITY POROSITY LIMESTONE [CALCULATED FROM DENWS, M=2.71, F=1.0]
DRESWS  .OHMM  : DEEP RESISTIVITY [1000/CONDWS, IF ILDED <=4 THEN ILDED]
DTED    .US/F  : DELTA-T FROM BCS LOG [ADJ.TO GRDED]
DTWS    .US/F  : COMPRESSIONAL SONIC [DTED]
GRDED   .GAPI  : GAMMA RAY FROM CNFD LOG
GRSED   .GAPI  : GAMMA RAY FROM SONIC LOG [ADJ.TO GRDED]
GRWS    .GAPI  : GAMMA RAY [GRSED]
ILDED   .OHMM  : DEEP INDUCTION FROM DIL-LAT LOG
ILMED   .OHMM  : MEDIUM INDUCTION FROM DIL-LAT LOG
LL8ED   .OHMM  : LATEROLOG 8 FROM DIL-LAT LOG
MRESWS  .OHMM  : MEDIUM RESISTIVITY [ILMED]
NPHILSED.V/V   : NEUTRON POROSITY LIMESTONE FROM CNFD LOG [ADJ.TO RHOBED]
NPHISSED.V/V   : NEUTRON POROSITY SANDSTONE FROM CNFD LOG [ADJ.TO RHOBED]
NPOLSWS .V/V   : NEUTRON POROSITY LIMESTONE [NPHISSED CONVERTED TO LIMESTONE MATRIX & SPL.TO NPHILSED @ 6299.5']
RHOBED  .G/C3  : FORMATION BULK DENSITY FROM CNFD LOG
SPHIED  .V/V   : SONIC POROSITY [DTM=55.6, DTF=189 & DTM=45.5 @ 6250 TO TD] FROM BCS LOG [ADJ.TO GRDED]
SPOWS   .V/V   : SONIC POROSITY [SPHIED]
SPRED   .MV    : SPONTANEOUS POTENTIAL FROM DIL-LAT LOG
SPWS    .MV    : SPONTANEOUS POTENTIAL [BASELINE 0 MV, SPRED]
SRESWS  .OHMM  : SHALLOW RESISTIVITY [LL8ED]
~Params ----------------------------------------------------
PD  .                     GL : PERMANENT DATUM
EPD .FT                 2942 : ELEVATION PERMANENT DATUM
LMF .                     KB : LOG MEASURED FROM
DAPD.FT                13.15 : FEET ABOVE PERMANENT DATUM
DMF .                     KB : DRILLING MEASURED FROM
EKB .FT              2955.15 : KELLY BUSHING
EGL .FT               2942.0 : GROUND LEVEL
DATE.               02/14/77 : RUN DATE
RUN .                      1 : RUN NUMBER
DD  .FT                10160 : DEPTH DRILLER
DL  .FT                10155 : DEPTH LOGGER
BLI .FT                10149 : BOTTOM LOG INTERVAL
TLI .FT                 1027 : TOP LOG INTERVAL
CBD .FT                 1028 : CASING BOTTOM DRILLER
CBL .FT                 1027 : CASING BOTTOM LOGGER
BS  .IN                 8.75 : BIT SIZE
BSD .FT                10160 : BIT SIZE AT DEPTH
DFT .               GEL CHEM : DRILLING FLUID TYPE
DFD .                    9.0 : DRILLING FLUID DENSITY
DFV .                     93 : DRILLING FLUID VISCOSITY
DFPH.                   11.0 : DRILLING FLUID PH
DFL .                    5.6 : DRILLING FLUID LOSS
RMF .OHMM               2.08 : RESISTIVITY MUD FILTRATE SAMPLE
MFST.DEGF                 70 : MUD FILTRATE SAMPLE TEMPERATURE
RMC .OHMM               0.94 : RESISTIVITY MUD CAKE
MCST.DEGF                 70 : MUD CAKE SAMPLE TEMPERATURE
RMB .OHMM               0.85 : RESISTIVITY MUD AT BHT
TCS .HRS                 3.5 : TIME CIRCULATED STOPPED
LUN .                   7803 : LOGGING UNIT NUMBER
LUL .                     DC : LOGGING UNIT LOCATION
ENGI.                   WATT : RECORDING ENGINEER
WITN.                 NELSON : WITNESSED BY
CLNT.                A2DTECH : CLIENT CODE
ORIG.            2" 5" PRINT : ORIGIN OF DATA
UWI .       100063306217W500 : UNIQUE WELL ID
DICO. A2D Technologies, Inc. : DIGITIZING COMPANY
~Other -----------------------------------------------------
~ASCII -----------------------------------------------------
# ...
 9400.00000    9.68060    9.37490    9.37490    -999.25   86.19500    0.10210    0.10210    2.68830    0.01700    -999.25    0.01270   11.60160   67.69240   67.69240  121.43560  113.49800  113.49800   11.60160   12.96620   18.02600   12.96620    0.13670    -999.25    0.13670    2.68830    0.15720    0.15720   31.20480   -9.79960   18.02600
 9450.00000   10.47880    9.42440    9.42440    -999.25  130.25540    0.19890    0.19890    2.74810   -0.02410    -999.25   -0.02230    7.67720   72.28510   72.28510  156.08150  140.24300  140.24300    7.67720    8.49460   12.07860    8.49460    0.17540    -999.25    0.17540    2.74810    0.18790    0.18790   29.54670  -10.55870   12.07860
 9500.00000    9.18870    9.09130    9.09130    -999.25   70.70390    0.01540    0.01540    2.58720    0.06160    -999.25    0.07180   14.14350   64.56370   64.56370  189.13580  156.24680  156.24680   14.14350   17.35140   18.14110   17.35140    0.09160    -999.25    0.09160    2.58720    0.13860    0.13860   37.19700   -2.01820   18.14110
 9550.00000    9.19110    9.09520    9.09520    -999.25    0.86500    0.02200    0.02200    2.53600    0.10650    -999.25    0.10180 1156.02390   65.87570   65.87570  162.36400  146.99320  146.99320 1156.02390  935.62850  406.92940  935.62850    0.10490    -999.25    0.10490    2.53600    0.14510    0.14510   16.99910  -21.08200  406.92940
 9600.00000    9.17620    9.07300    9.07300    -999.25    0.64540    0.01080    0.01080    2.51790    0.11140    -999.25    0.11230 1549.39430   72.02850   72.02850  217.98320  193.83370  193.83370 1549.39430 1479.00230 1491.67470 1479.00230    0.16020    -999.25    0.16020    2.51790    0.18560    0.18560   -2.35490  -39.29700 1491.67470
 9650.00000    9.33530    9.18740    9.18740    -999.25   22.16550    0.00890    0.00890    2.67260    0.02540    -999.25    0.02190   45.11510   64.26940   64.26940  110.49690  104.00290  104.00290   45.11510   56.22530   74.65110   56.22530    0.11300    -999.25    0.11300    2.67260    0.13530    0.13530   29.71220   -6.09090   74.65110
 9700.00000   10.17930    9.43620    9.43620    -999.25   81.00790    0.13900    0.13900    2.63830    0.04380    -999.25    0.04190   12.34610   81.51840   81.51840  195.72270  184.73750  184.73750   12.34610   12.90130   20.75500   12.90130    0.21590    -999.25    0.21590    2.63830    0.25080    0.25080   23.27140  -12.90050   20.75500
 9750.00000    9.33310    9.21590    9.21590    -999.25   77.23740    0.04090    0.04090    2.72310   -0.01360    -999.25   -0.00770   12.94710   58.19460   58.19460   86.12250   80.76860   80.76860   12.94710   15.18970   21.80340   15.18970    0.09250    -999.25    0.09250    2.72310    0.08930    0.08930   20.98310  -16.05010   21.80340
 9800.00000    9.20590    9.15750    9.15750    -999.25   35.51170    0.03060    0.03060    2.72040   -0.01200    -999.25   -0.00610   28.15970   58.78030   58.78030   74.83340   82.16670   82.16670   28.15970   30.71510   43.24950   30.71510    0.08480    -999.25    0.08480    2.72040    0.09380    0.09380   25.47350  -12.42540   43.24950
 9850.00000    9.15690    9.12100    9.12100    -999.25    9.45790    0.00640    0.00640    2.70900    0.00140    -999.25    0.00060  105.73180   54.68270   54.68270   51.42090   50.22810   50.22810  105.73180  102.56580  144.79000  102.56580    0.04100    -999.25    0.04100    2.70900    0.06470    0.06470   25.77410  -12.99040  144.79000
 9900.00000    9.19830    9.12230    9.12230    -999.25   20.55690    0.02290    0.02290    2.71960   -0.00810    -999.25   -0.00560   48.64550   55.98520   55.98520   74.00750   76.81300   76.81300   48.64550   54.57090   81.69100   54.57090    0.06150    -999.25    0.06150    2.71960    0.07450    0.07450   34.10900   -5.52110   81.69100
 9950.00000    9.10600    9.07080    9.07080    -999.25   12.32010    0.01800    0.01800    2.70390    0.00440    -999.25    0.00360   81.32680   52.56400   52.56400   46.48110   46.11200   46.11200   81.32680   91.46670  325.98460   91.46670    0.02650    -999.25    0.02650    2.70390    0.05190    0.05190   32.55590   -5.91300  325.98460
 10000.00000    9.07250    9.01520    9.01520    -999.25    0.65760    0.01230    0.01230    2.70950   -0.00770    -999.25    0.00030 1520.70840   48.56620   48.56620   17.87790   17.32280   17.32280 1520.70840 1455.65600 1480.64730 1455.65600    0.00420    -999.25    0.00420    2.70950    0.02230    0.02230  -36.42040  -72.66530 1480.64730
 10050.00000    9.02620    8.76400    8.76400    -999.25    0.62820    0.02860    0.02860    2.70900    0.00140    -999.25    0.00060 1591.76350   49.35610   49.35610   20.47910   19.35250   19.35250 1591.76350 1469.63870 1509.45650 1469.63870    0.00140    -999.25    0.00140    2.70900    0.02770    0.02770  -84.68310 -118.69270 1509.45650
 10100.00000    9.09940    8.77130    8.77130    -999.25   36.27640    0.05540    0.05540    2.80220   -0.05460    -999.25   -0.05390   27.56610   53.11130   53.11130  122.25280  112.60360  112.60360   27.56610   27.96570  105.14780   27.96570    0.07470    -999.25    0.07470    2.80220    0.05990    0.05990   23.33870   -8.43560  105.14780
