~Version ---------------------------------------------------
VERS.      2.0 : CWLS log ASCII Standard -VERSION 2.0
WRAP.       NO : One line per depth step
CREA. 08/31/17 : LAS Creation Date
~Well ------------------------------------------------------
STRT.FT                       1300.0 : START DEPTH
STOP.FT                      12650.0 : STOP DEPTH
STEP.FT                     50.00000 : STEP LENGTH
NULL.                        -999.25 : NULL VALUE
COMP.           PETROFINA CANADA LTD : COMPANY
WELL. FINA AMOCO HB MAYBERNE 10-11-5 : WELL
FLD .                                : FIELD
LOC .                                : LOCATION
CTRY.                         CANADA : COUNTRY
SRVC.                   Schlumberger : SERVICE COMPANY
DATE.                    03-Apr-1977 : LOGDATE
PROV.                        Alberta : PROVINCE
UWI .               100101105718W500 : UNIQUE WELL ID
SLAT.WGS84                  53.91479 : SURFACE LATITUDE
SLON.WGS84                 -116.5629 : SURFACE LONGITUDE
~Curve Information -----------------------------------------
DEPT    .FT    : Depth Curve
CALDED  .IN    : DIFFERENTIAL CALIPER FROM DENSITY LOG
CALSED  .IN    : CALIPER FROM SONIC LOG [ADJ. TO GRED]
CALWS   .IN    : CALIPER [CALSED]
CONDWS  .MMHO  : CONDCUTIVITY [1000/DRESWS]
DCORED  .G/C3  : DENSITY CORRECTION FROM DENSITY LOG
DCORWS  .G/C3  : DENSITY CORRECTION [DRHOED]
DENWS   .G/C3  : FORMATION BULK DENSITY [RHOBED]
DPHILSED.V/V   : DENSITY POROSITY LIME [M=2.71, F=1.0] FROM DENSITY LOG [ADJ. TO RHOBED]
DPHISSED.V/V   : DENSITY POROSITY SAND [M=2.65, F=1.0] FROM DENSITY LOG [ADJ, TO RHOBED]
DPOLSWS .V/V   : DENSITY POROSITY LIME [CALC FROM DENWS, M=2.71, F=1.0]
DRESWS  .OHMM  : DEEP RESISTIVITY [ILDED]
DTED    .US/F  : DELTA-T FROM SONIC LOG [ADJ. TO GRDED]
DTWS    .US/F  : COMPRESSIONAL SONIC [DTED]
GRDED   .GAPI  : GAMMA RAY FROM DENSITY LOG
GRSED   .GAPI  : GAMMA RAY FROM SONIC LOG
GRWS    .GAPI  : GAMMA RAY [GRSED]
ILDED   .OHMM  : DEEP INDUCTION RESISTIVITY FROM RESISTIVITY LOG
ILMED   .OHMM  : MEDIUM INDUCTION RESISTIVITY FROM RESISTIVITY LOG
LL8ED   .OHMM  : LATEROLOG-8 RESISTIVITY FROM RESISTIVITY LOG
MRESWS  .OHMM  : MEDIUM RESISTIVITY [ILMED]
NPHILSED.V/V   : NEUTRON POROSITY LIME FROM DENSITY LOG [ADJ. TO RHOBED]
NPOLSWS .V/V   : NEUTRON POROSITY LIME [SS CONVERTS TO LS. SPL. TO LS @ 8849']
NPORSSED.V/V   : NEUTRON POROSITY SAND FROM DENSITY LOG [ADJ. TO RHOBED]
RHOBED  .G/C3  : DENSITY FORMATION DENSITY FROM DENSITY LOG
SPHIED  .V/V   : SONIC POROSITY [DTM=189, DTF=55.6] FROM SONIC LOG [ADJ. TO GRDED]
SPRED   .MV    : SPONTANEOUS POTENTIAL FROM RESISTIVITY LOG
SPWS    .MV    : SPONTANEOUS POTENTIAL [BASELINE 0 MV, SPRED]
SRESWS  .OHMM  : SHALLOW RESISTIVITY [LL8ED]
~Params ----------------------------------------------------
PD  .                     GL : PERMANENT DATUM
EPD .FT                 4315 : ELEVATION PERMANENT DATUM
LMF .                     KB : LOG MEASURED FROM
DAPD.FT                   17 : FEET ABOVE PERMANENT DATUM
EKB .FT                 4322 : KELLY BUSHING
EGL .FT                 4315 : GROUND LEVEL
DATE.               04/03/77 : RUN DATE
RUN .                      1 : RUN NUMBER
DD  .FT                12670 : DEPTH DRILLER
DL  .FT                12672 : DEPTH LOGGER
BLI .FT                12669 : BOTTOM LOG INTERVAL
TLI .FT                 1324 : TOP LOG INTERVAL
CBD .FT                 1327 : CASING BOTTOM DRILLER
CBL .FT                 1324 : CASING BOTTOM LOGGER
BS  .IN                 8.75 : BIT SIZE
BSD .FT                12670 : BIT SIZE AT DEPTH
DFT .               GEL CHEM : DRILLING FLUID TYPE
DFD .                      9 : DRILLING FLUID DENSITY
DFV .                    130 : DRILLING FLUID VISCOSITY
DFPH.                     10 : DRILLING FLUID PH
MSS .               FLOWLINE : MUD SAMPLE SOURCE
RMS .OHMM                3.2 : RESISTIVITY MUD SAMPLE
MST .DEGF                 56 : MUD SAMPLE TEMPERATURE
RMF .OHMM               2.94 : RESISTIVITY MUD FILTRATE SAMPLE
MFST.DEGF                 62 : MUD FILTRATE SAMPLE TEMPERATURE
RMB .OHMM               0.88 : RESISTIVITY MUD AT BHT
TCS .HRS                   4 : TIME CIRCULATED STOPPED
LUN .                   7667 : LOGGING UNIT NUMBER
LUL .                    EDM : LOGGING UNIT LOCATION
ENGI.          CAMPBELL BIGG : RECORDING ENGINEER
WITN.         SANDERS DAVIES : WITNESSED BY
CLNT.                A2DTECH : CLIENT CODE
ORIG.            2" 5" PRINT : ORIGIN OF DATA
UWI .       100101105718W500 : UNIQUE WELL ID
DICO. A2D Technologies, Inc. : DIGITIZING COMPANY
~Other -----------------------------------------------------
~ASCII -----------------------------------------------------
# ...
 6300.00000   12.72310    9.69120    9.69120   93.26600    0.20330    0.20330    2.36900    -999.25    0.17510    0.19940   10.72460   77.97910   77.97910  103.16020  112.96130  112.96130   10.72460   15.12500   20.70360   15.12500    -999.25    0.20290    0.24670    2.36900    0.10560  -25.06270   -7.30780   20.70360
 6350.00000   11.10250    9.90130    9.90130  127.30600    0.12210    0.12210    2.38000    -999.25    0.17110    0.19300    7.85880   83.33300   83.33300  119.61360  120.33280  120.33280    7.85880    9.93630    9.40270    9.93630    -999.25    0.24610    0.29010    2.38000    0.19340  -23.07700   -5.15710    9.40270
 6400.00000   12.71500   10.00030   10.00030  141.37100    0.22410    0.22410    2.24640    -999.25    0.24970    0.27110    7.07440   80.37240   80.37240  122.41240  129.40850  129.40850    7.07440    8.71010    8.40660    8.71010    -999.25    0.23910    0.28310    2.24640    0.22500  -20.33490   -2.25080    8.40660
 6450.00000   11.53790    9.91280    9.91280  149.19440    0.08350    0.08350    2.31270    -999.25    0.20560    0.23230    6.70270   82.63550   82.63550  110.12720  123.11350  123.11350    6.70270    8.26460    7.74630    8.26460    -999.25    0.25830    0.30230    2.31270    0.19010  -19.53300   -1.28400    7.74630
 6500.00000   10.69880    9.76560    9.76560  122.32150    0.23590    0.23590    1.93980    -999.25    0.42200    0.45030    8.17560   81.51850   81.51850  115.91290  116.23780  116.23780    8.17560    9.79990    9.01620    9.79990    -999.25    0.28910    0.33290    1.93980    0.18430  -21.71130   -3.29900    9.01620
 6550.00000   10.15450    7.94680    7.94680   62.53630    0.15950    0.15950    2.33950    -999.25    0.19160    0.21670   16.01130   78.72560   78.72560   73.99300   73.20630   73.20630   16.01130   19.20410   17.08720   19.20410    -999.25    0.19110    0.23490    2.33950    0.19600  -32.20430  -13.59210   17.08720
 6600.00000    9.90960   10.33680   10.33680   86.82700    0.05180    0.05180    2.52020    -999.25    0.07860    0.11100   11.51790   75.51670   75.51670  100.69690  113.79780  113.79780   11.51790   13.67780   12.71960   13.67780    -999.25    0.27080    0.31480    2.52020    0.14340  -22.07700   -3.17260   12.71960
 6650.00000   10.60980   10.12340   10.12340  104.02230    0.20450    0.20450    2.13510    -999.25    0.31210    0.33620    9.61360   78.02730   78.02730  114.66790  119.96400  119.96400    9.61360   12.18900   12.19720   12.18900    -999.25    0.25120    0.29520    2.13510    0.15250  -21.06200   -1.86680   12.19720
 6700.00000   11.78260   10.63910   10.63910  113.75200    0.15970    0.15970    1.80400    -999.25    0.46340    0.52980    8.79110   77.10610   77.10610  110.34710  120.10250  120.10250    8.79110   10.65390   10.21350   10.65390    -999.25    0.31270    0.35630    1.80400    0.17520  -20.90750   -1.42020   10.21350
 6750.00000   11.22870    9.68410    9.68410  107.17740    0.12200    0.12200    1.73340    -999.25    0.44920    0.57110    9.33040   77.41490   77.41490  105.02500  110.25980  110.25980    9.33040   11.65440   11.02960   11.65440    -999.25    0.26900    0.31290    1.73340    0.15870  -25.12760   -5.35090   11.02960
 6800.00000   11.59630    9.49330    9.49330  129.13400    0.08060    0.08060    1.61790    -999.25    0.44980    0.63870    7.74390   82.87270   82.87270  111.01330  118.67730  118.67730    7.74390    9.81980    9.24790    9.81980    -999.25    0.30570    0.34930    1.61790    0.20420  -25.99970   -5.93370    9.24790
 6850.00000   11.79650   10.06690   10.06690  109.18420    0.07470    0.07470    1.61980    -999.25    0.44910    0.63750    9.15910   80.56890   80.56890  114.04580  113.42260  113.42260    9.15910   10.98420   11.40410   10.98420    -999.25    0.30970    0.35320    1.61980    0.18260  -25.23870   -4.88040   11.40410
 6900.00000   12.88760   10.96560   10.96560  121.59790    0.07330    0.07330    1.57360    -999.25    0.44840    0.66460    8.22400   87.90880   87.90880  110.07890  114.50700  114.50700    8.22400    9.81620   10.47910    9.81620    -999.25    0.36660    0.40920    1.57360    0.23540  -22.07010   -1.42110   10.47910
 6950.00000   10.35180    9.39780    9.39780  100.54290    0.21410    0.21410    1.92790    -999.25    0.43620    0.45740    9.94600   85.87300   85.87300  144.69540  137.20970  137.20970    9.94600   12.41010   13.43040   12.41010    -999.25    0.31880    0.36230    1.92790    0.22230  -22.85840   -1.91720   13.43040
 7000.00000   10.14160    9.73820    9.73820  114.61880    0.17550    0.17550    1.93670    -999.25    0.43040    0.45220    8.72480   85.20480   85.20480  129.67470  124.11950  124.11950    8.72480   11.06970   11.79460   11.06970    -999.25    0.28390    0.32770    1.93670    0.21710  -23.20040   -1.91320   11.79460
 7050.00000   10.84520    9.61120    9.61120   83.40720    0.09540    0.09540    2.25170    -999.25    0.24510    0.26800   11.98970   89.11830   89.11830  126.39990  142.58080  142.58080   11.98970   15.11280   16.68820   15.11280    -999.25    0.31950    0.36300    2.25170    0.24700  -23.56230   -1.78710   16.68820
 7100.00000    9.56250    9.26200    9.26200   66.01050    0.21870    0.21870    2.32780    -999.25    0.18930    0.22350   15.15460   78.15510   78.15510  134.36670  131.03000  131.03000   15.15460   20.30010   26.75010   20.30010    -999.25    0.24550    0.28950    2.32780    0.21270  -24.30990   -2.04160   26.75010
 7150.00000   10.96420    9.25530    9.25530   67.24260    0.23390    0.23390    2.28050    -999.25    0.22690    0.25120   14.87420   91.05300   91.05300  144.99930  149.95710  149.95710   14.87420   18.30210   23.09420   18.30210    -999.25    0.29500    0.33870    2.28050    0.24590  -26.79150   -4.03250   23.09420
 7200.00000   12.74910   10.72310   10.72310  122.70430    0.15070    0.15070    1.82730    -999.25    0.46480    0.51620    8.14970   89.44910   89.44910  116.38960  114.85580  114.85580    8.14970   10.23840   11.01290   10.23840    -999.25    0.33590    0.37910    1.82730    0.24810  -24.41430   -1.16230   11.01290
 7250.00000   10.82030    9.60070    9.60070   72.49270    0.24410    0.24410    2.36680    -999.25    0.17560    0.20070   13.79710   87.15560   87.15560  162.02660  164.33160  164.33160   13.79710   17.74330   20.20710   17.74330    -999.25    0.29850    0.34230    2.36680    0.23390  -22.86430    0.00000   20.20710
 7300.00000   12.60620   10.13030   10.13030  150.01820    0.21510    0.21510    2.13980    -999.25    0.30730    0.33350    6.66590   80.74280   80.74280   99.79810  106.23930  106.23930    6.66590    8.80880    8.39660    8.80880    -999.25    0.27020    0.31410    2.13980    0.18070  -26.65550   -2.42720    8.39660
 7350.00000   10.03140    9.06350    9.06350  124.90190    0.10000    0.10000    2.52350    -999.25    0.07720    0.10910    8.01880   74.52260   74.52260   87.65390   94.24930   94.24930    8.01880   11.05490   11.92440   11.05490    -999.25    0.16130    0.20480    2.52350    0.11940  -30.20470   -5.48340   11.92440
 7400.00000    9.48890    9.34660    9.34660  116.02230    0.17880    0.17880    2.33590    -999.25    0.19480    0.21870    8.61910   76.80050   76.80050  117.66840  122.33830  122.33830    8.61910   11.28590   10.59330   11.28590    -999.25    0.24620    0.29020    2.33590    0.15580  -28.01500   -3.04660   10.59330
 7450.00000    9.64000    9.47800    9.47800  127.12080   -0.00070   -0.00070    2.55710    -999.25    0.05790    0.08940    7.86790   80.75060   80.75060  104.36870  106.39280  106.39280    7.86790   10.79750   11.79990   10.79750    -999.25    0.18360    0.22740    2.55710    0.14290  -25.56110   -0.99590   11.79990
 7500.00000   10.20530   10.12310   10.12310  133.02690    0.02160    0.02160    2.54040    -999.25    0.07070    0.09920    7.51760   78.12540   78.12540  108.95320  108.79540  108.79540    7.51760    9.36850    8.85230    9.36850    -999.25    0.25760    0.30160    2.54040    0.16990  -23.85900    0.00000    8.85230
