~Version ---------------------------------------------------
VERS.      2.0 : CWLS log ASCII Standard -VERSION 2.0
WRAP.       NO : One line per depth step
CREA. 11/17/17 : LAS Creation Date
~Well ------------------------------------------------------
STRT.FT                        950.0 : START DEPTH
STOP.FT                       9050.0 : STOP DEPTH
STEP.FT                     50.00000 : STEP LENGTH
NULL.                        -999.25 : NULL VALUE
COMP.    SAMEDAN OIL OF CANADA, INC. : COMPANY
WELL. SAMEDAN ET AL SUNSET 1-1-70-20 : WELL
FLD .                                : FIELD
LOC .                                : LOCATION
CTRY.                         CANADA : COUNTRY
SRVC.                   Schlumberger : SERVICE COMPANY
DATE.                    01-Apr-1971 : LOGDATE
PROV.                        Alberta : PROVINCE
UWI .               100010107020W500 : UNIQUE WELL ID
SLAT.WGS84                  55.02795 : SURFACE LATITUDE
SLON.WGS84                 -116.9023 : SURFACE LONGITUDE
~Curve Information -----------------------------------------
DEPT  .FT    : Depth Curve
CALSED.IN    : CALIPER FROM SONIC LOG
CALWS .IN    : CALIPER [CALSED]
CONDWS.MMHO  : CONDUCTIVITY [1000/DRESWS]
DRESWS.OHMM  : DEEP RESISTIVITY [ILDED]
DTED  .US/F  : DELTA TIME FROM SONIC LOG
DTWS  .US/F  : COMPRESSIONAL SONIC [DTED]
GRSED .GAPI  : GAMMA RAY FROM SONIC LOG
GRWS  .GAPI  : GAMMA RAY [GRSED]
ILDED .OHMM  : DEEP INDUCTION FROM RESISTIVITY LOG
ILMED .OHMM  : MEDIUM INDUCTION FROM RESISTIVITY LOG
LL8ED .OHMM  : 8 INCH LATEROLOG RESISTIVITY FROM RESISTIVITY LOG
MRESWS.OHMM  : MEDIUM RESISTIVITY [ILMED]
SPRED .MV    : SPONTANEOUS POTENTIAL FROM RESISTIVITY LOG
SPWS  .MV    : SPONTANEOUS POTENTIAL [BASELINE 0 MV, SPRED]
SRESWS.OHMM  : SHALLOW RESISTIVITY [LL8ED]
~Params ----------------------------------------------------
PD  .                     GL : PERMANENT DATUM
EPD .FT               2286.6 : ELEVATION PERMANENT DATUM
LMF .                     KB : LOG MEASURED FROM
DAPD.FT                 13.5 : FEET ABOVE PERMANENT DATUM
EKB .FT               2300.1 : KELLY BUSHING
EGL .FT               2286.6 : GROUND LEVEL
DATE.               04/01/71 : RUN DATE
RUN .                      1 : RUN NUMBER
DD  .FT                 9080 : DEPTH DRILLER
DL  .FT                 9075 : DEPTH LOGGER
BLI .FT                 9069 : BOTTOM LOG INTERVAL
TLI .FT                  902 : TOP LOG INTERVAL
CBD .FT                  902 : CASING BOTTOM DRILLER
CBL .FT                  902 : CASING BOTTOM LOGGER
BS  .IN                7.875 : BIT SIZE
BSD .FT                 9080 : BIT SIZE AT DEPTH
DFT .               GEL CHEM : DRILLING FLUID TYPE
DFD .                    9.4 : DRILLING FLUID DENSITY
DFV .                     93 : DRILLING FLUID VISCOSITY
DFPH.                      9 : DRILLING FLUID PH
DFL .                    8.6 : DRILLING FLUID LOSS
RMS .OHMM               2.92 : RESISTIVITY MUD SAMPLE
MST .DEGF                 61 : MUD SAMPLE TEMPERATURE
RMF .OHMM               2.52 : RESISTIVITY MUD FILTRATE SAMPLE
MFST.DEGF                 60 : MUD FILTRATE SAMPLE TEMPERATURE
RMC .OHMM               2.91 : RESISTIVITY MUD CAKE
MCST.DEGF                 60 : MUD CAKE SAMPLE TEMPERATURE
RMB .OHMM                1.0 : RESISTIVITY MUD AT BHT
TCS .HRS                   3 : TIME CIRCULATED STOPPED
LUN .                   7004 : LOGGING UNIT NUMBER
LUL .                    EDM : LOGGING UNIT LOCATION
ENGI.                 BUFTON : RECORDING ENGINEER
WITN.             MASON GOSS : WITNESSED BY
CLNT.                A2DTECH : CLIENT CODE
ORIG.            2" 5" PRINT : ORIGIN OF DATA
UWI .       100010107020W500 : UNIQUE WELL ID
DICO. A2D Technologies, Inc. : DIGITIZING COMPANY
~Other -----------------------------------------------------
DIL-BCS LOG RUN
ALL CURVES HAVE BEEN VERIFIED FROM 2" SECTION @TOP-2990'
~ASCII -----------------------------------------------------
# ...
 3250.00000   12.77160   12.77160  258.41800    3.86970   98.07410   98.07410   54.17500   54.17500    3.86970    4.49670    4.38020    4.49670  -50.77250  -15.76130    4.38020
 3300.00000    9.81060    9.81060  208.19890    4.80310   90.87080   90.87080   84.64880   84.64880    4.80310    5.04320    5.61180    5.04320  -41.29940   -6.79460    5.61180
 3350.00000    8.44230    8.44230   97.00450   10.30880   90.56350   90.56350   49.40210   49.40210   10.30880   13.51910   16.14070   13.51910  -68.76470  -34.63390   16.14070
 3400.00000    8.63560    8.63560  145.37210    6.87890   85.20620   85.20620   51.70950   51.70950    6.87890    9.53560   16.07830    9.53560  -88.42830  -54.63840   16.07830
 3450.00000    9.66230    9.66230  173.03740    5.77920   94.32030   94.32030   47.86890   47.86890    5.77920    7.46380   11.87960    7.46380  -87.50940  -54.06220   11.87960
 3500.00000    9.59310    9.59310  207.85270    4.81110   89.14770   89.14770   49.11040   49.11040    4.81110    6.33350   11.31920    6.33350  -79.85060  -46.74260   11.31920
 3550.00000    9.56240    9.56240  160.86480    6.21640   92.53030   92.53030   63.46450   63.46450    6.21640    8.03070    9.05930    8.03070  -67.72270  -34.95560    9.05930
 3600.00000   11.36440   11.36440  203.61620    4.91120   77.53140   77.53140   54.86010   54.86010    4.91120    5.10570    6.29850    5.10570  -66.71590  -34.28970    6.29850
 3650.00000   10.16580   10.16580  194.24260    5.14820  114.38660  114.38660   58.94480   58.94480    5.14820    5.63660    6.10520    5.63660  -54.14340  -22.05810    6.10520
 3700.00000    9.58480    9.58480  156.93700    6.38060   89.27940   89.27940   72.63050   72.63050    6.38060    8.13000   12.43190    8.13000  -80.49560  -48.75300   12.43190
 3750.00000    9.99820    9.99820  126.58870    7.89960   76.89110   76.89110   52.10100   52.10100    7.89960    8.42650    8.67540    8.42650  -59.27110  -27.86770    8.67540
 3800.00000    9.57340    9.57340  106.53710    9.38640   81.33870   81.33870   51.34760   51.34760    9.38640   11.51510   15.85350   11.51510  -90.48950  -59.42700   15.85350
 3850.00000    8.12760    8.12760   90.02440   11.10810   86.11530   86.11530   60.74720   60.74720   11.10810   15.40810   21.41070   15.40810 -101.96450  -71.24290   21.41070
 3900.00000   10.18900   10.18900  177.47170    5.63470  100.47190  100.47190   77.41600   77.41600    5.63470    5.92960    5.84440    5.92960  -47.14240  -16.76180    5.84440
 3950.00000    8.87520    8.87520   84.03620   11.90260   83.70150   83.70150   54.04630   54.04630   11.90260   20.61380   29.16900   20.61380 -107.52930  -77.49130   29.16900
 4000.00000    9.62870    9.62870  193.28900    5.17360   89.63600   89.63600   73.72040   73.72040    5.17360    5.41570    5.62760    5.41570  -43.71350  -14.01470    5.62760
 4050.00000    9.26070    9.26070  129.10220    7.74580   87.33410   87.33410   66.16370   66.16370    7.74580    9.27630    9.37930    9.27630  -57.63150  -28.27360    9.37930
 4100.00000    8.58680    8.58680   91.29340   10.95370   71.44820   71.44820   48.65090   48.65090   10.95370   16.22180   26.62690   16.22180  -90.88400  -61.86710   26.62690
 4150.00000   10.16410   10.16410  176.50380    5.66560   87.61820   87.61820   74.62130   74.62130    5.66560    6.04940    6.27110    6.04940  -43.39580  -14.71980    6.27110
 4200.00000   10.05080   10.05080  197.48080    5.06380   90.70950   90.70950   89.81390   89.81390    5.06380    5.26070    6.12220    5.26070  -39.60150  -11.26810    6.12220
 4250.00000   10.01470   10.01470  195.15240    5.12420   90.80810   90.80810   67.97320   67.97320    5.12420    5.31880    5.66380    5.31880  -38.41890  -10.42470    5.66380
 4300.00000   10.48390   10.48390  171.69450    5.82430   95.83120   95.83120   82.64000   82.64000    5.82430    6.53530    6.46320    6.53530  -38.66700  -11.01370    6.46320
 4350.00000    9.08680    9.08680   66.31780   15.07890   77.70420   77.70420   32.70350   32.70350   15.07890   18.12600   27.44280   18.12600  -82.24480  -54.93250   27.44280
 4400.00000   15.08840   15.08840  501.37880    1.99450  129.03400  129.03400   57.77190   57.77190    1.99450    2.07120    2.49620    2.07120  -36.45410   -9.48270    2.49620
 4450.00000   13.88850   13.88850  368.84400    2.71120  103.48130  103.48130   71.75910   71.75910    2.71120    2.84530    3.49160    2.84530  -33.98360   -7.35480    3.49160
 4500.00000    9.00120    9.00120   40.11410   24.92890   84.12830   84.12830   99.69430   99.69430   24.92890   19.79280   24.59750   19.79280  -31.20060   -4.91100   24.59750
 4550.00000    8.70120    8.70120   37.85210   26.41860  110.64990  110.64990  138.38430  138.38430   26.41860   27.64500   43.40270   27.64500  -30.50290   -4.55430   43.40270
 4600.00000    8.32630    8.32630    2.77390  360.50480   78.01600   78.01600  264.15470  264.15470  360.50480  753.16090 1574.98730  753.16090  -39.21700  -12.80040 1574.98730
 4650.00000    8.79040    8.79040  116.42800    8.58900   70.66730   70.66730   68.66010   68.66010    8.58900   11.28330   19.30960   11.28330  -81.91580  -54.18950   19.30960
 4700.00000    9.87070    9.87070  216.69450    4.61480   74.91870   74.91870   69.73320   69.73320    4.61480    4.99080    6.50310    4.99080  -52.08570  -23.04310    6.50310
 4750.00000   10.09160   10.09160  188.04060    5.31800   74.64480   74.64480   82.19900   82.19900    5.31800    5.77360    7.36330    5.77360  -49.27460  -18.92870    7.36330
 4800.00000   10.43090   10.43090  243.27350    4.11060   75.40420   75.40420   86.17450   86.17450    4.11060    4.43420    6.47710    4.43420  -48.00700  -16.35140    6.47710
 4850.00000    8.73490    8.73490  104.92410    9.53070   70.51250   70.51250   22.00330   22.00330    9.53070   13.92360   43.47530   13.92360 -127.98210  -95.01670   43.47530
 4900.00000    8.26010    8.26010  219.92040    4.54710   58.65600   58.65600   21.71390   21.71390    4.54710    8.31150   54.56690    8.31150 -135.16660 -100.89140   54.56690
 4950.00000    8.25210    8.25210  204.24810    4.90280   62.64560   62.64560   55.76390   55.76390    4.90280    5.36130    9.34570    5.36130  -63.91150  -28.32000    9.34570
 5000.00000    8.27410    8.27410   63.34890   15.78560   93.35570   93.35570   22.23440   22.23440   15.78560   24.86910   83.82970   24.86910 -136.62960  -99.73490   83.82970
 5050.00000    7.89610    7.89610  306.95560    3.25780   63.33630   63.33630   25.55070   25.55070    3.25780    4.41560   32.11310    4.41560 -124.08560  -85.88110   32.11310
 5100.00000    7.98520    7.98520   87.16120   11.47300   60.31630   60.31630   20.13030   20.13030   11.47300   22.32450   53.26450   22.32450 -164.95060 -125.43630   53.26450
 5150.00000    8.41540    8.41540  397.15640    2.51790   39.44570   39.44570   35.29380   35.29380    2.51790    3.12790    9.84150    3.12790 -118.49740  -77.67340    9.84150
 5200.00000    8.30690    8.30690   37.23030   26.88540   54.16880   54.16880   13.42950   13.42950   26.88540   30.49760   81.69810   30.49760 -122.25990  -80.11950   81.69810
 5250.00000    8.83320    8.83320   69.18070   14.45490   54.67200   54.67200   39.18650   39.18650   14.45490   18.74860   51.93830   18.74860  -65.15290  -21.70930   51.93830
 5300.00000    8.34940    8.34940   25.40730   39.35880   59.91420   59.91420   38.28350   38.28350   39.35880   44.54060   41.00600   44.54060  -52.61660   -7.86330   41.00600
 5350.00000    8.30160    8.30160   92.63890   10.79460   60.44260   60.44260   53.14100   53.14100   10.79460   12.60130   19.50340   12.60130  -57.67810  -13.13520   19.50340
 5400.00000    8.66650    8.66650  284.28470    3.51760   59.08150   59.08150   26.17830   26.17830    3.51760    4.74490   10.94880    4.74490 -118.79730  -74.73310   10.94880
 5450.00000    8.73220    8.73220  197.69360    5.18250   58.26700   58.26700   23.57920   23.57920    5.18250    5.68260    9.00090    5.68260 -121.79090  -78.20790    9.00090
 5500.00000    8.58350    8.58350   58.34410   17.13970   56.07230   56.07230   33.22300   33.22300   17.13970   22.11330   66.95400   22.11330  -74.55330  -31.44660   66.95400
