~Version ---------------------------------------------------
VERS.      2.0 : CWLS log ASCII Standard -VERSION 2.0
WRAP.       NO : One line per depth step
CREA. 10/01/14 : LAS Creation Date
~Well ------------------------------------------------------
STRT.FT                                  935.9 : START DEPTH
STOP.FT                                 9375.9 : STOP DEPTH
STEP.FT                                0.50000 : STEP LENGTH
NULL.                                  -999.25 : NULL VALUE
COMP. THE BRITISH AMERICAN OIL COMPANY LIMITED : COMPANY
WELL.        B.A. EAST GOOSE RIVER 10-22-66-15 : WELL
FLD .                                          : FIELD
LOC .                                          : LOCATION
CTRY.                                   CANADA : COUNTRY
SRVC.                   Schlumberger of Canada : SERVICE COMPANY
DATE.                              16-Mar-1960 : LOGDATE
PROV.                                  Alberta : PROVINCE
UWI .                         100102206615W500 : UNIQUE WELL ID
SLAT.WGS84                            54.72873 : SURFACE LATITUDE
SLON.WGS84                           -116.1771 : SURFACE LONGITUDE
~Curve Information -----------------------------------------
DEPT.FT      : DEPTH FEET
CILD.MMHO    : CONDUCTIVITY FROM RESISTIVITY LOG
DT  .US/F    : DELTA-T FROM SONIC LOG
GRS .MG/TON  : GAMMA RAY FROM SONIC LOG
ILD .OHMM    : DEEP INDUCTION FROM RESISTIVITY LOG
MCAL.IN      : MLT CALIPER FROM MICRO LOG
SN  .OHMM    : SHORT NORMAL FROM RESISTIVITY LOG
SPR .MV      : SPONTANEOUS POTENTIAL FROM RESISTIVITY LOG
~Params ----------------------------------------------------
LMF .                     KB : LOG MEASURED FROM
DMF .                     KB : DRILLING MEASURED FROM
EKB .FT                 3222 : KELLY BUSHING
EGL .FT                 3205 : GROUND LEVEL
DATE.               03/16/60 : RUN DATE
RUN .                      2 : RUN NUMBER
DD  .FT                 9370 : DEPTH DRILLER
DL  .FT                 9378 : DEPTH LOGGER
BLI .FT                 9373 : BOTTOM LOG INTERVAL
TLI .FT                 5000 : TOP LOG INTERVAL
CBD .FT                  975 : CASING BOTTOM DRILLER
BS  .IN                    9 : BIT SIZE
BSD .FT                 9370 : BIT SIZE AT DEPTH
DFT .                    GEL : DRILLING FLUID TYPE
DFD .                     10 : DRILLING FLUID DENSITY
DFV .                    120 : DRILLING FLUID VISCOSITY
DFPH.                     10 : DRILLING FLUID PH
DFL .                    6.2 : DRILLING FLUID LOSS
RMS .OHMM                2.8 : RESISTIVITY MUD SAMPLE
MST .DEGF                 59 : MUD SAMPLE TEMPERATURE
RMF .OHMM               1.41 : RESISTIVITY MUD FILTRATE SAMPLE
MFST.DEGF                 68 : MUD FILTRATE SAMPLE TEMPERATURE
RMC .OHMM               2.56 : RESISTIVITY MUD CAKE
MCST.DEGF                 67 : MUD CAKE SAMPLE TEMPERATURE
RMB .OHMM               0.94 : RESISTIVITY MUD AT BHT
TCS .HRS                 4.5 : TIME CIRCULATED STOPPED
LUN .                  1573C : LOGGING UNIT NUMBER
LUL .                     WC : LOGGING UNIT LOCATION
ENGI.              HAUSEGGER : RECORDING ENGINEER
WITN.                   COTE : WITNESSED BY
CLNT.                A2DTECH : CLIENT CODE
ORIG.            2" 5" PRINT : ORIGIN OF DATA
UWI .       100102206615W500 : UNIQUE WELL ID
DICO. A2D Technologies, Inc. : DIGITIZING COMPANY
~Other -----------------------------------------------------
~ASCII -----------------------------------------------------
# ...
 7685.90000   10.31500   54.00810    0.72390  308.17140    9.18850   86.74170 -148.37670
 7686.40000   10.70680   52.96950    0.74960  274.56380    9.29470   82.52520 -152.14550
 7686.90000   11.96720   52.27840    0.77530  226.76660    9.34270   78.03370 -154.37700
 7687.40000   13.54290   52.50300    0.78660  172.31350    9.35340   73.68040 -156.18780
 7687.90000   16.31880   53.58550    0.81230  132.04480    9.36450   69.49920 -158.15000
 7688.40000   19.58270   54.53600    0.81820  114.41690    9.35400   67.40860 -159.30420
 7688.90000   24.40880   57.35220    0.81990   62.06740    9.33170   61.13680 -162.65690
 7689.40000   27.24190   58.42220    0.81360   60.19860    9.28770   59.04620 -163.95200
 7689.90000   40.27870   62.60230    0.78070   44.20090    8.89720   52.77450 -168.52390
 7690.40000   43.97330   64.19840    0.76740   38.07560    8.76640   50.66620 -170.43160
 7690.90000   57.64990   68.38820    0.72740   23.01600    8.62080   44.42230 -177.34050
 7691.40000   63.55070   69.26630    0.71410   20.84890    8.61100   42.03030 -180.37410
 7691.90000   81.74990   71.68410    0.73660   15.65030    8.53600   35.82240 -194.24560
 7692.40000   87.75920   72.20940    0.79990   14.41050    8.50980   34.43840 -203.43550
 7692.90000  107.10780   73.27100    1.02790   11.22610    8.47770   30.59170 -236.24050
 7693.40000  113.70930   73.21570    1.06570   10.65300    8.48280   29.81440 -249.18570
 7693.90000  132.05330   73.32000    1.25830    9.17770    8.48620   28.05630 -279.88780
 7694.40000  136.04720   73.43810    1.31500    8.96050    8.47850   27.74650 -288.15210
 7694.90000  145.39290   73.30480    1.32030    8.40420    8.47650   27.06400 -301.01700
 7695.40000  149.58180   72.22920    1.31660    8.14830    8.50000   26.91920 -300.99540
 7695.90000  152.83040   70.93320    1.36200    7.97740    8.53890   27.20550 -300.97380
 7696.40000  154.74700   69.85340    1.38130    7.84270    8.59270   27.83350 -300.95210
 7696.90000  157.29390   69.11160    1.33860    7.68600    8.64550   28.60770 -300.93050
 7697.40000  160.26990   68.73320    1.36530    7.55220    8.70460   29.34770 -300.90890
 7697.90000  160.73240   68.46150    1.36690    7.64670    8.75860   29.80100 -300.89810
 7698.40000  153.90280   67.58780    1.32690    8.23210    8.82510   30.64200 -300.86570
 7698.90000  140.88880   67.45640    1.31260    8.56420    8.76490   31.10850 -300.85490
 7699.40000  130.21900   67.43710    1.39850    9.76300    8.59870   33.17380 -300.82240
 7699.90000  123.60210   66.74930    1.46300   10.48750    8.55260   34.30220 -300.81160
 7700.40000  106.75900   64.11550    1.49230   12.22630    8.45200   37.93260 -300.38980
 7700.90000  101.69710   63.40720    1.44920   13.42000    8.48930   38.99940 -299.33810
 7701.40000   81.73780   61.66430    1.31130   17.72660    8.76970   41.72890 -296.18330
 7701.90000   74.70340   60.94840    1.30020   19.59280    8.96770   42.30430 -295.13160
 7702.40000   59.04620   58.73820    1.27520   24.46020    9.30580   43.26920 -291.86260
 7702.90000   55.89680   58.36100    1.21290   25.91930    9.31380   43.58370 -290.68310
 7703.40000   49.48100   57.89330    0.98190   29.22020    9.34230   45.04660 -287.14470
 7703.90000   48.22280   57.90530    0.90900   29.61400    9.34900   45.84260 -286.37540
 7704.40000   45.46320   58.23610    0.89810   30.53180    9.36360   48.92710 -285.23750
 7704.90000   44.91110   58.71480    0.88060   30.88930    9.36610   50.28810 -285.12340
 7705.40000   44.33660   60.22940    0.80560   31.81340    9.35660   52.38710 -284.91660
 7705.90000   44.31400   60.80660    0.81630   31.86720    9.36010   52.75330 -284.82370
 7706.40000   45.81730   61.04220    0.87050   30.68580    9.39220   52.79140 -284.73090
 7706.90000   49.17080   61.42770    0.95170   28.22840    9.41860   52.28280 -284.63810
 7707.40000   52.17540   61.61870    1.00450   25.58340    9.53150   50.38110 -284.55920
 7707.90000   59.10180   61.35050    0.93410   22.02000    9.61890   47.29320 -284.54930
 7708.40000   65.97020   61.00420    0.94870   20.77370    9.59800   46.28650 -284.13950
 7708.90000   71.32570   60.22120    0.99730   17.88770    9.47720   43.10980 -282.40170
 7709.40000   75.63800   60.11190    0.97750   17.37080    9.45880   42.09920 -281.73770
 7709.90000   78.41260   59.74610    0.96460   16.42200    9.41400   39.75220 -279.74570
 7710.40000   78.82130   59.56260    0.98830   16.39750    9.41510   39.66440 -279.08170
 7710.90000   77.54480   59.09010    1.05720   17.09240    9.42690   40.03670 -276.94740
 7711.40000   75.78740   59.49060    1.06190   17.63990    9.38100   40.46920 -276.04310
 7711.90000   68.80180   60.70570    1.06250   19.93860    9.27030   41.77020 -273.33020
 7712.40000   66.29770   60.84790    1.04090   20.87400    9.31010   41.90290 -272.42580
 7712.90000   59.83110   60.37020    0.98200   23.71270    9.42850   41.32960 -269.71290
 7713.40000   58.02210   60.15510    0.96970   24.15490    9.44400   40.66170 -268.59640
 7713.90000   54.53310   60.49520    0.97070   24.67290    9.44380   38.48980 -266.40700
 7714.40000   54.98520   60.24680    0.94810   24.46290    9.42680   37.93480 -265.84100
 7714.90000   58.63310   59.30670    0.90390   22.71170    9.39440   37.13640 -264.00780
 7715.40000   60.29910   59.14490    0.95570   21.98030    9.38340   37.25140 -263.84720
 7715.90000   64.10930   59.11030    0.97350   20.72430    9.39690   37.73440 -263.87150
 7716.40000   64.54440   59.17580    0.92780   20.74970    9.49800   37.78360 -263.93140
 7716.90000   62.92520   58.95830    0.87310   21.36640    9.52950   37.02740 -263.74590
 7717.40000   61.35430   58.83590    0.85280   22.15670    9.53700   36.63150 -263.59240
 7717.90000   59.36830   58.84030    0.92560   22.99300    9.55680   37.15810 -263.71410
 7718.40000   57.25040   58.95840    1.01200   23.99680    9.57380   39.34650 -264.42500
 7718.90000   55.20840   59.19340    1.03860   24.69460    9.56310   40.94810 -265.19690
 7719.40000   50.65640   59.88450    0.99260   27.86100    9.36250   47.55610 -268.34900
 7719.90000   45.85230   59.95830    1.00340   29.69250    9.22160   50.68480 -269.53900
 7720.40000   41.04830   60.14610    1.02110   36.05940    8.69390   57.20590 -273.10910
 7720.90000   38.88240   60.26520    0.98390   38.05400    8.64520   58.64670 -274.29910
 7721.40000   34.23300   60.42660    0.87170   42.92220    8.80330   61.95400 -277.57850
 7721.90000   33.73420   60.18140    0.87900   43.02920    8.91820   62.38720 -278.19830
 7722.40000   33.91920   59.91240    0.98000   42.11290    9.22140   63.16850 -280.05780
 7722.90000   34.63720   60.02810    0.99920   40.86950    9.26640   63.02650 -280.67760
 7723.40000   37.54380   61.09060    0.95610   36.83690    9.31050   62.80180 -282.53720
 7723.90000   38.54030   61.42780    0.92030   35.77170    9.26160   62.50050 -282.53110
 7724.40000   41.71870   62.27510    0.89140   33.10470    8.89780   61.45310 -282.50670
 7724.90000   42.73640   62.72110    0.90600   32.32120    8.83820   61.03670 -282.49750
 7725.40000   45.78970   63.43270    0.96300   30.07470    8.69600   59.30050 -280.07100
 7725.90000   47.82520   63.29220    1.00890   28.84910    8.83450   57.84240 -277.63720
 7726.40000   49.86070   62.81860    1.02060   27.64000    9.03760   55.12770 -275.09820
 7726.90000   52.02490   61.91310    0.99950   26.37920    9.27660   49.61710 -271.75160
 7727.40000   54.19020   61.22170    0.94180   25.31990    9.46890   48.06430 -268.40500
 7727.90000   56.35540   60.46560    0.89570   24.07910    9.51420   45.63210 -264.75130
 7728.40000   57.99940   59.66740    0.98810   23.12260    9.54560   43.40920 -260.62210
 7728.90000   59.32010   59.11010    1.08460   23.08110    9.53080   41.52410 -256.83920
 7729.40000   57.21910   58.88110    1.13420   23.47570    9.52760   40.73640 -255.33200
 7729.90000   55.06240   58.35620    1.18840   24.85290    9.52470   38.53560 -250.77310
 7730.40000   52.90590   58.32740    1.13080   25.58350    9.52120   37.90040 -249.34440
