~Version ---------------------------------------------------
VERS. 2.0 : CWLS log ASCII Standard -VERSION 2.0
WRAP.  NO : ONE LINE PER DEPTH STEP
~Well ------------------------------------------------------
STRT.F                          1050.0 : START DEPTH
STOP.F                         10100.0 : STOP DEPTH
STEP.F                        50.00000 : STEP LENGTH
NULL.                          -999.25 : NULL VALUE
COMP.             PETROFINA CANADA LTD : COMPANY
WELL.        FINA ET AL WIND 7-7-61-16 : WELL
FLD .                                  : FIELD
LOC .                                  : LOCATION
CTRY.                           CANADA : COUNTRY
SRVC. Schlumberger Well Surveying Corp : SERVICE COMPANY
DATE.                      23-Jan-1978 : LOGDATE
PROV.                          Alberta : PROVINCE
UWI .                 100070706116W500 : UNIQUE WELL ID
SLAT.WGS84                    54.25864 : SURFACE LATITUDE
SLON.WGS84                    -116.383 : SURFACE LONGITUDE
~Curve Information -----------------------------------------
DEPT   .F                 : 
CALD   .IN   45 280 60 00 : CALIPER FROM DENSITY LOG
DRHO   .G/C3 45 356 01 00 : BULK DENSITY CORRECTION
GRD    .GAPI 45 310 01 00 : GAMMA RAY FROM DENSITY LOG
RHOB   .G/C3 45 350 01 00 : BULK DENSITY
NPHI_SS.DEC  42 890 03 00 : NEUTRON POROSITY SANDSTONE
DPHI_SS.DEC  45 890 12 00 : DENSITY POROSITY SANDSTONE
NPHI_LS.DEC  42 890 01 00 : NEUTRON POROSITY LIMESTONE
DPHI_LS.DEC  45 890 10 00 : DENSITY POROSITY LIMESTONE
LL8    .OHMM 07 220 08 00 : LATEROLOG 8
SPR    .MV   07 010 01 00 : SPONTANEOUS POTENTIAL FROM RESISTIVITY LOG
ILD    .OHMM 07 120 46 00 : INDUCTION DEEP RESISTIVITY
ILM    .OHMM 07 120 44 00 : INDUCTION MEDIUM RESISTIVITY
DT     .US/F 60 500 00 00 : DELTA-T (INTERVAL TRANSIT TIME)
CALS   .IN   60 280 50 00 : CALIPER FROM SONIC LOG
GRS    .GAPI 60 310 01 00 : GAMMA RAY FROM SONIC LOG
GRD_R  .GAPI 45 310 01 00 : GAMMA RAY FROM DENSITY LOG FROM REPEAT
GRS_R  .GAPI 60 310 01 00 : GAMMA RAY FROM SONIC LOG FROM REPEAT
~Params ----------------------------------------------------
PD  .                     GL : PERMANENT DATUM
EPD .FT               2840.2 : ELEVATION PERMANENT DATUM
LMF .                     KB : LOG MEASURED FROM
DAPD.FT                 13.8 : FEET ABOVE PERMANENT DATUM
EKB .FT                 2854 : KELLY BUSHING
EGL .FT               2840.2 : GROUND LEVEL
DATE.               01/23/78 : RUN DATE
RUN .                      1 : RUN NUMBER
DD  .FT                10130 : DEPTH DRILLER
DL  .FT                10136 : DEPTH LOGGER
BLI .FT                10130 : BOTTOM LOG INTERVAL
TLI .FT                 1041 : TOP LOG INTERVAL
CBD .FT                 1041 : CASING BOTTOM DRILLER
CBL .FT                 1041 : CASING BOTTOM LOGGER
BS  .IN                7.875 : BIT SIZE
BSD .FT                10130 : BIT SIZE AT DEPTH
DFT .               GEL CHEM : DRILLING FLUID TYPE
DFD .                    9.1 : DRILLING FLUID DENSITY
DFV .                     88 : DRILLING FLUID VISCOSITY
DFPH.                    9.6 : DRILLING FLUID PH
DFL .                      6 : DRILLING FLUID LOSS
MSS .               FLOWLINE : MUD SAMPLE SOURCE
RMF .OHMM                2.1 : RESISTIVITY MUD FILTRATE SAMPLE
MFST.DEGF                 61 : MUD FILTRATE SAMPLE TEMPERATURE
RMB .OHMM               0.67 : RESISTIVITY MUD AT BHT
TCS .HRS                 2.5 : TIME CIRCULATED STOPPED
LUN .                   7730 : LOGGING UNIT NUMBER
LUL .                    EDM : LOGGING UNIT LOCATION
ENGI.               CAMPBELL : RECORDING ENGINEER
WITN.                  SMITH : WITNESSED BY
CLNT.                A2DTECH : CLIENT CODE
ORIG.            2" 5" PRINT : ORIGIN OF DATA
UWI .       100070706116W500 : UNIQUE WELL ID
DICO. A2D Technologies, Inc. : DIGITIZING COMPANY
~Other -----------------------------------------------------
~ASCII -----------------------------------------------------
# ...
 5150.00000   10.64930    0.13650  129.69130    2.29770    0.45350    0.21090    -999.25    -999.25    3.33930  -72.37670    2.85630    2.62650   97.17600    9.68780  141.87290    -999.25    -999.25
 5200.00000   10.56200    0.13730  119.93690    2.37930    0.41630    0.16030    -999.25    -999.25    4.60710  -72.36860    3.77190    3.56670   90.75600   10.14040  125.04890    -999.25    -999.25
 5250.00000    9.54140    0.06990  121.75680    2.56770    0.36080    0.06620    -999.25    -999.25    7.54140  -72.33820    5.67170    5.51470   85.12680    9.40180  131.56000    -999.25    -999.25
 5300.00000    8.92310    0.08380   46.94550    2.52750    0.19220    0.10430    -999.25    -999.25   20.79750 -111.23750   12.79760   14.45460   71.41850    8.28700   46.26940    -999.25    -999.25
 5350.00000   10.24880    0.15570   87.95270    2.34380    0.44890    0.20140    -999.25    -999.25    4.64740  -72.25400    2.90300    2.73720   87.23370   10.55080  100.15770    -999.25    -999.25
 5400.00000    9.69790    0.01590   73.80370    2.56580    0.28250    0.03460    -999.25    -999.25   12.73020 -121.80510   11.17130   11.54470   73.85680    9.81830   80.28900    -999.25    -999.25
 5450.00000    9.86730    0.03600   54.84550    2.52830    0.28980    0.07620    -999.25    -999.25   11.36670 -128.75780   10.10860   10.37840   73.65420    9.85120   56.24030    -999.25    -999.25
 5500.00000   10.89900    0.21980   99.65450    2.32550    0.43730    0.17950    -999.25    -999.25    7.68080 -120.90360    6.58700    6.48260   82.99300   10.69310  108.62290    -999.25    -999.25
 5550.00000    9.61730    0.02910   77.86460    2.20480    0.34770    0.15280    -999.25    -999.25   12.26790 -120.37080    9.40430    8.64100   85.05980   10.04190   86.49600    -999.25    -999.25
 5600.00000    9.77910    0.17040   85.36670    2.54950    0.28890    0.01490    -999.25    -999.25   11.64940 -119.14850   10.13750   10.36510   74.66660    9.95980   92.81990    -999.25    -999.25
 5650.00000    9.87050    0.03450   67.80790    2.56260    0.27520    0.03820    -999.25    -999.25    9.95530 -124.86840    8.75210    9.31090   77.59470    9.79940   70.63990    -999.25    -999.25
 5700.00000   11.14840    0.01810   19.37930    1.45820    -999.25    -999.25    -999.25    -999.25  239.97060 -125.68550 1808.65480   31.59290  133.42260   11.44580   19.20530    -999.25    -999.25
 5750.00000    9.85450    0.04610   87.47060    2.62050    0.26520    0.03410    -999.25    -999.25   15.06090 -121.35190   12.34190   12.98110   70.94130    9.45270   97.05560    -999.25    -999.25
 5800.00000    9.23380    0.00690   89.71770    2.59040    0.27190    0.02230    -999.25    -999.25   14.43480 -120.35640   10.56930   11.38320   73.56270    9.27120   91.90460    -999.25    -999.25
 5850.00000    9.26850    0.00890   86.83910    2.42080    0.30560    0.10640    -999.25    -999.25   13.49660 -121.84000    9.71810    8.34220   81.25950    9.36760   98.58360    -999.25    -999.25
 5900.00000    9.49110    0.05030   88.13950    2.65200    0.26700    0.01720    -999.25    -999.25   12.14980 -112.69210    9.00460    9.60950   71.95560    9.32140   93.27820    -999.25    -999.25
 5950.00000    9.66700    0.04470  102.61540    2.62910    0.25170    0.01810    -999.25    -999.25   14.14080 -110.88890   10.48780   11.02880   72.08560    9.35940  103.58490    -999.25    -999.25
 6000.00000    9.47040    0.07290   98.56060    2.66950    0.21660   -0.01590    -999.25    -999.25   19.90500 -108.16130   12.78550   14.20330   70.68120    9.23750  105.05650    -999.25    -999.25
 6050.00000   10.74610    0.05640  102.86170    2.53980    0.36030    0.03960    -999.25    -999.25    9.22140 -106.72470    7.21100    7.63750   77.72780   10.16930  104.43590    -999.25    -999.25
 6100.00000    9.50670    0.03290   75.08850    2.65200    0.19910    0.00570    -999.25    -999.25   45.48990 -106.54930   20.45230   22.98240   69.08820    9.36650   86.14930    -999.25    -999.25
 6150.00000    9.26990    0.03340   94.71860    2.57530    0.25950    0.04310    -999.25    -999.25   22.92220 -122.24570   13.95670   18.30250   68.89920    9.19310   93.56750    -999.25    -999.25
 6200.00000   10.09100    0.04540  122.13070    2.47290    0.38970    0.19390    -999.25    -999.25   10.72410 -104.93030    7.17680    7.54670   77.70370    9.71040  125.82660    -999.25    -999.25
 6250.00000   12.28550    0.22150  113.43520    2.65780    0.39210    0.09290    -999.25    -999.25    6.18840 -104.69900    4.26990    4.45580   85.51270   10.48110  117.87870    -999.25    -999.25
 6300.00000   12.96970    0.15680  124.11170    2.47870    0.41530    0.08150    0.34800    0.11020    6.88580 -102.59440    4.51420    4.63550   88.14810   10.90590  120.54130    -999.25    -999.25
 6350.00000    9.31260    0.10150   83.50770    2.49510    0.24560    0.06930    0.21040    0.11470   33.84380 -107.45250   20.73130   22.55830   75.62140    8.93950   81.15020    -999.25    -999.25
 6400.00000   10.88390    0.23190  140.14190    2.41730   -0.01920    0.04900    0.35200    0.14790   14.10250 -104.24930    8.04180    8.06890   89.52480    9.75820  145.85630    -999.25    -999.25
 6450.00000    8.98620    0.01620   39.00880    2.62820    -999.25    -999.25    0.08880    0.03670  372.56380 -136.77580  208.77500  228.45760   57.44590    8.95590   41.96120    -999.25    -999.25
 6500.00000    9.36470    0.00680   89.80470    2.62580    -999.25    -999.25    0.11970    0.06490   20.12970 -134.74940   15.45150   16.10220   62.28780    9.35860   91.25730    -999.25    -999.25
 6550.00000    9.95310    0.01730   80.21840    2.70380    -999.25    -999.25    0.08000   -0.01260   29.85140 -106.80990   18.42880   20.23570   58.69490    9.76670   89.56500    -999.25    -999.25
 6600.00000    9.41030   -0.04130   59.38990    2.60400    -999.25    -999.25    0.09950    0.07750   58.41090 -150.55180   16.94810   20.04080   55.24020    9.23120   54.93700    -999.25    -999.25
 6650.00000   10.34960   -0.14030   48.25810    2.53990    -999.25    -999.25    0.03920    0.00650  100.27750 -146.92600   13.23580   14.01990   54.69990    9.42160   48.77660    -999.25    -999.25
 6700.00000    9.15020    0.00750   35.59340    2.71440    -999.25    -999.25    0.01780   -0.02850  168.01910 -123.81440   81.86040   89.09400   50.38350    9.06670   34.01200    -999.25    -999.25
 6750.00000   10.50250    0.25930   18.16110    2.68470    -999.25    -999.25    0.02470    0.01350  143.93530 -187.25520   52.25330   60.05030   48.66770    9.35560   18.57220    -999.25    -999.25
 6800.00000    8.58350    0.07330   17.18760    2.68290    -999.25    -999.25    0.11420    0.05010   47.44220 -230.58450    8.74370   14.07400   52.26880    8.35720   21.91420    -999.25    -999.25
 6850.00000    8.91090    0.06730   16.66070    2.64920    -999.25    -999.25    0.02510    0.02550  182.53380 -208.94310   22.76860   30.47500   51.87380    8.19560   19.45200    -999.25    -999.25
 6900.00000    9.18720    0.09010   77.63500    2.67720    -999.25    -999.25    0.18860   -0.00970    5.38650 -129.77560    4.23650    4.35340   64.48670    9.05090   80.55430    -999.25    -999.25
 6950.00000    8.99470    0.04280   78.18320    2.75120    -999.25    -999.25    0.09240   -0.00690   31.67030 -115.67100   14.01200   16.18040   55.23050    8.92630   83.30450    -999.25    -999.25
 7000.00000    9.22360    0.02080   56.24630    2.70680    -999.25    -999.25    0.09700    0.00150   23.33620 -102.16900   13.22000   14.55460   55.03070    9.04730   55.34100    -999.25    -999.25
 7050.00000    9.13230    0.04010   18.11190    2.75630    -999.25    -999.25    0.00900   -0.03020  588.56670 -124.26160  207.01220  293.88940   50.54620    8.96930   22.67110    -999.25    -999.25
 7100.00000    8.93030    0.03100   35.36200    2.70380    -999.25    -999.25    0.04130   -0.00470   69.36150 -106.10570   43.94110   45.26960   55.32370    8.93020   40.05220    -999.25    -999.25
 7150.00000    8.78760    0.02760   41.86670    2.71900    -999.25    -999.25    0.03690   -0.01400  115.77670 -109.76330   66.44560   77.50510   54.31230    8.87590   47.53670    -999.25    -999.25
