~Version ---------------------------------------------------
VERS.      2.0 : CWLS log ASCII Standard -VERSION 2.0
WRAP.       NO : One line per depth step
CREA. 10/03/17 : LAS Creation Date
~Well ------------------------------------------------------
STRT.FT                        850.0 : START DEPTH
STOP.FT                       8400.0 : STOP DEPTH
STEP.FT                     50.00000 : STEP LENGTH
NULL.                        -999.25 : NULL VALUE
COMP.   PAN AMERICAN PETROLEUM CORP. : COMPANY
WELL. MUSKEG A-1 PARK COURT 12-34-54 : WELL
FLD .                                : FIELD
LOC .                                : LOCATION
CTRY.                         CANADA : COUNTRY
SRVC.                        Unknown : SERVICE COMPANY
DATE.                    25-Jan-1965 : LOGDATE
PROV.                        Alberta : PROVINCE
UWI .               100123405407W500 : UNIQUE WELL ID
SLAT.WGS84                  53.71025 : SURFACE LATITUDE
SLON.WGS84                 -114.9552 : SURFACE LONGITUDE
~Curve Information -----------------------------------------
DEPT  .FT    : Depth Curve
CALSED.IN    : CALIPER FROM SONIC LOG
CALWS .IN    : CALIPER [CALSED]
CILDED.MMHO  : CONDUCTIVITY FROM RESISTIVITY LOG
CONDWS.MMHO  : CONDUCTIVITY [1000/DRESWS]
DRESWS.OHMM  : DEEP RESISTIVITY [1000/CILDED, IF ILDED<5, ILDED]
DT1ED .US/F  : DELTA TIME 1 FT SPACING FROM SONIC LOG [ADJ. TO DTED]
DTED  .US/F  : DELTA TIME 3 FT SPACING FROM SONIC LOG
DTWS  .US/F  : COMPRESSIONAL SONIC [DTED]
GRSED .GAPI  : GAMMA RAY FROM SONIC LOG
GRWS  .GAPI  : GAMMA RAY [GRSED]
ILDED .OHMM  : DEEP INDUCTION RESISTIVITY FROM RESISTIVITY LOG
SNED  .OHMM  : 16 INCH SHORT NORMAL RESISTIVITY FROM RESISTIVITY LOG
SPRED .MV    : SPONTANEOUS POTENTIAL FROM RESISTIVITY LOG
SPWS  .MV    : SPONTANEOUS POTENTIAL [BASELINE 0 MV, SPRED]
SRESWS.OHMM  : SHALLOW RESISTIVITY [SNED]
~Params ----------------------------------------------------
PD  .                     GL : PERMANENT DATUM
EPD .FT                 2437 : ELEVATION PERMANENT DATUM
LMF .                     KB : LOG MEASURED FROM
DAPD.FT                 13.2 : FEET ABOVE PERMANENT DATUM
DMF .                     KB : DRILLING MEASURED FROM
EKB .FT               2450.2 : KELLY BUSHING
EGL .FT                 2437 : GROUND LEVEL
DATE.               01/25/65 : RUN DATE
RUN .                      1 : RUN NUMBER
DD  .FT                 8420 : DEPTH DRILLER
DL  .FT                 8420 : DEPTH LOGGER
BLI .FT                 8419 : BOTTOM LOG INTERVAL
TLI .FT                  875 : TOP LOG INTERVAL
CBD .FT                  875 : CASING BOTTOM DRILLER
CBL .FT                  875 : CASING BOTTOM LOGGER
BS  .IN                7.875 : BIT SIZE
BSD .FT                 8420 : BIT SIZE AT DEPTH
DFT .               GEL CHEM : DRILLING FLUID TYPE
DFD .                   10.1 : DRILLING FLUID DENSITY
DFV .                    123 : DRILLING FLUID VISCOSITY
DFPH.                    9.5 : DRILLING FLUID PH
DFL .                    8.1 : DRILLING FLUID LOSS
MSS .             CIRCULATED : MUD SAMPLE SOURCE
RMS .OHMM               1.93 : RESISTIVITY MUD SAMPLE
MST .DEGF                 66 : MUD SAMPLE TEMPERATURE
RMF .OHMM               1.62 : RESISTIVITY MUD FILTRATE SAMPLE
MFST.DEGF                 54 : MUD FILTRATE SAMPLE TEMPERATURE
RMC .OHMM               2.17 : RESISTIVITY MUD CAKE
MCST.DEGF                 62 : MUD CAKE SAMPLE TEMPERATURE
RMB .OHMM               0.88 : RESISTIVITY MUD AT BHT
TCS .HRS                   3 : TIME CIRCULATED STOPPED
LUN .                   1574 : LOGGING UNIT NUMBER
LUL .                    EDM : LOGGING UNIT LOCATION
ENGI.                  FIELD : RECORDING ENGINEER
WITN.                  SAMIS : WITNESSED BY
CLNT.                A2DTECH : CLIENT CODE
ORIG.           2"  5" PRINT : ORIGIN OF DATA
UWI .       100123405407W500 : UNIQUE WELL ID
DICO. A2D Technologies, Inc. : DIGITIZING COMPANY
~Other -----------------------------------------------------
IEL-SONIC TOOL RUN
CILD GAPS NOT FILLED DUE TO MISSING IMAGE
~ASCII -----------------------------------------------------
# ...
 3150.00000   11.86650   11.86650  155.18470  153.89590    6.49790    -999.25  100.89560  100.89560   80.55240   80.55240    6.49790    6.91670 -107.22310   -2.48020    6.91670
 3200.00000   10.67090   10.67090  154.68510  154.15210    6.48710    -999.25   98.69110   98.69110   82.55350   82.55350    6.48710    6.98370 -107.91390   -3.47420    6.98370
 3250.00000   10.27310   10.27310  133.34170  129.35610    7.73060    -999.25   95.19740   95.19740   94.36500   94.36500    7.73060    8.39380 -107.22340   -3.28010    8.39380
 3300.00000   10.01090   10.01090  134.28840  130.58920    7.65760    -999.25   96.92520   96.92520   87.90580   87.90580    7.65760    8.48240 -107.52120   -4.07430    8.48240
 3350.00000   10.72920   10.72920  145.95740  145.38900    6.87810    -999.25   99.34190   99.34190   81.50620   81.50620    6.87810    7.31830 -108.75600   -5.80870    7.31830
 3400.00000   10.54880   10.54880  119.45810  116.61670    8.57510    -999.25   91.10650   91.10650   82.29370   82.29370    8.57510    8.90650 -107.52450   -5.07360    8.90650
 3450.00000   11.44360   11.44360  144.11250  144.22520    6.93360    -999.25   98.96620   98.96620   90.20830   90.20830    6.93360    7.48010 -108.32440   -6.37310    7.48010
 3500.00000    9.63650    9.63650  108.89630  100.40160    9.96000    -999.25   91.29950   91.29950   88.72680   88.72680    9.96000    9.00000 -108.07740   -6.62250    9.00000
 3550.00000    9.65330    9.65330  112.89040  108.11280    9.24960    -999.25   88.71600   88.71600   86.32200   86.32200    9.24960    8.24720 -106.72670   -5.76820    8.24720
 3600.00000    9.49210    9.49210  131.97300  123.35630    8.10660    -999.25   93.25510   93.25510  106.56180  106.56180    8.10660    7.54760 -106.10450   -5.64560    7.54760
 3650.00000    9.61950    9.61950  114.16850  102.74110    9.73320    -999.25  101.22690  101.22690  101.97720  101.97720    9.73320    8.47540 -105.42000   -5.45750    8.47540
 3700.00000   10.43600   10.43600  147.88070  146.41070    6.83010    -999.25  106.31440  106.31440   98.58260   98.58260    6.83010    7.61700 -104.73620   -5.27340    7.61700
 3750.00000   10.03400   10.03400  120.72670  116.03750    8.61790    -999.25  102.26270  102.26270  103.46580  103.46580    8.61790   10.73710 -104.83530   -5.86890   10.73710
 3800.00000   10.41270   10.41270  137.12150  133.48640    7.49140    -999.25   98.53770   98.53770   94.80970   94.80970    7.49140    9.05290 -102.31600   -3.84590    9.05290
 3850.00000    8.52270    8.52270   77.47310   74.17790   13.48110    -999.25   97.02990   97.02990  117.87280  117.87280   13.48110   19.06680 -103.70690   -5.73650   19.06680
 3900.00000    8.47760    8.47760  105.58300   99.83030   10.01700    -999.25  103.48760  103.48760  115.15360  115.15360   10.01700   14.20140 -102.18830   -4.71430   14.20140
 3950.00000    8.25560    8.25560   86.03990   82.12880   12.17600    -999.25   76.44360   76.44360  104.67670  104.67670   12.17600   14.46800 -104.20150   -7.22710   14.46800
 4000.00000   10.83460   10.83460  164.18510  159.69340    6.26200    -999.25   98.20900   98.20900   92.01940   92.01940    6.26200    7.84370  -99.58160   -3.10360    7.84370
 4050.00000   10.83980   10.83980  164.49250  164.66600    6.07290    -999.25   96.40810   96.40810   92.94380   92.94380    6.07290    8.06370  -99.19460   -3.21300    8.06370
 4100.00000    9.91770    9.91770  135.96980  128.75980    7.76640    -999.25   96.79450   96.79450   99.86250   99.86250    7.76640   10.07920  -99.77830   -4.29630   10.07920
 4150.00000   11.55460   11.55460  158.53240  158.13780    6.32360    -999.25   93.55620   93.55620   97.65860   97.65860    6.32360    8.13830  -97.89430   -2.90870    8.13830
 4200.00000    8.86210    8.86210  146.39190  145.49900    6.87290    -999.25  101.15650  101.15650  197.65880  197.65880    6.87290    8.61970  -98.53390   -4.04800    8.61970
 4250.00000   10.99200   10.99200  350.20500  350.20500    2.85550    -999.25  106.04300  106.04300   87.72220   87.72220    2.71230    3.55500  -96.27420   -2.28470    3.55500
 4300.00000   11.92660   11.92660  287.92150  287.92150    3.47320   96.57100   99.13900   99.13900   67.21020   67.21020    3.17460    4.48460  -96.40110   -2.60610    4.48460
 4350.00000    7.66610    7.66610  127.97740  123.81600    8.07650   81.91030   83.89210   83.89210   28.78860   28.78860    8.07650   20.75540 -169.48840  -75.60100   20.75540
 4400.00000    8.16670    8.16670  113.28640  107.08470    9.33840   79.39170   82.27980   82.27980   37.45880   37.45880    9.33840   17.21330 -144.79440  -50.81520   17.21330
 4450.00000   10.15770   10.15770  526.78840  526.78840    1.89830    -999.25  168.31350  168.31350   79.89040   79.89040    1.77220    2.38750  -95.64740   -1.57580    2.38750
 4500.00000    8.98970    8.98970   88.28730   82.62070   12.10350    -999.25   79.81420   79.81420   52.99840   52.99840   12.10350   22.53270 -177.25980  -83.09640   22.53270
 4550.00000    8.82740    8.82740   79.79630   75.83690   13.18620    -999.25   77.12870   77.12870   59.29590   59.29590   13.18620   20.80850 -144.25310  -49.99790   20.80850
 4600.00000    9.81640    9.81640  113.46310  106.95420    9.34980    -999.25   89.86520   89.86520   70.44690   70.44690    9.34980   12.83720 -114.76590  -20.41830   12.83720
 4650.00000    9.48220    9.48220   77.69940   72.49740   13.79360    -999.25   81.25540   81.25540   72.93740   72.93740   13.79360   15.81720 -119.60790  -25.16850   15.81720
 4700.00000   11.63110   11.63110   14.74550   12.26740   81.51670    -999.25  143.95770  143.95770   28.56470   28.56470   81.51670   35.69350 -121.84370  -27.31180   35.69350
 4750.00000    9.79610    9.79610   84.46490   79.42120   12.59110    -999.25   75.86520   75.86520   65.57280   65.57280   12.59110   18.90580 -130.46570  -35.84200   18.90580
 4800.00000    9.99050    9.99050   91.58610   86.08370   11.61660    -999.25   78.69340   78.69340   58.08840   58.08840   11.61660   15.50880 -135.76350  -41.04800   15.50880
 4850.00000    9.63510    9.63510   51.12040   51.55060   19.39840    -999.25   73.43840   73.43840   44.31660   44.31660   19.39840   28.38850 -131.09560  -36.28770   28.38850
 4900.00000    9.47610    9.47610   73.86530   69.67910   14.35150    -999.25   74.24650   74.24650   78.66710   78.66710   14.35150   17.66780 -113.18830  -18.28860   17.66780
 4950.00000    8.11190    8.11190   84.16960   79.44140   12.58790   81.77580   80.92170   80.92170   37.37400   37.37400   12.58790   26.44860 -171.90920  -76.91710   26.44860
 5000.00000    9.56140    9.56140   71.25160   66.17300   15.11190   86.55450   78.84220   78.84220   80.85690   80.85690   15.11190   22.06900 -114.97260  -19.88870   22.06900
 5050.00000   13.30960   13.30960  173.69560  173.75890    5.75510   73.23000   78.55680   78.55680   82.11520   82.11520    5.75510    7.12610 -114.30620  -19.13050    7.12610
 5100.00000    7.83610    7.83610   82.01640   74.45180   13.43150   72.25320   71.26150   71.26150   57.24930   57.24930   13.43150   47.82150 -230.08070 -134.81260   47.82150
 5150.00000    8.37830    8.37830  108.95950   98.22020   10.18120   64.78630   60.77060   60.77060   24.04100   24.04100   10.18120   25.06590 -196.30890 -100.94900   25.06590
 5200.00000    9.29350    9.29350  235.67880  235.67880    4.24310   77.01630   78.48620   78.48620   35.45800   35.45800    4.18980    9.49930 -146.58110  -51.12880    9.49930
 5250.00000    8.79600    8.79600    8.89840    6.74040  148.35970   55.03480   54.82590   54.82590   19.82030   19.82030  148.35970  126.88110 -134.82590  -39.28180  126.88110
 5300.00000    8.88150    8.88150    9.14310    6.32290  158.15550   55.41520   54.99850   54.99850   26.06590   26.06590  158.15550  139.03030 -169.72020  -74.08430  139.03030
 5350.00000    8.46050    8.46050   71.31320   66.31740   15.07900   61.96780   61.62820   61.62820   31.01690   31.01690   15.07900   27.80580 -158.44530  -62.71700   27.80580
 5400.00000    8.34080    8.34080   34.44070   33.00690   30.29670    -999.25   58.21140   58.21140   32.87770   32.87770   30.29670   41.86450 -137.52010  -41.70000   41.86450
