~Version ---------------------------------------------------
VERS.      2.0 : CWLS log ASCII Standard -VERSION 2.0
WRAP.       NO : One line per depth step
CREA. 12/12/17 : LAS Creation Date
~Well ------------------------------------------------------
STRT.FT                       450.0 : START DEPTH
STOP.FT                      6550.0 : STOP DEPTH
STEP.FT                    50.00000 : STEP LENGTH
NULL.                       -999.25 : NULL VALUE
COMP.      CHEVRON STANDARD LIMITED : COMPANY
WELL. CHEVRON GIFT LAKE 11-11-78-12 : WELL
FLD .                               : FIELD
LOC .                               : LOCATION
CTRY.                        CANADA : COUNTRY
SRVC.                  Schlumberger : SERVICE COMPANY
DATE.                   09-Mar-1976 : LOGDATE
PROV.                       Alberta : PROVINCE
UWI .              100111107812W500 : UNIQUE WELL ID
SLAT.WGS84                 55.74751 : SURFACE LATITUDE
SLON.WGS84                -115.7501 : SURFACE LONGITUDE
~Curve Information -----------------------------------------
DEPT  .FT    : Depth Curve
CALSED.IN    : CALIPER FROM SONIC LOG [ADJ. TO RESISTIVITY LOG]
CALWS .IN    : CALIPER [CALSED]
CONDWS.MMHO  : CONDUCTIVITY [1000/DRESWS]
DFLED .OHMM  : DIGITAL FOCUSED LATEROLOG FROM RESISTIVITY LOG
DRESWS.OHMM  : DEEP RESISTIVITY [ILDED]
DTED  .US/F  : DELTA-T FROM SONIC LOG [ADJ. TO RESISTIVITY LOG]
DTWS  .US/F  : COMPRESSIONAL SONIC [DTED]
GRED  .GAPI  : GAMMA RAY FROM CEMENT BOND LOG
GRSED .GAPI  : GAMMA RAY FROM SONIC LOG [ADJ. TO RESISTIVITY LOG]
GRWS  .GAPI  : GAMMA RAY [GRED SPL. TO GRSED @ 695']
ILDED .OHMM  : DEEP INDUCTION  RESISTIVITY FROM RESISTIVITY LOG
ILMED .OHMM  : MEDIUM INDUCTION RESISTIVITY FROM RESISTIVITY LOG
MRESWS.OHMM  : MEDIUM RESISTIVITY [ILMED]
SPRED .MV    : SPONTANEOUS POTENTIAL FROM RESISTIVITY LOG
SPWS  .MV    : SPONTANEOUS POTENTIAL [BASELINE 0 MV,SPRED]
SRESWS.OHMM  : SHALLOW RESISTIVITY [DFLED]
~Params ----------------------------------------------------
PD  .                     GL : PERMANENT DATUM
EPD .FT               2302.2 : ELEVATION PERMANENT DATUM
LMF .                     KB : LOG MEASURED FROM
DAPD.FT                 12.4 : FEET ABOVE PERMANENT DATUM
EKB .FT               2314.6 : KELLY BUSHING
EGL .FT               2302.2 : GROUND LEVEL
DATE.               03/09/76 : RUN DATE
RUN .                      1 : RUN NUMBER
DD  .FT                 6585 : DEPTH DRILLER
DL  .FT                 6586 : DEPTH LOGGER
BLI .FT                 6580 : BOTTOM LOG INTERVAL
TLI .FT                  716 : TOP LOG INTERVAL
CBD .FT                  717 : CASING BOTTOM DRILLER
CBL .FT                  716 : CASING BOTTOM LOGGER
BS  .IN                7.875 : BIT SIZE
BSD .FT                 6585 : BIT SIZE AT DEPTH
DFT .               GEL CHEM : DRILLING FLUID TYPE
DFD .                    9.3 : DRILLING FLUID DENSITY
DFV .                     70 : DRILLING FLUID VISCOSITY
DFPH.                    9.5 : DRILLING FLUID PH
DFL .                      9 : DRILLING FLUID LOSS
MSS .               FLOWLINE : MUD SAMPLE SOURCE
RMS .OHMM               0.61 : RESISTIVITY MUD SAMPLE
MST .DEGF                 57 : MUD SAMPLE TEMPERATURE
RMF .OHMM               0.52 : RESISTIVITY MUD FILTRATE SAMPLE
MFST.DEGF                0.9 : MUD FILTRATE SAMPLE TEMPERATURE
RMC .OHMM                0.9 : RESISTIVITY MUD CAKE
MCST.DEGF                 65 : MUD CAKE SAMPLE TEMPERATURE
TCS .HRS                 1.5 : TIME CIRCULATED STOPPED
LUN .                   7635 : LOGGING UNIT NUMBER
LUL .                    EDM : LOGGING UNIT LOCATION
ENGI.                SWANSON : RECORDING ENGINEER
WITN.                   WONG : WITNESSED BY
CLNT.                A2DTECH : CLIENT CODE
ORIG.            2" 5" PRINT : ORIGIN OF DATA
UWI .       100111107812W500 : UNIQUE WELL ID
DICO. A2D Technologies, Inc. : DIGITIZING COMPANY
~Other -----------------------------------------------------
DIL-SONIC-CBL LOG RUN
~ASCII -----------------------------------------------------
# ...
 4750.00000    7.96890    7.96890  145.33190   16.27530    6.88080   56.99250   56.99250    -999.25   32.63720   32.63720    6.88080    7.89160    7.89160  -67.53130  -56.55800   16.27530
 4800.00000    7.55620    7.55620   73.98420   37.27320   13.51640   51.90000   51.90000    -999.25   16.04170   16.04170   13.51640   15.82760   15.82760  -85.26280  -75.14030   37.27320
 4850.00000    8.09900    8.09900  181.23000    9.30110    5.51800   60.56020   60.56020    -999.25   53.14890   53.14890    5.51800    5.92190    5.92190  -44.06730  -34.80130    9.30110
 4900.00000    8.01050    8.01050  113.17850   41.29340    8.83560   52.27350   52.27350    -999.25   25.10890   25.10890    8.83560    9.68910    9.68910 -100.84830  -92.43320   41.29340
 4950.00000    8.13130    8.13130   40.91960   23.42280   24.44230   58.46300   58.46300    -999.25   36.12000   36.12000   24.44230   16.23520   16.23520  -56.43090  -48.87220   23.42280
 5000.00000    8.22380    8.22380  114.02120    9.96890    8.77030   69.25980   69.25980    -999.25   54.85970   54.85970    8.77030    7.39330    7.39330  -52.00080  -45.29300    9.96890
 5050.00000    8.75160    8.75160  252.01610    7.28840    3.96800   78.66630   78.66630    -999.25   70.46530   70.46530    3.96800    3.20520    3.20520  -53.51080  -47.65390    7.28840
 5100.00000    9.99850    9.99850  450.54020    2.62710    2.22010  100.31910  100.31910    -999.25  104.12420  104.12420    2.22010    2.06630    2.06630  -36.01730  -31.01680    2.62710
 5150.00000   10.30190   10.30190  308.85170    4.23260    3.23780   86.30030   86.30030    -999.25   83.20930   83.20930    3.23780    2.92370    2.92370  -41.27770  -37.12810    4.23260
 5200.00000   10.98690   10.98690  385.84410    3.22160    2.59170   93.41670   93.41670    -999.25   94.96360   94.96360    2.59170    2.34550    2.34550  -57.49170  -54.19850    3.22160
 5250.00000   11.75220   11.75220  379.60750    3.05210    2.63430   95.29510   95.29510    -999.25   92.78970   92.78970    2.63430    2.36360    2.36360  -34.79530  -32.35300    3.05210
 5300.00000   10.07960   10.07960  424.98940    3.02690    2.35300   96.53590   96.53590    -999.25   98.30320   98.30320    2.35300    2.25080    2.25080  -10.97540   -9.38400    3.02690
 5350.00000   11.00780   11.00780  371.43440    3.19100    2.69230   90.33640   90.33640    -999.25   88.22850   88.22850    2.69230    2.48670    2.48670   -6.39320   -5.39440    3.19100
 5400.00000   11.82590   11.82590  369.42630    3.22140    2.70690   92.77880   92.77880    -999.25   86.31480   86.31480    2.70690    2.49110    2.49110  -20.67580  -19.41420    3.22140
 5450.00000   11.40510   11.40510  409.92860    2.79960    2.43950   94.98950   94.98950    -999.25   97.52440   97.52440    2.43950    2.18070    2.18070  -27.58700  -26.06080    2.79960
 5500.00000   10.50330   10.50330  251.38890    4.66390    3.97790   81.61730   81.61730    -999.25   68.53580   68.53580    3.97790    3.62730    3.62730  -24.99610  -23.20700    4.66390
 5550.00000   11.23320   11.23320  340.40240    3.35400    2.93770   89.79960   89.79960    -999.25   74.45460   74.45460    2.93770    2.62850    2.62850  -40.25470  -38.20270    3.35400
 5600.00000   11.37290   11.37290  329.42170    3.66630    3.03570   87.90830   87.90830    -999.25   79.19340   79.19340    3.03570    2.94110    2.94110  -52.82220  -50.50570    3.66630
 5650.00000   10.98360   10.98360  416.80560    2.79560    2.39920   94.14790   94.14790    -999.25   93.43510   93.43510    2.39920    2.23490    2.23490  -52.39730  -49.81790    2.79560
 5700.00000    8.15480    8.15480  151.19660    6.59020    6.61520   74.09190   74.09190    -999.25   65.15950   65.15950    6.61520    5.67780    5.67780  -41.13010  -38.28610    6.59020
 5750.00000    8.16960    8.16960  156.44070    8.79220    6.39220   73.17810   73.17810    -999.25   56.88640   56.88640    6.39220    6.09280    6.09280  -28.11670  -25.00980    8.79220
 5800.00000    9.91000    9.91000  347.18610    3.50630    2.88030   88.78480   88.78480    -999.25   79.28130   79.28130    2.88030    2.54190    2.54190  -64.21340  -60.84370    3.50630
 5850.00000   12.23280   12.23280  396.51690    3.02920    2.52210   93.08560   93.08560    -999.25   82.98190   82.98190    2.52210    2.25740    2.25740  -74.87090  -71.23660    3.02920
 5900.00000   10.85000   10.85000  414.01010    3.12200    2.41540   90.30510   90.30510    -999.25   78.91000   78.91000    2.41540    2.28810    2.28810  -53.12540  -49.22820    3.12200
 5950.00000   11.81490   11.81490  335.60250    3.45690    2.98090   86.91200   86.91200    -999.25   84.22960   84.22960    2.98090    2.52420    2.52420  -58.12980  -53.96800    3.45690
 6000.00000   10.15300   10.15300  287.52160    3.64000    3.47800   82.92760   82.92760    -999.25   72.91010   72.91010    3.47800    4.14990    4.14990  -54.30740  -49.88270    3.64000
 6050.00000    9.58710    9.58710   96.44410   20.93230   10.36870   59.70350   59.70350    -999.25   32.93020   32.93020   10.36870   13.36720   13.36720  -35.47590  -30.78840   20.93230
 6100.00000    8.95520    8.95520   97.61690   18.34980   10.26360   62.04080   62.04080    -999.25   38.36290   38.36290   10.26360   11.45500   11.45500  -26.19760  -21.24550   18.34980
 6150.00000    8.79230    8.79230  157.92550    5.20690    6.33210   73.60900   73.60900    -999.25   58.87640   58.87640    6.33210    6.85640    6.85640  -16.17240  -10.95740    5.20690
 6200.00000    9.80640    9.80640  218.24310    4.90510    4.58200   79.62640   79.62640    -999.25   82.24410   82.24410    4.58200    4.14830    4.14830  -37.49530  -32.01570    4.90510
 6250.00000    9.02550    9.02550  167.21010    8.04880    5.98050   72.16560   72.16560    -999.25   61.78430   61.78430    5.98050    5.66300    5.66300  -22.00230  -16.25980    8.04880
 6300.00000    8.14130    8.14130   77.70010   21.66420   12.87000   57.80700   57.80700    -999.25   16.09530   16.09530   12.87000   10.92840   10.92840  -57.99050  -51.98520   21.66420
 6350.00000    8.32250    8.32250   42.11860   27.22120   23.76130   55.00950   55.00950    -999.25   17.63880   17.63880   23.76130   18.25430   18.25430  -27.89400  -21.62410   27.22120
 6400.00000    8.14320    8.14320   39.92880   40.71200   25.04460   52.93630   52.93630    -999.25   17.55860   17.55860   25.04460   18.67350   18.67350  -22.25000  -15.71720   40.71200
 6450.00000    8.10180    8.10180   92.76840   17.43130   10.78610   65.99370   65.99370    -999.25   64.80150   64.80150   10.78610    8.39990    8.39990  -24.06160  -17.26420   17.43130
 6500.00000    8.23550    8.23550  148.69670   21.13740    6.72510   62.55810   62.55810    -999.25   74.45430   74.45430    6.72510    9.42870    9.42870  -30.82180  -23.76150   21.13740
 6550.00000    9.72480    9.72480  168.02200    3.34300    5.95160   71.75880   71.75880    -999.25  101.16040  101.16040    5.95160    4.13510    4.13510  -27.31570  -20.12920    3.34300
