~Version ---------------------------------------------------
VERS.      2.0 : CWLS log ASCII Standard -VERSION 2.0
WRAP.       NO : One line per depth step
CREA. 11/16/17 : LAS Creation Date
~Well ------------------------------------------------------
STRT.FT                        300.0 : START DEPTH
STOP.FT                      11100.0 : STOP DEPTH
STEP.FT                     50.00000 : STEP LENGTH
NULL.                        -999.25 : NULL VALUE
COMP.         PACIFIC PETROLEUMS LTD : COMPANY
WELL. PACIFIC ET AL TONY 10-18-63-21 : WELL
FLD .                     TONY TOWER : FIELD
LOC .                                : LOCATION
CTRY.                         CANADA : COUNTRY
SRVC.                   Schlumberger : SERVICE COMPANY
DATE.                    24-Sep-1975 : LOGDATE
PROV.                        Alberta : PROVINCE
UWI .               100101806321W500 : UNIQUE WELL ID
SLAT.WGS84                  54.45338 : SURFACE LATITUDE
SLON.WGS84                 -117.1585 : SURFACE LONGITUDE
~Curve Information -----------------------------------------
DEPT    .FT    : Depth Curve
CALDED  .IN    : CALIPER FROM DENSITY LOG
CALWS   .IN    : CALIPER [CALDED]
CONDWS  .MMHO  : CONDUCTIVITY [1000/DRESWS]
DCORED  .G/C3  : DENSITY CORRECTION FROM DENSITY LOG [ADJ. TO DPHILSED/DPHILSED]
DCORWS  .G/C3  : DENSITY CORRECTION [DCORED]
DENWS   .G/C3  : FORMATION BULK DENSITY [CALC. FROM DPOLSWS,M=2710,F=1000]
DPHILSED.V/V   : DENSITY POROSITY LIMESTONE [M=2.71,F=1.0] FROM DENSITY LOG
DPHISSED.V/V   : DENSITY POROSITY SANDSTONE [M=2.65,F=1.0] FROM DENSITY LOG
DPOLSWS .V/V   : DENSITY POROSITY LIMESTONE [DPHISSED CONVERTED TO LIMESTONE (M=2.71,F=1.00), SPL. TO DPHILSED @ 6860']
DRESWS  .OHMM  : DEEP RESISTIVITY [ILDED]
GRDED   .GAPI  : GAMMA RAY FROM DENSITY LOG
GRWS    .GAPI  : GAMMA RAY [GRDED]
ILDED   .OHMM  : DEEP INDUCTION FROM RESISTIVITY LOG
ILMED   .OHMM  : MEDIUM INDUCTION FROM RESISTIVITY LOG
LL8ED   .OHMM  : LATEROLOG FROM RESISTIVITY LOG
MRESWS  .OHMM  : MEDIUM RESISTIVITY [ILMED]
NPHILSED.V/V   : NEUTRON POROSITY LIMESTONE FROM DENSITY LOG
NPHISSED.V/V   : NEUTRON POROSITY SANDSTONE FROM DENSITY LOG
NPOLSWS .V/V   : NEUTRON POROSITY LIMESTONE [NPHISSED MATRIX CONVERSION FOR LIMESTONE SPL. TO NPHILSED @6860']
RHOBED  .G/C3  : BULK DENSITY FROM DENSITY LOG [ADJ. TO DPHILSED/DPHILSED]
SPRED   .MV    : SPONTANEOUS POTENTIAL FROM RESISTIVITY LOG
SPWS    .MV    : SPONTANEOUS POTENTIAL [BASELINE 0 MV,SPRED]
SRESWS  .OHMM  : SHALLOW RESISTIVITY [LL8ED]
~Params ----------------------------------------------------
PD  .                     GL : PERMANENT DATUM
EPD .FT                 2714 : ELEVATION PERMANENT DATUM
LMF .                     KB : LOG MEASURED FROM
DAPD.FT                 13.7 : FEET ABOVE PERMANENT DATUM
EKB .FT               2727.7 : KELLY BUSHING
EGL .FT                 2714 : GROUND LEVEL
DATE.               09/24/75 : RUN DATE
RUN .                      1 : RUN NUMBER
DD  .FT                11125 : DEPTH DRILLER
DL  .FT                11121 : DEPTH LOGGER
BLI .FT                11115 : BOTTOM LOG INTERVAL
TLI .FT                 1125 : TOP LOG INTERVAL
CBD .FT                 1125 : CASING BOTTOM DRILLER
CBL .FT                 1125 : CASING BOTTOM LOGGER
BS  .IN                 8.75 : BIT SIZE
BSD .FT                11125 : BIT SIZE AT DEPTH
DFT .               GEL CHEM : DRILLING FLUID TYPE
DFD .                    9.3 : DRILLING FLUID DENSITY
DFV .                    147 : DRILLING FLUID VISCOSITY
DFPH.                    9.5 : DRILLING FLUID PH
DFL .                    9.2 : DRILLING FLUID LOSS
MSS .               FLOWLINE : MUD SAMPLE SOURCE
RMS .OHMM               1.62 : RESISTIVITY MUD SAMPLE
MST .DEGF                 72 : MUD SAMPLE TEMPERATURE
RMF .OHMM               1.26 : RESISTIVITY MUD FILTRATE SAMPLE
MFST.DEGF                 68 : MUD FILTRATE SAMPLE TEMPERATURE
RMB .OHMM               0.41 : RESISTIVITY MUD AT BHT
TCS .HRS                 3.5 : TIME CIRCULATED STOPPED
LUN .                   7691 : LOGGING UNIT NUMBER
LUL .                    EDM : LOGGING UNIT LOCATION
ENGI.              CROCKFORD : RECORDING ENGINEER
WITN.                   ROSS : WITNESSED BY
CLNT.                A2DTECH : CLIENT CODE
ORIG.            2" 5" PRINT : ORIGIN OF DATA
UWI .       100101806321W500 : UNIQUE WELL ID
DICO. A2D Technologies, Inc. : DIGITIZING COMPANY
~Other -----------------------------------------------------
~ASCII -----------------------------------------------------
# ...
 3400.00000   11.86350   11.86350  188.31030    0.11510    0.11510    2.44050    -999.25    0.12690    0.15760    5.31040   73.46260   73.46260    5.31040    4.64940    5.57930    4.64940    -999.25    0.30990    0.26590    2.45810  -50.07080   -4.93370    5.57930
 3450.00000   12.11810   12.11810  195.86720    0.13030    0.13030    2.42200    -999.25    0.13820    0.16840    5.10550   79.60490   79.60490    5.10550    4.54130    6.03370    4.54130    -999.25    0.33790    0.29410    2.43620  -48.82790   -3.58180    6.03370
 3500.00000   13.83850   13.83850  124.16890    0.05860    0.05860    2.26770    -999.25    0.23170    0.25870    8.05350   93.24740   93.24740    8.05350    6.85290    7.58850    6.85290    -999.25    0.28880    0.24480    2.27730  -53.40800   -8.05360    7.58850
 3550.00000   14.23280   14.23280  128.21090    0.09330    0.09330    2.45700    -999.25    0.11700    0.14800    7.79960   96.61990   96.61990    7.79960    6.58740    8.03700    6.58740    -999.25    0.28840    0.24440    2.45980  -52.37200   -6.90930    8.03700
 3600.00000   13.03790   13.03790  137.52510    0.04530    0.04530    2.53980    -999.25    0.06680    0.09950    7.27140  126.62910  126.62910    7.27140    6.36300    8.49960    6.36300    -999.25    0.29350    0.24950    2.54890  -50.59740   -5.02570    8.49960
 3650.00000   11.38250   11.38250   68.38940    0.04280    0.04280    2.59800    -999.25    0.03150    0.06550   14.62280   94.81240   94.81240   14.62280   12.43920   16.84670   12.43920    -999.25    0.22500    0.18130    2.60490  -51.90170   -6.22180   16.84670
 3700.00000   11.10900   11.10900  108.33650    0.08260    0.08260    2.57080    -999.25    0.04800    0.08140    9.23050  108.81880  108.81880    9.23050    7.78670   10.16740    7.78670    -999.25    0.30410    0.26010    2.58090  -50.01310   -4.22420   10.16740
 3750.00000   11.05690   11.05690  104.40120    0.10650    0.10650    2.60250    -999.25    0.02880    0.06290    9.57850  102.98090  102.98090    9.57850    8.46410   10.04400    8.46410    -999.25    0.27550    0.23150    2.61510  -50.79190   -4.89470   10.04400
 3800.00000   10.98030   10.98030  145.56070    0.12270    0.12270    2.48900    -999.25    0.09760    0.12920    6.87000  100.25780  100.25780    6.87000    5.79700    7.33960    5.79700    -999.25    0.33800    0.29420    2.50360  -50.15990   -4.37090    7.33960
 3850.00000   11.63520   11.63520  121.12400    0.13580    0.13580    2.57810    -999.25    0.04360    0.07720    8.25600   96.79640   96.79640    8.25600    7.67890    8.95640    7.67890    -999.25    0.30540    0.26140    2.57900  -49.80620   -4.15180    8.95640
 3900.00000   10.96250   10.96250   77.56230    0.05650    0.05650    2.57240    -999.25    0.04700    0.08040   12.89290   72.95480   72.95480   12.89290   11.37910   13.58020   11.37910    -999.25    0.19350    0.15020    2.57260  -59.21920  -13.69850   13.58020
 3950.00000   10.71030   10.71030  123.47200    0.19890    0.19890    2.14360    -999.25    0.30690    0.33120    8.09900   99.90650   99.90650    8.09900    7.16750    8.59120    7.16750    -999.25    0.31450    0.27060    2.15650  -50.96910   -5.58300    8.59120
 4000.00000   11.95850   11.95850  115.05710    0.18420    0.18420    2.11890    -999.25    0.32190    0.34560    8.69150  106.49200  106.49200    8.69150    7.55100    9.82160    7.55100    -999.25    0.34690    0.30320    2.13160  -49.95820   -4.70580    9.82160
 4050.00000   12.93880   12.93880  148.11070    0.12450    0.12450    1.72030    -999.25    0.56350    0.57880    6.75260  100.41810  100.41810    6.75260    5.81420    7.15560    5.81420    -999.25    0.40000    0.35710    1.66930  -49.35430   -4.23560    7.15560
 4100.00000   12.00780   12.00780  102.98240    0.18680    0.18680    2.04730    -999.25    0.36530    0.38760    9.71040   94.67820   94.67820    9.71040    8.53220   10.08880    8.53220    -999.25    0.30040    0.25640    2.05780  -47.88560   -2.90140   10.08880
 4150.00000    9.32520    9.32520   86.88270    0.19240    0.19240    2.47220    -999.25    0.10780    0.13910   11.51100   76.09860   76.09860   11.51100   10.92260   12.16840   10.92260    -999.25    0.26150    0.21760    2.48410  -59.23850  -14.38800   12.16840
 4200.00000    9.96230    9.96230   83.01920    -999.25    -999.25    2.26700    -999.25    0.23210    0.25900   12.04540   93.86560   93.86560   12.04540   10.15520   11.12630   10.15520    -999.25    0.26630    0.22230    2.29400  -48.54480   -3.82890   11.12630
 4250.00000   10.97990   10.97990   95.91920    -999.25    -999.25    2.23940    -999.25    0.24880    0.27520   10.42550   98.85410   98.85410   10.42550    9.47440   11.29370    9.47440    -999.25    0.26660    0.22260    2.24500  -48.85810   -4.27590   11.29370
 4300.00000   10.94530   10.94530   82.83850    -999.25    -999.25    2.31450    -999.25    0.20340    0.23130   12.08030   99.57660   99.57660   12.08030   11.43630   14.73170   11.43630    -999.25    0.27160    0.22760    2.32380  -48.54420   -4.09570   14.73170
 4350.00000   10.67700   10.67700   95.90760    0.19960    0.19960    2.27660    -999.25    0.22630    0.25340   10.42670   99.38410   99.38410   10.42670    9.31540   11.44040    9.31540    -999.25    0.25950    0.21560    2.28080  -48.40020   -4.08630   11.44040
 4400.00000   10.64030   10.64030  116.41650    -999.25    -999.25    2.20000    -999.25    0.27270    0.29820    8.58990  110.26470  110.26470    8.58990    7.71520    9.35820    7.71520    -999.25    0.30960    0.26570    2.20770  -48.93560   -4.75540    9.35820
 4450.00000   11.27960   11.27960  104.12870    0.14730    0.14730    2.42110    -999.25    0.13870    0.16890    9.60350  107.54570  107.54570    9.60350    8.99360   11.69800    8.99360    -999.25    0.25890    0.21500    2.43180  -48.24210   -4.19650   11.69800
 4500.00000   11.78820   11.78820  127.31460    0.13520    0.13520    2.55350    -999.25    0.05850    0.09150    7.85470  119.52410  119.52410    7.85470    7.35580    9.95110    7.35580    -999.25    0.30760    0.26360    2.56270  -47.67280   -3.93600    9.95110
 4550.00000   11.48720   11.48720  114.60460    0.07000    0.07000    2.51290    -999.25    0.08310    0.11530    8.72640  121.37410  121.37410    8.72640    8.04100   10.40930    8.04100    -999.25    0.31720    0.27330    2.52710  -48.39910   -5.09190   10.40930
 4600.00000   11.59520   11.59520  107.43100    0.08220    0.08220    2.55790    -999.25    0.05580    0.08890    9.30830  126.24660  126.24660    9.30830    8.13980   11.19240    8.13980    -999.25    0.30220    0.25820    2.55900  -47.71960   -4.84480   11.19240
 4650.00000   10.76280   10.76280   91.96050    0.03360    0.03360    2.56200    -999.25    0.05340    0.08660   10.87450  124.17420  124.17420   10.87450    9.72600   14.35820    9.72600    -999.25    0.30530    0.26130    2.56420  -47.24130   -4.79610   14.35820
 4700.00000   11.09460   11.09460  111.73680    0.06780    0.06780    2.60610    -999.25    0.02660    0.06080    8.94960  110.39980  110.39980    8.94960    7.86830   10.26030    7.86830    -999.25    0.28500    0.24100    2.60960  -45.51400   -3.50120   10.26030
 4750.00000   10.60590   10.60590   96.05040    0.06520    0.06520    2.59550    -999.25    0.03300    0.06700   10.41120  123.13030  123.13030   10.41120    9.56070   13.02890    9.56070    -999.25    0.29420    0.25020    2.58310  -46.53900   -4.95570   13.02890
 4800.00000   10.30150   10.30150   81.39510    0.01030    0.01030    2.52060    -999.25    0.07840    0.11080   12.28630  133.99300  133.99300   12.28630   11.06100   15.19400   11.06100    -999.25    0.33780    0.29400    2.53960  -43.88650   -2.73280   15.19400
 4850.00000   10.30080   10.30080   77.98370    0.05390    0.05390    2.50740    -999.25    0.08640    0.11850   12.82320  170.41430  170.41430   12.82320   11.86070   20.27660   11.86070    -999.25    0.35450    0.31090    2.52570  -41.52610   -0.80480   20.27660
 4900.00000   10.89200   10.89200  105.88220    0.09320    0.09320    2.54730    -999.25    0.06230    0.09520    9.44450  110.81280  110.81280    9.44450    8.82950   10.20780    8.82950    -999.25    0.24770    0.20380    2.54200  -46.17560   -5.88380   10.20780
