~Version ---------------------------------------------------
VERS.      2.0 : CWLS log ASCII Standard -VERSION 2.0
WRAP.       NO : One line per depth step
CREA. 12/01/17 : LAS Creation Date
~Well ------------------------------------------------------
STRT.FT                      1000.0 : START DEPTH
STOP.FT                      9350.0 : STOP DEPTH
STEP.FT                    50.00000 : STEP LENGTH
NULL.                       -999.25 : NULL VALUE
COMP. ATLANTIC RICHFIELD CANADA LTD : COMPANY
WELL.         ARCO SNIPE 10-6-69-17 : WELL
FLD .                               : FIELD
LOC .                               : LOCATION
CTRY.                        CANADA : COUNTRY
SRVC.        Schlumberger of Canada : SERVICE COMPANY
DATE.                   01-Jan-1971 : LOGDATE
PROV.                       Alberta : PROVINCE
UWI .              100100606917W500 : UNIQUE WELL ID
SLAT.WGS84                 54.94767 : SURFACE LATITUDE
SLON.WGS84                -116.5759 : SURFACE LONGITUDE
~Curve Information -----------------------------------------
DEPT  .FT    : Depth Curve
CALSED.IN    : CALIPER FROM SONIC LOG
CALWS .IN    : CALIPER [CALSED]
CONDWS.MMHO  : CONDUCTIVITY [1000/DRESWS]
DRESWS.OHMM  : DEEP MRESISTIVITY [ILDED]
DTED  .US/F  : DELTA-TIME FROM SONIC LOG
DTWS  .US/F  : COMPRESSIONAL SONIC [DTED]
GRSED .GAPI  : GAMMA RAY FROM SONIC LOG
GRWS  .GAPI  : GAMMA RAY [GRSED]
ILDED .OHMM  : DEEP INDUCTION LOG RESISTIVITY FROM RESISTIVITY LOG
ILMED .OHMM  : MEDIUM INDUCTION LOG RESISTIVITY FROM RESISTIVITY LOG
LL8ED .OHMM  : 8 INCH LATEROLOG RESISTIVITY FROM RESISTIVITY LOG
MRESWS.OHMM  : MEDIUM RESISTIITY [ILMED]
SPRED .MV    : SPONTANEOUS POTENTIAL FROM RESISTIVITY LOG
SPWS  .MV    : SPONTANEOUS POTENTIAL [BASELINE TO ZERO, SPRED]
SRESWS.OHMM  : SHALLOW RESISTIVITY [LL8ED]
~Params ----------------------------------------------------
PD  .                     GL : PERMANENT DATUM
EPD .FT               3010.5 : ELEVATION PERMANENT DATUM
LMF .                     KB : LOG MEASURED FROM
DAPD.FT                 18.5 : FEET ABOVE PERMANENT DATUM
EKB .FT                 3029 : KELLY BUSHING
EGL .FT               3010.5 : GROUND LEVEL
DATE.               01/01/71 : RUN DATE
RUN .                      1 : RUN NUMBER
DD  .FT                 9400 : DEPTH DRILLER
DL  .FT                 9398 : DEPTH LOGGER
BLI .FT                 9392 : BOTTOM LOG INTERVAL
TLI .FT                  974 : TOP LOG INTERVAL
CBD .FT                  974 : CASING BOTTOM DRILLER
CBL .FT                  974 : CASING BOTTOM LOGGER
BS  .IN                7.875 : BIT SIZE
BSD .FT                 9400 : BIT SIZE AT DEPTH
DFT .              FRESH GEL : DRILLING FLUID TYPE
DFD .                    9.4 : DRILLING FLUID DENSITY
DFV .                     76 : DRILLING FLUID VISCOSITY
DFPH.                   10.5 : DRILLING FLUID PH
DFL .                    9.2 : DRILLING FLUID LOSS
MSS .               FLOWLINE : MUD SAMPLE SOURCE
RMS .OHMM               3.45 : RESISTIVITY MUD SAMPLE
MST .DEGF                 60 : MUD SAMPLE TEMPERATURE
RMF .OHMM               2.98 : RESISTIVITY MUD FILTRATE SAMPLE
MFST.DEGF                 48 : MUD FILTRATE SAMPLE TEMPERATURE
RMB .OHMM               1.08 : RESISTIVITY MUD AT BHT
TCS .HRS                   3 : TIME CIRCULATED STOPPED
LUN .                   7502 : LOGGING UNIT NUMBER
LUL .                    EDM : LOGGING UNIT LOCATION
ENGI.                 BUFTON : RECORDING ENGINEER
WITN.                 BAINES : WITNESSED BY
CLNT.                A2DTECH : CLIENT CODE
ORIG.            2" 5" PRINT : ORIGIN OF DATA
UWI .       100100606917W500 : UNIQUE WELL ID
DICO. A2D Technologies, Inc. : DIGITIZING COMPANY
~Other -----------------------------------------------------
~ASCII -----------------------------------------------------
# ...
 3300.00000    8.92380    8.92380  119.36530    8.37880  106.13170  106.13170  100.13150  100.13150    8.37880    7.91810    9.31690    7.91810  -78.76460  -52.49260    9.31690
 3350.00000   12.71200   12.71200  198.83090    5.02940  100.65980  100.65980   62.41500   62.41500    5.02940    4.81970    5.77140    4.81970  -75.79910  -49.52710    5.77140
 3400.00000    9.22990    9.22990  168.75360    5.92580   92.75950   92.75950   66.49360   66.49360    5.92580    6.31620    9.24900    6.31620  -79.03330  -52.76130    9.24900
 3450.00000   12.08390   12.08390  196.65680    5.08500   99.39080   99.39080   66.35700   66.35700    5.08500    5.27350    6.06890    5.27350  -73.84990  -47.57790    6.06890
 3500.00000    9.80200    9.80200  268.75940    3.72080   94.14170   94.14170   73.62810   73.62810    3.72080    3.97160    4.98760    3.97160  -71.28500  -45.01300    4.98760
 3550.00000    9.52680    9.52680  193.71850    5.16250   99.67270   99.67270   99.95310   99.95310    5.16250    5.49810    5.96060    5.49810  -72.93780  -46.66580    5.96060
 3600.00000   12.82070   12.82070  298.87320    3.34590  100.78620  100.78620   67.27390   67.27390    3.34590    3.49320    4.09920    3.49320  -72.13190  -45.85990    4.09920
 3650.00000   13.44910   13.44910  272.78430    3.66590  109.94990  109.94990   63.97420   63.97420    3.66590    3.86040    4.79380    3.86040  -71.44410  -45.17210    4.79380
 3700.00000   11.30890   11.30890  255.33650    3.91640  102.20240  102.20240   77.91030   77.91030    3.91640    4.06650    5.12610    4.06650  -69.77690  -43.51490    5.12610
 3750.00000   11.16310   11.16310  451.56920    2.21450  116.03950  116.03950   59.87230   59.87230    2.21450    2.32000    3.24110    2.32000  -67.79920  -41.91710    3.24110
 3800.00000   15.00000   15.00000  534.85250    1.87050  148.93440  148.93440   51.43620   51.43620    1.87050    1.96520    2.89950    1.96520  -67.59280  -42.09050    2.89950
 3850.00000   10.27030   10.27030  298.48070    3.35030   99.23460   99.23460   57.26530   57.26530    3.35030    3.51050    4.34770    3.51050  -69.08690  -43.96700    4.34770
 3900.00000   11.75300   11.75300  293.40140    3.40830  113.12690  113.12690   62.65760   62.65760    3.40830    3.53140    4.35060    3.53140  -69.88120  -45.14110    4.35060
 3950.00000   13.60040   13.60040  395.53830    2.52820  115.32740  115.32740   55.99280   55.99280    2.52820    2.62430    3.64980    2.62430  -68.96730  -44.60960    3.64980
 4000.00000   15.00000   15.00000  516.58230    1.93580  115.21880  115.21880   41.29940   41.29940    1.93580    2.03020    2.88670    2.03020  -65.34290  -41.36510    2.88670
 4050.00000   11.04510   11.04510  276.92070    3.62650  129.24080  129.24080   49.19430   49.19430    3.62650    3.79990    5.07590    3.79990  -72.81260  -49.21460    5.07590
 4100.00000   10.68850   10.68850  227.21590    4.40110   89.61760   89.61760   50.66710   50.66710    4.40110    5.64870    9.74230    5.64870  -94.78720  -71.57160    9.74230
 4150.00000    8.69770    8.69770   93.02930   10.74930   86.20810   86.20810   30.58930   30.58930   10.74930   13.84530   20.57020   13.84530  -96.15670  -73.32090   20.57020
 4200.00000   10.60720   10.60720  135.12420    7.40060   91.72580   91.72580   38.63960   38.63960    7.40060   10.49520   18.52660   10.49520 -100.77490  -78.32150   18.52660
 4250.00000    8.32290    8.32290  276.77830    3.61300   91.52130   91.52130   42.88670   42.88670    3.61300    5.00830    9.14490    5.00830 -106.51640  -84.44290    9.14490
 4300.00000   10.90840   10.90840  226.14350    4.42390   87.88190   87.88190   36.19500   36.19500    4.42390    6.25770   10.65580    6.25770 -107.45700  -85.76330   10.65580
 4350.00000   10.80730   10.80730  221.77870    4.50900   92.88000   92.88000   56.48180   56.48180    4.50900    4.84490    5.56730    4.84490  -68.51840  -47.20710    5.56730
 4400.00000   10.94370   10.94370  201.22750    4.96950   86.57350   86.57350   51.69230   51.69230    4.96950    5.37170    6.25360    5.37170  -75.53250  -54.60100    6.25360
 4450.00000   11.48010   11.48010  193.28900    5.17360   86.50190   86.50190   46.80520   46.80520    5.17360    5.66750    6.72520    5.66750  -80.59090  -60.04180    6.72520
 4500.00000   10.28140   10.28140  200.29240    4.99270   81.71490   81.71490   58.44210   58.44210    4.99270    5.36850    7.97440    5.36850  -75.82240  -55.65320    7.97440
 4550.00000   10.25900   10.25900  163.94020    6.10070   93.41420   93.41420   48.14900   48.14900    6.10070   10.05770   18.68940   10.05770 -125.24320 -105.45380   18.68940
 4600.00000   11.20020   11.20020  235.83790    4.24020   85.17260   85.17260   54.52290   54.52290    4.24020    4.51300    5.56610    4.51300  -72.55000  -53.14300    5.56610
 4650.00000   11.37620   11.37620  227.44850    4.39660   88.67450   88.67450   53.08620   53.08620    4.39660    5.57260    9.41150    5.57260 -109.18120  -90.15400    9.41150
 4700.00000   10.69580   10.69580  327.19300    3.05630   93.78590   93.78590   38.20860   38.20860    3.05630    4.13370    7.86210    4.13370 -118.42130  -99.77650    7.86210
 4750.00000   10.57070   10.57070  235.93250    4.23850   86.04940   86.04940   52.46220   52.46220    4.23850    4.55500    5.95180    4.55500  -71.11930  -52.85440    5.95180
 4800.00000   10.61200   10.61200  181.50480    5.51100   86.01670   86.01670   61.20140   61.20140    5.51100    5.88350    6.84770    5.88350  -65.27230  -47.38720    6.84770
 4850.00000   10.79610   10.79610  240.22290    4.16280   86.85330   86.85330   55.72970   55.72970    4.16280    4.52250    5.34400    4.52250  -64.30460  -46.80190    5.34400
 4900.00000    9.83950    9.83950  113.78380    8.78860   78.59590   78.59590   40.64180   40.64180    8.78860    9.69560   16.29870    9.69560  -73.69500  -56.57210   16.29870
 4950.00000    9.52340    9.52340   68.54760   14.58840   74.85780   74.85780   41.87910   41.87910   14.58840   16.76110   26.08090   16.76110  -78.33740  -61.59690   26.08090
 5000.00000    8.91110    8.91110  148.77630    6.72150   85.61000   85.61000   41.55060   41.55060    6.72150    9.27460   17.12970    9.27460 -100.19050  -83.82990   17.12970
 5050.00000   15.00000   15.00000  430.72780    2.32190  148.18490  148.18490   33.53590   33.53590    2.32190    2.41200    3.42730    2.41200  -62.50870  -46.52790    3.42730
 5100.00000    9.17720    9.17720   34.82950   28.71130  106.22870  106.22870   80.65090   80.65090   28.71130   30.41070   46.00620   30.41070  -53.04030  -37.49160   46.00620
 5150.00000    9.16550    9.16550   44.14130   22.65450  108.94430  108.94430   76.98260   76.98260   22.65450   27.72210   52.64570   27.72210  -53.40790  -38.68350   52.64570
 5200.00000    8.11670    8.11670    1.94760  513.46260   88.18270   88.18270  205.48220  205.48220  513.46260  225.66240  413.13640  225.66240  -60.02820  -46.13350  413.13640
 5250.00000    8.64080    8.64080    4.38200  228.20740   70.23760   70.23760   57.56980   57.56980  228.20740  314.76320  335.45260  314.76320  -64.12340  -51.05300  335.45260
 5300.00000    9.65060    9.65060  326.05260    3.06980   77.13310   77.13310   62.98600   62.98600    3.06980    4.15340   11.18910    4.15340  -89.14350  -76.89750   11.18910
 5350.00000    7.75580    7.75580   65.93170   15.16720   55.58170   55.58170   13.09820   13.09820   15.16720   26.48610  104.31820   26.48610 -161.43370 -150.01740  104.31820
 5400.00000    8.92260    8.92260  131.44230    7.60790   63.43330   63.43330   23.17300   23.17300    7.60790    9.08830   12.99600    9.08830 -105.61030  -95.01830   12.99600
 5450.00000    8.55680    8.55680   45.04990   22.19760   57.06390   57.06390   26.82560   26.82560   22.19760   23.30860   27.39880   23.30860  -61.33040  -51.56810   27.39880
 5500.00000    8.70560    8.70560   29.97540   33.36070   52.59140   52.59140   12.57230   12.57230   33.36070   48.94670   86.28400   48.94670 -113.19950 -104.26150   86.28400
 5550.00000    8.96780    8.96780   48.49020   20.63850   60.07450   60.07450   36.99770   36.99770   20.63850   21.67190   29.51180   21.67190  -47.73520  -39.62150   29.51180
