~Version ---------------------------------------------------
VERS.      2.0 : CWLS log ASCII Standard -VERSION 2.0
WRAP.       NO : One line per depth step
CREA. 11/20/17 : LAS Creation Date
~Well ------------------------------------------------------
STRT.FT                         1450.0 : START DEPTH
STOP.FT                        13550.0 : STOP DEPTH
STEP.FT                       50.00000 : STEP LENGTH
NULL.                          -999.25 : NULL VALUE
COMP. AMOCO CANADA PETROLEUM CO., LTD. : COMPANY
WELL.            AMOCO TONY 7-16-62-24 : WELL
FLD .                                  : FIELD
LOC .                                  : LOCATION
CTRY.                           CANADA : COUNTRY
SRVC.                     Schlumberger : SERVICE COMPANY
DATE.                      27-Nov-1977 : LOGDATE
PROV.                          Alberta : PROVINCE
UWI .                 100071606224W500 : UNIQUE WELL ID
SLAT.WGS84                    54.36239 : SURFACE LATITUDE
SLON.WGS84                   -117.5361 : SURFACE LONGITUDE
~Curve Information -----------------------------------------
DEPT    .FT    : Depth Curve
CALDED  .IN    : CALIPER FROM DENSITY LOG [ADJ. TO RESISTIVITY LOG]
CALSED  .IN    : CALIPER FROM  SONIC LOG [ADJ. TO RESISTIVITY LOG]
CALWS   .IN    : CALIPER [CALDED]
CONDWS  .MMHO  : CONDUCTIVITY [1000/DRESWS]
DCORWS  .IN    : DENSITY CORRECTION [DRHOED]
DENWS   .IN    : FORMATION BULK DENSITY [CALC. FROM DPOLSWS M=2.71, F=1.00]
DPHILSED.V/V   : DENSITY POROSITY LIMESTONE [M=2.71, F=1.00] FROM DENSITY LOG [ADJ. TO RESISTIVITY LOG]
DPHISSED.V/V   : DENSITY POROSITY SANDSTONE [M=2.65, F=1.00] FROM DENSITY LOG [ADJ. TO RESISTIVITY LOG]
DPOLSWS .V/V   : DENSITY POROSITY LIMESTONE [DPHISSED MATRIX CONVERSION FOR LS, SPL. TO DPHILSED @8451' & SPL. TO CALC. FROM RHOBED M=2.71, F=1.00]
DRESWS  .OHMM  : DEEP RESISTIVITITY [ILDED]
DRHOED  .IN    : DENSITY CORRECTION FROM DENSITY LOG [ADJ. TO RESISTIVITY LOG]
DTED    .US/F  : DELTA TIME FROM SONIC LOG [ADJ. TO RESISTIVITY LOG]
DTWS    .US/F  : COMPRESSIONAL SONIC [DTED]
GRDED   .GAPI  : GAMMA RAY FROM DENSITY LOG [ADJ. TO RESISTIVITY LOG]
GRSED   .GAPI  : GAMMA RAY FROM SONIC LOG [ADJ. TO RESISTIVITY LOG]
GRWS    .GAPI  : GAMMA RAY [GRSED]
ILDED   .OHMM  : DEEP INDUCTION FROM RESISTIVITY LOG
ILMED   .OHMM  : MEDIUM INDUCTION FROM RESISTIVITY LOG
LL8ED   .OHMM  : 8 INCH LATEROLOG RESISTIVITY FROM RESISTIVITY LOG
MRESWS  .OHMM  : MEDIUM RESISTIVITY [ILMED]
NPHILSED.V/V   : NEUTRON POROSITY LIMESTONE FROM DENSITY LOG [ADJ. TO RESISTIVITY LOG]
NPHISSED.V/V   : NEUTRON POROSITY SANDSTONE FROM DENSITY LOG [ADJ. TO RESISTIVITY LOG]
NPOLSWS .V/V   : NEUTRON POROSITY LIMESTONE [NPHISSED MATRIX CONVERSION FOR LIMESTONE, SPL. TO NPHILSED @ 8424']
RHOBED  .IN    : BULK DENSITY FROM DENSITY LOG [ADJ. TO RESISTIVITY LOG]
SPRED   .MV    : SPONTANEOUS POTENTIAL FROM RESISTIVITY LOG
SPWS    .MV    : SPONTANEOUS POTENTIAL [BASELINE 0 MV,SPRED]
SRESWS  .OHMM  : SHALLOW RESISTIVITY [LL8ED]
~Params ----------------------------------------------------
PD  .                     GL : PERMANENT DATUM
EPD .FT                 5402 : ELEVATION PERMANENT DATUM
LMF .                     KB : LOG MEASURED FROM
DAPD.FT                   17 : FEET ABOVE PERMANENT DATUM
DATE.               11/27/77 : RUN DATE
RUN .                      2 : RUN NUMBER
DD  .FT                13685 : DEPTH DRILLER
DL  .FT                13579 : DEPTH LOGGER
BLI .FT                13573 : BOTTOM LOG INTERVAL
TLI .FT                 8448 : TOP LOG INTERVAL
CBD .FT                 8448 : CASING BOTTOM DRILLER
CBL .FT                 8448 : CASING BOTTOM LOGGER
BSD .FT                13685 : BIT SIZE AT DEPTH
DFT .                    8.6 : DRILLING FLUID TYPE
DFD .                     86 : DRILLING FLUID DENSITY
CLNT.                A2DTECH : CLIENT CODE
ORIG.          1" 2.5" PRINT : ORIGIN OF DATA
UWI .       100071606224W500 : UNIQUE WELL ID
DICO. A2D Technologies, Inc. : DIGITIZING COMPANY
~Other -----------------------------------------------------
DIL-BHC-CNL-FDC LOG RUN
RHOB & DRHO FROM 2" SCALE
~ASCII -----------------------------------------------------
 1450.00000    -999.25    -999.25    -999.25    -999.25    -999.25    -999.25    -999.25    -999.25    -999.25    -999.25    -999.25    -999.25    -999.25    -999.25   49.77820   50.16560    -999.25    -999.25    -999.25    -999.25    -999.25    -999.25    -999.25    -999.25    -999.25    -999.25    -999.25
 1500.00000    -999.25    -999.25    -999.25    -999.25    -999.25    -999.25    -999.25    -999.25    -999.25    -999.25    -999.25    -999.25    -999.25   45.84780   48.92640   46.80630    -999.25    -999.25    -999.25    -999.25    -999.25    0.56900    0.53300    -999.25    -999.25    -999.25    -999.25
 1550.00000   14.24300   13.12310   14.24300  157.91800    0.07920    2.37920    -999.25    0.16410    0.19340    6.33240    0.07920  103.89390  103.89390   78.56110   87.17520   85.34190    6.33240    4.74500    5.54030    4.74500    -999.25    0.40500    0.36220    2.37940  -48.87890   -6.86480    5.54030
 1600.00000   13.92770   12.83190   13.92770   74.73400    0.03980    2.47350    -999.25    0.10700    0.13830   13.65300    0.03980   82.49630   82.49630   74.01210   80.02570   82.70650   13.65300   12.23880   16.26940   12.23880    -999.25    0.33940    0.29570    2.47600  -47.59640   -5.58230   16.26940
 1650.00000   14.58130   12.84470   14.58130   83.37290    0.05180    2.45000    -999.25    0.12120    0.15200   11.99430    0.05180   87.76340   87.76340   61.52980   77.59960   74.34590   11.99430    8.98250   12.14280    8.98250    -999.25    0.24360    0.19970    2.44440  -46.52910   -4.51500   12.14280
 1700.00000   14.05490   12.70770   14.05490   75.00240    0.09290    2.27640    -999.25    0.22640    0.25350   13.33490    0.09290   96.11270   96.11270   60.96940   62.49270   62.93740   13.33490   10.17520   10.57330   10.17520    -999.25    0.37730    0.33410    2.27880  -52.54590  -10.42280   10.57330
 1750.00000   12.30120   12.79850   12.30120  143.20290    0.11690    2.24950    -999.25    0.24280    0.26930    6.98310    0.11690   98.97520   98.97520   82.44550   94.83870   91.01700    6.98310    5.16540    6.20010    5.16540    -999.25    0.42450    0.38210    2.24920  -48.00960   -5.76990    6.20010
 1800.00000   12.25620   12.77570   12.25620  144.00090    0.10050    2.27150    -999.25    0.22940    0.25640    6.94440    0.10050  100.97300  100.97300   92.24790  110.14350  109.00850    6.94440    5.67890    7.19420    5.67890    -999.25    0.40030    0.35740    2.26440  -45.25740   -2.90100    7.19420
 1850.00000   13.21050   12.99550   13.21050  162.89380    0.16720    2.05010    -999.25    0.36350    0.38590    6.14020    0.16720   96.99970   96.99970   91.58280   98.27550   99.51560    6.14020    5.08450   10.38360    5.08450    -999.25    0.39920    0.35640    2.05330  -46.40520   -3.93140   10.38360
 1900.00000   12.39190   12.78970   12.39190  150.88650    0.14750    2.19100    -999.25    0.27820    0.30350    6.62750    0.14750   94.30450   94.30450   77.73490   85.76030   88.35820    6.62750    5.31290    6.99960    5.31290    -999.25    0.42390    0.38150    2.19220  -48.24280   -5.65260    6.99960
 1950.00000   15.53580   12.83540   15.53580  159.03600    0.19680    2.19390    -999.25    0.27640    0.30180    6.28920    0.19680   94.11410   94.11410   86.01280   95.19500   90.49770    6.28920    5.10910    6.87980    5.10910    -999.25    0.41370    0.37110    2.18990  -46.07720   -3.36960    6.87980
 2000.00000   11.69650   12.42260   11.69650  132.71220    0.05510    2.36770    -999.25    0.17110    0.20020    7.53510    0.05510   89.86480   89.86480   80.24530   81.38970   83.42450    7.53510    5.84060    6.87020    5.84060    -999.25    0.37000    0.32660    2.37600  -48.79780   -5.97360    6.87020
 2050.00000   11.77820   12.22570   11.77820  146.95080    0.18630    2.18400    -999.25    0.28240    0.30760    6.80500    0.18630   92.60210   92.60210   80.34030   81.25530   81.25530    6.80500    5.44000    6.54540    5.44000    -999.25    0.40040    0.35750    2.18750  -48.03320   -5.09230    6.54540
 2100.00000   12.01340   12.25460   12.01340  149.16570    0.16640    1.93750    -999.25    0.43180    0.45170    6.70570    0.16640   98.68830   98.68830   79.23060   78.80930   77.49840    6.70570    5.12430    5.39100    5.12430    -999.25    0.42600    0.38370    1.93220  -48.13880   -5.08050    5.39100
 2150.00000   12.88970   12.47560   12.88970  115.73540    0.16030    2.25650    -999.25    0.23850    0.26520    8.64040    0.16030   90.45470   90.45470   89.26820   93.08360   93.74080    8.64040    6.97920    7.40160    6.97920    -999.25    0.38170    0.33850    2.28930  -49.52830   -6.35360    7.40160
 2200.00000   14.79810   12.91630   14.79810  169.57690    0.16340    2.07970    -999.25    0.34560    0.36860    5.89740    0.16340   93.22460   93.22460   86.90400   93.60240   99.20830    5.89740    4.83690    5.79940    4.83690    -999.25    0.40350    0.36070    2.07150  -47.57430   -4.28220    5.79940
 2250.00000   12.47190   12.83790   12.47190  168.27080    0.21160    2.06210    -999.25    0.35630    0.37890    5.94280    0.21160   96.94710   96.94710  104.30440  109.73640  119.05520    5.94280    4.50710    5.58370    4.50710    -999.25    0.45840    0.41700    2.07010  -47.61650   -4.20780    5.58370
 2300.00000   11.47090   12.19310   11.47090  291.86850    0.12500    2.05880    -999.25    0.35830    0.38080    3.42620    0.12500  139.59080  139.59080  101.87850  109.47670  110.43220    3.42620    2.85220    4.08990    2.85220    -999.25    0.52090    0.48210    2.04560  -48.24390   -4.71850    4.08990
 2350.00000   12.07340   12.34660   12.07340  152.74550    0.13950    1.98460    -999.25    0.40330    0.42420    6.56720    0.13950   92.95850   92.95850   69.42460   73.10730   80.37600    6.56720    5.27710    6.19750    5.27710    -999.25    0.45730    0.41580    1.95780  -49.05800   -5.41520    6.19750
 2400.00000   11.91090   12.27690   11.91090  112.97260    0.12800    2.20910    -999.25    0.26720    0.29290    8.85170    0.12800   90.89680   90.89680   78.13930   83.52950   86.32910    8.85170    6.83880    7.38550    6.83880    -999.25    0.40550    0.36270    2.21300  -51.41510   -7.65590    7.38550
 2450.00000   13.80280   12.71870   13.80280  344.58350    0.03670    2.20850    -999.25    0.26760    0.29330    2.91200    0.03670  104.43500  104.43500  105.65150  117.02340  117.81670    2.91200    2.64480    3.49080    2.64480    -999.25    0.46840    0.42730    2.19340  -46.31540   -2.43880    3.49080
 2500.00000   13.82010   12.55200   13.82010  292.07310    0.12890    2.11620    -999.25    0.32350    0.34720    3.42380    0.12890  114.51300  114.51300  101.10960  116.67120  118.34510    3.42380    2.72750    3.62740    2.72750    -999.25    0.53160    0.49340    2.11490  -48.41410   -4.42090    3.62740
 2550.00000   13.16910   12.44660   13.16910  140.30760    0.19060    2.12410    -999.25    0.31870    0.34260    7.12720    0.19060   94.04890   94.04890   96.60740  111.24180  113.14140    7.12720    5.82270    6.55570    5.82270    -999.25    0.40070    0.35780    2.12640  -48.83040   -4.72050    6.55570
 2600.00000   12.59230   12.36800   12.59230  189.49910    0.16720    2.13680    -999.25    0.31100    0.33520    5.27820    0.16720   94.20160   94.20160   75.49810   87.08890   87.00350    5.27820    4.34440    5.43170    4.34440    -999.25    0.41140    0.36870    2.14140  -47.95450   -3.72720    5.43170
 2650.00000   13.18300   12.53630   13.18300  333.60020    0.17060    2.04410    -999.25    0.36720    0.38940    2.99760    0.17060  135.11160  135.11160   88.90010  100.22080  100.95860    2.99760    2.45270    3.40180    2.45270    -999.25    0.51800    0.47910    2.01120  -49.14880   -4.80510    3.40180
 2700.00000   15.02760   12.84450   15.02760  222.34910    0.14200    1.98560    -999.25    0.40270    0.42360    4.49900    0.14200  106.18100  106.18100   91.28950   93.31040   93.31040    4.49900    3.71900    4.39860    3.71900    -999.25    0.51670    0.47770    1.98190  -50.81730   -6.35620    4.39860
