~Version ---------------------------------------------------
VERS. 2.0 : CWLS log ASCII Standard -VERSION 2.0
WRAP.  NO : ONE LINE PER DEPTH STEP
~Well ------------------------------------------------------
STRT.F                        1300.0 : START DEPTH
STOP.F                       12650.0 : STOP DEPTH
STEP.F                      50.00000 : STEP LENGTH
NULL.                        -999.25 : NULL VALUE
COMP.           PETROFINA CANADA LTD : COMPANY
WELL. FINA AMOCO HB MAYBERNE 10-11-5 : WELL
FLD .                                : FIELD
LOC .                                : LOCATION
CTRY.                         CANADA : COUNTRY
SRVC.                   Schlumberger : SERVICE COMPANY
DATE.                    03-Apr-1977 : LOGDATE
PROV.                        Alberta : PROVINCE
UWI .               100101105718W500 : UNIQUE WELL ID
SLAT.WGS84                  53.91479 : SURFACE LATITUDE
SLON.WGS84                 -116.5629 : SURFACE LONGITUDE
~Curve Information -----------------------------------------
DEPT   .F                 : 
ILD    .OHMM              : DEEP INDUCTION RESISTIVITY
ILM    .OHMM              : INDUCTION MEDIUM RESISTIVITY
LL8    .OHMM              : LATEROLOG-8 RESISTIVITY
SPR    .MV                : SPONTANEOUS POTENTIAL FROM RESISTIVITY
CALD   .IN   07 280 30 00 : DIFFERENTIAL CALIPER
DCOR   .G/C3              : DENSITY CORRECTION
GRD    .GAPI 45 310 01 00 : GAMMA RAY FROM FDC
RHOB   .G/C3 45 350 01 00 : HRDD HIGH RESOLUTION FORMATION DENSITY
NPHI_LS.DEC               : NEUTRON POROSITY LIMESTONE
GRS    .GAPI 00 000 00 01 : GAMMA RAY FROM SONIC
SPHI   .DEC               : SONIC POROSITY
DT     .US/F 60 520 00 00 : ACOUSTIC TRANSIT TIME SLOWNESS, DELTA T
CALS   .IN   60 280 50 00 : CALIPER FROM SONIC LOG
DPHI_LS.DEC  45 890 10 00 : DENSITY POROSITY LIMESTONE
DPHI_SS.DEC  45 890 12 00 : DENSITY POROSITY SANDSTONE
NPOR_SS.DEC               : ENCHANCED THERMAL NEUTRON POROSITY IN SELECTED LITHOLOGY SANDSTONE
~Params ----------------------------------------------------
PD  .                     GL : PERMANENT DATUM
EPD .FT                 4315 : ELEVATION PERMANENT DATUM
LMF .                     KB : LOG MEASURED FROM
DAPD.FT                   17 : FEET ABOVE PERMANENT DATUM
EKB .FT                 4322 : KELLY BUSHING
EGL .FT                 4315 : GROUND LEVEL
DATE.               04/03/77 : RUN DATE
RUN .                      1 : RUN NUMBER
DD  .FT                12670 : DEPTH DRILLER
DL  .FT                12672 : DEPTH LOGGER
BLI .FT                12669 : BOTTOM LOG INTERVAL
TLI .FT                 1324 : TOP LOG INTERVAL
CBD .FT                 1327 : CASING BOTTOM DRILLER
CBL .FT                 1324 : CASING BOTTOM LOGGER
BS  .IN                 8.75 : BIT SIZE
BSD .FT                12670 : BIT SIZE AT DEPTH
DFT .               GEL CHEM : DRILLING FLUID TYPE
DFD .                      9 : DRILLING FLUID DENSITY
DFV .                    130 : DRILLING FLUID VISCOSITY
DFPH.                     10 : DRILLING FLUID PH
MSS .               FLOWLINE : MUD SAMPLE SOURCE
RMS .OHMM                3.2 : RESISTIVITY MUD SAMPLE
MST .DEGF                 56 : MUD SAMPLE TEMPERATURE
RMF .OHMM               2.94 : RESISTIVITY MUD FILTRATE SAMPLE
MFST.DEGF                 62 : MUD FILTRATE SAMPLE TEMPERATURE
RMB .OHMM               0.88 : RESISTIVITY MUD AT BHT
TCS .HRS                   4 : TIME CIRCULATED STOPPED
LUN .                   7667 : LOGGING UNIT NUMBER
LUL .                    EDM : LOGGING UNIT LOCATION
ENGI.          CAMPBELL BIGG : RECORDING ENGINEER
WITN.         SANDERS DAVIES : WITNESSED BY
CLNT.                A2DTECH : CLIENT CODE
ORIG.            2" 5" PRINT : ORIGIN OF DATA
UWI .       100101105718W500 : UNIQUE WELL ID
DICO. A2D Technologies, Inc. : DIGITIZING COMPANY
~Other -----------------------------------------------------
~ASCII -----------------------------------------------------
# ...
 9900.00000   40.33030   55.11420   78.39790   -3.95770    8.82290    0.00430   32.18370    2.70960    0.04090   34.84350    0.03090   54.21860    8.88760   -0.00260    -999.25    -999.25
 9950.00000   46.12400   65.48690   80.82920  -11.51580    8.81790   -0.00850   49.44390    2.67850    0.04310   47.14010    0.03030   54.39440    8.83180    0.01380    -999.25    -999.25
 10000.00000   34.86910   48.26210   60.24170   -8.38220    8.86690   -0.01450   60.06320    2.66880    0.05230   56.42650    0.04320   55.90660    8.80950    0.01460    -999.25    -999.25
 10050.00000   22.64560   30.27940   25.49800  -24.85870    8.82790   -0.02140    -999.25    2.53680    0.12100  290.94670    0.16940   73.87570    8.78720    0.06040    -999.25    -999.25
 10100.00000  236.84280  427.00140 1508.70840  -79.35330    9.92970    0.26560   19.05290    2.63660    0.01660   25.98960   -0.00080   50.18300    9.36660    0.00500    -999.25    -999.25
 10150.00000  913.56280 1172.24110 1599.84250 -133.57280   10.10000    0.25300   17.06240    2.57770    0.00590   16.76200   -0.00510   49.35050    9.25630    0.04720    -999.25    -999.25
 10200.00000  232.22970  246.98730  687.78150 -126.38820    9.76150    0.18890   12.97950    2.59870    0.00780   14.13370   -0.00200   49.49370    9.22940    0.05220    -999.25    -999.25
 10250.00000  210.85960  224.80190  629.84810 -132.60630   10.05040    0.21070   11.43780    2.60630    0.01190   14.64950    0.00840   50.98030    9.37430    0.08870    -999.25    -999.25
 10300.00000  313.31730  214.99600  935.18320 -105.41190   10.64720    0.23960   12.08040    2.47070    0.03410   13.33760   -0.01070   48.46130    9.37560    0.12680    -999.25    -999.25
 10350.00000 1415.85750 1132.84840 1554.89540 -185.21110   11.40240    0.23610   13.83910    2.23680    0.01370   18.91120    0.00820   51.31410    9.54440    0.25730    -999.25    -999.25
 10400.00000  796.58300  428.96890  371.93720 -201.33140   10.76020    0.22840   13.01420    2.18170    0.05320   12.48180    0.00840   51.36220   10.08010    0.29380    -999.25    -999.25
 10450.00000  686.65120  721.91640 1441.95040 -159.65360   10.20190    0.19650   11.41400    2.37410    0.04100   14.88330   -0.00210   49.23530    9.02960    0.15760    -999.25    -999.25
 10500.00000 1063.15080  657.22600 1464.88220 -176.41950   10.21210    0.24090   11.38020    2.20350    0.02610   14.00080    0.00350   49.98730    9.58640    0.30910    -999.25    -999.25
 10550.00000  764.86070  349.45250 1441.90610 -177.49900   10.50560    0.18160   16.21100    2.49630    0.01860   15.07020    0.00750   50.77680   10.13930    0.12630    -999.25    -999.25
 10600.00000  692.36430  313.69370 1443.96410 -192.09520   10.94810    0.25860   13.08050    2.50080    0.00910   17.42330    0.00150   50.00340    9.27260    0.11370    -999.25    -999.25
 10650.00000  109.05940   88.60110  119.53050 -161.49260    9.99970    0.24830   12.74640    2.26090    0.01730   14.24180    0.00890   51.32580    9.16410    0.25920    -999.25    -999.25
 10700.00000  122.12900  134.77710  165.39240 -150.78380    9.25440    0.11220    9.50050    2.54600    0.01880    8.95970    0.00350   50.47150    9.00690    0.08310    -999.25    -999.25
 10750.00000  580.66580  597.02580 1434.28130 -158.38020    9.37720    0.23530   17.75910    2.35160    0.02120   16.12780    0.00480   50.55730    8.95350    0.18090    -999.25    -999.25
 10800.00000   16.87140   22.70190   76.63760 -111.06430    8.45390    0.00540   26.99530    2.73860    0.05660   22.88690   -0.00960   48.60720    8.18580   -0.01090    -999.25    -999.25
 10850.00000   18.40150   26.13480   86.70370 -112.80670    8.49960    0.01950   20.15000    2.68170    0.09890   28.50540    0.01920   52.72620    8.37120   -0.00850    -999.25    -999.25
 10900.00000   65.71970   92.52860  178.33490 -139.98990    9.14340    0.26330   20.35340    2.25320    0.10490   23.00480    0.00760   51.52440    9.04670    0.17880    -999.25    -999.25
 10950.00000   58.74180   54.56140   75.75840 -136.62470   10.30060    0.23140   30.95650    2.28660    0.12270   29.09260    0.02410   53.41250    9.20100    0.27030    -999.25    -999.25
 11000.00000  214.15280  251.75580  164.15760 -140.71560   10.99730    0.24340   23.24160    2.35810    0.04850   27.72500    0.00620   50.72080    9.40300    0.26440    -999.25    -999.25
 11050.00000  162.02840  249.12600  783.74380  -73.06050   11.22430    0.26250   30.53060    2.56740    0.02050   33.14770    0.01700   52.56600    9.15640    0.08750    -999.25    -999.25
 11100.00000   53.03420   74.24260  104.11920  -39.95470    8.98730   -0.02020   37.37870    2.67630    0.03650   40.28120    0.02010   52.72290    9.02520    0.00710    -999.25    -999.25
 11150.00000   39.35310   52.33580   66.12130  -38.76770    9.00700   -0.00480   41.26190    2.68910    0.04720   44.33310    0.03110   54.50380    8.94470    0.00540    -999.25    -999.25
 11200.00000   38.23620   49.31500   53.75720  -47.74560    9.08900   -0.00960   45.06150    2.68250    0.05310   42.14760    0.02690   53.89230    8.87640   -0.00260    -999.25    -999.25
 11250.00000   62.32620   83.12370  121.29920  -55.34990    9.13610   -0.00200   35.53630    2.68450    0.03520   38.69630    0.02770   54.29120    8.90740    0.00360    -999.25    -999.25
 11300.00000   51.57430   66.35170   99.85250  -44.78180    8.89780    0.00260   35.97100    2.65060    0.04500   38.94700    0.02820   54.10600    8.74580   -0.01530    -999.25    -999.25
 11350.00000   18.30830   24.99120   29.56960  -23.98570    8.80390   -0.01250   50.23060    2.67000    0.08790   56.38330    0.05790   58.32730    8.84030    0.02640    -999.25    -999.25
 11400.00000   13.93480   18.60850   20.06820  -13.33740    8.87570   -0.02590   67.50460    2.66050    0.11340   66.51910    0.07960   61.44620    8.96350    0.01930    -999.25    -999.25
 11450.00000  211.39420  552.68860  479.15520  -65.98300    9.33030    0.04410   30.12090    2.64500    0.01900   28.73270    0.00050   50.41620    8.99410    0.04200    -999.25    -999.25
 11500.00000   22.16410   29.83690   32.70150  -20.66550    9.03060   -0.00620   86.02370    2.64640    0.14290   90.16670    0.08430   61.96790    8.89170    0.02890    -999.25    -999.25
 11550.00000   34.11880   51.54310   65.24710  -22.35750    9.48510    0.19250   41.73570    2.68950    0.03990   45.49390    0.02110   52.93380    9.20450    0.00800    -999.25    -999.25
 11600.00000    7.56270    9.99230   11.09500  -15.22370   11.11490    0.22490   93.75450    2.42880    0.16980   90.40850    0.14510   70.68910    9.47210    0.14030    -999.25    -999.25
 11650.00000    7.93460   10.64530   12.80400   -7.97900    9.75830    0.25280  103.02560    2.49420    0.18530   99.78950    0.15910   72.53030    9.32650    0.12350    -999.25    -999.25
 11700.00000   25.38360   28.72220   34.13960   -7.27590    9.12980    0.23490   83.57950    2.67630    0.09260   80.53040    0.07210   60.56740    9.02050    0.01640    -999.25    -999.25
 11750.00000   15.21090   21.93680   36.98290  -13.80120    9.11700    0.17350   66.97710    2.67400    0.08960   63.47840    0.05690   58.23080    9.04740    0.02210    -999.25    -999.25
 11800.00000    9.61960   14.59840   14.94840  -12.40980    8.87380    0.02300   91.40150    2.63820    0.17420  100.46290    0.11290   65.79970    8.84750    0.05610    -999.25    -999.25
 11850.00000    8.19670   13.53410   13.49250  -24.69880    9.19940    0.14160   90.88020    2.64030    0.17600   83.84930    0.12000   66.99940    8.99280    0.04260    -999.25    -999.25
 11900.00000    6.75990   11.24860   10.14060  -20.99760    9.92770    0.17720  114.78110    2.57800    0.22440  113.05240    0.16950   73.94930    9.43040    0.06540    -999.25    -999.25
 11950.00000   10.94780   17.62710   17.18410   39.23010    8.64870   -0.00080  107.50960    2.63640    0.18710  100.36120    0.10960   65.30980    8.88650    0.03900    -999.25    -999.25
 12000.00000  340.87160 1101.04490 1490.21690  -43.58100    8.62070   -0.00040  148.63450    2.54040    0.13960  132.86280    0.11820   66.93080    8.72090    0.07790    -999.25    -999.25
