~Version ---------------------------------------------------
VERS.      2.0 : CWLS log ASCII Standard -VERSION 2.0
WRAP.       NO : One line per depth step
CREA. 08/31/13 : LAS Creation Date
~Well ------------------------------------------------------
STRT.M                         450.0 : START DEPTH
STOP.M                        3050.0 : STOP DEPTH
STEP.M                      50.00000 : STEP LENGTH
NULL.                        -999.25 : NULL VALUE
COMP.  AMOCO CANADA COMPANY LIMITED. : COMPANY
WELL. AMOCO ET AL MEEKWAP 4-33-66-16 : WELL
FLD .                                : FIELD
LOC .                                : LOCATION
CTRY.                         CANADA : COUNTRY
SRVC.                  Dresser Atlas : SERVICE COMPANY
DATE.                    27-Feb-1984 : LOGDATE
PROV.                        Alberta : PROVINCE
UWI .               100043306616W500 : UNIQUE WELL ID
SLAT.WGS84                  54.75214 : SURFACE LATITUDE
SLON.WGS84                  -116.363 : SURFACE LONGITUDE
~Curve Information -----------------------------------------
DEPT    .M      : DEPTH METER
ACED    .US/M   : ACOUSTIC FROM SONIC LOG [ADJ. TO RESISTIVITY LOG]
C13ED   .MM     : CALIPER 1-3 PAD ELECTRODE FROM DENSITY LOG [ADJ. TO RESISTIVITY LOG]
C24ED   .MM     : CALIPER 2-4 PAD ELECTRODE FROM DENSITY LOG [ADJ. TO RESISTIVITY LOG]
CALSED  .MM     : CALIPER FROM SONIC LOG [ADJ. TO RESISTIVITY LOG]
CALWS   .MM     : CALIPER [CALSED]
CONDWS  .MMHO   : CONDUCTIVITY [1000/DRESWS]
CORRED  .KG/M3  : DENSITY CORRECTION FROM DENSITY LOG
DCORWS  .KG/M3  : DENSITY CORRECTION [CORRED]
DENWS   .KG/M3  : FORMATION BULK DENSITY [CALC. FROM DPOLSWS, M=2710, F=1000]
DPHILSED.V/V    : DENSITY POROSITY LIMESTONE [M=2710, F=1000] FROM DENSITY LOG [ADJ. TO RESISTIVITY LOG]
DPHISSED.V/V    : DENSITY POROSITY SANDSTONE [M=2650, F=1000] FROM DENSITY LOG [ADJ. TO RESISTIVITY LOG]
DPOLSWS .V/V    : DENSITY POROSITY LIMESTONE [DPHISSED MATRIX CONVERSION FOR LIMESTONE SPL. TO DPHILSED @ 1523 M]
DRESWS  .OHMM   : DEEP RESISTIVITY [RILDED]
DTWS    .US/M   : COMPRESSIONAL SONIC [ACED]
GRDED   .GAPI   : GAMMA RAY FROM DENSITY LOG
GRRED   .GAPI   : GAMMA RAY FROM RESISTIVITY LOG
GRWS    .GAPI   : GAMMA RAY [GRRED]
MRESWS  .OHMM   : MEDIUM RESISTIVITY [RILMED]
NPHILSED.V/V    : NEUTRON POROSITY LIMESTONE FROM DENSITY LOG [ADJ. TO RESISTIVITY LOG]
NPHISSED.V/V    : NEUTRON POROSITY SANDSTONE FROM DENSITY LOG [ADJ. TO RESISTIVITY LOG]
NPOLSWS .V/V    : NEUTRON POROSITY LIMESTONE [NPHISSED MATRIX CONVERSION FOR LIMESTONE SPL. TO NPHILSED @ 1502 M]
RFOCED  .OHMM   : SHALLOW FOCUSED LOG RESISTIVITY FROM RESISTIVITY LOG
RHOBED  .KG/M3  : BULK DENSITY FROM DENSITY LOG [ADJ. TO RESISTIVITY LOG]
RILDED  .OHMM   : INDUCTION DEEP RESISTIVITY FROM RESISTIVITY LOG
RILMED  .OHMM   : INDUCTION MEDIUM RESISTIVITY FROM RESISTIVITY LOG
SPRED   .MV     : SPONTANEOUS POTENTIAL FROM RESISTIVITY LOG
SPWS    .MV     : SPONTANEOUS POTENTIAL [BASELINE 0 MV, SPRED]
SRESWS  .OHMM   : SHALLOW RESISTIVITY [RFOCED]
TENDED  .N      : TENSION FROM DENSITY LOG [ADJ. TO RESISTIVITY LOG]
TENRED  .N      : TENSION FROM RESISTIVITY LOG
~Params ----------------------------------------------------
PD  .                         GL : PERMANENT DATUM
EPD .M                    849.31 : ELEVATION PERMANENT DATUM
LMF .                         KB : LOG MEASURED FROM
DAPD.M                       5.5 : FEET ABOVE PERMANENT DATUM
DMF .                         KB : DRILLING MEASURED FROM
EGL .M                    849.31 : GROUND LEVEL
DATE.                   02/27/84 : RUN DATE
RUN .                          1 : RUN NUMBER
DD  .M                      3064 : DEPTH DRILLER
DL  .M                    3062.6 : DEPTH LOGGER
BLI .M                      3062 : BOTTOM LOG INTERVAL
TLI .M                       466 : TOP LOG INTERVAL
CS  .MM                    244.5 : CASING SIZE
CBD .M                       466 : CASING BOTTOM DRILLER
CBL .M                       466 : CASING BOTTOM LOGGER
BS  .MM                    215.9 : BIT SIZE
BSD .M                      3064 : BIT SIZE AT DEPTH
DFT .                   GEL CHEM : DRILLING FLUID TYPE
DFD .                       1070 : DRILLING FLUID DENSITY
DFPH.                          9 : DRILLING FLUID PH
MSS .                CIRCULATION : MUD SAMPLE SOURCE
RMS .OHMM                      2 : RESISTIVITY MUD SAMPLE
MST .DEGC                   14.4 : MUD SAMPLE TEMPERATURE
RMF .OHMM                    1.8 : RESISTIVITY MUD FILTRATE SAMPLE
MFST.DEGC                   14.4 : MUD FILTRATE SAMPLE TEMPERATURE
RMC .OHMM                    2.5 : RESISTIVITY MUD CAKE
MCST.DEGC                   14.4 : MUD CAKE SAMPLE TEMPERATURE
MFSS.                       MEAS : MUD FILTRATE SAMPLE SOURCE
MCSS.                       MEAS : MUD CAKE SAMPLE SOURCE
LUN .                    HL 6219 : LOGGING UNIT NUMBER
LUL .                         GP : LOGGING UNIT LOCATION
ENGI.                      MARYC : RECORDING ENGINEER
CLNT.                    A2DTECH : CLIENT CODE
ORIG. 6.5"/100M 16.5"/100M PRINT : ORIGIN OF DATA
UWI .           100043306616W500 : UNIQUE WELL ID
DICO.     A2D Technologies, Inc. : DIGITIZING COMPANY
~Other -----------------------------------------------------
DIFL-BHC-GR LOG RAN IN COMBO & CNFD LOG RAN
TELLURIC DRIFT EFFECTING SP REPEATABILITY OFF BOTTOM
NEUTRON POROSITY COMPUTED WITH CALIPER CORRECTION
~ASCII -----------------------------------------------------
  450.00000    -999.25    -999.25    -999.25    -999.25    -999.25    -999.25    -999.25    -999.25    -999.25    -999.25    -999.25    -999.25    -999.25    -999.25    -999.25   28.12780   28.12780    -999.25    -999.25    -999.25    -999.25    -999.25    -999.25    -999.25    -999.25    -999.25    -999.25    -999.25    -999.25    -999.25
  500.00000  400.73480  266.04030  249.20900  254.37090  254.37090  318.14710  181.39550  181.39550 2264.54500    -999.25    0.26050    0.26050    3.14320  400.73480   65.59750   63.96140   63.96140    2.78290    -999.25    0.37110    0.33110    3.07380 2215.83400    3.14320    2.78290  -47.11880   -6.64850    3.07380 7707962.87500 -282890.04940
  550.00000  345.49090  307.67770  233.57990  244.93990  244.93990  135.77180  134.72850  134.72850 2465.12800    -999.25    0.14320    0.14320    7.36530  345.49090   63.72310   57.75230   57.75230    6.04140    -999.25    0.33830    0.29830    5.48150 2421.61620    7.36530    6.04140  -42.59700   -4.71440    5.48150 8175834.86600 -176660.45730
  600.00000  349.63300  330.39800  221.38740  241.65700  241.65700  255.90500  148.53360  148.53360 2334.31300    -999.25    0.21970    0.21970    3.90770  349.63300   50.93120   50.19980   50.19980    3.56730    -999.25    0.40940    0.36940    3.55760 2298.94870    3.90770    3.56730  -41.66380   -5.00040    3.55760 8554080.71830 -184630.79750
  650.00000  367.91220  244.44250  210.84030  223.79890  223.79890  124.59200  140.37170  140.37170 2363.21200    -999.25    0.20280    0.20280    8.02620  367.91220   46.60010   41.73720   41.73720    7.52200    -999.25    0.30920    0.26920    7.06490 2318.55370    8.02620    7.52200  -60.65150  -22.03240    7.06490 7864950.28760 -230806.68280
  700.00000  347.42280  283.33900  235.45450  243.14490  243.14490  191.29240  209.35260  209.35260 2460.51100    -999.25    0.14590    0.14590    5.22760  347.42280   82.40400   75.56210   75.56210    4.38280    -999.25    0.34100    0.30100    4.65200 2411.61400    5.22760    4.38280  -44.63540   -5.49550    4.65200 8475504.83890 -241413.74620
  750.00000  341.74590  296.70030  224.11310  233.43410  233.43410  178.83010  149.96250  149.96250 2338.93000    -999.25    0.21700    0.21700    5.59190  341.74590  101.35290   95.73090   95.73090    4.86700    -999.25    0.38520    0.34520    5.08290 2297.81810    5.59190    4.86700  -47.60980   -7.28780    5.08290 8379348.40970 -264321.62650
  800.00000  338.74050  354.46910  224.39050  219.96330  219.96330  166.19300  216.22980  216.22980 2374.15600    -999.25    0.19640    0.19640    6.01710  338.74050  105.91670   97.89140   97.89140    5.19500    -999.25    0.33060    0.29060    5.84650 2330.83080    6.01710    5.19500  -45.91080   -6.40920    5.84650 8476964.64600 -196362.24020
  850.00000  322.55290  344.48340  224.05710  223.03560  223.03560  122.50100  193.89890  193.89890 2457.60400    -999.25    0.14760    0.14760    8.16320  322.55290  100.68870   96.38200   96.38200    7.41920    -999.25    0.31170    0.27170    6.93370 2408.79100    8.16320    7.41920  -48.20210   -8.37960    6.93370 7996403.87350 -237080.57530
  900.00000  347.39220  318.66760  211.21030  223.43310  223.43310  178.00250  220.28030  220.28030 2451.10600    -999.25    0.15140    0.15140    5.61790  347.39220  114.39210  104.54630  104.54630    4.92200    -999.25    0.33880    0.29880    5.13170 2403.12960    5.61790    4.92200  -48.00420   -4.95360    5.13170 7918451.70130 -216053.24630
  950.00000  339.90840  285.67160  330.26060  255.10130  255.10130  136.87940  146.15710  146.15710 2189.64700    -999.25    0.30430    0.30430    7.30570  339.90840   99.05240   88.35820   88.35820    6.31180    -999.25    0.45670    0.41680    5.66160 2155.29660    7.30570    6.31180  -50.40630   -8.76670    5.66160 7577708.20790 -208327.18020
 1000.00000  343.76520  239.42360  255.70520  224.63390  224.63390  163.94250  218.70930  218.70930 2600.56000    -999.25    0.06400    0.06400    6.09970  343.76520  126.80390  121.69770  121.69770    5.86760    -999.25    0.37170    0.33170    6.46030 2540.21240    6.09970    5.86760  -45.65170   -6.10730    6.46030 8048585.12940 -182070.40990
 1050.00000  331.86460  247.34590  219.37570  236.65050  236.65050  142.42580  184.25230  184.25230 2542.07800    -999.25    0.09820    0.09820    7.02120  331.86460  146.49380  129.45830  129.45830    6.68030    -999.25    0.31840    0.27840    7.29130 2490.23630    7.02120    6.68030  -47.80510   -9.42620    7.29130 8204556.82880 -276692.49250
 1100.00000  292.53770  263.51870  252.51190  238.45550  238.45550  175.29410  235.97590  235.97590 2647.92700    -999.25    0.03630    0.03630    5.70470  292.53770  102.11360   97.62950   97.62950    5.58120    -999.25    0.28530    0.24530    5.79710 2588.28860    5.70470    5.58120  -44.16900   -7.19430    5.79710 8140375.60830 -173804.60590
 1150.00000  298.21040  315.65650  236.84880  253.82660  253.82660  204.65380  193.73770  193.73770 2566.36000    -999.25    0.08400    0.08400    4.88630  298.21040  112.90240  101.83190  101.83190    4.71480    -999.25    0.30490    0.26490    5.24950 2512.43650    4.88630    4.71480  -40.34050   -5.27730    5.24950 8219254.58510 -187578.25180
 1200.00000  339.19670  324.65930  239.10140  234.91940  234.91940  388.50040  170.61100  170.61100 2412.63100    -999.25    0.17390    0.17390    2.57400  339.19670  100.72340   93.29210   93.29210    2.47090    -999.25    0.36680    0.32680    2.83620 2364.55400    2.57400    2.47090  -36.82970   -3.33290    2.83620 7753784.02400 -180074.00810
 1250.00000  257.74380  235.37280  226.93080  211.13950  211.13950  100.84100  153.53990  153.53990 2682.98200    -999.25    0.01580    0.01580    9.91660  257.74380   53.27690   46.29270   46.29270   10.24660    -999.25    0.23240    0.19240   10.38420 2622.95210    9.91660   10.24660  -55.16230  -22.28420   10.38420 7437462.55100 -287767.44860
 1300.00000  299.65690  234.47930  285.94130  229.31780  229.31780  128.93410   89.37150   89.37150 2449.39600    -999.25    0.15240    0.15240    7.75590  299.65690   87.78970   75.01580   75.01580    7.42520    -999.25    0.31910    0.27910    9.35560 2424.47050    7.75590    7.42520  -40.08630  -10.58790    9.35560 7337380.22410 -244537.22150
 1350.00000  290.73000  246.15010  292.81440  252.22210  252.22210  193.38250  222.42810  222.42810 2298.57400    -999.25    0.24060    0.24060    5.17110  290.73000   84.02000   79.40460   79.40460    4.49640    -999.25    0.30520    0.26520    5.61940 2244.88280    5.17110    4.49640  -35.09560   -7.14400    5.61940 8682568.88860 -250440.21260
 1400.00000  279.36820  243.18970  287.71200  244.02430  244.02430  179.40760  265.49750  265.49750 2576.10700    -999.25    0.07830    0.07830    5.57390  279.36820   86.74600   77.95140   77.95140    5.09410    -999.25    0.26340    0.22340    5.22000 2521.65140    5.57390    5.09410  -30.22350   -7.56050    5.22000 7654753.33290 -291155.85350
 1450.00000  255.96750  244.39220  276.22220  259.15740  259.15740  253.89090  282.52970  282.52970 2655.10900    -999.25    0.03210    0.03210    3.93870  255.96750   52.79910   53.66080   53.66080    4.78670    -999.25    0.24350    0.20350    9.87510 2597.96750    3.93870    4.78670  -66.43100  -48.21740    9.87510 7787666.27690 -196105.39320
 1500.00000  353.65670  260.36560  371.30190  289.87220  289.87220  244.44500  190.69030  190.69030 2384.07400    -999.25    0.19060    0.19060    4.09090  353.65670  101.37300   88.20390   88.20390    3.95290    -999.25    0.53290    0.49520    3.70250 2343.85500    4.09090    3.95290  -32.43890  -11.76490    3.70250 9017461.47870 -224526.50370
 1550.00000  220.75110  264.41700  275.18220  244.17990  244.17990   74.69260   12.50880   12.50880 2633.39200    0.04480    0.00740    0.04480   13.38820  220.75110   72.54450   76.51360   76.51360   15.07990    0.16460    0.20730    0.16460   21.88860 2634.21700   13.38820   15.07990  -27.24830   -6.85930   21.88860 7746661.45850 -256838.03830
 1600.00000  224.69410  202.65750  210.88020  202.41770  202.41770  251.10490  180.70100  180.70100 2426.99500    0.16550    -999.25    0.16550    3.98240  224.69410   42.12500   36.71400   36.71400    7.08820    0.19740    -999.25    0.19740   31.09330 2419.56400    3.98240    7.08820 -171.34650 -142.53860   31.09330 8440994.38850 -174743.08540
