~Version ---------------------------------------------------
VERS.      2.0 : CWLS log ASCII Standard -VERSION 2.0
WRAP.       NO : One line per depth step
CREA. 11/22/17 : LAS Creation Date
~Well ------------------------------------------------------
STRT.FT                          800.0 : START DEPTH
STOP.FT                         4400.0 : STOP DEPTH
STEP.FT                       50.00000 : STEP LENGTH
NULL.                          -999.25 : NULL VALUE
COMP. SOCONY MOBIL OIL OF CANADA, LTD. : COMPANY
WELL.      MOBIL RAM RIVER 15-25-37-12 : WELL
FLD .                                  : FIELD
LOC .                                  : LOCATION
CTRY.                           CANADA : COUNTRY
SRVC.                          Unknown : SERVICE COMPANY
DATE.                      29-Mar-1964 : LOGDATE
PROV.                          Alberta : PROVINCE
UWI .                 100013603712W500 : UNIQUE WELL ID
SLAT.WGS84                    52.21663 : SURFACE LATITUDE
SLON.WGS84                   -115.5782 : SURFACE LONGITUDE
~Curve Information -----------------------------------------
DEPT  .FT    : Depth Curve
CALSED.IN    : CALIPER FROM SONIC LOG
CALWS .IN    : CALIPER [CALSED]
CILDED.MMHO  : DEEP INDUCTION CONDUCTIVITY FROM RESISTIVITY LOG
CONDWS.MMHO  : CONDUCTIVITY [1000/DRESWS]
DRESWS.OHMM  : DEEP RESISTIVITY [1000/CILDED IF ILDED <, ILDED]
DT1ED .US/F  : DELTA TIME FROM SONIC LOG [ADJ. TO DTED]
DTED  .US/F  : DELTA TIME FROM SONIC LOG
DTWS  .US/F  : COMPRESSIONAL SONIC [DTED]
GRSED .GAPI  : GAMMA RAY FROM SONIC LOG
GRWS  .GAPI  : GAMMA RAY [GRSED]
ILDED .OHMM  : DEEP INDUCTION RESISTIVITY FROM RESISTIVITY LOG
SNED  .OHMM  : 16 INCH SHORT NORMAL RESISTIVITY FROM RESISTIVITY LOG
SPRED .MV    : SPONTANEOUS POTENTIAL FROM RESISTIVITY LOG
SPWS  .MV    : SPONTANEOUS POTENTIAL [BASELINE 0 MV, SPRED]
SRESWS.OHMM  : SHALLOW RESISTIVITY [SNED]
~Params ----------------------------------------------------
PD  .                     GL : PERMANENT DATUM
EPD .FT                 4283 : ELEVATION PERMANENT DATUM
LMF .                     KB : LOG MEASURED FROM
DAPD.FT                   13 : FEET ABOVE PERMANENT DATUM
EKB .FT                 4296 : KELLY BUSHING
EGL .FT                 4283 : GROUND LEVEL
DATE.               03/29/64 : RUN DATE
RUN .                      1 : RUN NUMBER
DD  .FT                 4437 : DEPTH DRILLER
DL  .FT                 4433 : DEPTH LOGGER
BLI .FT                 4432 : BOTTOM LOG INTERVAL
TLI .FT                  835 : TOP LOG INTERVAL
CBD .FT                  835 : CASING BOTTOM DRILLER
CBL .FT                  835 : CASING BOTTOM LOGGER
BS  .IN                    9 : BIT SIZE
BSD .FT                 4437 : BIT SIZE AT DEPTH
DFT .           POLY PLASTIC : DRILLING FLUID TYPE
DFD .                    8.6 : DRILLING FLUID DENSITY
DFV .                     36 : DRILLING FLUID VISCOSITY
DFPH.                     10 : DRILLING FLUID PH
DFL .                    8.8 : DRILLING FLUID LOSS
RMS .OHMM               2.15 : RESISTIVITY MUD SAMPLE
MST .DEGF                 65 : MUD SAMPLE TEMPERATURE
RMF .OHMM                1.8 : RESISTIVITY MUD FILTRATE SAMPLE
MFST.DEGF                 64 : MUD FILTRATE SAMPLE TEMPERATURE
RMC .OHMM                4.6 : RESISTIVITY MUD CAKE
MCST.DEGF                 64 : MUD CAKE SAMPLE TEMPERATURE
RMB .OHMM               1.48 : RESISTIVITY MUD AT BHT
TCS .HRS                   2 : TIME CIRCULATED STOPPED
LUN .                   4508 : LOGGING UNIT NUMBER
LUL .                    R D : LOGGING UNIT LOCATION
ENGI.                  CHASE : RECORDING ENGINEER
WITN.         LONGMORE PLATT : WITNESSED BY
CLNT.                A2DTECH : CLIENT CODE
ORIG.            2" 5" PRINT : ORIGIN OF DATA
UWI .       100013603712W500 : UNIQUE WELL ID
DICO. A2D Technologies, Inc. : DIGITIZING COMPANY
~Other -----------------------------------------------------
IEL-SONIC LOG RUN
~ASCII -----------------------------------------------------
  800.00000    -999.25    -999.25    -999.25    -999.25    -999.25    -999.25    -999.25    -999.25   11.37920   11.37920    -999.25    -999.25    -999.25    -999.25    -999.25
  850.00000    9.34960    9.34960    0.99680    1.67710  596.25760    -999.25   47.48350   47.48350   11.93610   11.93610  596.25760  521.32630  -99.41130   -8.83010  521.32630
  900.00000    9.02040    9.02040    1.12080    1.68800  592.43360    -999.25   46.92410   46.92410   18.55510   18.55510  592.43360  521.70380 -112.34000  -21.75880  521.70380
  950.00000    9.13970    9.13970    1.28780    1.68340  594.02270    -999.25   46.67400   46.67400   12.15870   12.15870  594.02270  509.78420 -120.05900  -29.47780  509.78420
 1000.00000    9.16100    9.16100    1.27260    1.68280  594.25680    -999.25   48.50650   48.50650   10.01630   10.01630  594.25680  526.90740 -118.90710  -28.32590  526.90740
 1050.00000    9.22020    9.22020    1.61060    1.69140  591.22410    -999.25   51.77710   51.77710   11.94730   11.94730  591.22410  480.41820 -114.91980  -24.33860  480.41820
 1100.00000    9.19090    9.19090    1.12110    1.67380  597.45560    -999.25   46.34410   46.34410   14.48270   14.48270  597.45560  606.58140 -100.47680   -9.89560  606.58140
 1150.00000    9.24980    9.24980    1.29730    1.68900  592.06810    -999.25   49.23590   49.23590   18.66810   18.66810  592.06810  656.50450  -90.77490   -0.19370  656.50450
 1200.00000    9.28440    9.28440    1.32140    1.68910  592.04440    -999.25   49.49160   49.49160   14.67160   14.67160  592.04440  664.01400 -101.08290   -8.93240  664.01400
 1250.00000    9.10200    9.10200    2.30100    1.70020  588.15730    -999.25   55.76000   55.76000   52.55430   52.55430  588.15730  491.69970 -120.47260  -26.40880  491.69970
 1300.00000    9.14850    9.14850    1.32160    1.70810  585.45190    -999.25   44.47700   44.47700   16.09890   16.09890  585.45190  563.03470 -132.35890  -36.38180  563.03470
 1350.00000    9.19520    9.19520    0.63820    1.69430  590.20460    -999.25   48.80500   48.80500   48.65170   48.65170  590.20460  490.21850 -108.56900  -10.67860  490.21850
 1400.00000    9.14430    9.14430    1.66490    1.70070  588.00330    -999.25   48.67950   48.67950   44.90980   44.90980  588.00330  449.01310 -122.50720  -22.70360  449.01310
 1450.00000    9.07560    9.07560    1.84310    1.69460  590.09740    -999.25   49.13800   49.13800   54.89880   54.89880  590.09740  352.53210 -101.85430   -0.13210  352.53210
 1500.00000    9.03940    9.03940    3.02610    1.77490  563.42640    -999.25   50.19830   50.19830   41.57950   41.57950  563.42640  244.64510 -124.19970  -22.39420  244.64510
 1550.00000    9.69010    9.69010    6.63300    5.29260  188.94380    -999.25   53.78560   53.78560   17.10660   17.10660  188.94380   97.89690 -150.55770  -49.08010   97.89690
 1600.00000    9.21330    9.21330    8.55280    7.32620  136.49550    -999.25   59.49610   59.49610   49.96120   49.96120  136.49550  114.42920 -140.56730  -39.41770  114.42920
 1650.00000    9.03460    9.03460    4.25320    2.53590  394.33510    -999.25   51.96390   51.96390   20.58120   20.58120  394.33510  211.85040 -141.54360  -40.72190  211.85040
 1700.00000    9.09250    9.09250    1.92440    1.69190  591.04330    -999.25   50.01660   50.01660   15.72380   15.72380  591.04330  230.97580 -136.80580  -36.31200  230.97580
 1750.00000    9.00430    9.00430    2.18650    1.69480  590.02890    -999.25   48.98550   48.98550   21.41030   21.41030  590.02890  246.05970 -126.85860  -26.69280  246.05970
 1800.00000    9.19950    9.19950   16.47620   15.77840   63.37760    -999.25   63.86430   63.86430   70.96630   70.96630   63.37760   69.76430 -109.80020   -9.96230   69.76430
 1850.00000    9.18480    9.18480   10.46590   10.12310   98.78410    -999.25   58.66790   58.66790   75.94600   75.94600   98.78410   82.61810 -106.24320   -6.73330   82.61810
 1900.00000    9.23360    9.23360   11.93590   11.14460   89.72980    -999.25   63.86950   63.86950   88.49150   88.49150   89.72980   78.77660 -104.14480   -4.96280   78.77660
 1950.00000    9.30680    9.30680    9.53430    8.35010  119.75960    -999.25   63.47160   63.47160   90.48180   90.48180  119.75960   94.66980 -103.13100   -4.27700   94.66980
 2000.00000    9.49340    9.49340   10.41040    9.77360  102.31690    -999.25   65.45510   65.45510  101.29390  101.29390  102.31690   80.32020 -104.32480   -5.79870   80.32020
 2050.00000    9.40400    9.40400    8.86010    7.43430  134.51180    -999.25   63.31250   63.31250   85.66250   85.66250  134.51180   93.72210  -99.80140   -2.29820   93.72210
 2100.00000    9.52720    9.52720    9.33630    8.10290  123.41260    -999.25   62.08580   62.08580   72.11500   72.11500  123.41260   91.66950  -99.88600   -4.45480   91.66950
 2150.00000    9.51810    9.51810    9.99450    8.65760  115.50580    -999.25   64.34930   64.34930   90.33910   90.33910  115.50580   88.32470  -98.05470   -4.69540   88.32470
 2200.00000    9.42150    9.42150   10.00830    9.13350  109.48680    -999.25   65.35840   65.35840   86.42240   86.42240  109.48680   98.02730  -95.12070   -3.83330   98.02730
 2250.00000    9.46790    9.46790    7.46060    6.26090  159.72060    -999.25   63.62990   63.62990   79.27370   79.27370  159.72060  114.65160  -92.87340   -3.10130  114.65160
 2300.00000    8.99880    8.99880    1.42090    1.68900  592.05940    -999.25   57.80970   57.80970   66.79140   66.79140  592.05940  540.16030 -102.18410  -12.79690  540.16030
 2350.00000    8.96780    8.96780    0.46880    1.68350  594.00020    -999.25   63.44530   63.44530  130.58140  130.58140  594.00020  581.97140 -117.24840  -28.24610  581.97140
 2400.00000    8.97160    8.97160    0.61950    1.68950  591.88170    -999.25   51.17800   51.17800   47.25340   47.25340  591.88170  581.72210 -115.92640  -27.30900  581.72210
 2450.00000    9.01950    9.01950    0.93100    1.69460  590.10110    -999.25   55.69590   55.69590   53.74290   53.74290  590.10110  454.49460  -98.97200  -10.73960  454.49460
 2500.00000    9.00700    9.00700    0.51940    1.68610  593.08940    -999.25   53.52940   53.52940   39.04800   39.04800  593.08940  525.40930  -94.14870   -6.30120  525.40930
 2550.00000    9.07970    9.07970    2.92560    1.85600  538.78360    -999.25   57.67830   57.67830   55.99100   55.99100  538.78360  247.34240  -94.25200   -6.78940  247.34240
 2600.00000    8.96770    8.96770    0.69950    1.68850  592.23800    -999.25   49.78470   49.78470   15.86520   15.86520  592.23800  494.34340 -102.82080  -15.74310  494.34340
 2650.00000    8.96460    8.96460    2.24980    1.85520  539.02450    -999.25   51.98750   51.98750   25.15340   25.15340  539.02450  255.95320  -95.98430   -9.29150  255.95320
 2700.00000    9.01470    9.01470    8.13890    6.93950  144.10360    -999.25   64.63010   64.63010   73.02030   73.02030  144.10360  133.58450  -90.94980   -4.64200  133.58450
 2750.00000    9.01340    9.01340    1.37580    1.68090  594.93370    -999.25   52.16260   52.16260   62.38560   62.38560  594.93370  440.02340  -88.26900   -2.34610  440.02340
 2800.00000    9.01680    9.01680    2.14140    1.72810  578.68410    -999.25   54.19170   54.19170    2.02350    2.02350  578.68410  284.80340  -87.05040   -2.23760  284.80340
 2850.00000    9.18750    9.18750    3.44480    2.22530  449.38150    -999.25   58.34310   58.34310   44.50130   44.50130  449.38150  216.66750  -89.83270   -6.73640  216.66750
 2900.00000    8.94500    8.94500    0.56950    1.68940  591.94060    -999.25   52.59820   52.59820   28.78690   28.78690  591.94060  646.99980  -94.77440  -13.39470  646.99980
 2950.00000    8.84750    8.84750    0.48750    1.68990  591.74340    -999.25   49.40900   49.40900   21.33620   21.33620  591.74340  614.64740  -98.71610  -19.05300  614.64740
 3000.00000    9.02960    9.02960    0.55100    1.68410  593.78780    -999.25   46.60640   46.60640   23.78630   23.78630  593.78780  534.15440 -105.58490  -27.63840  534.15440
 3050.00000    8.95810    8.95810    0.88090    1.68900  592.05000    -999.25   46.67940   46.67940   12.42330   12.42330  592.05000  421.09080 -107.52210  -31.29210  421.09080
