~Version ---------------------------------------------------
VERS. 2.0 : CWLS log ASCII Standard -VERSION 2.0
WRAP.  NO : One line per depth step
~Well ------------------------------------------------------
STRT.M                          300.0 : START DEPTH
STOP.M                         1750.0 : STOP DEPTH
STEP.M                       50.00000 : STEP LENGTH
NULL.                         -999.25 : NULL VALUE
COMP.                   ENERMARK INC. : COMPANY
WELL. BLUESKY FLAME NIPISI 15-32-80-9 : WELL
FLD .                          NIPISI : FIELD
LOC .                                 : LOCATION
CTRY.                          CANADA : COUNTRY
SRVC.          Schlumberger of Canada : SERVICE COMPANY
DATE.                     13-Feb-1985 : LOGDATE
PROV.                         Alberta : PROVINCE
UWI .                100153208009W500 : UNIQUE WELL ID
SLAT.WGS84              55.9820335402 : SURFACE LATITUDE
SLON.WGS84            -115.3667657043 : SURFACE LONGITUDE
~Curve Information -----------------------------------------
DEPT  .M      : DEPTH METERS
CALS  .MM     : CALIPER FROM SONIC LOG
DPHISS.V/V    : DENSITY POROSITY [M=2650 F=1000] FROM DENSITY LOG
DRHO  .KG/M3  : DENSITY CORRECTION FROM DENSITY LOG
DT    .US/M   : DELTA TIME FROM SONIC LOG
GRS   .GAPI   : GAMMA RAY FROM SONIC LOG
ILD   .OHMM   : INDUCTION LOG DEEP RESISTIVITY
ILM   .OHMM   : INDUCTION LOG MEDIUM RESISTIVITY
NPHISS.V/V    : NEUTRON POROSITY SANDSTONE FROM DENSITY LOG
PEF   .B/E    : PHOTOELECTRIC FACTOR FROM DENSITY LOG
RHOB  .KG/M3  : BULK DENSITY FROM DENSITY LOG
SFLU  .OHMM   : SPHERICALLY FOCUSED LOG RESISTIVITY
SPR   .MV     : SPONTANEOUS POTENTIAL FROM RESISTIVITY LOG
~Params ----------------------------------------------------
PD  .                         GL : PERMANENT DATUM
EPD .M                    639.64 : ELEVATION PERMANENT DATUM
LMF .                         KB : LOG MEASURED FROM
DAPD.M                      4.42 : FEET ABOVE PERMANENT DATUM
DMF .                         KB : DRILLING MEASURED FROM
EKB .M                    644.06 : KELLY BUSHING
EGL .M                    639.64 : GROUND LEVEL
DATE.                   02/13/85 : RUN DATE
RUN .                          1 : RUN NUMBER
DD  .M                      1755 : DEPTH DRILLER
DL  .M                      1756 : DEPTH LOGGER
BLI .M                      1755 : BOTTOM LOG INTERVAL
TLI .M                       274 : TOP LOG INTERVAL
CS  .MM                      219 : CASING SIZE
CBD .M                       274 : CASING BOTTOM DRILLER
CBL .M                       274 : CASING BOTTOM LOGGER
BS  .MM                      200 : BIT SIZE
BSD .M                      1755 : BIT SIZE AT DEPTH
DFT .                   GEL CHEM : DRILLING FLUID TYPE
DFD .                       1105 : DRILLING FLUID DENSITY
DFV .                        112 : DRILLING FLUID VISCOSITY
DFPH.                         11 : DRILLING FLUID PH
DFL .                          4 : DRILLING FLUID LOSS
MSS .                   FLOWLINE : MUD SAMPLE SOURCE
RMS .OHMM                  0.591 : RESISTIVITY MUD SAMPLE
MST .DEGC                     16 : MUD SAMPLE TEMPERATURE
RMF .OHMM                  0.665 : RESISTIVITY MUD FILTRATE SAMPLE
MFST.DEGC                     15 : MUD FILTRATE SAMPLE TEMPERATURE
RMC .OHMM                  0.393 : RESISTIVITY MUD CAKE
MCST.DEGC                   40.3 : MUD CAKE SAMPLE TEMPERATURE
MFSS.                       MEAS : MUD FILTRATE SAMPLE SOURCE
RMB .OHMM                  0.359 : RESISTIVITY MUD AT BHT
TCS .HRS                    2000 : TIME CIRCULATED STOPPED
TLAB.HRS                     100 : TIME LOGGER AT BOTTOM
LUN .                       8210 : LOGGING UNIT NUMBER
LUL .                        EDM : LOGGING UNIT LOCATION
ENGI.                    WOODING : RECORDING ENGINEER
WITN.                   FUKUMOTO : WITNESSED BY
CLNT.                    A2DTECH : CLIENT CODE
ORIG. 6.5"/100M 16.5"/100M PRINT : ORIGIN OF DATA
UWI .           100153208009W500 : UNIQUE WELL ID
DICO.     A2D Technologies, Inc. : DIGITIZING COMPANY
~Other -----------------------------------------------------
~ASCII -----------------------------------------------------
  300.00000  266.06240    -999.25    -999.25  494.60490  116.61140    4.19350    4.09240    -999.25    -999.25    -999.25    4.43420  -50.77880
  350.00000  233.95800    -999.25    -999.25  386.36500   68.88360    7.85190    8.79660    -999.25    -999.25    -999.25    8.43750  -69.77970
  400.00000  315.72210    -999.25    -999.25  468.79920   49.14510    4.42310    3.60270    -999.25    -999.25    -999.25    3.67030  -52.74580
  450.00000  248.28710    -999.25    -999.25  356.68940   56.79630    6.45840    7.40290    -999.25    -999.25    -999.25    8.65400  -62.23530
  500.00000  302.96960    -999.25    -999.25  375.61050   69.19000    5.82060    5.40960    -999.25    -999.25    -999.25    5.34150  -51.91200
  550.00000  236.19280    -999.25    -999.25  328.41080   63.79220    8.39160    8.90720    -999.25    -999.25    -999.25   10.16480  -56.62870
  600.00000  272.98750    -999.25    -999.25  313.74190   54.81560    5.99010    5.02050    -999.25    -999.25    -999.25    6.97040  -48.46700
  650.00000  251.68580    -999.25    -999.25  160.07050   17.05720    7.32680    7.88700    -999.25    -999.25    -999.25   10.03100  -51.88980
  700.00000  237.14160    -999.25    -999.25  228.28620   32.10110   11.80630   11.80730    -999.25    -999.25    -999.25   13.81920  -45.50460
  750.00000  268.20060    -999.25    -999.25  290.63840   32.02330    5.75230    5.66520    -999.25    -999.25    -999.25    6.00680  -34.84300
  800.00000  232.82210    -999.25    -999.25  225.90480   29.25530   12.21340   13.24780    -999.25    -999.25    -999.25   15.59870  -40.61280
  850.00000  238.67470    -999.25    -999.25  185.07520   17.49000   27.87360   40.76040    -999.25    -999.25    -999.25   63.93830  -65.80760
  900.00000  236.11070    -999.25    -999.25  190.10940   15.28900   20.47920   24.87300    -999.25    -999.25    -999.25   33.77200  -90.10380
  950.00000  244.39900    -999.25    -999.25  187.80400   16.87630   26.08450   49.04010    -999.25    -999.25    -999.25  111.92120 -107.51360
 1000.00000  230.22160    -999.25    -999.25  177.52770   17.64310   48.65440   52.34920    -999.25    -999.25    -999.25   60.32180  -72.51840
 1050.00000  230.96260    -999.25    -999.25  168.25690   16.77020   70.48320  108.20150    -999.25    -999.25    -999.25  125.07640  -77.30930
 1100.00000  229.04130    -999.25    -999.25  167.74570   20.30590   63.11250  116.75070    -999.25    -999.25    -999.25  112.28370  -72.93340
 1150.00000  220.79680    -999.25    -999.25  156.35390   20.72630   46.06290   72.62830    -999.25    -999.25    -999.25  106.91580  -81.60950
 1200.00000  229.35420    -999.25    -999.25  211.77230   61.84100    5.72480    6.44140    -999.25    -999.25    -999.25    8.73100  -65.73160
 1250.00000  234.36780    -999.25    -999.25  196.42260   63.00120    3.45420    2.93150    -999.25    -999.25    -999.25    2.33940  -41.38550
 1300.00000  222.24350    -999.25    -999.25  251.43720   74.68760    5.78690    6.14200    -999.25    -999.25    -999.25    6.89160  -25.57150
 1350.00000  304.33240    -999.25    -999.25  314.90790   79.18680    2.97350    2.81690    -999.25    -999.25    -999.25    3.16830  -47.09100
 1400.00000  293.41930    -999.25    -999.25  391.36130   89.93850    2.14600    2.00840    -999.25    -999.25    -999.25    2.45280  -33.34770
 1450.00000  234.20240    -999.25    -999.25  242.23240   73.55060    6.44210    6.77790    -999.25    -999.25    -999.25    7.54030  -19.18940
 1500.00000  287.53730    -999.25    -999.25  298.86130   79.24030    3.41860    3.26680    -999.25    -999.25    -999.25    4.59770  -27.39670
 1550.00000  231.03040    -999.25    -999.25  271.34190   63.91170    5.28020    6.79110    -999.25    -999.25    -999.25    4.68500  -25.06070
 1600.00000  221.05540    -999.25    -999.25  249.97260   92.49170    6.52200    6.95610    -999.25    -999.25    -999.25    8.21050   -4.86270
 1650.00000  200.88240   -0.00490    0.80670  229.80220   67.36370    8.37270    8.97210    0.21760    4.26930 2656.47880   10.59040   -3.85580
 1700.00000  199.57260   -0.08680    2.46960  205.42500   39.00730   19.14320   19.65320    0.20810    4.20880 2796.56860   29.47570   -8.90320
 1750.00000    -999.25   -0.00940    8.07400    -999.25    -999.25  796.35520 1993.33190    -999.25    2.88500 2656.14530 1770.50610  -20.14950
