~Version ---------------------------------------------------
VERS.      2.0 : CWLS log ASCII Standard -VERSION 2.0
WRAP.       NO : One line per depth step
CREA. 11/21/17 : LAS Creation Date
~Well ------------------------------------------------------
STRT.FT                             1050.0 : START DEPTH
STOP.FT                            10400.0 : STOP DEPTH
STEP.FT                           50.00000 : STEP LENGTH
NULL.                              -999.25 : NULL VALUE
COMP.               CHEVRON CANADA LIMITED : COMPANY
WELL. CHEVRON GULF ET AL FOXCK 10-21-62-18 : WELL
FLD .                                      : FIELD
LOC .                                      : LOCATION
CTRY.                               CANADA : COUNTRY
SRVC.                         Schlumberger : SERVICE COMPANY
DATE.                          28-Apr-1976 : LOGDATE
PROV.                              Alberta : PROVINCE
UWI .                     102102106218W500 : UNIQUE WELL ID
SLAT.WGS84                        54.37974 : SURFACE LATITUDE
SLON.WGS84                       -116.6321 : SURFACE LONGITUDE
~Curve Information -----------------------------------------
DEPT    .FT    : Depth Curve
CALDED  .IN    : CALIPER FROM DENSITY LOG
CALSED  .IN    : CALIPER FROM SONIC LOG
CALWS   .IN    : CALIPER [CALSED SPL. TO CALDED @ 10384']
CONDWS  .MMHO  : CONDUCTIVITY [1000/DRESWS]
DCORED  .G/C3  : DENSITY CORRECTION FROM DENSITY LOG
DCORWS  .G/C3  : DENSITY CORRECTION [DCORED]
DENWS   .G/C3  : FORMATION BULK DENSITY [RHOBED]
DPHILSED.V/V   : DENSITY POROSITY LIMESTONE [M=2.71, F=1.00] FROM DENSITY LOG
DPHISSED.V/V   : DENSITY POROSITY SANDSTONE [M=2.65, F=1.00] FROM DENSITY LOG
DPOLSWS .V/V   : DENSITY POROSITY LIMESTONE [CALC. FROM DENWS M=2.71, F=1.00]
DRESWS  .OHMM  : DEEP RESISTIVITY [ILDED]
DTED    .US/F  : DELTA-T FROM SONIC LOG
DTWS    .US/F  : COMPRESSIONAL SONIC [DTED]
GRDED   .GAPI  : GAMMA RAY FROM DENSITY LOG
GRSED   .GAPI  : GAMMA RAY FROM SONIC LOG
GRWS    .GAPI  : GAMMA RAY [GRSED SPL. TO GRDED@3031M]
ILDED   .OHMM  : DEEP INDUCTION FROM RESISTIVITY LOG
ILMED   .OHMM  : MEDIUM INDUCTION FROM RESISTIVITY LOG
LL8ED   .OHMM  : LATEROLOG-8 FROM RESISTIVITY LOG
MRESWS  .OHMM  : MEDIUM RESISTIVITY [ILMED]
NPHILSED.V/V   : NEUTRON POROSITY  SANDSTONE FROM DENSITY LOG
NPHISSED.V/V   : NEUTRON POROSITY SANDSTONE FROM DENSITY LOG
NPOLSWS .V/V   : NEUTRON POROSITY LIMESTONE [NPHISSED MATRIX CONVERSION FOR LIMESTONE, SPL. TO NPHILSED @ 6545']
RHOBED  .G/C3  : BULK DENSITY FROM DENSITY LOG
SPRED   .MV    : SPONTANEOUS POTENTIAL FROM RESISTIVITY LOG
SPWS    .MV    : SPONTANEOUS POTENTIAL [BASELINE 0 MV,SPRED]
SRESWS  .OHMM  : SHALLOW EWSISTIVITY [LL8ED]
TENDED  .LBF   : TENSION FROM DENSITY LOG
TENSED  .LBF   : TENSION FROM SONIC LOG
~Params ----------------------------------------------------
PD  .                     GL : PERMANENT DATUM
EPD .FT               2869.5 : ELEVATION PERMANENT DATUM
LMF .                     KB : LOG MEASURED FROM
DAPD.FT                 14.5 : FEET ABOVE PERMANENT DATUM
EKB .FT                 2884 : KELLY BUSHING
EGL .FT               2869.5 : GROUND LEVEL
DATE.               04/28/76 : RUN DATE
RUN .                      1 : RUN NUMBER
DD  .FT                10415 : DEPTH DRILLER
DL  .FT                10422 : DEPTH LOGGER
BLI .FT                10416 : BOTTOM LOG INTERVAL
TLI .FT                 1107 : TOP LOG INTERVAL
CBD .FT                 1108 : CASING BOTTOM DRILLER
CBL .FT                 1107 : CASING BOTTOM LOGGER
BS  .IN                 8.75 : BIT SIZE
BSD .FT                10415 : BIT SIZE AT DEPTH
DFT .               GEL CHEM : DRILLING FLUID TYPE
DFD .                    9.4 : DRILLING FLUID DENSITY
DFV .                     72 : DRILLING FLUID VISCOSITY
DFPH.                   10.5 : DRILLING FLUID PH
DFL .                   10.8 : DRILLING FLUID LOSS
MSS .             CIRCULATED : MUD SAMPLE SOURCE
RMS .OHMM               1.66 : RESISTIVITY MUD SAMPLE
MST .DEGF                 60 : MUD SAMPLE TEMPERATURE
RMF .OHMM                1.2 : RESISTIVITY MUD FILTRATE SAMPLE
MFST.DEGF                 60 : MUD FILTRATE SAMPLE TEMPERATURE
RMB .OHMM               0.52 : RESISTIVITY MUD AT BHT
TCS .HRS                 3.5 : TIME CIRCULATED STOPPED
LUN .                   7691 : LOGGING UNIT NUMBER
LUL .                    EDM : LOGGING UNIT LOCATION
ENGI.   CROCKFORD KREZANOSKI : RECORDING ENGINEER
WITN.                   WONG : WITNESSED BY
CLNT.                A2DTECH : CLIENT CODE
ORIG.            2" 5" PRINT : ORIGIN OF DATA
UWI .       102102106218W500 : UNIQUE WELL ID
DICO. A2D Technologies, Inc. : DIGITIZING COMPANY
~Other -----------------------------------------------------
DIL-LL-BHC-CNL-FDC LOG RUN
SCH.- CNL(NPHI) USED FOR NEUTRON MATRIX CONVERSION
~ASCII -----------------------------------------------------
 1050.00000    -999.25    -999.25    -999.25    -999.25    -999.25    -999.25    -999.25    -999.25    -999.25    -999.25    -999.25    -999.25    -999.25    -999.25   34.36210   34.36210    -999.25    -999.25    -999.25    -999.25    -999.25    -999.25    -999.25    -999.25    -999.25    -999.25    -999.25    -999.25    -999.25
 1100.00000    -999.25    -999.25    -999.25    -999.25    -999.25    -999.25    -999.25    -999.25    -999.25    -999.25    -999.25    -999.25    -999.25    -999.25   39.38670   39.38670    -999.25    -999.25    -999.25    -999.25    -999.25    -999.25    -999.25    -999.25    -999.25    -999.25    -999.25    -999.25    -999.25
 1150.00000    -999.25    9.54580    9.54580  122.63920    -999.25    -999.25    -999.25    -999.25    -999.25    -999.25    8.15400   87.49360   87.49360    -999.25   46.65350   46.65350    8.15400    6.67670    5.72630    6.67670    -999.25    -999.25    -999.25    -999.25  -54.18930   -4.21440    5.72630    -999.25 1477.62740
 1200.00000    -999.25    9.80060    9.80060  185.38190    -999.25    -999.25    -999.25    -999.25    -999.25    -999.25    5.39550  102.85020  102.85020    -999.25   79.84260   79.84260    5.39550    4.64980    4.55400    4.64980    -999.25    -999.25    -999.25    -999.25  -55.55100   -5.13650    4.55400    -999.25 1475.00640
 1250.00000    -999.25    9.80380    9.80380   67.15960    -999.25    -999.25    -999.25    -999.25    -999.25    -999.25   14.88990  100.68680  100.68680    -999.25   49.16370   49.16370   14.88990   12.99550   12.56430   12.99550    -999.25    -999.25    -999.25    -999.25  -57.12970   -6.27840   12.56430    -999.25  980.63990
 1300.00000    -999.25    9.78310    9.78310  175.82420    -999.25    -999.25    -999.25    -999.25    -999.25    -999.25    5.68750  102.94260  102.94260    -999.25   71.44700   71.44700    5.68750    6.25130    6.46280    6.25130    -999.25    -999.25    -999.25    -999.25  -56.31650   -5.02840    6.46280    -999.25 1216.12850
 1350.00000    -999.25   10.06780   10.06780  299.02520    -999.25    -999.25    -999.25    -999.25    -999.25    -999.25    3.34420  137.95820  137.95820    -999.25   64.05960   64.05960    3.34420    2.72780    4.02670    2.72780    -999.25    -999.25    -999.25    -999.25  -57.78220   -6.05440    4.02670    -999.25 1230.68460
 1400.00000    -999.25    9.78910    9.78910  215.69390    -999.25    -999.25    -999.25    -999.25    -999.25    -999.25    4.63620  105.90360  105.90360    -999.25   67.91060   67.91060    4.63620    4.08900    3.91280    4.08900    -999.25    -999.25    -999.25    -999.25  -58.18650   -6.02190    3.91280    -999.25 1298.85760
 1450.00000    -999.25    9.89670    9.89670  154.38370    -999.25    -999.25    -999.25    -999.25    -999.25    -999.25    6.47780   99.12050   99.12050    -999.25   70.05170   70.05170    6.47780    5.92960    6.80150    5.92960    -999.25    -999.25    -999.25    -999.25  -57.29690   -4.69260    6.80150    -999.25 1483.34600
 1500.00000    -999.25    9.73950    9.73950  185.65960    -999.25    -999.25    -999.25    -999.25    -999.25    -999.25    5.38620  104.93230  104.93230    -999.25   73.17090   73.17090    5.38620    4.70350    4.68110    4.70350    -999.25    -999.25    -999.25    -999.25  -56.42850   -3.16050    4.68110    -999.25 1607.68450
 1550.00000    -999.25    9.80310    9.80310  172.86680    -999.25    -999.25    -999.25    -999.25    -999.25    -999.25    5.78480  104.00330  104.00330    -999.25   69.17170   69.17170    5.78480    4.58630    4.07730    4.58630    -999.25    -999.25    -999.25    -999.25  -57.95680   -3.96930    4.07730    -999.25 1714.17690
 1600.00000    -999.25    9.70220    9.70220  266.03530    -999.25    -999.25    -999.25    -999.25    -999.25    -999.25    3.75890  103.85740  103.85740    -999.25   83.13480   83.13480    3.75890    3.14520    3.26520    3.14520    -999.25    -999.25    -999.25    -999.25  -57.22490   -3.20160    3.26520    -999.25 1086.83660
 1650.00000    -999.25    9.75700    9.75700  176.51630    -999.25    -999.25    -999.25    -999.25    -999.25    -999.25    5.66520  111.28670  111.28670    -999.25   79.20370   79.20370    5.66520    5.09120    5.98290    5.09120    -999.25    -999.25    -999.25    -999.25  -60.25440   -6.45430    5.98290    -999.25  997.20430
 1700.00000    -999.25    9.86680    9.86680  245.95790    -999.25    -999.25    -999.25    -999.25    -999.25    -999.25    4.06570  110.91310  110.91310    -999.25   80.24560   80.24560    4.06570    3.49320    3.84220    3.49320    -999.25    -999.25    -999.25    -999.25  -57.30400   -3.72860    3.84220    -999.25 1287.73380
 1750.00000    -999.25   10.05080   10.05080  191.49380    -999.25    -999.25    -999.25    -999.25    -999.25    -999.25    5.22210  139.81280  139.81280    -999.25   69.84170   69.84170    5.22210    6.96070    9.78810    6.96070    -999.25    -999.25    -999.25    -999.25  -56.34070   -2.98840    9.78810    -999.25 1013.11600
 1800.00000    -999.25   10.17430   10.17430  211.55070    -999.25    -999.25    -999.25    -999.25    -999.25    -999.25    4.72700  121.75060  121.75060    -999.25   82.79340   82.79340    4.72700    4.86660    7.87270    4.86660    -999.25    -999.25    -999.25    -999.25  -57.28730   -4.15820    7.87270    -999.25 1190.72950
 1850.00000    -999.25    9.90820    9.90820  163.03370    -999.25    -999.25    -999.25    -999.25    -999.25    -999.25    6.13370  104.24570  104.24570    -999.25   74.40390   74.40390    6.13370    5.77750    5.39250    5.77750    -999.25    -999.25    -999.25    -999.25  -56.83230   -3.92790    5.39250    -999.25 1518.74970
 1900.00000    -999.25    9.85910    9.85910  120.65930    -999.25    -999.25    -999.25    -999.25    -999.25    -999.25    8.28780   91.30910   91.30910    -999.25   67.39760   67.39760    8.28780    6.67010    5.91860    6.67010    -999.25    -999.25    -999.25    -999.25  -56.88770   -4.20650    5.91860    -999.25  773.46270
 1950.00000    -999.25   10.15810   10.15810  210.38260    -999.25    -999.25    -999.25    -999.25    -999.25    -999.25    4.75450  127.34400  127.34400    -999.25   82.07610   82.07610    4.75450    3.84910    4.11170    3.84910    -999.25    -999.25    -999.25    -999.25  -57.93000   -5.47340    4.11170    -999.25  768.59960
 2000.00000    -999.25   10.19470   10.19470  413.89020    -999.25    -999.25    -999.25    -999.25    -999.25    -999.25    2.41610  123.50900  123.50900    -999.25   74.84660   74.84660    2.41610    2.73080    5.04300    2.73080    -999.25    -999.25    -999.25    -999.25  -57.69420   -5.46090    5.04300    -999.25 1184.84080
 2050.00000    -999.25   10.50210   10.50210  269.25150    -999.25    -999.25    -999.25    -999.25    -999.25    -999.25    3.71400  105.27000  105.27000    -999.25   81.92960   81.92960    3.71400    3.22480    3.41680    3.22480    -999.25    -999.25    -999.25    -999.25  -57.55760   -5.54750    3.41680    -999.25  829.43330
 2100.00000    -999.25    9.20480    9.20480  125.51300    -999.25    -999.25    -999.25    -999.25    -999.25    -999.25    7.96730   91.21430   91.21430    -999.25   61.01990   61.01990    7.96730    7.24580    6.41930    7.24580    -999.25    -999.25    -999.25    -999.25  -53.92190   -1.97930    6.41930    -999.25 1267.87020
 2150.00000    -999.25    9.48270    9.48270  256.70650    -999.25    -999.25    -999.25    -999.25    -999.25    -999.25    3.89550  100.43480  100.43480    -999.25   82.63300   82.63300    3.89550    3.44170    3.33640    3.44170    -999.25    -999.25    -999.25    -999.25  -54.70510   -2.76250    3.33640    -999.25 1325.12570
 2200.00000    -999.25    9.88200    9.88200  213.56430    -999.25    -999.25    -999.25    -999.25    -999.25    -999.25    4.70070   98.72210   98.72210    -999.25   53.75870   53.75870    4.70070    4.05900    3.54470    4.05900    -999.25    -999.25    -999.25    -999.25  -56.06720   -4.12460    3.54470    -999.25 1406.75640
 2250.00000    -999.25    9.76840    9.76840  231.81960    -999.25    -999.25    -999.25    -999.25    -999.25    -999.25    4.31370   96.50180   96.50180    -999.25   75.33440   75.33440    4.31370    3.88920    3.79640    3.88920    -999.25    -999.25    -999.25    -999.25  -54.95280   -3.01020    3.79640    -999.25 1671.05870
