~Version ---------------------------------------------------
VERS.      2.0 : CWLS log ASCII Standard -VERSION 2.0
WRAP.       NO : One line per depth step
CREA. 10/27/17 : LAS Creation Date
~Well ------------------------------------------------------
STRT.FT                              1150.0 : START DEPTH
STOP.FT                             12400.0 : STOP DEPTH
STEP.FT                            50.00000 : STEP LENGTH
NULL.                               -999.25 : NULL VALUE
COMP. HUDSONS BAY OIL & GAS COMPANY LIMITED : COMPANY
WELL.        HB SHELL SIMONETTE 13-23-63-25 : WELL
FLD .                                       : FIELD
LOC .                                       : LOCATION
CTRY.                                CANADA : COUNTRY
SRVC.                          Schlumberger : SERVICE COMPANY
DATE.                           12-Mar-1973 : LOGDATE
PROV.                               Alberta : PROVINCE
UWI .                      100132306325W500 : UNIQUE WELL ID
SLAT.WGS84                            54.47 : SURFACE LATITUDE
SLON.WGS84                        -117.6781 : SURFACE LONGITUDE
~Curve Information -----------------------------------------
DEPT   .FT    : Depth Curve
ASNED  .OHMM  : AMPLIFIED SHORT NORMAL RESISTIVITY FROM IEL LOG [ADJ. TO DIL LOG]
CALSED .IN    : CALIPER FROM SONIC LOG
CALWS  .IN    : CALIPER [CALSED]
CILD1ED.MMHO  : CONDUCTIVITY FROM IEL LOG [ADJ. TO DIL LOG]
CILDED .MMHO  : CONDUCTIVITY FROM DIL LOG
CONDWS .MMHO  : CONDUCTIVITY [1000/DRESWS]
DRESWS .OHMM  : DEEP RESISTIVITY [SPLICED ILDED/ILD1ED AT 1737/3618] [FROM TOP TO 1737 IF ILDED<5;1000/CILDED;ELSE ILDED/ILD1ED<1;1000/CILD1ED;ELSED ILD1ED]
DTED   .US/F  : DELTA TIME FROM SONIC LOG [DEPTH ADJ TO RESISTIVITY LOG]
DTWS   .US/F  : COMPRESSIONAL SONIC [DTED]
GRNED  .GAPI  : GAMMA RAY FROM GRN LOG
GRSED  .GAPI  : GAMMA RAY FROM SONIC LOG
GRWS   .GAPI  : GAMMA RAY [GRSED SPL.  TO GRNED @ 11962']
ILD1ED .OHMM  : DEEP INDUCTION RESISTIVITY  FROM IEL LOG [ADJ. TO DIL LOG]
ILDED  .OHMM  : DEEP  INDUCTION RESISTIVITY FROM DIL LOG
ILMED  .OHMM  : MEDIUM INDUCTION RESISTIVITY FROM DIL LOG
LL8ED  .OHMM  : LATEROLOG 8 FROM DIL LOG
MRESWS .OHMM  : MEDIUM RESISTIVITY [ILMED]
NEUTED .NAPI  : NEUTRON FROM GRN LOG [DEPTH ADJ TO RESISTIVITY LOG]
NEUTWS .NAPI  : NEUTRON [NEUTED]
SPED   .MV    : SPONTANEOUS POTENTIAL [SPRED SPL. TO SPR1ED @ 11990']
SPR1ED .MV    : SPONTANEOUS POTENTIAL FROM IEL LOG [ADJ. TO DIL LOG]
SPRED  .MV    : SPONTANEOUS POTENTIAL FROM DIL LOG
SPWS   .MV    : SPONTANEOUS POTENIAL [BASELINE 0 MV, SPRED]
SRESWS .OHMM  : SHALLOW RESISTIVITY [LL8ED SPL. TO ASNED @ 11946']
~Params ----------------------------------------------------
PD  .                     GL : PERMANENT DATUM
EPD .FT                 2976 : ELEVATION PERMANENT DATUM
LMF .                     KB : LOG MEASURED FROM
DAPD.FT                   21 : FEET ABOVE PERMANENT DATUM
EKB .FT                 2997 : KELLY BUSHING
EGL .FT                 2976 : GROUND LEVEL
DATE.             03/12/1973 : RUN DATE
RUN .                      1 : RUN NUMBER
DD  .FT                12400 : DEPTH DRILLER
DL  .FT                11435 : DEPTH LOGGER
BLI .FT                12434 : BOTTOM LOG INTERVAL
TLI .FT                11300 : TOP LOG INTERVAL
CS  .IN               13.375 : CASING SIZE
BS  .IN                 8.75 : BIT SIZE
BSD .FT                12434 : BIT SIZE AT DEPTH
DFT .              FRESH GEL : DRILLING FLUID TYPE
DFD .                    9.3 : DRILLING FLUID DENSITY
DFV .                    400 : DRILLING FLUID VISCOSITY
DFPH.                   10.5 : DRILLING FLUID PH
DFL .                    8.4 : DRILLING FLUID LOSS
RMB .OHMM                1.1 : RESISTIVITY MUD AT BHT
LUN .               7670 EDM : LOGGING UNIT NUMBER
ENGI.                 CALVIN : RECORDING ENGINEER
WITN.                FOGARTY : WITNESSED BY
CLNT.                A2DTECH : CLIENT CODE
ORIG.            2" 5' PRINT : ORIGIN OF DATA
UWI .       100132306325W500 : UNIQUE WELL ID
DICO. A2D Technologies, Inc. : DIGITIZING COMPANY
~Other -----------------------------------------------------
DIL-IEL-GRN-BCS LOG RUN
SUFFIX OF THE CURVES ARE NOT REMOVED DUE TO DIFFERENT TOOL. BUT THEY HAVE SAME MNEMONICS
~ASCII -----------------------------------------------------
# ...
 5500.00000    -999.25    9.26380    9.26380    -999.25   78.04810   72.82210   13.73210   97.60200   97.60200    -999.25  150.58860  150.58860    -999.25   13.73210    -999.25   22.56570    -999.25    -999.25    -999.25  -92.52360    -999.25 -103.52360   -3.12290   22.56570
 5550.00000    -999.25   10.16820   10.16820    -999.25   87.60980   82.93800   12.05720   79.08590   79.08590    -999.25   94.96750   94.96750    -999.25   12.05720    -999.25   14.10100    -999.25    -999.25    -999.25  -93.50420    -999.25 -104.50420   -3.98720   14.10100
 5600.00000    -999.25   10.07020   10.07020    -999.25   85.29930   83.13660   12.02840   73.79850   73.79850    -999.25   82.05980   82.05980    -999.25   12.02840    -999.25   13.30990    -999.25    -999.25    -999.25  -94.27840    -999.25 -105.27840   -4.64380   13.30990
 5650.00000    -999.25   11.09730   11.09730    -999.25  141.62850  127.63730    7.83470   88.74720   88.74720    -999.25  103.36750  103.36750    -999.25    7.83470    -999.25    9.02630    -999.25    -999.25    -999.25 -100.36080    -999.25 -111.36080  -10.60930    9.02630
 5700.00000    -999.25   10.00710   10.00710    -999.25    -999.25   62.56770   15.98270   73.84830   73.84830    -999.25   70.50760   70.50760    -999.25   15.98270   16.70140   23.32680   16.70140    -999.25    -999.25 -106.25940    -999.25 -117.25940  -16.39100   23.32680
 5750.00000    -999.25    9.87850    9.87850    -999.25    -999.25  123.46140    8.09970   83.23930   83.23930    -999.25  110.37310  110.37310    -999.25    8.09970    8.51140    9.83110    8.51140    -999.25    -999.25  -99.04420    -999.25 -110.04420   -9.05890    9.83110
 5800.00000    -999.25   12.62790   12.62790    -999.25    -999.25  152.15140    6.57240   83.42340   83.42340    -999.25   93.14960   93.14960    -999.25    6.57240    7.07770    8.37180    7.07770    -999.25    -999.25 -100.26870    -999.25 -111.26870  -10.16700    8.37180
 5850.00000    -999.25   10.58370   10.58370    -999.25    -999.25  158.86890    6.29450   84.03050   84.03050    -999.25  100.37520  100.37520    -999.25    6.29450    6.63510    8.36290    6.63510    -999.25    -999.25  -99.89500    -999.25 -110.89500   -9.67590    8.36290
 5900.00000    -999.25   10.40230   10.40230    -999.25    -999.25  123.47360    8.09890   78.68550   78.68550    -999.25  111.67150  111.67150    -999.25    8.09890    8.52550   10.56450    8.52550    -999.25    -999.25  -96.98070    -999.25 -107.98070   -6.64470   10.56450
 5950.00000    -999.25   10.81280   10.81280    -999.25    -999.25  173.73780    5.75580   84.57690   84.57690    -999.25  112.78920  112.78920    -999.25    5.75580    5.99360    7.43770    5.99360    -999.25    -999.25  -95.93140    -999.25 -106.93140   -5.47850    7.43770
 6000.00000    -999.25    9.78790    9.78790    -999.25    -999.25  139.44280    7.17140   82.90280   82.90280    -999.25  102.14890  102.14890    -999.25    7.17140    7.62390    9.53620    7.62390    -999.25    -999.25  -95.67110    -999.25 -106.67110   -5.10120    9.53620
 6050.00000    -999.25    9.99800    9.99800    -999.25    -999.25  264.63430    3.77880   94.44080   94.44080    -999.25  124.38860  124.38860    -999.25    3.77880    3.54990    4.94260    3.54990    -999.25    -999.25  -96.00670    -999.25 -107.00670   -5.91190    4.94260
 6100.00000    -999.25    8.62440    8.62440    -999.25    -999.25  207.61960    4.81650   91.52490   91.52490    -999.25  114.35890  114.35890    -999.25    4.81650    4.41840    5.54360    4.41840    -999.25    -999.25  -95.38160    -999.25 -106.38160   -5.89840    5.54360
 6150.00000    -999.25    9.52570    9.52570    -999.25    -999.25  196.95900    5.07720   87.28890   87.28890    -999.25  109.78620  109.78620    -999.25    5.07720    4.87430    6.39860    4.87430    -999.25    -999.25  -91.14910    -999.25 -102.14910   -2.27450    6.39860
 6200.00000    -999.25   11.04890   11.04890    -999.25    -999.25  188.87880    5.29440   84.69890   84.69890    -999.25  100.59390  100.59390    -999.25    5.29440    5.72310    7.49750    5.72310    -999.25    -999.25  -91.68860    -999.25 -102.68860   -3.42260    7.49750
 6250.00000    -999.25   10.63370   10.63370    -999.25    -999.25  174.24030    5.73920   82.51530   82.51530    -999.25  103.40280  103.40280    -999.25    5.73920    6.01190    8.05010    6.01190    -999.25    -999.25  -91.60540    -999.25 -102.60540   -3.80830    8.05010
 6300.00000    -999.25    8.62540    8.62540    -999.25    -999.25   54.43630   18.37010   77.14800   77.14800    -999.25   27.52510   27.52510    -999.25   18.37010   19.58290   23.48610   19.58290    -999.25    -999.25 -126.81670    -999.25 -137.81670  -39.44920   23.48610
 6350.00000    -999.25    8.65850    8.65850    -999.25    -999.25   67.10190   14.90270   79.08500   79.08500    -999.25   47.84220   47.84220    -999.25   14.90270   15.78450   19.57280   15.78450    -999.25    -999.25 -138.28580    -999.25 -149.28580  -51.35230   19.57280
 6400.00000    -999.25    9.63310    9.63310    -999.25    -999.25   90.00740   11.11020   77.18830   77.18830    -999.25   94.23060   94.23060    -999.25   11.11020   12.50170   14.00460   12.50170    -999.25    -999.25  -94.62080    -999.25 -105.62080   -8.11910   14.00460
 6450.00000    -999.25    9.48380    9.48380    -999.25    -999.25   58.84330   16.99430   68.09320   68.09320    -999.25   80.69330   80.69330    -999.25   16.99430   18.35110   22.97710   18.35110    -999.25    -999.25  -89.92800    -999.25 -100.92800   -3.85810   22.97710
 6500.00000    -999.25    9.94590    9.94590    -999.25    -999.25  165.07640    6.05780   74.99600   74.99600    -999.25   81.07200   81.07200    -999.25    6.05780    6.62970    8.83320    6.62970    -999.25    -999.25  -92.40190    -999.25 -103.40190   -6.62350    8.83320
 6550.00000    -999.25    9.85630    9.85630    -999.25    -999.25   93.91960   10.64740   73.10950   73.10950    -999.25   80.82860   80.82860    -999.25   10.64740   12.13160   16.40990   12.13160    -999.25    -999.25  -91.33820    -999.25 -102.33820   -4.72020   16.40990
 6600.00000    -999.25    9.88890    9.88890    -999.25    -999.25   43.67900   22.89430  110.35640  110.35640    -999.25   42.76760   42.76760    -999.25   22.89430   34.01940  115.96330   34.01940    -999.25    -999.25  -99.98490    -999.25 -110.98490  -12.51890  115.96330
 6650.00000    -999.25    8.84400    8.84400    -999.25    -999.25   74.65470   13.39500   73.23400   73.23400    -999.25   62.15180   62.15180    -999.25   13.39500   14.28760   19.81980   14.28760    -999.25    -999.25 -118.13500    -999.25 -129.13500  -29.82520   19.81980
 6700.00000    -999.25   10.47030   10.47030    -999.25    -999.25   80.27160   12.45770   71.94090   71.94090    -999.25   84.86010   84.86010    -999.25   12.45770   21.24160   29.88450   21.24160    -999.25    -999.25  -99.10900    -999.25 -110.10900   -9.95540   29.88450
 6750.00000    -999.25    9.36400    9.36400    -999.25    -999.25   72.62800   13.76880   69.62750   69.62750    -999.25   76.56260   76.56260    -999.25   13.76880   15.19430   20.93630   15.19430    -999.25    -999.25  -97.46510    -999.25 -108.46510   -9.84000   20.93630
 6800.00000    -999.25    9.36760    9.36760    -999.25    -999.25   62.79750   15.92420   70.21500   70.21500    -999.25   74.88470   74.88470    -999.25   15.92420   17.05870   21.78300   17.05870    -999.25    -999.25  -98.59400    -999.25 -109.59400  -13.27650   21.78300
 6850.00000    -999.25   10.27720   10.27720    -999.25    -999.25   31.28310   31.96610  129.93330  129.93330    -999.25   44.94640   44.94640    -999.25   31.96610   19.23930  336.65310   19.23930    -999.25    -999.25  -92.67320    -999.25 -103.67320   -9.68660  336.65310
 6900.00000    -999.25    9.24230    9.24230    -999.25    -999.25   54.67710   18.28920   71.32940   71.32940    -999.25   83.96750   83.96750    -999.25   18.28920   19.82610   26.73780   19.82610    -999.25    -999.25  -83.74850    -999.25  -94.74850   -3.08120   26.73780
