~Version ---------------------------------------------------
VERS.      2.0 : CWLS log ASCII Standard -VERSION 2.0
WRAP.       NO : One line per depth step
CREA. 01/05/18 : LAS Creation Date
~Well ------------------------------------------------------
STRT.FT                              300.0 : START DEPTH
STOP.FT                            15450.0 : STOP DEPTH
STEP.FT                           50.00000 : STEP LENGTH
NULL.                              -999.25 : NULL VALUE
COMP.                        BANFF OIL LTD : COMPANY
WELL. BANFF AQUIT CHIEFCO WAWA 11-20-42-13 : WELL
FLD .                                      : FIELD
LOC .                                      : LOCATION
CTRY.                               CANADA : COUNTRY
SRVC.               Schlumberger of Canada : SERVICE COMPANY
DATE.                          07-Apr-1970 : LOGDATE
PROV.                              Alberta : PROVINCE
UWI .                     100112004213W500 : UNIQUE WELL ID
SLAT.WGS84                        52.63304 : SURFACE LATITUDE
SLON.WGS84                       -115.8375 : SURFACE LONGITUDE
~Curve Information -----------------------------------------
DEPT    .FT    : Depth Curve
CALDED  .IN    : CALIPER FROM DENSITY LOG [ADJ. TO RESISTIVITY LOG]
CALNED  .IN    : CALIPER FROM SNP LOG [ADJ. TO RESISTIVITY LOG]
CALSED  .IN    : CALIPER FROM SONIC LOG [ADJ. TO RESISTIVITY LOG]
CALWS   .IN    : CALIPER [CALSED]
CONDWS  .MMHO  : CONDUCTIVITY [1000/DRESWS]
CORRED  .G/C3  : DENSITY CORRECTION FROM DENSITY LOG [ADJ. TO RESISTIVITY LOG]
DCORWS  .G/C3  : DENSITY CORRECTION [CORRED]
DENWS   .G/C3  : FORMATION BULK DENSITY [RHOBED]
DPHILSED.V/V   : DENSITY POROSITY LIMESTONE FROM DENSITY LOG [ADJ. TO RESISTIVITY LOG]
DPOLSWS .V/V   : DENSITY POROSITY LIMESTONE [CALC. FROM DENWS, M=2.71 F=1.00]
DRESWS  .OHMM  : DEEP RESISTIVITY [ILDED]
DTED    .US/F  : DELTA T FROM SONIC LOG [ADJ. TO RESISTIVITY LOG]
DTWS    .US/F  : COMPRESSIONAL SONIC [DTED]
GRDED   .GAPI  : GAMMA RAY FROM DENSITY LOG [ADJ. TO RESISTIVITY LOG]
GRDRED  .GAPI  : GAMMA RAY (REPEAT) FROM DENSITY LOG
GRNED   .GAPI  : GAMMA RAY FROM SNP LOG [ADJ. TO RESISTIVITY LOG]
GRSED   .GAPI  : GAMMA RAY FROM SONIC LOG [ADJ. TO RESISTIVITY LOG]
GRWS    .GAPI  : GAMMA RAY [GRSED]
ILDED   .OHMM  : DEEP INDUCTION RESISTIVITY FROM RESISTIVITY LOG
ILMED   .OHMM  : MEDIUM INDUCTION RESISTIVITY FROM RESISTIVITY LOG
ILMRED  .OHMM  : MEDIUM INDUCTION RESISTIVITY(REPEAT) FROM RESISTIVITY LOG [ADJ. TO ILDED]
LL8ED   .OHMM  : LATEROLOG 8 RESISTIVITY FROM RESISTIVITY LOG
MRESWS  .OHMM  : MEDIUM RESISTIVITY [ILMED SPL. TO ILMRED @ 15233']
NPOLSWS .V/V   : NEUTRON POROSITY LIMESTONE [SNPLSED]
RHOBED  .G/C3  : BULK DENSITY FROM DENSITY LOG [ADJ. TO RESISTIVITY LOG]
SNPLSED .V/V   : SIDEWALL NEUTRON POROSITY LIMESTONE FROM SNP LOG [ADJ. TO RESISTIVITY LOG]
SPRED   .MV    : SPONTANEOUS POTENTIAL FROM RESISTIVITY LOG
SPRRED  .MV    : SPONTANEOUS POTENTIAL(REPEAT) FROM RESISTIVITY LOG [ADJ. TO ILDED]
SPWS    .MV    : SPONTANEOUS POTENTIAL [BASELINE 0 MV, SPRED SPL. TO SPRRED @ 15223']
SRESWS  .OHMM  : SHALLOW RESISTIVITY [LL8ED]
~Params ----------------------------------------------------
PD  .                     GL : PERMANENT DATUM
EPD .FT                 4345 : ELEVATION PERMANENT DATUM
LMF .                     KB : LOG MEASURED FROM
DAPD.FT                   14 : FEET ABOVE PERMANENT DATUM
EKB .FT                 4359 : KELLY BUSHING
EGL .FT                 4345 : GROUND LEVEL
DATE.               06/04/70 : RUN DATE
RUN .                      3 : RUN NUMBER
DD  .FT                15476 : DEPTH DRILLER
DL  .FT                15473 : DEPTH LOGGER
BLI .FT                15471 : BOTTOM LOG INTERVAL
TLI .FT                14327 : TOP LOG INTERVAL
CBD .FT                12360 : CASING BOTTOM DRILLER
CBL .FT                12355 : CASING BOTTOM LOGGER
BS  .IN                    6 : BIT SIZE
BSD .FT                15476 : BIT SIZE AT DEPTH
DFT .               GEL CHEM : DRILLING FLUID TYPE
DFD .                    8.9 : DRILLING FLUID DENSITY
DFV .                     47 : DRILLING FLUID VISCOSITY
DFPH.                     11 : DRILLING FLUID PH
DFL .                   12.4 : DRILLING FLUID LOSS
MSS .               FLOWLINE : MUD SAMPLE SOURCE
RMS .OHMM               2.62 : RESISTIVITY MUD SAMPLE
TCS .HRS                   4 : TIME CIRCULATED STOPPED
LUN .                  CSU C : LOGGING UNIT NUMBER
LUL .                 364 RD : LOGGING UNIT LOCATION
ENGI.                 MEGSON : RECORDING ENGINEER
WITN.                BRINKER : WITNESSED BY
CLNT.                A2DTECH : CLIENT CODE
ORIG.        2" 5" 10" PRINT : ORIGIN OF DATA
UWI .       100112004213W500 : UNIQUE WELL ID
DICO. A2D Technologies, Inc. : DIGITIZING COMPANY
~Other -----------------------------------------------------
~ASCII -----------------------------------------------------
# ...
 8700.00000    -999.25    -999.25    9.57800    9.57800   72.14850    -999.25    -999.25    -999.25    -999.25    -999.25   13.86030   82.62580   82.62580    -999.25    -999.25    -999.25   82.70610   82.70610   13.86030   15.51450    -999.25   17.76880   15.51450    -999.25    -999.25    -999.25 -684.48490    -999.25  -20.06110   17.76880
 8750.00000    -999.25    -999.25    9.30110    9.30110  113.98870    -999.25    -999.25    -999.25    -999.25    -999.25    8.77280   78.00830   78.00830    -999.25    -999.25    -999.25   82.97930   82.97930    8.77280    9.10380    -999.25   10.60590    9.10380    -999.25    -999.25    -999.25 -685.06940    -999.25  -21.21650   10.60590
 8800.00000    -999.25    -999.25    9.57270    9.57270  115.49640    -999.25    -999.25    -999.25    -999.25    -999.25    8.65860   79.16630   79.16630    -999.25    -999.25    -999.25   87.30740   87.30740    8.65860    9.07300    -999.25    9.42910    9.07300    -999.25    -999.25    -999.25 -687.05730    -999.25  -23.77280    9.42910
 8850.00000    -999.25    -999.25    9.82240    9.82240  141.38470    -999.25    -999.25    -999.25    -999.25    -999.25    7.07290   83.44650   83.44650    -999.25    -999.25    -999.25   81.50550   81.50550    7.07290    7.45250    -999.25    7.77830    7.45250    -999.25    -999.25    -999.25 -685.93750    -999.25  -23.22690    7.77830
 8900.00000    -999.25    -999.25    9.63850    9.63850  143.35680    -999.25    -999.25    -999.25    -999.25    -999.25    6.97560   80.04750   80.04750    -999.25    -999.25    -999.25   79.78400   79.78400    6.97560    7.18900    -999.25    7.90450    7.18900    -999.25    -999.25    -999.25 -682.94610    -999.25  -20.80640    7.90450
 8950.00000    -999.25    -999.25    9.76060    9.76060  144.45020    -999.25    -999.25    -999.25    -999.25    -999.25    6.92280   79.24040   79.24040    -999.25    -999.25    -999.25   85.67120   85.67120    6.92280    7.51710    -999.25    8.19680    7.51710    -999.25    -999.25    -999.25 -683.63030    -999.25  -22.06190    8.19680
 9000.00000    -999.25    -999.25    9.61020    9.61020  168.70800    -999.25    -999.25    -999.25    -999.25    -999.25    5.92740   79.65600   79.65600    -999.25    -999.25    -999.25   79.11550   79.11550    5.92740    6.28390    -999.25    7.45440    6.28390    -999.25    -999.25    -999.25 -681.81360    -999.25  -20.81610    7.45440
 9050.00000    -999.25    -999.25    9.98660    9.98660  173.39890    -999.25    -999.25    -999.25    -999.25    -999.25    5.76710   83.35390   83.35390    -999.25    -999.25    -999.25   85.24070   85.24070    5.76710    6.17570    -999.25    6.52920    6.17570    -999.25    -999.25    -999.25 -679.12450    -999.25  -18.69540    6.52920
 9100.00000    -999.25    -999.25    9.25440    9.25440   86.07190    -999.25    -999.25    -999.25    -999.25    -999.25   11.61820   74.43070   74.43070    -999.25    -999.25    -999.25   79.36010   79.36010   11.61820   13.06620    -999.25   11.95350   13.06620    -999.25    -999.25    -999.25 -684.25530    -999.25  -24.40010   11.95350
 9150.00000    -999.25    -999.25    9.99160    9.99160  175.14980    -999.25    -999.25    -999.25    -999.25    -999.25    5.70940   83.13080   83.13080    -999.25    -999.25    -999.25   87.61600   87.61600    5.70940    6.12850    -999.25    6.69710    6.12850    -999.25    -999.25    -999.25 -679.44550    -999.25  -20.16130    6.69710
 9200.00000    -999.25    -999.25    9.75140    9.75140  126.82790    -999.25    -999.25    -999.25    -999.25    -999.25    7.88470   78.52340   78.52340    -999.25    -999.25    -999.25   85.95580   85.95580    7.88470    8.81080    -999.25    9.12130    8.81080    -999.25    -999.25    -999.25 -676.44540    -999.25  -17.73240    9.12130
 9250.00000    -999.25    -999.25    8.95230    8.95230  133.20370    -999.25    -999.25    -999.25    -999.25    -999.25    7.50730   79.71320   79.71320    -999.25    -999.25    -999.25   85.98460   85.98460    7.50730    8.30000    -999.25    9.31310    8.30000    -999.25    -999.25    -999.25 -680.39370    -999.25  -22.25180    9.31310
 9300.00000    -999.25    -999.25    9.41280    9.41280  185.24370    -999.25    -999.25    -999.25    -999.25    -999.25    5.39840   85.12480   85.12480    -999.25    -999.25    -999.25   88.82370   88.82370    5.39840    6.02760    -999.25    6.41020    6.02760    -999.25    -999.25    -999.25 -674.32990    -999.25  -16.75620    6.41020
 9350.00000    -999.25    -999.25    9.41760    9.41760  190.20810    -999.25    -999.25    -999.25    -999.25    -999.25    5.25740   83.46750   83.46750    -999.25    -999.25    -999.25   85.94220   85.94220    5.25740    5.84720    -999.25    6.49970    5.84720    -999.25    -999.25    -999.25 -675.08200    -999.25  -18.08230    6.49970
 9400.00000    -999.25    -999.25    9.09240    9.09240   84.64820    -999.25    -999.25    -999.25    -999.25    -999.25   11.81360   71.57400   71.57400    -999.25    -999.25    -999.25   74.04490   74.04490   11.81360   12.39990    -999.25   13.53990   12.39990    -999.25    -999.25    -999.25 -674.29020    -999.25  -17.86140   13.53990
 9450.00000    -999.25    -999.25    9.28180    9.28180  131.89310    -999.25    -999.25    -999.25    -999.25    -999.25    7.58190   74.88170   74.88170    -999.25    -999.25    -999.25   81.25690   81.25690    7.58190    8.13660    -999.25    8.86440    8.13660    -999.25    -999.25    -999.25 -674.35570    -999.25  -18.49820    8.86440
 9500.00000    -999.25    -999.25    8.73660    8.73660   57.38750    -999.25    -999.25    -999.25    -999.25    -999.25   17.42540   65.09750   65.09750    -999.25    -999.25    -999.25   47.92510   47.92510   17.42540   19.14200    -999.25   20.30010   19.14200    -999.25    -999.25    -999.25 -675.28440    -999.25  -19.99790   20.30010
 9550.00000    -999.25    -999.25    9.15960    9.15960  125.50110    -999.25    -999.25    -999.25    -999.25    -999.25    7.96810   75.73370   75.73370    -999.25    -999.25    -999.25   77.63200   77.63200    7.96810    8.52800    -999.25    9.09870    8.52800    -999.25    -999.25    -999.25 -671.21740    -999.25  -16.49920    9.09870
 9600.00000    -999.25    -999.25    8.86130    8.86130  101.93580    -999.25    -999.25    -999.25    -999.25    -999.25    9.81010   76.84230   76.84230    -999.25    -999.25    -999.25   79.75110   79.75110    9.81010   10.76820    -999.25   12.66830   10.76820    -999.25    -999.25    -999.25 -669.36110    -999.25  -15.21680   12.66830
 9650.00000    -999.25    -999.25    9.49640    9.49640  124.00330    -999.25    -999.25    -999.25    -999.25    -999.25    8.06430   77.44810   77.44810    -999.25    -999.25    -999.25   87.07900   87.07900    8.06430    8.69570    -999.25    9.52710    8.69570    -999.25    -999.25    -999.25 -667.34630    -999.25  -13.77300    9.52710
 9700.00000    -999.25    -999.25    9.37520    9.37520  129.07890    -999.25    -999.25    -999.25    -999.25    -999.25    7.74720   78.06180   78.06180    -999.25    -999.25    -999.25   84.19220   84.19220    7.74720    8.43810    -999.25    9.12550    8.43810    -999.25    -999.25    -999.25 -665.36640    -999.25  -12.36440    9.12550
 9750.00000    -999.25    -999.25    9.52250    9.52250  122.77020    -999.25    -999.25    -999.25    -999.25    -999.25    8.14530   78.06970   78.06970    -999.25    -999.25    -999.25   81.81620   81.81620    8.14530    7.72380    -999.25    7.36330    7.72380    -999.25    -999.25    -999.25 -670.53540    -999.25  -18.10430    7.36330
 9800.00000    -999.25    -999.25    9.41950    9.41950  111.68130    -999.25    -999.25    -999.25    -999.25    -999.25    8.95420   79.67180   79.67180    -999.25    -999.25    -999.25   89.99990   89.99990    8.95420    7.72400    -999.25   10.31160    7.72400    -999.25    -999.25    -999.25 -660.97860    -999.25   -9.11580   10.31160
 9850.00000    -999.25    -999.25   11.11920   11.11920  164.02590    -999.25    -999.25    -999.25    -999.25    -999.25    6.09660   91.91210   91.91210    -999.25    -999.25    -999.25   80.45740   80.45740    6.09660    5.76730    -999.25    6.77800    5.76730    -999.25    -999.25    -999.25 -656.43070    -999.25   -5.14180    6.77800
