~Version ---------------------------------------------------
VERS.      2.0 : CWLS log ASCII Standard -VERSION 2.0
WRAP.       NO : One line per depth step
CREA. 10/24/17 : LAS Creation Date
~Well ------------------------------------------------------
STRT.FT                         1250.0 : START DEPTH
STOP.FT                        11000.0 : STOP DEPTH
STEP.FT                       50.00000 : STEP LENGTH
NULL.                          -999.25 : NULL VALUE
COMP.             MOBIL OIL CANADA LTD : COMPANY
WELL. MOBIL ET AL ROSEVEAR 10-19-53-14 : WELL
FLD .                                  : FIELD
LOC .                                  : LOCATION
CTRY.                           CANADA : COUNTRY
SRVC.                     Schlumberger : SERVICE COMPANY
DATE.                      04-Mar-1978 : LOGDATE
PROV.                          Alberta : PROVINCE
UWI .                 100101905314W500 : UNIQUE WELL ID
SLAT.WGS84                    53.59265 : SURFACE LATITUDE
SLON.WGS84                   -116.0472 : SURFACE LONGITUDE
~Curve Information -----------------------------------------
DEPT    .FT    : Depth Curve
CALDED  .IN    : CALIPER FROM DENSITY LOG
CALWS   .IN    : CALIPER [CALDED]
CONDWS  .MMHO  : CONDUCTIVITY [1000/DRESWS]
DCORWS  .G/C3  : DENSITY CORRECTION [DRHOED]
DENWS   .G/C3  : BULK DENSITY [M=2.71, F=1.00] [RHOBED]
DPHILSED.V/V   : DENSITY POROSITY [M=2.71, F=1.00] FROM DENSITY LOG
DPHISSED.V/V   : DENSITY POROSITY [M=2650 F=1000] FROM DENSITY LOG
DPOLSWS .V/V   : DENSITY POROSITY [M=2.71, F=1.00] [CAL. FROM DENWS]
DRESWS  .OHMM  : DEEP RESISTIVITY [ILDED]
DRHOED  .G/C3  : DENSITY CORRECTION FROM DENSITY LOG
DTED    .US/F  : DELTA TIME FROM SONIC LOG
DTWS    .US/F  : DELTA TIME [DTED]
GRDED   .GAPI  : GAMMA RAY FROM DENSITY LOG
GRWS    .GAPI  : GAMMA RAY [GRDED]
ILDED   .OHMM  : INDUCTION LOG DEEP RESISTIVITY
ILMED   .OHMM  : INDUCTION LOG MEDIUM RESISTIVITY
LL8ED   .OHMM  : 8 INCH LATEROLOG RESISTIVITY
MRESWS  .OHMM  : MEDIUM RESISTIVITY [ILMED]
NPHILSED.V/V   : NEUTRON POROSITY LIMESTONE FROM DENSITY LOG
NPHISSED.V/V   : NEUTRON POROSITY SANDSTONE FROM DENSITY LOG
NPOLSWS .V/V   : NEUTRON POROSITY LIMESTONE [366 NPOLSCAL [COMP. FROM NPHISSED] 7500'2286 NPHILSED]
RHOBED  .G/C3  : BULK DENSITY FROM DENSITY LOG
SPRED   .MV    : SPONTANEOUS POTENTIAL FROM RESISTIVITY LOG [SHIFT IS REMOVED]
SPWS    .MV    : SPONTANEOUS POTENTIAL [BASELINE 0 MV] [SPRED]
SRESWS  .OHMM  : SHALLOW RESISTIVITY [LL8ED]
~Params ----------------------------------------------------
PD  .                     GL : PERMANENT DATUM
EPD .FT               2885.2 : ELEVATION PERMANENT DATUM
LMF .                     KB : LOG MEASURED FROM
DAPD.FT                 13.8 : FEET ABOVE PERMANENT DATUM
EKB .FT                 2899 : KELLY BUSHING
EGL .FT               2885.2 : GROUND LEVEL
DATE.               03/04/78 : RUN DATE
RUN .                      1 : RUN NUMBER
DD  .FT                11010 : DEPTH DRILLER
DL  .FT                11002 : DEPTH LOGGER
BLI .FT                10999 : BOTTOM LOG INTERVAL
TLI .FT                 1207 : TOP LOG INTERVAL
CBD .FT                 1205 : CASING BOTTOM DRILLER
CBL .FT                 1207 : CASING BOTTOM LOGGER
BS  .IN                 8.75 : BIT SIZE
BSD .FT                11010 : BIT SIZE AT DEPTH
DFT .               GEL CHEM : DRILLING FLUID TYPE
DFD .                    9.2 : DRILLING FLUID DENSITY
DFV .                    132 : DRILLING FLUID VISCOSITY
DFPH.                     10 : DRILLING FLUID PH
DFL .                    9.4 : DRILLING FLUID LOSS
MSS .               FLOWLINE : MUD SAMPLE SOURCE
RMS .OHMM               1.94 : RESISTIVITY MUD SAMPLE
MST .DEGF                 64 : MUD SAMPLE TEMPERATURE
RMF .OHMM               2.12 : RESISTIVITY MUD FILTRATE SAMPLE
MFST.DEGF                 59 : MUD FILTRATE SAMPLE TEMPERATURE
RMB .OHMM               0.65 : RESISTIVITY MUD AT BHT
TCS .HRS                   3 : TIME CIRCULATED STOPPED
LUN .                   7730 : LOGGING UNIT NUMBER
LUL .                    EDM : LOGGING UNIT LOCATION
ENGI.               CAMPBELL : RECORDING ENGINEER
WITN.              MATHEWSON : WITNESSED BY
CLNT.                A2DTECH : CLIENT CODE
ORIG.            2" 5" PRINT : ORIGIN OF DATA
UWI .       100101905314W500 : UNIQUE WELL ID
DICO. A2D Technologies, Inc. : DIGITIZING COMPANY
~Other -----------------------------------------------------
~ASCII -----------------------------------------------------
 1250.00000    9.81540    9.81540  168.66820    0.23440    2.04420    -999.25    0.34760    0.38940    5.92880    0.23440  101.69440  101.69440   93.34640   93.34640    5.92880    4.60580    4.81610    4.60580    -999.25    0.45110    0.40940    2.04420  -40.77980  -11.84350    4.81610
 1300.00000   10.56920   10.56920  168.26550    0.21330    2.15780    -999.25    0.30540    0.32290    5.94590    0.21330   96.27790   96.27790   91.38980   91.38980    5.94590    4.95820    4.56610    4.95820    -999.25    0.40050    0.35760    2.15780  -34.71200   -6.72340    4.56610
 1350.00000    9.44900    9.44900  140.26620    0.10740    2.34160    -999.25    0.20200    0.21540    7.12930    0.10740   89.10870   89.10870   81.27400   81.27400    7.12930    5.82950    6.29070    5.82950    -999.25    0.32660    0.28270    2.34160  -29.63910   -2.60760    6.29070
 1400.00000    9.69910    9.69910  204.27850    0.14230    2.14220    -999.25    0.29930    0.33210    4.89670    0.14230  100.11730  100.11730  104.26240  104.26240    4.89670    3.86750    4.60550    3.86750    -999.25    0.39420    0.35120    2.14220  -32.58830   -6.05290    4.60550
 1450.00000    9.97720    9.97720  129.02390    0.01450    2.39350    -999.25    0.15580    0.18510    7.75050    0.01450   76.54390   76.54390   83.52540   83.52540    7.75050    6.87340    5.97450    6.87340    -999.25    0.35420    0.31060    2.39350  -28.73060   -2.57430    5.97450
 1500.00000   10.02170   10.02170  174.54140    0.08560    2.20230    -999.25    0.27450    0.29690    5.72930    0.08560  106.24710  106.24710  104.04850  104.04850    5.72930    5.11910    6.06860    5.11910    -999.25    0.39290    0.34990    2.20230  -29.49530   -3.71620    6.06860
 1550.00000    9.86630    9.86630  219.51790    0.02120    2.25840    -999.25    0.24170    0.26410    4.57100    0.02120   99.47540   99.47540   98.25840   98.25840    4.57100    3.86370    4.62010    3.86370    -999.25    0.41290    0.37030    2.25840  -28.40270   -2.99900    4.62010
 1600.00000    9.77330    9.77330  476.09980    0.05380    1.90890    -999.25    0.44650    0.46850    2.10040    0.05380  153.68770  153.68770  105.75100  105.75100    2.10040    1.81940    2.65780    1.81940    -999.25    0.57920    0.54380    1.90890  -27.55680   -2.47680    2.65780
 1650.00000    9.91080    9.91080   79.52650    0.04700    2.26450    -999.25    0.23640    0.26050   12.68520    0.04700  102.69530  102.69530   60.71310   60.71310   12.68520    9.25140   11.11790    9.25140    -999.25    0.29970    0.25580    2.26450  -37.59660  -12.72980   11.11790
 1700.00000    9.98690    9.98690  235.43260    0.00120    2.28410    -999.25    0.19610    0.24910    4.24750    0.00120  138.73140  138.73140  102.44560  102.44560    4.24750    3.24880    4.34430    3.24880    -999.25    0.43520    0.39310    2.28410  -28.40920   -3.75790    4.34430
 1750.00000    9.71690    9.71690  265.81610    0.01900    1.86130    -999.25    0.47350    0.49630    3.76200    0.01900  129.25140  129.25140  106.55060  106.55060    3.76200    3.55880    6.19660    3.55880    -999.25    0.54990    0.51270    1.86130  -31.45820   -6.65570    6.19660
 1800.00000   11.17480   11.17480  190.48950    0.00650    2.42710    -999.25    0.13470    0.16540    5.25120    0.00650   99.81260   99.81260  100.98820  100.98820    5.25120    4.28580    5.08290    4.28580    -999.25    0.33760    0.29380    2.42710  -33.69600   -8.60860    5.08290
 1850.00000   10.43240   10.43240  231.38510    0.00170    2.38820    -999.25    0.15300    0.18820    4.32180    0.00170   99.10300   99.10300   99.13740   99.13740    4.32180    3.40910    4.05450    3.40910    -999.25    0.39080    0.34780    2.38820  -32.31620   -6.94100    4.05450
 1900.00000   11.11870   11.11870  143.14920   -0.00080    2.45650    -999.25    0.11830    0.14820    6.98740   -0.00080   86.01360   86.01360   94.98670   94.98670    6.98740    6.08670    6.45200    6.08670    -999.25    0.26650    0.22250    2.45650  -32.22060   -6.56040    6.45200
 1950.00000    9.97460    9.97460  139.83080    0.00410    2.44200    -999.25    0.12960    0.15670    7.15150    0.00410   86.28690   86.28690   95.00680   95.00680    7.15150    6.29060    6.00340    6.29060    -999.25    0.28810    0.24410    2.44200  -33.33280   -7.38490    6.00340
 2000.00000    9.54220    9.54220  169.39100    0.02770    2.37990    -999.25    0.17220    0.19300    5.90350    0.02770   86.76910   86.76910  114.39820  114.39820    5.90350    5.19120    5.72420    5.19120    -999.25    0.39200    0.34900    2.37990  -35.17230   -8.93800    5.72420
 2050.00000    9.38870    9.38870  123.54310    0.05600    2.46010    -999.25    0.11140    0.14620    8.09940    0.05600   84.01760   84.01760   93.15930   93.15930    8.09940    7.12210    7.07010    7.12210    -999.25    0.27310    0.22910    2.46010  -34.10280   -7.58350    7.07010
 2100.00000    9.56960    9.56960  108.72280    0.05170    2.44320    -999.25    0.11310    0.15600    9.19770    0.05170   79.91340   79.91340   86.76870   86.76870    9.19770    8.00140    8.54040    8.00140    -999.25    0.29400    0.25000    2.44320  -36.33390   -9.52680    8.54040
 2150.00000    9.60640    9.60640  110.44340    0.13440    2.51300    -999.25    0.08240    0.11520    9.05840    0.13440   72.77620   72.77620   85.57490   85.57490    9.05840    8.00750    7.06300    8.00750    -999.25    0.24540    0.20150    2.51300  -34.25520   -7.16320    7.06300
 2200.00000    9.46060    9.46060  215.15560    0.14830    2.33460    -999.25    0.19040    0.21950    4.64780    0.14830   87.54660   87.54660  100.46040  100.46040    4.64780    4.21850    6.22040    4.21850    -999.25    0.31400    0.27010    2.33460  -37.56560  -10.18580    6.22040
 2250.00000    9.62230    9.62230  280.45770    0.13970    2.09080    -999.25    0.33020    0.36210    3.56560    0.13970  100.25000  100.25000  114.45850  114.45850    3.56560    3.13910    3.77410    3.13910    -999.25    0.42750    0.38520    2.09080  -36.77480   -9.10860    3.77410
 2300.00000    9.60510    9.60510  201.39440    0.19740    2.43160    -999.25    0.13620    0.16280    4.96700    0.19740   88.50210   88.50210  110.35060  110.35060    4.96700    4.55260    5.34030    4.55260    -999.25    0.31460    0.27070    2.43160  -37.83060   -9.87940    5.34030
 2350.00000    9.59550    9.59550  275.72520    0.02980    2.35620    -999.25    0.18370    0.20690    3.62680    0.02980   99.98580   99.98580  120.64830  120.64830    3.62680    3.24850    3.83780    3.24850    -999.25    0.42590    0.38360    2.35620  -36.77350   -8.53460    3.83780
 2400.00000   10.14460   10.14460  218.12900    0.02160    2.45220    -999.25    0.11600    0.15080    4.58670    0.02160   89.35100   89.35100  112.90770  112.90770    4.58670    4.14250    4.03470    4.14250    -999.25    0.32590    0.28210    2.45220  -36.80130   -8.27750    4.03470
 2450.00000   10.75370   10.75370  128.90250    0.01950    2.39680    -999.25    0.13780    0.18320    7.75780    0.01950   85.59440   85.59440   83.69560   83.69560    7.75780    6.82840    9.08600    6.82840    -999.25    0.30460    0.26060    2.39680  -38.73970   -9.92800    9.08600
 2500.00000    9.93470    9.93470  393.70080    0.01860    2.22790    -999.25    0.26390    0.28190    2.54000    0.01860  112.67750  112.67750  106.39630  106.39630    2.54000    2.30310    2.87830    2.30310    -999.25    0.48380    0.44330    2.22790  -36.79150   -7.69340    2.87830
 2550.00000   10.64850   10.64850   53.13950    0.03810    2.41620    -999.25    0.14340    0.17180   18.82590    0.03810   78.16430   78.16430   70.53750   70.53750   18.82590   17.03860   19.90590   17.03860    -999.25    0.27080    0.22680    2.41620  -53.36910  -23.98610   19.90590
 2600.00000    9.79770    9.79770   85.70670    0.01880    2.49990    -999.25    0.09100    0.12290   11.66770    0.01880   74.09170   74.09170   81.51930   81.51930   11.66770   10.85920   12.23370   10.85920    -999.25    0.24100    0.19710    2.49990  -38.28220   -8.61140   12.23370
