~Version ---------------------------------------------------
VERS.      2.0 : CWLS log ASCII Standard -VERSION 2.0
WRAP.       NO : One line per depth step
CREA. 08/24/13 : LAS Creation Date
~Well ------------------------------------------------------
STRT.M                         400.0 : START DEPTH
STOP.M                        2550.0 : STOP DEPTH
STEP.M                      50.00000 : STEP LENGTH
NULL.                        -999.25 : NULL VALUE
COMP.        SULPETRO OF CANADA LTD. : COMPANY
WELL. SULPETRO AM EG JUDY 14-2-63-10 : WELL
FLD .                                : FIELD
LOC .                                : LOCATION
CTRY.                         CANADA : COUNTRY
SRVC.                        Unknown : SERVICE COMPANY
DATE.                    27-Dec-1983 : LOGDATE
PROV.                        Alberta : PROVINCE
UWI .               100140206310W500 : UNIQUE WELL ID
SLAT.WGS84                   54.4264 : SURFACE LATITUDE
SLON.WGS84                 -115.4046 : SURFACE LONGITUDE
~Curve Information -----------------------------------------
DEPT    .M      : DEPTH METER
ACED    .US/M   : ACOUSTIC FROM SONIC LOG
CALSED  .MM     : CALIPER FROM SONIC LOG
CALWS   .MM     : CALIPER [CALXDED]
CALXDED .MM     : CALIPER X FROM DENSITY LOG LOG [ADJ. TO RESISTIVITY LOG]
CALYDED .MM     : CALIPER Y  FROM DENSITY LOG LOG [ADJ. TO RESISTIVITY LOG]
CNCLSED .V/V    : NEUTRON PORISITY LIMESTONE FROM DENSITY LOG LOG [ADJ. TO RESISTIVITY LOG]
CNLSSED .V/V    : COMPENSATED NEUTRON POROSITY SANDSTONE FROM DENSITY LOG
CONDWS  .MMHO   : CONDUCTIVITY [1000/DRESWS]
CORRED  .KG/M3  : DENSITY CORRECTION FROM DENSITY LOG LOG [ADJ. TO RESISTIVITY LOG]
DCORWS  .KG/M3  : DENSITY CORRECTION [CORRED]
DENWS   .KG/M3  : FORMATION BULK DENSITY [CALC FROM DPOLSWS, M=2710,F=1000]
DPOLSWS .V/V    : DENSITY POROSITY LIMESTONE [PORDSSED CONVERTED TO LIMESTONE MATRIX, M=2710,F=1000, SPL. TO PORDLSED @ 1510.8M]
DRESWS  .OHMM   : DEEP RESISTIVITY [RILDED]
DTWS    .US/M   : COMPRESSIONAL SONIC [ACED]
GRDED   .GAPI   : GAMMA RAY FROM DENSITY LOG [ADJ. TO RESISTIVITY LOG]
GRSED   .GAPI   : GAMMA RAY FROM SONIC LOG
GRWS    .GAPI   : GAMMA RAY [GRSED SPL. WITH GRDED @ 2546.68M]
MRESWS  .OHMM   : MEDIUM RESISTIVITY [RILMED]
NPOLSWS .V/V    : NEUTRON PORISITY LIMESTONE [CNLSSED MATRIX CONVERSION FOR LIMESTONE (BAKER), SPL. TO CNCLSED @ 1511M]
PORDLSED.V/V    : DENSITY POROSITY LIMESTONE [M=2710,F=1000] FROM DENSITY LOG LOG [ADJ. TO RESISTIVITY LOG]
PORDSSED.V/V    : DENSITY POROSITY SANDSTONE [M=2650,F=1000] FROM DENSITY LOG LOG [ADJ. TO RESISTIVITY LOG]
RFOCED  .OHMM   : SHALLOW FOCUSED RESISTIVITY FROM RESISTIVITY LOG
RHOBED  .KG/M3  : BULK DENSITY FROM DENSITY LOG LOG [ADJ. TO RESISTIVITY LOG]
RILDED  .OHMM   : DEEP INDUCTION  RESISTIVITY FROM RESISTIVITY LOG
RILMED  .OHMM   : MEDIUM INDUCTION  RESISTIVITY FROM RESISTIVITY LOG
SPRED   .MV     : SPONTANEOUS POTENTIAL FROM RESISTIVITY LOG
SPWS    .MV     : SPONTANEOUS POTENTIAL [BASELINE 0 MV, SPRED ]
SRESWS  .OHMM   : SHALLOW RESISTIVITY [RFOCED]
TENDED  .N      : TENSION FROM DENSITY LOG LOG [ADJ. TO RESISTIVITY LOG]
TENSED  .N      : TENSION FROM RESISTIVITY LOG
~Params ----------------------------------------------------
PD  .                         GL : PERMANENT DATUM
EPD .M                    887.83 : ELEVATION PERMANENT DATUM
LMF .                         KB : LOG MEASURED FROM
DAPD.M                      4.82 : FEET ABOVE PERMANENT DATUM
DMF .                         KB : DRILLING MEASURED FROM
EKB .M                    892.65 : KELLY BUSHING
EGL .M                    887.83 : GROUND LEVEL
DATE.                   12/27/83 : RUN DATE
RUN .                          1 : RUN NUMBER
DD  .M                      2560 : DEPTH DRILLER
DL  .M                    2560.1 : DEPTH LOGGER
BLI .M                    2559.5 : BOTTOM LOG INTERVAL
TLI .M                       392 : TOP LOG INTERVAL
CS  .MM                    244.5 : CASING SIZE
CBD .M                       392 : CASING BOTTOM DRILLER
CBL .M                       392 : CASING BOTTOM LOGGER
BS  .MM                      222 : BIT SIZE
BSD .M                      2560 : BIT SIZE AT DEPTH
DFT .               GEL CHEM MUD : DRILLING FLUID TYPE
DFD .                       1150 : DRILLING FLUID DENSITY
DFV .                         78 : DRILLING FLUID VISCOSITY
DFPH.                         11 : DRILLING FLUID PH
DFL .                          8 : DRILLING FLUID LOSS
MSS .                   FLOWLINE : MUD SAMPLE SOURCE
MST .DEGC                     17 : MUD SAMPLE TEMPERATURE
RMF .OHMM                    0.9 : RESISTIVITY MUD FILTRATE SAMPLE
MFST.DEGC                     17 : MUD FILTRATE SAMPLE TEMPERATURE
RMC .OHMM                    1.9 : RESISTIVITY MUD CAKE
MCST.DEGC                     17 : MUD CAKE SAMPLE TEMPERATURE
MFSS.                   MEASURED : MUD FILTRATE SAMPLE SOURCE
MCSS.                   MEASURED : MUD CAKE SAMPLE SOURCE
RMB .OHMM                   0.67 : RESISTIVITY MUD AT BHT
TCS .HRS                       6 : TIME CIRCULATED STOPPED
LUN .                    HL 6265 : LOGGING UNIT NUMBER
LUL .                      LLOYD : LOGGING UNIT LOCATION
ENGI.                    LAMBORN : RECORDING ENGINEER
WITN.                    LEWYCKY : WITNESSED BY
CLNT.                    A2DTECH : CLIENT CODE
ORIG. 6.5"/100M 16.5"/100M PRINT : ORIGIN OF DATA
UWI .           100140206310W500 : UNIQUE WELL ID
DICO.     A2D Technologies, Inc. : DIGITIZING COMPANY
~Other -----------------------------------------------------
DIL-BHC RUN IN COMBO & CDL-CNL LOG RAN
~ASCII -----------------------------------------------------
# ...
 1600.00000  178.00660  241.15410  244.14850  244.14850  234.34480    0.03820    -999.25   11.68530  116.32370  116.32370 2707.09300    0.00170   85.57780  178.00660   19.70100   17.81480   17.81480   94.78840    0.03820    0.00170    -999.25  111.77930 2704.60230   85.57780   94.78840  -57.30930  -27.43190  111.77930 -2131.83030 -3768.31400
 1650.00000  227.90520  262.81410  258.00800  258.00800  254.64550    0.11530    -999.25  151.30650   56.87800   56.87800 2603.63800    0.06220    6.60910  227.90520   78.29480   74.41680   74.41680    7.37480    0.11530    0.06220    -999.25    8.10010 2605.01290    6.60910    7.37480  -43.80550  -16.01060    8.10010 -1821.18010 -2075.35980
 1700.00000  204.16830  289.20380  289.40900  289.40900  272.56160    0.07250    -999.25   89.77710   64.03940   64.03940 2640.23200    0.04080   11.13870  204.16830   69.03180   69.54810   69.54810   12.52820    0.07250    0.04080    -999.25   12.60920 2639.42020   11.13870   12.52820  -45.29510  -19.58270   12.60920 -1755.32490 -2371.42540
 1750.00000  170.28380  255.02470  266.95200  266.95200  249.82280    0.00770    -999.25   17.78010  120.50930  120.50930 2749.50100   -0.02310   56.24250  170.28380   16.08490   14.13880   14.13880   52.43150    0.00770   -0.02310    -999.25   68.74960 2748.94530   56.24250   52.43150  -90.41380  -61.73010   68.74960 -2368.74920 -1979.23980
 1800.00000  177.36900  230.28000  228.88170  228.88170  220.59380    0.05210    -999.25   60.36970  206.21840  206.21840 2622.96100    0.05090   16.56460  177.36900   12.09830   14.03540   14.03540   27.19840    0.05210    0.05090    -999.25  110.17960 2623.99290   16.56460   27.19840 -118.76610  -85.68580  110.17960 -1075.29090 -797.83330
 1850.00000  167.44970  249.07470  249.73320  249.73320  235.09000    0.00930    -999.25   26.40940   85.26310   85.26310 2690.33500    0.01150   37.86530  167.44970   10.52190   12.93660   12.93660   45.80560    0.00930    0.01150    -999.25  125.97040 2687.67460   37.86530   45.80560 -124.34470  -86.86770  125.97040 -1558.35190 -2479.32810
 1900.00000  176.79870  207.84890  202.47520  202.47520  204.34860    0.05690    -999.25   58.90390  221.57940  221.57940 2640.06100    0.04090   16.97680  176.79870   11.39020   12.23180   12.23180   33.39830    0.05690    0.04090    -999.25  174.52000 2640.15480   16.97680   33.39830 -144.26940 -102.39560  174.52000 -2961.12280 -933.01920
 1950.00000  193.91710  245.27340  242.90110  242.90110  238.33220    0.11080    -999.25  258.91980  129.38480  129.38480 2689.99300    0.01170    3.86220  193.91710   61.86550   59.00040   59.00040    4.25700    0.11080    0.01170    -999.25    6.26990 2688.42290    3.86220    4.25700  -69.40400  -23.13350    6.26990  439.45090 -905.44860
 2000.00000  175.11010  240.30370  245.75330  245.75330  241.65510    0.10390    -999.25  130.06610   90.32190   90.32190 2737.53100   -0.01610    7.68840  175.11010   32.15960   24.21650   24.21650    8.80480    0.10390   -0.01610    -999.25   15.07220 2738.20630    7.68840    8.80480  -77.04630  -26.37910   15.07220 -2861.30270 -3593.69390
 2050.00000  214.83080  232.38850  248.90290  248.90290  242.28400    0.11010    -999.25  112.83120  131.13410  131.13410 2705.89600    0.00240    8.86280  214.83080   65.21570   56.47640   56.47640   10.25970    0.11010    0.00240    -999.25   11.22210 2703.90840    8.86280   10.25970  -27.04200   19.94300   11.22210 -900.46430 -1314.18560
 2100.00000  243.20470  311.31060  303.26450  303.26450  385.07500    0.18970    -999.25  201.64140  223.31390  223.31390 2577.30400    0.07760    4.95930  243.20470   69.24190   68.93980   68.93980    5.34080    0.18970    0.07760    -999.25    5.93300 2577.96260    4.95930    5.34080  -26.15260    5.83890    5.93300 -2875.26770 -3104.55300
 2150.00000  238.88570  285.07390  283.68540  283.68540  361.44760    0.20160    -999.25  209.18750   86.50540   86.50540 2317.89700    0.22930    4.78040  238.88570   88.42010   82.32150   82.32150    4.30130    0.20160    0.22930    -999.25    6.55070 2338.97410    4.78040    4.30130  -41.60640    5.92630    6.55070 -1253.09910 -1592.81070
 2200.00000  230.20610  234.73600  240.49370  240.49370  243.72340    0.14780    -999.25  126.63040   94.70440   94.70440 2637.32500    0.04250    7.89700  230.20610   78.25520   75.49760   75.49760    8.89710    0.14780    0.04250    -999.25    9.38470 2636.05370    7.89700    8.89710  -27.86390   16.51430    9.38470 -1455.86460 -2450.42830
 2250.00000  244.73210  230.85220  265.64130  265.64130  235.75130    0.18150    -999.25  165.65890  243.18510  243.18510 2222.99200    0.28480    6.03650  244.73210   80.91300   82.76850   82.76850    7.11570    0.18150    0.28480    -999.25    8.03940 2220.93680    6.03650    7.11570  -32.12820   12.60790    8.03940 -658.07620 -1269.28230
 2300.00000  227.92000  238.36910  261.05560  261.05560  235.04050    0.15930    -999.25  159.61950  248.88560  248.88560 2374.84000    0.19600    6.26490  227.92000   78.96340   73.57670   73.57670    7.70430    0.15930    0.19600    -999.25    9.45270 2369.55880    6.26490    7.70430  -28.41050   16.68340    9.45270 -1992.21680 -2260.26270
 2350.00000  219.81260  229.17810  243.01520  243.01520  240.34330    0.11230    -999.25   83.71980   -4.54310   -4.54310 2712.39400   -0.00140   11.94460  219.81260   68.37680   62.58360   62.58360   13.70720    0.11230   -0.00140    -999.25   14.92780 2712.31930   11.94460   13.70720  -26.95420   18.49760   14.92780 -1188.10610 -454.81680
 2400.00000  235.99260  239.52680  265.31650  265.31650  245.80390    0.16950    -999.25  111.58350    6.38750    6.38750 1932.29200    0.45480    8.96190  235.99260   73.57460   64.73820   64.73820   10.85490    0.16950    0.45480    -999.25   10.08440 2012.01430    8.96190   10.85490  -30.12520   14.17640   10.08440  197.43090 -863.85020
 2450.00000  206.34810  254.93350  251.65190  251.65190  244.71800    0.09890    -999.25   89.21800   50.50490   50.50490 2722.82500   -0.00750   11.20850  206.34810   55.89130   51.31690   51.31690   12.60810    0.09890   -0.00750    -999.25   18.53860 2722.06520   11.20850   12.60810  -19.29960   18.05740   18.53860 -362.46860 -1578.68420
 2500.00000  182.15860  225.16940  229.15970  229.15970  224.88380    0.04410    -999.25   26.98930   69.39500   69.39500 2752.92100   -0.02510   37.05170  182.15860   38.48560   39.10320   39.10320   42.97380    0.04410   -0.02510    -999.25   56.36040 2753.30830   37.05170   42.97380  -25.50060    7.09490   56.36040 -490.94600 -579.70190
 2550.00000  206.48210    -999.25  217.57840  217.57840  227.38570    0.04650    -999.25  132.32590   51.05280   51.05280 2586.19600    0.07240    7.55710  206.48210  125.71300    -999.25  125.71300    8.02830    0.04650    0.07240    -999.25   14.89580 2585.67210    7.55710    8.02830  -61.71800  -33.09510   14.89580 7993.65400 13315.51520
