~Version ---------------------------------------------------
VERS.      2.0 : CWLS log ASCII Standard -VERSION 2.0
WRAP.       NO : One line per depth step
CREA. 08/16/13 : LAS Creation Date
~Well ------------------------------------------------------
STRT.M                      450.0 : START DEPTH
STOP.M                     2900.0 : STOP DEPTH
STEP.M                   50.00000 : STEP LENGTH
NULL.                     -999.25 : NULL VALUE
COMP.   BARRINGTON PETROLEUM LTD. : COMPANY
WELL. BARR SAKWATAMAU 10-12-63-15 : WELL
FLD .                             : FIELD
LOC .                             : LOCATION
CTRY.                      CANADA : COUNTRY
SRVC.               Western Atlas : SERVICE COMPANY
DATE.                 27-Mar-1997 : LOGDATE
PROV.                     Alberta : PROVINCE
UWI .            100101206315W500 : UNIQUE WELL ID
SLAT.WGS84               54.43791 : SURFACE LATITUDE
SLON.WGS84              -116.1264 : SURFACE LONGITUDE
~Curve Information -----------------------------------------
DEPT    .M      : Depth Curve
CALWS   .MM     : CALIPER [CALXSED]
CALXDED .MM     : CALIPER X FROM DENSITY LOG
CALXSED .MM     : CALIPER X FROM SONIC LOG
CALYDED .MM     : CALIPER Y FROM DENSITY LOG
CALYSED .MM     : CALIPER Y FROM SONIC LOG
CNCLSED .V/V    : BOREHOLE SIZE CORRECTED COMPENSATED NEUTRON POROSITY LIMESTONE FROM DENSITY LOG
CNCSSED .V/V    : BOREHOLE SIZE CORRECTED COMPENSATED NEUTRON POROSITY SANDSTONE FROM DENSITY LOG
CONDWS  .MMHO   : CANDUCTIVITY [1000/DRESWS]
DCORWS  .KG/M3  : DENSITY CORRECTION [ZCORED]
DENWS   .KG/M3  : FORMATION BULK DENSITY [CALC. FROM DPOLSWS M=2710,F=1000]
DPOLSWS .V/V    : DENSITY POROSITY LIMESTONE [PORZSSED CONVERTED TO LIMESTONE MATRIX M=2710,F=1000, SPL. TO PORZLSED @ 2751.9M]
DRESWS  .OHMM   : DEEP RESISTIVITY [M2RXED]
DT24QSED.US/M   : DELTA-T 24 FROM SONIC LOG
DTWS    .US/M   : COMPRESSIONAL SONIC [DT24QSED]
GRDED   .GAPI   : GAMMA RAY FROM DENSITY LOG
GRRED   .GAPI   : GAMMA RAY FROM RESISTIVITY LOG
GRWS    .GAPI   : GAMMA RAY [GRRED SPL. TO GRDED @2882M]
M2R2ED  .OHMM   : VERT RESOLUTION MATCHED (2 FT) RES - DOI 20 INCH FROM RESISTIVITY LOG
M2R3ED  .OHMM   : VERT RESOLUTION MATCHED (2 FT) RES - DOI 30 INCH FROM RESISTIVITY LOG
M2RXED  .OHMM   : VERT RESOLUTION MATCHED (2 FT) RES - DOI 120 INCH FROM RESISTIVITY LOG
MRESWS  .OHMM   : MEDIUM RESISTIVITY [M2R3ED]
NPOLSWS .V/V    : NEUTRON POROSITY LIMESTONE [CNCSSED MATRIX CONVERSION (BAKER) FOR LIMESTONE, SPL. TO CNCLSED 2750.2M]
PEED    .B/E    : PHOTO ELECTRIC CROSS SECTION FROM DENSITY LOG
PEFWS   .B/E    : PHOTOELECTRIC FACTOR [PEED]
PORZLSED.V/V    : Z-DENSITY CORRECTED POROSITY LIMESTONE [M=2710,F=1000] FROM DENSITY LOG
PORZSSED.V/V    : Z-DENSITY CORRECTED POROSITY SANDSTONE [M=2650,F=1000] FROM DENSITY LOG
SPRED   .MV     : SPONTANEOUS POTENTIAL FROM RESISTIVITY LOG
SPWS    .MV     : SPONTANEOUS POTENTIAL [BASELINE 0 MV, SPRED]
SRESWS  .OHMM   : SHALLOW RESISTIVITY [M2R2ED]
TENRED  .N      : TENSION FROM RESISTIVITY LOG
ZCORED  .KG/M3  : DENSITY CORRECTION FROM DENSITY LOG
ZDENED  .KG/M3  : FORMATION BULK DENSITY FROM DENSITY LOG
~Params ----------------------------------------------------
PD  .                         GL : PERMANENT DATUM
EPD .M                    909.26 : ELEVATION PERMANENT DATUM
LMF .                         KB : LOG MEASURED FROM
DAPD.M                       4.8 : FEET ABOVE PERMANENT DATUM
DMF .                         KB : DRILLING MEASURED FROM
EKB .M                    914.06 : KELLY BUSHING
EGL .M                    909.26 : GROUND LEVEL
DATE.                   03/27/97 : RUN DATE
RUN .                          1 : RUN NUMBER
DD  .M                      2906 : DEPTH DRILLER
DL  .M                    2907.7 : DEPTH LOGGER
BLI .M                    2896.1 : BOTTOM LOG INTERVAL
TLI .M                       422 : TOP LOG INTERVAL
CS  .MM                    244.5 : CASING SIZE
CBD .M                       422 : CASING BOTTOM DRILLER
CBL .M                       422 : CASING BOTTOM LOGGER
BS  .MM                    222.2 : BIT SIZE
BSD .M                      2906 : BIT SIZE AT DEPTH
DFT .                   GEL CHEM : DRILLING FLUID TYPE
DFD .                       1115 : DRILLING FLUID DENSITY
DFV .                         83 : DRILLING FLUID VISCOSITY
DFPH.                         10 : DRILLING FLUID PH
DFL .                        8.5 : DRILLING FLUID LOSS
MSS .                   FLOWLINE : MUD SAMPLE SOURCE
RMS .OHMM                    0.4 : RESISTIVITY MUD SAMPLE
MST .DEGC                     27 : MUD SAMPLE TEMPERATURE
RMF .OHMM                    0.6 : RESISTIVITY MUD FILTRATE SAMPLE
MFST.DEGC                   27.5 : MUD FILTRATE SAMPLE TEMPERATURE
RMC .OHMM                    1.1 : RESISTIVITY MUD CAKE
MCST.DEGC                   25.5 : MUD CAKE SAMPLE TEMPERATURE
MFSS.                   MEASURED : MUD FILTRATE SAMPLE SOURCE
MCSS.                   MEASURED : MUD CAKE SAMPLE SOURCE
RMB .OHMM                   0.15 : RESISTIVITY MUD AT BHT
TCS .HRS                      14 : TIME CIRCULATED STOPPED
LUN .                    HL 6577 : LOGGING UNIT NUMBER
LUL .                         GP : LOGGING UNIT LOCATION
ENGI.            BARSS VALOUISKI : RECORDING ENGINEER
WITN.                    SPENCER : WITNESSED BY
CLNT.                    A2DTECH : CLIENT CODE
ORIG. 6.5"/100M 16.5"/100M PRINT : ORIGIN OF DATA
UWI .           100101206315W500 : UNIQUE WELL ID
DICO.     A2D Technologies, Inc. : DIGITIZING COMPANY
~Other -----------------------------------------------------
HDIL-DAL LOG RUN IN COMBO & CN-ZDC LOG RUN
ZDEN FROM SMALL SCALE SECTION
~ASCII -----------------------------------------------------
  450.00000  286.32570    -999.25  286.32570    -999.25  360.48280    -999.25    -999.25  313.69600    -999.25    -999.25    -999.25    3.18780  383.08500  383.08500    -999.25   68.80770   68.80770    2.15470    2.52860    3.18780    2.52860    -999.25    -999.25    -999.25    -999.25    -999.25  -21.22540   -3.51900    2.15470 1398.74760    -999.25    -999.25
  500.00000  228.48060    -999.25  228.48060    -999.25  354.99090    -999.25    -999.25  145.67490    -999.25    -999.25    -999.25    6.86460  297.98340  297.98340    -999.25   69.32720   69.32720    4.97910    5.80900    6.86460    5.80900    -999.25    -999.25    -999.25    -999.25    -999.25  -19.36940   -4.97740    4.97910 -1334.52680    -999.25    -999.25
  550.00000  227.59350    -999.25  227.59350    -999.25  314.47070    -999.25    -999.25  365.53720    -999.25    -999.25    -999.25    2.73570  365.74780  365.74780    -999.25   79.09930   79.09930    2.15690    2.35600    2.73570    2.35600    -999.25    -999.25    -999.25    -999.25    -999.25  -20.23110   -5.83910    2.15690 -1127.33390    -999.25    -999.25
  600.00000  232.48590    -999.25  232.48590    -999.25  274.25420    -999.25    -999.25   96.19360    -999.25    -999.25    -999.25   10.39570  325.24640  325.24640    -999.25   62.94400   62.94400    6.46810    7.90160   10.39570    7.90160    -999.25    -999.25    -999.25    -999.25    -999.25  -34.13170   -5.74150    6.46810 -1486.07550    -999.25    -999.25
  650.00000  237.32600    -999.25  237.32600    -999.25  243.93830    -999.25    -999.25  193.82850    -999.25    -999.25    -999.25    5.15920  338.79440  338.79440    -999.25   65.32840   65.32840    4.37150    4.65710    5.15920    4.65710    -999.25    -999.25    -999.25    -999.25    -999.25  -46.59250   -5.57840    4.37150  -79.66750    -999.25    -999.25
  700.00000  258.91640    -999.25  258.91640    -999.25  318.80430    -999.25    -999.25  166.45030    -999.25    -999.25    -999.25    6.00780  337.20200  337.20200    -999.25   64.71570   64.71570    4.75780    5.06020    6.00780    5.06020    -999.25    -999.25    -999.25    -999.25    -999.25  -44.78740   -1.98170    4.75780 -495.27470    -999.25    -999.25
  750.00000  229.99950    -999.25  229.99950    -999.25  271.97710    -999.25    -999.25  194.92800    -999.25    -999.25    -999.25    5.13010  315.66490  315.66490    -999.25   56.19180   56.19180    4.19520    4.59140    5.13010    4.59140    -999.25    -999.25    -999.25    -999.25    -999.25  -47.93410   -4.59280    4.19520 -1301.85520    -999.25    -999.25
  800.00000  226.00900    -999.25  226.00900    -999.25  288.23320    -999.25    -999.25  249.83760    -999.25    -999.25    -999.25    4.00260  352.72640  352.72640    -999.25   69.83500   69.83500    3.47540    3.64370    4.00260    3.64370    -999.25    -999.25    -999.25    -999.25    -999.25  -49.34310   -5.46610    3.47540 -1193.42260    -999.25    -999.25
  850.00000  226.87150    -999.25  226.87150    -999.25  238.94920    -999.25    -999.25  168.35580    -999.25    -999.25    -999.25    5.93980  316.69220  316.69220    -999.25   66.30460   66.30460    5.49760    5.71830    5.93980    5.71830    -999.25    -999.25    -999.25    -999.25    -999.25  -51.19750   -6.78480    5.49760   -3.00850    -999.25    -999.25
  900.00000  227.87330    -999.25  227.87330    -999.25  243.21200    -999.25    -999.25   80.75650    -999.25    -999.25    -999.25   12.38290  276.66060  276.66060    -999.25   49.87720   49.87720   10.90590   11.19400   12.38290   11.19400    -999.25    -999.25    -999.25    -999.25    -999.25  -53.52480   -8.57640   10.90590 -1083.76870    -999.25    -999.25
  950.00000  244.55260    -999.25  244.55260    -999.25  318.85310    -999.25    -999.25  150.36240    -999.25    -999.25    -999.25    6.65060  316.41710  316.41710    -999.25   83.90110   83.90110    5.69570    6.33480    6.65060    6.33480    -999.25    -999.25    -999.25    -999.25    -999.25  -50.19910   -4.71500    5.69570  -29.50150    -999.25    -999.25
 1000.00000  229.71610    -999.25  229.71610    -999.25  273.82710    -999.25    -999.25  139.56340    -999.25    -999.25    -999.25    7.16520  321.82010  321.82010    -999.25   99.13810   99.13810    6.55270    6.91350    7.16520    6.91350    -999.25    -999.25    -999.25    -999.25    -999.25  -48.87650   -2.85670    6.55270 -2192.48570    -999.25    -999.25
 1050.00000  241.01340    -999.25  241.01340    -999.25  262.10250    -999.25    -999.25  140.92650    -999.25    -999.25    -999.25    7.09590  334.18890  334.18890    -999.25   85.80650   85.80650    5.15220    6.19600    7.09590    6.19600    -999.25    -999.25    -999.25    -999.25    -999.25  -51.03190   -4.47640    5.15220 -1144.15470    -999.25    -999.25
 1100.00000  230.90730    -999.25  230.90730    -999.25  232.71740    -999.25    -999.25  147.93560    -999.25    -999.25    -999.25    6.75970  309.46350  309.46350    -999.25   99.05220   99.05220    5.71010    6.57560    6.75970    6.57560    -999.25    -999.25    -999.25    -999.25    -999.25  -52.91820   -5.82700    5.71010 -418.92110    -999.25    -999.25
 1150.00000  229.93990    -999.25  229.93990    -999.25  275.46720    -999.25    -999.25  123.88500    -999.25    -999.25    -999.25    8.07200  301.93150  301.93150    -999.25  102.50830  102.50830    6.63870    7.63050    8.07200    7.63050    -999.25    -999.25    -999.25    -999.25    -999.25  -52.25130   -4.62450    6.63870 -987.10080    -999.25    -999.25
 1200.00000  235.38750    -999.25  235.38750    -999.25  254.84530    -999.25    -999.25  156.86030    -999.25    -999.25    -999.25    6.37510  313.19140  313.19140    -999.25  105.34410  105.34410    5.46800    5.96700    6.37510    5.96700    -999.25    -999.25    -999.25    -999.25    -999.25  -50.28100   -3.88710    5.46800 -987.54980    -999.25    -999.25
 1250.00000  228.34490    -999.25  228.34490    -999.25  233.46080    -999.25    -999.25  132.00450    -999.25    -999.25    -999.25    7.57550  323.04110  323.04110    -999.25  122.24990  122.24990    7.08210    7.23050    7.57550    7.23050    -999.25    -999.25    -999.25    -999.25    -999.25  -49.13970   -5.12870    7.08210 -589.13160    -999.25    -999.25
 1300.00000  234.03900    -999.25  234.03900    -999.25  254.32450    -999.25    -999.25  181.21520    -999.25    -999.25    -999.25    5.51830  290.61540  290.61540    -999.25   92.93560   92.93560    5.12980    5.44270    5.51830    5.44270    -999.25    -999.25    -999.25    -999.25    -999.25  -48.72800   -7.09990    5.12980  437.78950    -999.25    -999.25
 1350.00000  251.08490    -999.25  251.08490    -999.25  291.69050    -999.25    -999.25  206.96650    -999.25    -999.25    -999.25    4.83170  298.06290  298.06290    -999.25  102.48510  102.48510    4.41580    4.64970    4.83170    4.64970    -999.25    -999.25    -999.25    -999.25    -999.25  -45.77090   -6.52570    4.41580 -859.06350    -999.25    -999.25
 1400.00000  235.89500    -999.25  235.89500    -999.25  327.58240    -999.25    -999.25  363.84810    -999.25    -999.25    -999.25    2.74840  342.02080  342.02080    -999.25  116.86980  116.86980    2.57080    2.71060    2.74840    2.71060    -999.25    -999.25    -999.25    -999.25    -999.25  -39.03340   -2.17100    2.57080 -919.72790    -999.25    -999.25
 1450.00000  245.59300    -999.25  245.59300    -999.25  277.12210    -999.25    -999.25  282.22280    -999.25    -999.25    -999.25    3.54330  312.38360  312.38360    -999.25   93.83340   93.83340    3.04480    3.36090    3.54330    3.36090    -999.25    -999.25    -999.25    -999.25    -999.25  -40.74150   -5.77660    3.04480 -1020.16760    -999.25    -999.25
 1500.00000  238.06410    -999.25  238.06410    -999.25  253.92090    -999.25    -999.25  113.06210    -999.25    -999.25    -999.25    8.84470  281.30210  281.30210    -999.25   73.11060   73.11060    7.05430    8.04080    8.84470    8.04080    -999.25    -999.25    -999.25    -999.25    -999.25  -44.90110  -11.35230    7.05430   30.86650    -999.25    -999.25
