~Version ---------------------------------------------------
VERS.      2.0 : CWLS log ASCII Standard -VERSION 2.0
WRAP.       NO : ONE LINE PER DEPTH STEP
CREA. 10/17/14 : LAS CREATION DATE
~Well ------------------------------------------------------
STRT.M                          300.0 : START DEPTH
STOP.M                         1500.0 : STOP DEPTH
STEP.M                       50.00000 : STEP LENGTH
NULL.                         -999.25 : NULL VALUE
COMP.   PANCANADIAN PETROLEUM LIMITED : COMPANY
WELL. PCP PCR KILLAM NORTH 7-18-45-13 : WELL
FLD .                                 : FIELD
LOC .                                 : LOCATION
CTRY.                          CANADA : COUNTRY
SRVC.                      Computalog : SERVICE COMPANY
DATE.                     11-Dec-2001 : LOGDATE
PROV.                         Alberta : PROVINCE
UWI .                102071804513W400 : UNIQUE WELL ID
SLAT.WGS84                   52.87901 : SURFACE LATITUDE
SLON.WGS84                  -111.8758 : SURFACE LONGITUDE
~Curve Information -----------------------------------------
DEPT    .M      : DEPTH CURVE
CALWS   .MM     : CALIPER [CALXDED]
CALXDED .MM     : CALIPER X FROM DENSITY LOG
CALYDED .MM     : CALIPER Y FROM DENSITY LOG
CALYSED .MM     : CALIPER Y FROM SONIC LOG
CONDWS  .MMHO   : CONDUCTIVITY [1000/DRESWS]
DCORED  .KG/M3  : DENSITY CORRECTION FROM DENSITY LOG
DCORWS  .KG/M3  : DENSITY CORRECTION [DCORED]
DENWS   .KG/M3  : FORMATION BULK DENSITY [CALC. FROM DPOLSWS, M=2710, F=1000]
DPOLSWS .V/V    : DENSITY POROSITY LIMESTONE [DPORSSED CONVERTED TO LIMESTONE MATRIX, M=2710, F=1000]
DPORDMED.V/V    : DENSITY POROSITY DOLOMITE [M=2870, F=1000] FROM DENSITY LOG
DPORLSED.V/V    : DENSITY POROSITY LIMESTONE [M=2710, F=1000] FROM DENSITY LOG
DPORSSED.V/V    : DENSITY POROSITY SANDSTONE [M=2650, F=1000] FROM DENSITY LOG
DRESWS  .OHMM   : DEEP RESISTIVITY [STIDED]
DTED    .US/M   : DELTA-T FROM SONIC LOG
DTWS    .US/M   : COMPRESSIONAL SONIC [DTED]
GRDED   .GAPI   : GAMMA RAY FROM DENSITY LOG
GRED    .GAPI   : GAMMA RAY FROM GR LOG [ADJ.TO STI LOG]
GRRED   .GAPI   : GAMMA RAY FROM STI LOG
GRSED   .GAPI   : GAMMA RAY FROM SONIC LOG
GRWS    .GAPI   : GAMMA RAY [GRED SPL.TO GRRED @ 261.1M]
MRESWS  .OHMM   : MEDIUM RESISTIVITY [STIMED]
NPOLSWS .V/V    : NEUTRON POROSITY LIMESTONE [NPORSSED MATRIX (COMPUTALOG) CONVERSION FOR LIMESTONE]
NPORDMED.V/V    : NEUTRON POROSITY DOLOMITE FROM DENSITY LOG
NPORLSED.V/V    : NEUTRON POROSITY LIMESTONE FROM DENSITY LOG
NPORSSED.V/V    : NEUTRON POROSITY SANDSTONE FROM DENSITY LOG
PEED    .B/E    : PHOTOELECTRIC CROSS SECTION FROM DENSITY LOG
PEFWS   .B/E    : PHOTOELECTRIC FACTOR [PEED]
RHOBED  .KG/M3  : BULK DENSITY FROM DENSITY LOG [ADJ. TO DPORSSED]
SFLED   .OHMM   : SPHERICALLY FOCUSED FROM STI LOG
SPRED   .MV     : SPONTANEOUS POTENTIAL FROM STI LOG
SPWS    .MV     : SPONTANEOUS POTENTIAL [BASELINE 0 MV, SPRED]
SRESWS  .OHMM   : SHALLOW RESISTIVITY [SFLED]
STIDED  .OHMM   : SIMULTANEOUS TRIPLE INDUCTION DEEP RESISTIVITY FROM STI LOG
STIMED  .OHMM   : SIMULTANEOUS TRIPLE INDUCTION MEDIUM RESISTIVITY FROM STI LOG
TENDED  .N      : TENSION FROM DENSITY LOG [LB*4.44822162]
TENRED  .N      : TENSION FROM STI LOG [LB*4.44822162]
TENSED  .N      : TENSION FROM SONIC LOG [LB*4.44822162]
~Params ----------------------------------------------------
PD  .                         GL : PERMANENT DATUM
EPD .M                     674.5 : ELEVATION PERMANENT DATUM
LMF .                         KB : LOG MEASURED FROM
DAPD.M                      4.75 : FEET ABOVE PERMANENT DATUM
EKB .M                    679.25 : KELLY BUSHING
EGL .M                     674.5 : GROUND LEVEL
DATE.                   12/11/01 : RUN DATE
RUN .                          1 : RUN NUMBER
DD  .M                      1515 : DEPTH DRILLER
DL  .M                    1514.5 : DEPTH LOGGER
BLI .M                    1512.4 : BOTTOM LOG INTERVAL
TLI .M                     301.8 : TOP LOG INTERVAL
CS  .MM                    219.1 : CASING SIZE
CBD .M                       302 : CASING BOTTOM DRILLER
CBL .M                     301.8 : CASING BOTTOM LOGGER
BS  .MM                      200 : BIT SIZE
BSD .M                      1515 : BIT SIZE AT DEPTH
DFT .               GEL CHEMICAL : DRILLING FLUID TYPE
DFD .                       1150 : DRILLING FLUID DENSITY
DFV .                         56 : DRILLING FLUID VISCOSITY
DFPH.                        9.5 : DRILLING FLUID PH
DFL .                        9.5 : DRILLING FLUID LOSS
MSS .                   FLOWLINE : MUD SAMPLE SOURCE
RMS .OHMM                    0.3 : RESISTIVITY MUD SAMPLE
MST .DEGC                     14 : MUD SAMPLE TEMPERATURE
RMF .OHMM                    0.2 : RESISTIVITY MUD FILTRATE SAMPLE
MFST.DEGC                     14 : MUD FILTRATE SAMPLE TEMPERATURE
RMC .OHMM                    0.4 : RESISTIVITY MUD CAKE
MCST.DEGC                     14 : MUD CAKE SAMPLE TEMPERATURE
RMB .OHMM                    0.2 : RESISTIVITY MUD AT BHT
TCS .HRS                       3 : TIME CIRCULATED STOPPED
LUN .                        358 : LOGGING UNIT NUMBER
LUL .               LLOYDMINSTER : LOGGING UNIT LOCATION
ENGI.             PORTUGAL AHMAD : RECORDING ENGINEER
WITN.                        ALI : WITNESSED BY
CLNT.                    A2DTECH : CLIENT CODE
ORIG. 6.5"/100M 16.5"/100M PRINT : ORIGIN OF DATA
UWI .           102071804513W400 : UNIQUE WELL ID
DICO.     A2D Technologies, Inc. : DIGITIZING COMPANY
~Other -----------------------------------------------------
STI-SPED-CNT-BCS-GR LOG RUN.
RHOBED DIG IN 1:6 SCALE.
GRS,GRD,TENS,TEND & CALYS DUPLICATE WITH GRR,TENR & CALYD
~ASCII -----------------------------------------------------
  300.00000    -999.25    -999.25    -999.25    -999.25    -999.25    -999.25    -999.25    -999.25    -999.25    -999.25    -999.25    -999.25    -999.25    -999.25    -999.25   45.02360    -999.25   44.46050   44.85690   44.46050    -999.25    0.58570    -999.25    -999.25    0.62310    -999.25    -999.25    -999.25    -999.25    -999.25    -999.25    -999.25    -999.25    -999.25    -999.25    -999.25    -999.25
  350.00000  265.97010  265.97010  273.46030  272.45550  243.73000  157.62390  157.62390 2194.60000    0.30140    -999.25    -999.25    0.27600    4.10290  415.19720  415.19720   81.30960    -999.25   80.40540   80.33600   80.40540    3.89110    0.48230    -999.25    -999.25    0.52550    2.22120    2.22120 2187.16970    3.68000   -2.12860   -1.00820    3.68000    4.10290    3.89110 9133.44450 8902.21700 9038.50250
  400.00000  245.44140  245.44140  283.60130  283.77750  204.82570  189.32330  189.32330 2085.04000    0.36550    -999.25    -999.25    0.34240    4.88220  378.63820  378.63820   92.58150    -999.25   92.90650   93.35630   92.90650    4.40670    0.43050    -999.25    -999.25    0.47530    2.25050    2.25050 2094.73750    4.52890   -2.36360   -2.30120    4.52890    4.88220    4.40670 9465.17600 9450.88960 9534.23500
  450.00000  252.20600  252.20600  259.07300  258.26320  159.21540  140.94080  140.94080 2370.16000    0.19870    -999.25    -999.25    0.16960    6.28080  361.00650  361.00650  107.89050    -999.25  108.77330  108.50580  108.77330    5.90950    0.47640    -999.25    -999.25    0.51980    2.75500    2.75500 2361.60940    6.08120   -4.85080   -4.52560    6.08120    6.28080    5.90950 9939.49560 9663.34780 9403.97380
  500.00000  247.96650  247.96650  252.86540  252.53350  153.99780   82.18690   82.18690 2429.72500    0.16390    -999.25    -999.25    0.13350    6.49360  339.82510  339.82510  104.57320    -999.25  105.69770  106.18280  105.69770    6.68940    0.38800    -999.25    -999.25    0.43300    3.26180    3.26180 2392.30490    8.44070   -3.63330   -2.71910    8.44070    6.49360    6.68940 9930.81000 9909.94300 10089.67200
  550.00000  222.65340  222.65340  223.38120  225.07410  166.77510  190.46900  190.46900 1977.95500    0.42810    -999.25    -999.25    0.40730    5.99610  351.33460  351.33460   87.30170    -999.25   86.82210   86.70930   86.82210    5.59870    0.42580    -999.25    -999.25    0.47060    1.94800    1.94800 1995.87940    5.08030   -0.77170   -1.03930    5.08030    5.99610    5.59870 10186.37550 10053.82160 10205.72660
  600.00000  216.54960  216.54960  252.62810  252.63650  220.61910   81.72630   81.72630 2307.62500    0.23530    -999.25    -999.25    0.20750    4.53270  390.95320  390.95320  107.04540    -999.25  106.53740  107.09450  106.53740    4.44490    0.47640    -999.25    -999.25    0.51980    2.37490    2.37490 2310.80270    4.63280   -0.49280   -2.02270    4.63280    4.53270    4.44490 10590.63160 10639.80630 10631.62870
  650.00000  229.14320  229.14320  244.18580  247.27080  320.99640  115.18510  115.18510 2280.89500    0.25090    -999.25    -999.25    0.22370    3.11530  381.73770  381.73770  107.61710   55.93740  105.37260  105.50240  105.37260    2.88840    0.47580    -999.25    -999.25    0.51920    2.45710    2.45710 2301.04130    3.14570    1.88620   -0.89780    3.14570    3.11530    2.88840 10468.05550 10564.03220 10595.62700
  700.00000  225.31410  225.31410  253.93280  255.02310  400.27220  131.89610  131.89610 2290.30000    0.24540    -999.25    -999.25    0.21800    2.49830  376.17990  376.17990   97.46350    -999.25   97.64190   97.79680   97.64190    2.43120    0.50640    -999.25    -999.25    0.54850    2.43130    2.43130 2287.56790    2.83350    0.85580   -2.10430    2.83350    2.49830    2.43120 11123.84800 11175.53140 11172.63070
  750.00000  249.19190  249.19190  264.22310  262.73110  577.20060  127.20570  127.20570 2119.19500    0.34550    -999.25    -999.25    0.32170    1.73250  424.46540  424.46540   81.31710    -999.25   80.79720   81.08550   80.79720    1.66830    0.59100    -999.25    -999.25    0.62800    2.23680    2.23680 2115.98410    1.83730    1.94270   -1.66690    1.83730    1.73250    1.66830 11025.80250 11269.55210 11219.34550
  800.00000  206.80480  206.80480  216.52560  216.36480  254.62140   24.35990   24.35990 2384.51500    0.19030    -999.25    -999.25    0.16090    3.92740  303.08360  303.08360   75.15710    -999.25   74.51450   76.93500   74.51450    3.74870    0.30420    -999.25    -999.25    0.34920    2.44230    2.44230 2382.98240    4.02340   -1.15030   -3.57750    4.02340    3.92740    3.74870 11274.73030 11255.85120 11283.39720
  850.00000  206.38750  206.38750  209.20180  208.99630  304.32140   31.32070   31.32070 2510.74000    0.11650    -999.25    -999.25    0.08440    3.28600  306.92530  306.92530   75.75180    -999.25   75.54770   77.25590   75.54770    3.25120    0.30700    -999.25    -999.25    0.35200    2.82670    2.82670 2495.22390    3.37330   -0.70840   -2.48260    3.37330    3.28600    3.25120 11408.02480 11544.61640 11473.60450
  900.00000  194.81110  194.81110  196.08840  194.78120  437.56020   35.79660   35.79660 2276.27500    0.25360    -999.25    -999.25    0.22650    2.28540  293.39630  293.39630   77.03940    -999.25   78.45770   79.11410   78.45770    2.26850    0.28960    -999.25    -999.25    0.33460    2.17320    2.17320 2278.99510    3.68420   -2.50090   -5.24520    3.68420    2.28540    2.26850 11972.74920 11747.90630 11796.91500
  950.00000  204.41330  204.41330  214.32680  214.11580   68.25850   56.25480   56.25480 2731.67500   -0.01270    0.07280   -0.01140   -0.04950   14.65020  187.90040  187.90040   26.67040    -999.25   27.23560   27.77130   27.23560   17.59910    0.16260    0.07580    0.14820    0.20720    3.15330    3.15330 2733.77710   26.52930    0.70760   -3.93360   26.52930   14.65020   17.59910 12794.39940 11921.27620 12447.92030
 1000.00000  232.43470  232.43470  231.27400  232.04210  145.73010   70.66250   70.66250 2656.43500    0.03130    0.11490    0.03190   -0.00390    6.86200  266.63180  266.63180   86.55100    -999.25   86.97620   86.83930   86.97620    6.63220    0.25720    0.16590    0.23810    0.30220    3.24000    3.24000 2655.32790    7.13890    4.39530   -1.78080    7.13890    6.86200    6.63220 12526.32330 12483.63190 12505.12400
 1050.00000  238.08990  238.08990  247.05470  246.80450  230.29800   24.08680   24.08680 2581.19500    0.07530    0.15310    0.07430    0.04170    4.34220  312.24910  312.24910  101.42950    -999.25  101.12910  101.09950  101.12910    4.27010    0.31620    0.23420    0.29860    0.36120    3.71050    3.71050 2581.49630    4.59050    4.65660   -2.56940    4.59050    4.34220    4.27010 12648.83220 12624.54050 12734.22250
 1100.00000  248.93120  248.93120  255.73560  255.63130  162.23230   27.81960   27.81960 2627.72500    0.04810    0.12920    0.04690    0.01350    6.16400  289.08580  289.08580   86.36740    -999.25   86.10550   86.07430   86.10550    5.73860    0.26420    0.17490    0.24490    0.30920    3.71370    3.71370 2625.73900    6.23250    5.12470   -1.78730    6.23250    6.16400    5.73860 13003.75670 13180.18160 13090.82090
 1150.00000  223.59300  223.59300  228.28430  230.16410   70.03340   44.09730   44.09730 2641.58500    0.04000    0.12230    0.04050    0.00510   14.27890  204.63520  204.63520   44.93050   38.66180   50.95860   52.17030   50.95860   15.07570    0.14180    0.06020    0.12260    0.18520    5.34920    5.34920 2642.28640   16.21780    4.74600   -2.48360   16.21780   14.27890   15.07570 13238.48760 13221.95440 13167.06960
 1200.00000  203.77250  203.77250  211.33650  211.16100   64.22240   36.58270   36.58270 2629.87000    0.04690    0.12230    0.04480    0.01220   15.57090  188.44140  188.44140   23.17950   18.67870   21.50240   17.87410   21.50240   25.08540    0.12090    0.04680    0.10870    0.16310    4.20270    4.20270 2617.71360   29.44370    3.31890   -2.07860   29.44370   15.57090   25.08540 13615.66340 13495.58950 13562.28790
