~Version ---------------------------------------------------
VERS.      2.0 : CWLS log ASCII Standard -VERSION 2.0
WRAP.       NO : One line per depth step
CREA. 11/03/17 : LAS Creation Date
~Well ------------------------------------------------------
STRT.FT                            1500.0 : START DEPTH
STOP.FT                           10400.0 : STOP DEPTH
STEP.FT                          50.00000 : STEP LENGTH
NULL.                             -999.25 : NULL VALUE
COMP.                CHEVRON STANDARD LTD : COMPANY
WELL. CHEVRON ET AL HEAVYSOUND 3-25-61-17 : WELL
FLD .                                     : FIELD
LOC .                                     : LOCATION
CTRY.                              CANADA : COUNTRY
SRVC.                        Schlumberger : SERVICE COMPANY
DATE.                         27-Nov-1977 : LOGDATE
PROV.                             Alberta : PROVINCE
UWI .                    100032506117W500 : UNIQUE WELL ID
SLAT.WGS84                       54.30091 : SURFACE LATITUDE
SLON.WGS84                       -116.419 : SURFACE LONGITUDE
~Curve Information -----------------------------------------
DEPT    .FT    : Depth Curve
CALDED  .IN    : CALIPER FROM DENSITY LOG [ADJ. TO RESISTIVITY LOG]
CALSED  .IN    : CALIPER FROM SONIC LOG [ADJ. TO RESISTIVITY LOG]
CALWS   .IN    : CALIPER [CALSED SPL. TO CALDED @ 9702']
CONDWS  .MMHO  : CONDUCTIVITY [1000/DRESWS]
DCORWS  .G/C3  : DENSITY CORRECTION [DRHOED]
DENWS   .G/C3  : FORMATION BULK DENSITY [RHOBED]
DPHILSED.V/V   : DENSITY POROSITY LIMESTONE [M=2.71, F=1.00] FROM DENSITY LOG [ADJ. TO RESISTIVITY LOG]
DPHISSED.V/V   : DENSITY POROSITY SANDSTONE [M=2.65, F=1.00] FROM DENSITY LOG [ADJ. TO RESISTIVITY LOG]
DPOLSWS .V/V   : DENSITY POROSITY LIMESTONE [CALC FROM DENWS,M=2.71, F=1.00]
DRESWS  .OHMM  : DEEP RESISTIVITY [ILDED]
DRHOED  .G/C3  : BULK DENSITY CORRECTION FROM DENSITY LOG [ADJ. TO RESISTIVITY LOG]
DTED    .US/F  : DELTA-T FROM SONIC LOG [ADJ. TO RESISTIVITY LOG]
DTWS    .US/F  : COMPRESSIONAL SONIC [DTED]
GRDED   .GAPI  : GAMMA RAY FROM DENSITY LOG [ADJ. TO RESISTIVITY LOG]
GRNED   .GAPI  : GAMMA RAY FROM GRN LOG [ADJ. TO RESISTIVITY LOG]
GRSED   .GAPI  : GAMMA RAY FROM SONIC LOG [ADJ. TO RESISTIVITY LOG]
GRWS    .GAPI  : GAMMA RAY [GRSED]
ILDED   .OHMM  : DEEP  INDUCTION RESISTIVITY FROM RESISTIVITY LOG
ILMED   .OHMM  : MEDIUM INDUCTION RESISTIVITY FROM RESISTIVITY LOG
LL8ED   .OHMM  : LATEROLOG 8 RESISTIVITY FROM RESISTIVITY LOG
MRESWS  .OHMM  : MEDIUM RESISTIVITY [ILMED]
NEUTED  .NAPI  : NEUTRON FROM GRN LOG [ADJ. TO RESISTIVITY LOG]
NEUTWS  .NAPI  : NEUTRON [NEUTED]
NPHILSED.V/V   : NEUTRON POROSITY LIMESTONE FROM DENSITY LOG [ADJ. TO RESISTIVITY LOG]
NPHISSED.V/V   : NEUTRON POROSITY SANDSTONE FROM DENSITY LOG [ADJ. TO RESISTIVITY LOG]
NPOLSWS .V/V   : NEUTRON POROSITY LIMESTONE [NPHISSED MATRIX  CONVERSION FOR LIMESTONE & SPL. TO NPHILSED @ 9702']
RHOBED  .G/C3  : BULK DENSITY FROM DENSITY LOG [ADJ. TO RESISTIVITY LOG]
SPRED   .MV    : SPONTANEOUS POTENTIAL FROM RESISTIVITY LOG
SPWS    .MV    : SPONTANEOUS POTENTIAL [BASELINE 0 MV,SPRED]
SRESWS  .OHMM  : SHALLOW RESISTIVITY [LL8ED]
TENDED  .LBF   : TENSION FROM DENSITY LOG [ADJ. TO RESISTIVITY LOG]
TENSED  .LBF   : TENSION FROM SONIC LOG [ADJ. TO RESISTIVITY LOG]
~Params ----------------------------------------------------
PD  .                     GL : PERMANENT DATUM
EPD .FT                 3014 : ELEVATION PERMANENT DATUM
LMF .                     KB : LOG MEASURED FROM
DAPD.FT                   19 : FEET ABOVE PERMANENT DATUM
EKB .FT                 3033 : KELLY BUSHING
EGL .FT                 3014 : GROUND LEVEL
DATE.               11/27/77 : RUN DATE
RUN .                      1 : RUN NUMBER
DD  .FT                10428 : DEPTH DRILLER
DL  .FT                10435 : DEPTH LOGGER
BLI .FT                10429 : BOTTOM LOG INTERVAL
TLI .FT                 1501 : TOP LOG INTERVAL
CS  .IN                9.625 : CASING SIZE
CBD .FT                 1500 : CASING BOTTOM DRILLER
CBL .FT                 1501 : CASING BOTTOM LOGGER
DFT .                GEL OIL : DRILLING FLUID TYPE
DFD .                    9.1 : DRILLING FLUID DENSITY
DFV .                     83 : DRILLING FLUID VISCOSITY
MSS .               FLOWLINE : MUD SAMPLE SOURCE
RMS .OHMM               1.69 : RESISTIVITY MUD SAMPLE
MST .DEGF                 60 : MUD SAMPLE TEMPERATURE
RMF .OHMM               1.11 : RESISTIVITY MUD FILTRATE SAMPLE
MFST.DEGF                 54 : MUD FILTRATE SAMPLE TEMPERATURE
TCS .HRS                   4 : TIME CIRCULATED STOPPED
LUN .                   7670 : LOGGING UNIT NUMBER
LUL .                    EDM : LOGGING UNIT LOCATION
ENGI.                   DALY : RECORDING ENGINEER
WITN.     RICHARDSON SPRAGUE : WITNESSED BY
CLNT.                A2DTECH : CLIENT CODE
ORIG.            2" 5" PRINT : ORIGIN OF DATA
UWI .       100032506117W500 : UNIQUE WELL ID
DICO. A2D Technologies, Inc. : DIGITIZING COMPANY
~Other -----------------------------------------------------
DIL-CNFD-BHC-GRN LOG RUN
~ASCII -----------------------------------------------------
# ...
 7000.00000    -999.25   10.04720   10.04720   27.05700    -999.25    -999.25    -999.25    -999.25    -999.25   36.95900    -999.25   49.52570   49.52570    -999.25    -999.25   12.78540   12.78540   36.95900   51.98390  183.21480   51.98390    -999.25    -999.25    -999.25    -999.25    -999.25    -999.25 -218.65610 -104.93470  183.21480    -999.25 1600.14760
 7050.00000    -999.25    9.58930    9.58930   91.64540    -999.25    -999.25    -999.25    -999.25    -999.25   10.92240    -999.25   60.38670   60.38670    -999.25    -999.25   86.39330   86.39330   10.92240   12.10040   15.97980   12.10040    -999.25    -999.25    -999.25    -999.25    -999.25    -999.25 -118.48440   -5.68680   15.97980    -999.25 1616.87210
 7100.00000    -999.25    9.49340    9.49340  139.61410    -999.25    -999.25    -999.25    -999.25    -999.25    7.16260    -999.25   60.80220   60.80220    -999.25    -999.25   66.83460   66.83460    7.16260    7.41610   15.27900    7.41610    -999.25    -999.25    -999.25    -999.25    -999.25    -999.25 -138.96020  -29.10680   15.27900    -999.25 1542.52910
 7150.00000    -999.25    9.94040    9.94040  191.47180    -999.25    -999.25    -999.25    -999.25    -999.25    5.22270    -999.25   64.01710   64.01710    -999.25    -999.25   63.53920   63.53920    5.22270    6.05430   10.89750    6.05430    -999.25    -999.25    -999.25    -999.25    -999.25    -999.25 -152.39750  -45.83690   10.89750    -999.25 1527.87500
 7200.00000    -999.25   10.46720   10.46720  106.67120    -999.25    -999.25    -999.25    -999.25    -999.25    9.37460    -999.25   62.49430   62.49430    -999.25    -999.25   74.25820   74.25820    9.37460    9.69580   14.49810    9.69580    -999.25    -999.25    -999.25    -999.25    -999.25    -999.25 -104.98940   -1.72160   14.49810    -999.25 1600.38420
 7250.00000    -999.25   10.19070   10.19070    6.51600    -999.25    -999.25    -999.25    -999.25    -999.25  153.46910    -999.25   54.12350   54.12350    -999.25    -999.25   13.12320   13.12320  153.46910  157.70330  668.78590  157.70330    -999.25    -999.25    -999.25    -999.25    -999.25    -999.25 -116.98560  -17.01060  668.78590    -999.25 1645.80500
 7300.00000    -999.25    9.49800    9.49800   16.56210    -999.25    -999.25    -999.25    -999.25    -999.25   60.37900    -999.25   54.65800   54.65800    -999.25    -999.25   32.33170   32.33170   60.37900   69.80630  108.41920   69.80630    -999.25    -999.25    -999.25    -999.25    -999.25    -999.25 -109.20300  -11.94630  108.41920    -999.25 1549.86890
 7350.00000    -999.25    9.22960    9.22960    6.68840    -999.25    -999.25    -999.25    -999.25    -999.25  149.51230    -999.25   51.73310   51.73310    -999.25    -999.25   16.74200   16.74200  149.51230  199.59600  268.62930  199.59600    -999.25    -999.25    -999.25    -999.25    -999.25    -999.25 -136.01830  -40.16980  268.62930    -999.25 1508.90930
 7400.00000    -999.25    9.24590    9.24590    4.39400    -999.25    -999.25    -999.25    -999.25    -999.25  227.58350    -999.25   52.08260   52.08260    -999.25    -999.25   17.31560   17.31560  227.58350  222.89300  303.75570  222.89300    -999.25    -999.25    -999.25    -999.25    -999.25    -999.25 -139.69680  -45.24960  303.75570    -999.25 1439.37930
 7450.00000    -999.25    9.22600    9.22600    6.95290    -999.25    -999.25    -999.25    -999.25    -999.25  143.82530    -999.25   51.81250   51.81250    -999.25    -999.25   18.29020   18.29020  143.82530  159.30350  193.82110  159.30350    -999.25    -999.25    -999.25    -999.25    -999.25    -999.25 -137.38420  -44.33820  193.82110    -999.25 1481.19580
 7500.00000    -999.25    9.24550    9.24550    6.98860    -999.25    -999.25    -999.25    -999.25    -999.25  143.09070    -999.25   53.63190   53.63190    -999.25    -999.25   27.55740   27.55740  143.09070  171.48890  264.16900  171.48890    -999.25    -999.25    -999.25    -999.25    -999.25    -999.25 -103.83930  -12.19460  264.16900    -999.25 1527.80330
 7550.00000    -999.25    9.18010    9.18010    1.48180    -999.25    -999.25    -999.25    -999.25    -999.25  674.96070    -999.25   53.50930   53.50930    -999.25    -999.25   40.70620   40.70620  674.96070 1363.05510 1327.11990 1363.05510    -999.25    -999.25    -999.25    -999.25    -999.25    -999.25 -120.40310  -30.07260 1327.11990    -999.25 1554.17350
 7600.00000    -999.25    9.40830    9.40830    4.74800    -999.25    -999.25    -999.25    -999.25    -999.25  210.61700    -999.25   49.80200   49.80200    -999.25    -999.25   20.92230   20.92230  210.61700  353.84150  828.05530  353.84150    -999.25    -999.25    -999.25    -999.25    -999.25    -999.25 -129.31680  -40.23830  828.05530    -999.25 1578.58900
 7650.00000    -999.25    9.34470    9.34470    2.42170    -999.25    -999.25    -999.25    -999.25    -999.25  412.92710    -999.25   49.76210   49.76210    -999.25    -999.25   23.58700   23.58700  412.92710 1050.24830 1263.02320 1050.24830    -999.25    -999.25    -999.25    -999.25    -999.25    -999.25 -125.62170  -37.78910 1263.02320    -999.25 1595.64030
 7700.00000    -999.25    9.46520    9.46520    2.80520    -999.25    -999.25    -999.25    -999.25    -999.25  356.47760    -999.25   49.86530   49.86530    -999.25    -999.25   13.87920   13.87920  356.47760  315.19240  366.02950  315.19240    -999.25    -999.25    -999.25    -999.25    -999.25    -999.25 -161.16160  -74.57480  366.02950    -999.25 1564.76980
 7750.00000    -999.25    9.36060    9.36060    3.74710    -999.25    -999.25    -999.25    -999.25    -999.25  266.87090    -999.25   49.26450   49.26450    -999.25    -999.25   17.37100   17.37100  266.87090  275.99400  363.15630  275.99400    -999.25    -999.25    -999.25    -999.25    -999.25    -999.25 -148.56830  -63.22730  363.15630    -999.25 1556.40490
 7800.00000    -999.25    9.48040    9.48040    1.29930    -999.25    -999.25    -999.25    -999.25    -999.25  770.10180    -999.25   49.14660   49.14660    -999.25    -999.25   10.35670   10.35670  770.10180  488.55960  576.05220  488.55960    -999.25    -999.25    -999.25    -999.25    -999.25    -999.25 -174.45700  -90.35560  576.05220    -999.25 1548.89820
 7850.00000    -999.25    9.38050    9.38050   12.93240    -999.25    -999.25    -999.25    -999.25    -999.25   77.32540    -999.25   48.64380   48.64380    -999.25    -999.25    9.26920    9.26920   77.32540   56.42970   79.42110   56.42970    -999.25    -999.25    -999.25    -999.25    -999.25    -999.25 -172.71970  -89.87040   79.42110    -999.25 1543.65430
 7900.00000    -999.25    9.34090    9.34090   13.38570    -999.25    -999.25    -999.25    -999.25    -999.25   74.70670    -999.25   50.11580   50.11580    -999.25    -999.25    9.07490    9.07490   74.70670   68.97890   92.34240   68.97890    -999.25    -999.25    -999.25    -999.25    -999.25    -999.25 -183.40770 -101.80420   92.34240    -999.25 1631.12560
 7950.00000    -999.25    8.17430    8.17430   38.32200    -999.25    -999.25    -999.25    -999.25    -999.25   26.09470    -999.25   54.63720   54.63720    -999.25    -999.25    8.54910    8.54910   26.09470   47.52570  164.09330   47.52570    -999.25    -999.25    -999.25    -999.25    -999.25    -999.25 -227.10640 -146.74880  164.09330    -999.25 1402.27900
 8000.00000    -999.25    9.45390    9.45390   19.65290    -999.25    -999.25    -999.25    -999.25    -999.25   50.88320    -999.25   49.01780   49.01780    -999.25    -999.25    8.89150    8.89150   50.88320   46.26020   85.79490   46.26020    -999.25    -999.25    -999.25    -999.25    -999.25    -999.25 -187.90470 -108.79290   85.79490    -999.25 1601.00310
 8050.00000    -999.25    8.85440    8.85440    3.51060    -999.25    -999.25    -999.25    -999.25    -999.25  285.09110    -999.25   49.10480   49.10480    -999.25    -999.25    8.20870    8.20870  285.09110  513.17750  246.17530  513.17750    -999.25    -999.25    -999.25    -999.25    -999.25    -999.25 -188.60620 -110.73400  246.17530    -999.25 1649.52510
