~Version ---------------------------------------------------
VERS.      2.0 : CWLS log ASCII Standard -VERSION 2.0
WRAP.       NO : One line per depth step
CREA. 07/27/17 : LAS Creation Date
~Well ------------------------------------------------------
STRT.FT                1200.0 : START DEPTH
STOP.FT               11450.0 : STOP DEPTH
STEP.FT              50.00000 : STEP LENGTH
NULL.                 -999.25 : NULL VALUE
COMP. TRIAD OIL COMPANY, LTD. : COMPANY
WELL.   TRIAD ANTE 11-2-66-25 : WELL
FLD .                         : FIELD
LOC .                         : LOCATION
CTRY.                  CANADA : COUNTRY
SRVC.  Schlumberger of Canada : SERVICE COMPANY
DATE.             07-Apr-1966 : LOGDATE
PROV.                 Alberta : PROVINCE
UWI .        100110206625W500 : UNIQUE WELL ID
SLAT.WGS84           54.68518 : SURFACE LATITUDE
SLON.WGS84           -117.671 : SURFACE LONGITUDE
~Curve Information -----------------------------------------
DEPT  .FT    : Depth Curve
CALWS .IN    : CALIPER [MCALED]
CILDED.MMHO  : DEEP INDUCTION CONDUCTIVITYFROM RESISTIVITY LOG
CONDWS.MMHO  : CONDUCTIVITY [1000/DRESWS]
DRESWS.OHMM  : DEEP RESISTIVITY [1000/CILDED IF ILDED<1.5, ILDED]
DTED  .US/F  : DELTA-T FROM SONIC LOG
DTWS  .US/F  : COMPRESSIONAL SONIC [DTED]
GRSED .GAPI  : GAMMA RAY FROM SONIC LOG
GRWS  .GAPI  : GAMMA RAY [GRSED]
ILDED .OHMM  : DEEP INDUCTIONFROM RESISTIVITY LOG
MCALED.IN    : CALIPER MICROLOG
SNED  .OHMM  : 16 INCH SHORT NORMAL RESISTIVITY FROM IEL
SPRED .MV    : SPONTANEOUS POTENTIALFROM RESISTIVITY LOG
SPWS  .MV    : SPONTANEOUS POTENTIAL [BASELINE 0 MV, SPRED]
SRESWS.OHMM  : SHALLOW RESISTIVITY [SNED]
~Params ----------------------------------------------------
PD  .                     GL : PERMANENT DATUM
EPD .FT               2586.5 : ELEVATION PERMANENT DATUM
LMF .                     KB : LOG MEASURED FROM
DAPD.FT                 13.5 : FEET ABOVE PERMANENT DATUM
EKB .FT               2600.3 : KELLY BUSHING
EGL .FT               2586.5 : GROUND LEVEL
DATE.               04/07/66 : RUN DATE
RUN .                      2 : RUN NUMBER
DD  .FT                11487 : DEPTH DRILLER
DL  .FT                11346 : DEPTH LOGGER
BLI .FT                11488 : BOTTOM LOG INTERVAL
TLI .FT                11485 : TOP LOG INTERVAL
CBD .FT                 1162 : CASING BOTTOM DRILLER
CBL .FT                 1158 : CASING BOTTOM LOGGER
BS  .IN                8.625 : BIT SIZE
BSD .FT                11487 : BIT SIZE AT DEPTH
DFT .               GEL CHEM : DRILLING FLUID TYPE
DFD .                    9.4 : DRILLING FLUID DENSITY
DFV .                     11 : DRILLING FLUID VISCOSITY
DFPH.                    8.5 : DRILLING FLUID PH
DFL .                     11 : DRILLING FLUID LOSS
RMS .OHMM                0.6 : RESISTIVITY MUD SAMPLE
MST .DEGF                 60 : MUD SAMPLE TEMPERATURE
RMF .OHMM               0.41 : RESISTIVITY MUD FILTRATE SAMPLE
MFST.DEGF                 63 : MUD FILTRATE SAMPLE TEMPERATURE
RMC .OHMM               0.66 : RESISTIVITY MUD CAKE
MCST.DEGF                 62 : MUD CAKE SAMPLE TEMPERATURE
RMB .OHMM              0.095 : RESISTIVITY MUD AT BHT
TCS .HRS                 3.5 : TIME CIRCULATED STOPPED
LUN .                   3705 : LOGGING UNIT NUMBER
LUL .                    EDM : LOGGING UNIT LOCATION
ENGI.              BLACKBURN : RECORDING ENGINEER
WITN.                  GOGAL : WITNESSED BY
CLNT.                A2DTECH : CLIENT CODE
ORIG.            2" 5" PRINT : ORIGIN OF DATA
UWI .       100110206625W500 : UNIQUE WELL ID
DICO. A2D Technologies, Inc. : DIGITIZING COMPANY
~Other -----------------------------------------------------
~ASCII -----------------------------------------------------
# ...
 6100.00000   11.28650  164.03920  146.14540    6.84250   80.15380   80.15380   82.88180   82.88180    6.84250   11.28650   10.23800  -53.52320  -19.33670   10.23800
 6150.00000   14.05460  200.28860  173.94030    5.74910   76.48060   76.48060   64.81870   64.81870    5.74910   14.05460   10.20230  -58.04630  -24.63770   10.20230
 6200.00000   12.62310  123.42220  113.97200    8.77410   64.46280   64.46280   37.87420   37.87420    8.77410   12.62310   16.45120  -70.29120  -37.17340   16.45120
 6250.00000   11.51460   63.93760   61.60100   16.23350   82.51180   82.51180   74.34250   74.34250   16.23350   11.51460   29.99840  -48.11130  -15.28030   29.99840
 6300.00000   10.91300   43.71090   44.65560   22.39360   63.49460   63.49460   67.25060   67.25060   22.39360   10.91300   31.18500  -44.71270  -12.16960   31.18500
 6350.00000   10.98940  113.33480  103.20880    9.68910   70.45190   70.45190   55.82130   55.82130    9.68910   10.98940   17.53500  -37.82400   -4.48720   17.53500
 6400.00000   11.47230  104.32610   97.02330   10.30680   66.86330   66.86330   78.50850   78.50850   10.30680   11.47230   15.58240  -46.39250  -10.77040   15.58240
 6450.00000   11.18010  126.29120  114.74600    8.72010   99.49330   99.49330   90.69740   90.69740    8.72010   11.18010   13.53420  -44.65420   -6.72440   13.53420
 6500.00000    8.99300  159.65180  142.37920    7.02350   77.29120   77.29120   28.19910   28.19910    7.02350    8.99300   16.93730  -87.74860  -53.28510   16.93730
 6550.00000    9.96610  275.19490  231.35300    4.32240   76.54010   76.54010   20.32640   20.32640    4.32240    9.96610   14.53810  -96.56420  -66.63660   14.53810
 6600.00000    8.96910  415.69580  321.52270    3.11020   68.75430   68.75430   23.34820   23.34820    3.11020    8.96910   13.05920 -104.73780  -79.37590   13.05920
 6650.00000   11.36270  477.27330  355.70730    2.81130   89.11930   89.11930   71.44750   71.44750    2.81130   11.36270    4.07420  -22.80700   -1.98100    4.07420
 6700.00000   10.00320   30.00900   30.12020   33.23470   95.18200   95.18200   92.50680   92.50680   33.23470   10.00320   54.32020  -36.77030  -16.21290   54.32020
 6750.00000   10.05290   25.68980   26.37630   37.91280   89.34920   89.34920  240.14980  240.14980   37.91280   10.05290   76.08360  -53.88160  -33.32420   76.08360
 6800.00000   10.32590   32.46640   32.74160   30.54220   60.57310   60.57310   77.36610   77.36610   30.54220   10.32590   43.26940  -63.39330  -42.83590   43.26940
 6850.00000   11.20240   53.92960   52.53200   19.03600   67.32860   67.32860   80.31440   80.31440   19.03600   11.20240   26.08960  -64.31520  -43.75780   26.08960
 6900.00000   10.62710   77.93690   73.50510   13.60450   67.02530   67.02530   79.14510   79.14510   13.60450   10.62710   19.95690  -69.52560  -48.96820   19.95690
 6950.00000   10.97530  106.50510  100.68840    9.93430   64.51030   64.51030   68.24720   68.24720    9.93430   10.97530   15.54910  -71.23920  -50.68180   15.54910
 7000.00000   10.52460  104.52170   96.66600   10.34490   60.88740   60.88740   65.61220   65.61220   10.34490   10.52460   18.59000  -67.56190  -47.00450   18.59000
 7050.00000   10.51530   74.39090   71.59070   13.96830   61.93860   61.93860   68.31060   68.31060   13.96830   10.51530   21.37910  -58.45110  -37.89370   21.37910
 7100.00000   12.85910  156.12320  141.96280    7.04410   71.46970   71.46970   78.36100   78.36100    7.04410   12.85910   10.60350  -19.38410    1.17330   10.60350
 7150.00000   10.95390   53.42700   51.92490   19.25860   62.28380   62.28380   73.36560   73.36560   19.25860   10.95390   26.29850  -43.89900  -23.69380   26.29850
 7200.00000   12.01320   59.78530   57.04930   17.53050   66.10470   66.10470   96.71580   96.71580   17.53050   12.01320   24.06250  -41.02590  -21.44220   24.06250
 7250.00000    8.64640   93.68290   89.21480   11.20890   57.32010   57.32010   15.46780   15.46780   11.20890    8.64640   36.63590 -113.55010  -94.57980   36.63590
 7300.00000    8.62420 1143.47530  646.37060    1.54710   78.05360   78.05360   14.67220   14.67220    1.54710    8.62420   10.54180 -129.08510 -110.73020   10.54180
 7350.00000   12.27220   50.11190   51.56850   19.39170   52.26410   52.26410   24.29560   24.29560   19.39170   12.27220   27.25690  -84.77620  -67.04070   27.25690
 7400.00000   10.08450   18.80440   20.10640   49.74480   48.87080   48.87080   29.76100   29.76100   49.78420   10.08450   68.18270  -62.77310  -45.65300   68.18270
 7450.00000    9.99160   19.89470   19.63730   50.92360   48.28740   48.28740   34.62630   34.62630   50.92360    9.99160   65.71360  -74.37850  -57.87990   65.71360
 7500.00000    9.82380   19.97890   20.19240   49.52360   47.30330   47.30330   18.30700   18.30700   49.52360    9.82380   74.73620  -82.57700  -66.69180   74.73620
 7550.00000    8.91390  274.70380  224.86560    4.44710   52.74850   52.74850   18.89740   18.89740    4.44710    8.91390   26.24770 -119.22900 -103.95920   26.24770
 7600.00000    9.69420   46.30710   43.07470   23.21550   56.09790   56.09790   69.92410   69.92410   23.21550    9.69420   35.40450  -86.62320  -71.97280   35.40450
 7650.00000    8.98200  107.57720  104.34490    9.58360   51.75380   51.75380   15.91270   15.91270    9.58360    8.98200   39.84290 -107.25500  -93.22000   39.84290
 7700.00000   13.12780   26.97930   25.26440   39.60210   54.41740   54.41740   16.65710   16.65710   39.60210   13.12780   51.01770  -60.73230  -47.31890   51.01770
 7750.00000    9.13770  945.35980  576.13640    1.73570   49.95220   49.95220   12.85870   12.85870    1.73570    9.13770   12.71250 -106.27470  -93.47460   12.71250
 7800.00000   10.89070  116.05670  121.05070    8.26100   51.16950   51.16950   25.18890   25.18890    8.26100   10.89070   22.40780  -67.02480  -54.84010   22.40780
 7850.00000   11.10800  141.41000  145.72160    6.86240   50.83120   50.83120   25.23570   25.23570    6.86240   11.10800   19.75250  -61.77950  -50.21420   19.75250
 7900.00000   12.83280   31.36290   31.55190   31.69380   57.10380   57.10380   40.37460   40.37460   31.69380   12.83280   35.06770  -13.38760   -2.10390   35.06770
 7950.00000    9.36870  325.13100  336.43760    2.97260   55.28760   55.28760   17.13160   17.13160    2.97260    9.36870   17.05950  -74.53490  -62.52400   17.05950
 8000.00000    9.30170  182.09520  185.78040    5.38270   51.31860   51.31860    9.59300    9.59300    5.38270    9.30170   20.91020  -76.37450  -63.64590   20.91020
 8050.00000   10.73500   28.99040   31.64390   31.60170   52.62210   52.62210   21.31940   21.31940   31.60170   10.73500   32.07320  -57.87190  -44.42330   32.07320
 8100.00000   11.20370   56.06250   55.63000   17.97590   50.85980   50.85980   24.59570   24.59570   17.97590   11.20370   27.41590  -50.11230  -35.93890   27.41590
 8150.00000   11.17170    3.95470    3.85840  259.17450   49.78360   49.78360   10.90440   10.90440  259.17450   11.17170   58.86380  -81.72400  -66.83050   58.86380
 8200.00000    9.88440  102.57570  113.16470    8.92040   48.89660   48.89660   12.74630   12.74630    8.92040    9.88440   30.27390 -126.98730 -111.36670   30.27390
 8250.00000   11.50230    6.22090    6.27400  159.38890   49.63060   49.63060   11.87530   11.87530  159.38890   11.50230   50.71590 -129.89140 -113.55310   50.71590
 8300.00000   10.08790   98.90360  107.25930    9.32320   48.92890   48.92890   13.35860   13.35860    9.32320   10.08790   22.55170 -129.12480 -112.06640   22.55170
 8350.00000   10.00610  167.34430  170.66300    5.85950   62.02590   62.02590   70.22060   70.22060    5.85950   10.00610   14.83510 -114.19200  -96.40880   14.83510
 8400.00000   10.38280  158.37150  147.51000    6.77920   67.69790   67.69790   74.28170   74.28170    6.77920   10.38280   16.67750  -92.64760  -74.14440   16.67750
 8450.00000   11.09470  143.43110  147.73260    6.80280   76.23450   76.23450   75.24700   75.24700    6.80280   11.09470   14.44970  -75.90860  -56.67820   14.44970
 8500.00000   12.48200   93.36580  103.02060    9.70680   52.13210   52.13210   20.36060   20.36060    9.70680   12.48200   19.16420  -75.18530  -55.23720   19.16420
