~Version ---------------------------------------------------
VERS. 2.0 : CWLS log ASCII Standard -VERSION 2.0
WRAP.  NO : ONE LINE PER DEPTH STEP
~Well ------------------------------------------------------
STRT.F                          900.0 : START DEPTH
STOP.F                         8350.0 : STOP DEPTH
STEP.F                       50.00000 : STEP LENGTH
NULL.                         -999.25 : NULL VALUE
COMP.         QUINTANA EXPLORATION CO : COMPANY
WELL. QUINTANA ET AL SNIPE 6-23-72-18 : WELL
FLD .                                 : FIELD
LOC .                                 : LOCATION
CTRY.                          CANADA : COUNTRY
SRVC.          Schlumberger of Canada : SERVICE COMPANY
DATE.                     22-Mar-1977 : LOGDATE
PROV.                         Alberta : PROVINCE
UWI .                100062307218W500 : UNIQUE WELL ID
SLAT.WGS84                   55.24794 : SURFACE LATITUDE
SLON.WGS84                  -116.6597 : SURFACE LONGITUDE
~Curve Information -----------------------------------------
DEPT   .F    0   1   0  0 : 1 MEASURED DEPTH
LL8    .OHMM 07 220 08 00 : LATEROLOG 8
SPR    .MV   07 010 01 00 : SPONTANEOUS POTENTIAL FROM RESISTIVITY LOG
ILD    .OHMM 07 120 46 00 : INDUCTION DEEP RESISTIVITY
ILM    .OHMM 07 120 44 00 : INDUCTION MEDIUM RESISTIVITY
GRS    .GAPI 60 310 01 00 : GAMMA RAY FROM SONIC LOG
DT     .US/F 60 500 00 00 : DELTA-T (INTERVAL TRANSIT TIME)
CALS   .IN   60 280 50 00 : CALIPER FROM SONIC LOG
GRD    .GAPI 45 310 01 00 : GAMMA RAY FROM DENSITY LOG
NPHI_SS.DEC  42 890 03 00 : NEUTRON POROSITY SANDSTONE
CALD   .IN   45 280 60 00 : CALIPER FROM DENSITY LOG
DPHI_SS.DEC  45 890 12 00 : DENSITY POROSITY SANDSTONE
NPHI_LS.DEC  42 890 01 00 : NEUTRON POROSITY LIMESTONE
DPHI_LS.DEC  45 890 10 00 : DENSITY POROSITY LIMESTONE
DRHO   .G/C3 45 356 01 00 : BULK DENSITY CORRECTION
RHOB   .G/C3 45 350 01 00 : BULK DENSITY
~Params ----------------------------------------------------
PD  .                     GL : PERMANENT DATUM
EPD .FT                 2330 : ELEVATION PERMANENT DATUM
LMF .                     KB : LOG MEASURED FROM
DAPD.FT                    7 : FEET ABOVE PERMANENT DATUM
EKB .FT                 2347 : KELLY BUSHING
EGL .FT                 2330 : GROUND LEVEL
DATE.               03/22/77 : RUN DATE
RUN .                      1 : RUN NUMBER
DD  .FT                 8390 : DEPTH DRILLER
DL  .FT                 8389 : DEPTH LOGGER
BLI .FT                 8383 : BOTTOM LOG INTERVAL
TLI .FT                  615 : TOP LOG INTERVAL
CBD .FT                  918 : CASING BOTTOM DRILLER
CBL .FT                  916 : CASING BOTTOM LOGGER
BS  .IN                 8.75 : BIT SIZE
BSD .FT                 8390 : BIT SIZE AT DEPTH
DFT .               GEL CHEM : DRILLING FLUID TYPE
DFD .                    9.3 : DRILLING FLUID DENSITY
DFV .                     76 : DRILLING FLUID VISCOSITY
DFPH.                    9.0 : DRILLING FLUID PH
DFL .                    6.0 : DRILLING FLUID LOSS
MSS .               FLOWLINE : MUD SAMPLE SOURCE
RMS .OHMM               3.18 : RESISTIVITY MUD SAMPLE
MST .DEGF                 68 : MUD SAMPLE TEMPERATURE
RMF .OHMM               2.96 : RESISTIVITY MUD FILTRATE SAMPLE
MFST.DEGF                 70 : MUD FILTRATE SAMPLE TEMPERATURE
RMB .OHMM               1.48 : RESISTIVITY MUD AT BHT
TCS .HRS                 1.5 : TIME CIRCULATED STOPPED
LUN .                   7802 : LOGGING UNIT NUMBER
LUL .                    EDM : LOGGING UNIT LOCATION
ENGI.              CERANTOLA : RECORDING ENGINEER
WITN.                  SKOKO : WITNESSED BY
CLNT.                A2DTECH : CLIENT CODE
ORIG.            2" 5" PRINT : ORIGIN OF DATA
UWI .       100062307218W500 : UNIQUE WELL ID
DICO. A2D Technologies, Inc. : DIGITIZING COMPANY
~Other -----------------------------------------------------
~ASCII -----------------------------------------------------
# ...
 3200.00000    3.39570  -47.73190    2.89310    2.54360  108.64840  105.89850   10.23890  123.34630    0.44160   10.49500    0.24760    -999.25    -999.25    0.23260    2.21450
 3250.00000    5.22740  -63.75110    2.46700    2.92760   96.07450  103.48630    9.34510  108.94690    0.38260    9.54220    0.23590    -999.25    -999.25    0.06110    2.31050
 3300.00000   10.58060  -95.28620    4.34130    6.48100   87.38080  102.26940    9.44490  109.74640    0.38700   10.37520    0.25850    -999.25    -999.25    0.04830    2.22060
 3350.00000    9.43060  -63.24420    5.30270    6.35440   97.89730   95.16520    9.86680  103.26640    0.32130   10.25440    0.21540    -999.25    -999.25    0.07630    2.26960
 3400.00000    4.45910  -51.14440    3.23740    3.14370  108.42070   99.62640   10.89700  126.95960    0.36730   10.27210    0.14680    -999.25    -999.25    0.12490    2.38910
 3450.00000   10.32840  -96.36780    4.64670    6.35510   87.05260  102.26010    9.99080   96.15360    0.36890   10.39610    0.23860    -999.25    -999.25    0.09140    2.27390
 3500.00000    8.89100 -104.85730    3.05800    4.66480   86.05560  101.76860   11.29960   89.82960    0.40350   11.32660    0.23220    -999.25    -999.25    0.11700    2.27430
 3550.00000    4.59100  -49.44070    3.66480    3.48130  100.19470   98.62170   10.84410  121.77750    0.37830   10.97550    0.10700    -999.25    -999.25    0.12030    2.47120
 3600.00000    6.60850  -53.11980    5.31870    5.02380  130.71850   98.13480   10.58760  146.41180    0.30860   10.70200    0.09390    -999.25    -999.25    0.09580    2.50440
 3650.00000    5.01530  -50.95550    3.94940    3.67140  104.58200   95.59310   11.31860  119.72950    0.44180   11.87990    0.29130    -999.25    -999.25    0.17450    2.23770
 3700.00000   19.84790  -77.59380    8.72490   10.90270   77.14870   85.05350   11.13580   83.28820    0.23690   11.26310    0.10760    -999.25    -999.25    0.11300    2.46480
 3750.00000    8.82010  -59.35490    5.58140    5.94140  108.96130   90.97090   10.47410  127.68130    0.30950   10.26690    0.13070    -999.25    -999.25    0.10130    2.42810
 3800.00000   11.07260  -58.70990    8.97900    9.38340  106.01620  106.45240   10.57960  129.66530    0.40810   11.13600    0.25620    -999.25    -999.25    0.11010    2.24330
 3850.00000    7.62420  -42.34700    5.32720    4.91460  153.87170  110.07980   11.02410  177.24930    0.45540   11.30560    0.16300    -999.25    -999.25    0.18200    2.40320
 3900.00000   20.50030  -32.15230   13.53670   11.53880  131.56220  108.19710   10.02790  178.89730    0.45480   10.04890    0.16790    -999.25    -999.25    0.09890    2.32270
 3950.00000   79.29530  -29.36300   37.15250   44.19320   74.49000   78.90080    9.53460  121.13080    0.28180    9.31330    0.11450    -999.25    -999.25    0.02350    2.44440
 4000.00000  239.15690  -24.50550   46.78400   63.74340  175.36510  110.83720    9.58100  248.67850    -999.25    9.40980    0.27250    -999.25    -999.25    0.05080    2.21560
 4050.00000   25.21010 -149.30570    5.99580   10.73880   48.02760   81.12920    9.46390   49.81980    0.27340    9.70970    0.16360    -999.25    -999.25    0.11740    2.36890
 4100.00000   31.36500 -144.43640    5.93160   10.74240   32.95680   74.51470    8.75540   43.30180    0.32000    8.68770    0.14360    -999.25    -999.25    0.11870    2.39850
 4150.00000   96.07050  -69.52380    5.42630    6.61480   60.44590   58.92540    9.29860   49.30300    0.22530    9.10020    0.01680    0.14720    0.04090    0.12070    2.74470
 4200.00000   35.55620 -139.21570    6.92680    9.66230   30.62740   79.87370    9.41620   35.84200    0.18020    8.88360   -0.00960    0.15520    0.00040    0.14070    2.68600
 4250.00000  101.98290 -123.63050   13.14850   19.55230   27.21040   52.92800    9.17290   38.19090    -999.25    9.60450    -999.25    0.03970    0.01150    0.09310    2.69270
 4300.00000   32.26760 -141.61340    4.78150    7.67900   30.58560   67.68310    9.18620   31.52100    -999.25    9.32580    -999.25    0.27510    0.12620    0.15670    2.50580
 4350.00000   83.96200 -124.68830    9.17680   19.25940   60.26490   54.84090    9.83180   58.11900    -999.25    9.79800    -999.25    0.05110    0.04090    0.03720    2.64150
 4400.00000   32.56670 -146.60850    5.57100    6.75180   30.45660   58.77790   10.17280   38.39460    -999.25    9.92140    -999.25    0.07100    0.01230    0.08140    2.68950
 4450.00000  173.95650 -102.67120   21.30040   30.67740   31.00300   57.99960   10.03970   34.76030    -999.25   10.06830    -999.25    0.06550    0.05380    0.11810    2.60570
 4500.00000   14.23680  -34.61400   10.96820   11.43920   87.48120   69.00530   10.47700   82.28290    -999.25   10.16080    -999.25    0.04980    0.03300    0.03820    2.64580
 4550.00000  124.21630  -86.96020   34.76700   40.99680   30.90420   53.53420    9.94190   28.02290    -999.25    9.81250    -999.25    0.01350    0.01380    0.08650    2.68640
 4600.00000    4.02830 -114.56360    1.05620    1.14910   30.03120   75.40410   10.91160   46.98340    -999.25   10.31040    -999.25    0.18360    0.11450    0.16750    2.55600
 4650.00000   19.91750  -85.46300    4.17310    4.80000   48.14140   62.38730   10.45020   45.35210    -999.25   10.16080    -999.25    0.10990    0.02290    0.05700    2.66550
 4700.00000   12.25940  -63.24660    6.11810    6.97390   53.12480   64.26640   10.00020   40.49180    -999.25   10.19380    -999.25    0.10820    0.04350    0.05650    2.64510
 4750.00000   14.12580  -31.31700    4.86660    5.38370   75.77110   69.16820   12.49410   72.97930    -999.25   12.72790    -999.25    0.26330    0.26970    0.22550    2.21110
 4800.00000   46.35880 -151.88040    4.72440    8.15480   20.67630   66.30530    9.39740   28.10390    -999.25    9.68730    -999.25    0.11460    0.12510    0.05800    2.48070
 4850.00000   27.43780 -115.33200    8.12740   10.66970   33.54420   60.46750   10.61220   32.74560    -999.25   10.12610    -999.25    0.06780    0.04010    0.06900    2.62750
 4900.00000  132.28660 -156.72230    9.56560   15.01990   22.12740   59.68490   10.61770   30.21750    -999.25    9.91720    -999.25    0.06550    0.06380    0.09370    2.59720
 4950.00000  117.91850 -163.53370    9.31090   17.95670   20.38530   60.61440    9.72190   25.67850    -999.25    9.74800    -999.25    0.08610    0.07110    0.12520    2.59360
 5000.00000    2.60730  -87.55980    1.86620    1.63860   80.37540   87.33220   11.60260  108.16570    -999.25   11.33020    -999.25    0.29310    0.10130    0.04250    2.57530
 5050.00000    7.81890  -71.99420    3.42590    3.10630   90.38410   80.14260   10.86600   99.79600    -999.25   10.62180    -999.25    0.22060    0.14450    0.06800    2.47810
 5100.00000    5.98910  -77.19470    3.06460    2.83260  122.38110   93.22830   10.56940  110.83810    -999.25   10.53880    -999.25    0.33560    0.31310    0.09770    2.31100
 5150.00000   12.60100  -41.90420    9.10060    9.19790   54.93140   66.93770   10.26770   69.86400    -999.25   10.03130    -999.25    0.10260    0.04940    0.01970    2.62080
 5200.00000   60.24450  -44.03750   17.58270   19.55810   27.58990   56.54300   10.63040   37.24810    -999.25   10.89550    -999.25    0.02090    0.03550    0.04160    2.61930
 5250.00000   70.74490  -69.28160   27.38280   36.63610   16.77810   55.42270    9.97440   30.46700    -999.25    9.68700    -999.25    0.02120    0.04730    0.00780    2.62850
 5300.00000   27.42500  -52.79560   17.15280   18.74230   38.64060   60.12130    9.80630   46.97170    -999.25    9.65030    -999.25    0.04340    0.03090    0.03010    2.64530
 5350.00000   14.42440  -49.87890   10.79240   11.28230   50.21380   64.23960    9.91650   63.19740    -999.25    9.78750    -999.25    0.07390    0.03240    0.05790    2.64150
 5400.00000   12.02240  -43.83790    9.24880    9.66060   57.66080   66.52920   10.37930   68.25410    -999.25   10.19540    -999.25    0.09790    0.02220    0.06760    2.65510
 5450.00000   14.66350  -46.95390    9.75460   10.38920   51.44620   64.94070   10.04630   60.71040    -999.25    9.93810    -999.25    0.08000    0.05980    0.00550    2.60450
