~Version ---------------------------------------------------
VERS.      2.0 : CWLS log ASCII Standard -VERSION 2.0
WRAP.       NO : One line per depth step
CREA. 08/02/13 : LAS Creation Date
~Well ------------------------------------------------------
STRT.FT                      2600.0 : START DEPTH
STOP.FT                     12600.0 : STOP DEPTH
STEP.FT                    50.00000 : STEP LENGTH
NULL.                       -999.25 : NULL VALUE
COMP. AMOCO CANADA COMPANY LIMITED. : COMPANY
WELL.        AMOCO NIPAC 6-20-50-15 : WELL
FLD .                               : FIELD
LOC .                               : LOCATION
CTRY.                        CANADA : COUNTRY
SRVC.                  Schlumberger : SERVICE COMPANY
DATE.                   07-Aug-1978 : LOGDATE
PROV.                       Alberta : PROVINCE
UWI .              100062005015W500 : UNIQUE WELL ID
SLAT.WGS84                 53.32816 : SURFACE LATITUDE
SLON.WGS84                -116.1619 : SURFACE LONGITUDE
~Curve Information -----------------------------------------
DEPT   .FT     : DEPTH FEET
CALD   .MM     : CALIPER [CAL SPL. TO CALD_1 @ 10900'] FROM DENSITY LOG
CALS   .MM     : CALIPER FROM SONIC LOG
DCORED .KG/M3  : DENSITY CORRECTION FROM DENSITY LOG [ADJ. TO RESISTIVITY LOG]
DPHI_LS.dec    : DENSITY POROSITY LIMESTONE [M=2.71,F=1.0] FROM DENSITY LOG
DPHI_SS.dec    : DENSITY POROSITY SANDSTONE [M=2.65,F=1.0] FROM DENSITY LOG
DT     .US/F   : DELTA-T FROM SONIC LOG
GRD    .GAPI   : GAMMA RAY FROM DENSITY LOG
GRS    .GAPI   : GAMMA RAY  [GRS_1 SPL. TO GRS @ 10900']FRPM SONIC LOG
ILD    .OHMM   : DEEP INDUCTION RESISTIVITY FROM RESISTIVITY LOG
ILM    .OHMM   : MEDIUM INDUCTION RESISTIVITY FROM RESISTIVITY LOG
LL8    .OHMM   : LATEROLOG 8 RESISTIVITY FROM RESISTIVITY LOG
NPHI_LS.dec    : NEUTRON POROSITY LIMESTONE FROM DENSITY LOG
NPHI_SS.dec    : NEUTRON POROSITY SANDSTONE FROM DENSITY LOG
RHOB   .KG/M3  : BULK DENSITY  [RHOB SPL. TO RHOB_1 @ 10900']FROM DENSITY LOG
SFL    .OHMM   : SPHERICALLY FOCUSED RESISTIVITY FROM RESISTIVITY LOG
SPR    .MV     : SPONTANEOUS POTENTIAL FROM RESISTIVITY LOG
~Params ----------------------------------------------------
PD  .                     GL : PERMANENT DATUM
EPD .FT               101.84 : ELEVATION PERMANENT DATUM
LMF .                     KB : LOG MEASURED FROM
DAPD.FT                 6.22 : FEET ABOVE PERMANENT DATUM
DMF .                     KB : DRILLING MEASURED FROM
EKB .FT              1017.06 : KELLY BUSHING
EGL .FT              1010.84 : GROUND LEVEL
DATE.               08/07/78 : RUN DATE
RUN .                      3 : RUN NUMBER
DD  .FT               3846.6 : DEPTH DRILLER
DL  .FT                 3846 : DEPTH LOGGER
BLI .FT                 3845 : BOTTOM LOG INTERVAL
TLI .FT                 3290 : TOP LOG INTERVAL
CBD .FT                 2742 : CASING BOTTOM DRILLER
CBL .FT                 2741 : CASING BOTTOM LOGGER
BS  .MM                  216 : BIT SIZE
BSD .FT               3846.6 : BIT SIZE AT DEPTH
RMF .OHMM               1.36 : RESISTIVITY MUD FILTRATE SAMPLE
MFST.DEGF               22.2 : MUD FILTRATE SAMPLE TEMPERATURE
RMC .OHMM               0.94 : RESISTIVITY MUD CAKE
MCST.DEGF               24.4 : MUD CAKE SAMPLE TEMPERATURE
LUN .                   7809 : LOGGING UNIT NUMBER
LUL .                    EDM : LOGGING UNIT LOCATION
ENGI.            GUNN DRONEN : RECORDING ENGINEER
WITN.                CULSHAW : WITNESSED BY
CLNT.                A2DTECH : CLIENT CODE
ORIG.            2" 5" PRINT : ORIGIN OF DATA
UWI .       100062005015W500 : UNIQUE WELL ID
DICO. A2D Technologies, Inc. : DIGITIZING COMPANY
~Other -----------------------------------------------------
~ASCII -----------------------------------------------------
# ...
 6900.00000  400.82980  342.02120  -34.00000    -999.25    0.44400   80.96080   64.89580   72.97460    9.09280    9.41000   11.90130    -999.25    0.48180 1962.90000    -999.25  -59.40520
 6950.00000  369.34140  330.99500  -11.90000    -999.25    0.27120   77.90970   65.92320   77.62380   11.49160   12.22600   15.80470    -999.25    0.41690 2265.80000    -999.25  -59.09840
 7000.00000  340.29140  338.92240   10.30000    -999.25    0.30980   85.78090   76.75090   90.01950   11.17470   13.11500   16.19130    -999.25    0.47400 2155.20000    -999.25  -56.31490
 7050.00000  338.99090  332.18630    7.65000    -999.25    0.21620   82.43840   74.41550   92.32640   14.68810   16.33670   18.52770    -999.25    0.37750 2315.00000    -999.25  -55.70790
 7100.00000  352.09230  344.95990   29.40000    -999.25    0.20200   83.46700   80.06800   91.56730   13.67980   15.14970   18.01440    -999.25    0.39190 2290.20000    -999.25  -55.51000
 7150.00000  371.17780  334.38850    3.60000    -999.25    0.27560   89.80410   85.83900  103.19020   19.08240   20.92200   25.34890    -999.25    0.41770 2184.60000    -999.25  -57.73720
 7200.00000  382.39450  349.26270   17.20000    -999.25    0.19750   83.71770   74.04040  102.11590   16.70580   13.87300   21.19560    -999.25    0.45470 2328.40000    -999.25  -56.69760
 7250.00000  403.49680  342.60790  -35.90000    -999.25    0.31070   84.66190   79.07120   96.11820   19.91170   15.73200   25.40510    -999.25    0.40400 2055.60000    -999.25  -56.53220
 7300.00000  392.28780  330.93410    8.07500    -999.25    0.34210   78.07160   82.42970  111.04000   25.26340   23.19180   36.39890    -999.25    0.42710 2102.40000    -999.25  -56.52520
 7350.00000    -999.25  351.58170    0.95000    -999.25    0.31270   86.25050   79.59280  109.81900   11.91740    9.68010   17.22030    -999.25    0.41930 2101.20000    -999.25  -56.40040
 7400.00000    -999.25  354.09890  -44.70000    -999.25    0.47970   82.90420   81.35820  103.90820   13.93860   10.61560   16.64050    -999.25    0.40830 1875.60000    -999.25  -57.35950
 7450.00000    -999.25  353.20990  -43.00000    -999.25    0.48890   84.25320   81.74660   97.56270   11.79810    9.12880   13.51370    -999.25    0.41060 1848.20000    -999.25  -57.77010
 7500.00000  317.77180  337.81750   41.00000    -999.25    0.18300   73.36320   79.63400   90.80780   25.53000   27.96280   54.05640    -999.25    0.27290 2522.60000    -999.25  -58.93290
 7550.00000  421.50030  347.20530   58.10000    -999.25    0.09760   81.73870   72.98220   80.97520    7.46460    6.78560    9.76500    -999.25    0.29660 2511.40000    -999.25  -57.92690
 7600.00000  407.49220  328.06890   79.50000    -999.25    0.02610   73.97570   81.24680   85.66550   12.07140   11.12980   14.97550    -999.25    0.22580 2592.20000    -999.25  -58.59800
 7650.00000    -999.25  354.67540   39.50000    -999.25    0.13910   86.20710   81.94760   90.51910    7.61870    6.98180   10.21630    -999.25    0.31480 2412.30000    -999.25  -57.82040
 7700.00000    -999.25  336.51190   75.30000    -999.25    0.07210   77.54490   81.65920  101.80200   10.57590    9.69480   13.33920    -999.25    0.22920 2554.00000    -999.25  -59.21290
 7750.00000    -999.25  354.03790   72.15000    -999.25    0.11630   80.09980   92.55350   93.46460    7.90140    7.18930   10.81990    -999.25    0.32570 2485.40000    -999.25  -57.79190
 7800.00000    -999.25  351.45730  113.25000    -999.25    0.06480   95.40510   91.85260  108.70380    5.95170    5.03320    7.51430    -999.25    0.27710 2561.10000    -999.25  -56.90560
 7850.00000    -999.25  344.11410   12.10000    -999.25    0.11790   80.67010   69.41870   74.38800    6.16260    5.86060    9.89580    -999.25    0.34890 2511.20000    -999.25  -57.64830
 7900.00000  329.29320  319.12810   90.10000    -999.25    0.02880   67.98050   52.98470   61.82180   22.73060   24.02320   32.45060    -999.25    0.11600 2613.70000    -999.25  -64.66040
 7950.00000  346.14360  340.92130  103.10000    -999.25   -0.00590   76.21280   63.71380   74.62560   11.16260    9.81760   14.66640    -999.25    0.25140 2605.40000    -999.25  -59.71830
 8000.00000  342.09230  326.75830   36.90000    -999.25    0.01570   68.85580   52.89010   55.32690   15.50580   17.14940   21.09020    -999.25    0.20900 2675.30000    -999.25  -68.92670
 8050.00000  340.61910  324.76690   78.30000    -999.25    0.01480   67.24890   38.60720   42.65530   17.21320   16.31090   19.34420    -999.25    0.15620 2635.60000    -999.25  -75.31370
 8100.00000  349.66150  332.25740   24.60000    -999.25   -0.00010   70.14870   65.57460   65.40720   12.62440   13.23230   18.06670    -999.25    0.22160 2687.30000    -999.25  -60.17390
 8150.00000  348.67600  335.80070   50.90000    -999.25    0.02100   69.26630   47.90490   54.14500   12.30500   13.54750   16.44030    -999.25    0.20220 2596.70000    -999.25  -70.62630
 8200.00000  336.55000  324.35290   53.20000    -999.25    0.01870   70.16320   42.57690   52.63100   14.34870   13.32660   17.97280    -999.25    0.17810 2619.00000    -999.25  -65.93240
 8250.00000  329.65640  321.53610   74.60000    -999.25    -999.25   69.66800   54.93440   57.10000   15.38720   17.33210   19.83800    -999.25    0.22660 2722.70000    -999.25  -64.14260
 8300.00000  325.91250  324.24370   45.75000    -999.25   -0.00160   66.81460   47.23460   48.25950   14.55870   15.80960   20.15260    -999.25    0.21530 2678.90000    -999.25  -69.90070
 8350.00000  333.88810  325.52130   81.20000    -999.25    -999.25   60.06610   46.32280   51.95710   16.59300   17.52900   26.16570    -999.25    0.18440 2773.70000    -999.25  -62.27440
 8400.00000  322.39460  320.41850   83.70000    -999.25   -0.00210   66.81920   53.95760   60.16380   16.09450   17.61420   21.88250    -999.25    0.18080 2646.30000    -999.25  -60.27260
 8450.00000  332.63080  322.92800   58.20000    -999.25    0.01490   62.75370   42.64670   44.35710   24.38680   21.87000   30.90400    -999.25    0.13880 2672.90000    -999.25  -63.24050
 8500.00000  340.77910  326.56270   38.35000    -999.25   -0.00210   66.94350   46.96260   50.60830   15.06050   13.35840   19.05470    -999.25    0.20290 2678.90000    -999.25  -56.65480
 8550.00000  320.65210  319.86730   54.22500    -999.25   -0.00120   70.16500   59.06210   75.36280   15.76180   17.02980   21.96330    -999.25    0.22300 2706.70000    -999.25  -52.00980
 8600.00000  330.61910  336.45860   31.75000    -999.25    0.17730   81.80740   70.20600   75.54300    5.69870    4.53640    7.16790    -999.25    0.39440 2408.80000    -999.25  -50.87990
 8650.00000  339.90790  325.13020   27.40000    -999.25    0.01440   67.37630   57.89900   59.68660   51.36910   41.46500   65.04200    -999.25    0.13430 2666.80000    -999.25  -52.05030
 8700.00000  305.98870  315.50100   28.95000    -999.25    0.04670   69.35790   78.24720   78.68840   27.05530   24.07150   37.17310    -999.25    0.28940 2581.70000    -999.25  -50.34280
 8750.00000  309.00370  313.94650   73.50000    -999.25   -0.00820   66.50860   70.99940   68.24960   33.61290   29.72210   44.41840    -999.25    0.14420 2688.30000    -999.25  -52.92360
 8800.00000  323.47410  312.15080   68.07500    -999.25    0.00900   60.74310   52.70570   57.99700   23.34140   21.34210   28.00250    -999.25    0.12040 2658.70000    -999.25  -53.00180
 8850.00000  351.63000  313.93130   97.00000    -999.25    0.19740   67.91350   21.13730   21.25170  102.89760   88.69820  108.12260    -999.25    0.02900 2403.10000    -999.25  -65.98550
 8900.00000  280.37540  293.43600  -55.40000    -999.25    0.07580   62.78880   23.41070   22.41350   85.88720   66.55090  107.52600    -999.25    0.09270 2530.10000    -999.25 -120.60550
 8950.00000  333.45630  325.03360   34.90000    -999.25   -0.00240   82.47680   87.58570   71.18030    3.77430    4.34890    9.09650    -999.25    0.38210 2697.10000    -999.25  -41.01950
 9000.00000  298.39670  312.74260   68.10000    -999.25    0.02200   53.35500   18.27660   16.83390  966.57370  211.61510    -999.25    0.04840    -999.25 2608.20000 1362.64360  -93.81910
