~Version ---------------------------------------------------
VERS.      2.0 : CWLS log ASCII Standard -VERSION 2.0
WRAP.       NO : One line per depth step
CREA. 09/24/14 : LAS Creation Date
~Well ------------------------------------------------------
STRT.M                   400.0 : START DEPTH
STOP.M                  2400.0 : STOP DEPTH
STEP.M                50.00000 : STEP LENGTH
NULL.                  -999.25 : NULL VALUE
COMP. ANDERSON EXPLORATION LTD : COMPANY
WELL. ANDERSON CULP 6-20-78-23 : WELL
FLD .                          : FIELD
LOC .                          : LOCATION
CTRY.                   CANADA : COUNTRY
SRVC.             Schlumberger : SERVICE COMPANY
DATE.              28-Jun-1985 : LOGDATE
PROV.                  Alberta : PROVINCE
UWI .         100062007823W500 : UNIQUE WELL ID
SLAT.WGS84            55.77082 : SURFACE LATITUDE
SLON.WGS84           -117.5363 : SURFACE LONGITUDE
~Curve Information -----------------------------------------
DEPT    .M      : Depth Curve
C2DED   .MM     : CALIPER [DUAL AXIS] FROM DENSITY LOG
CALDED  .MM     : CALIPER FROM DENSITY LOG
CALSED  .MM     : CALIPER FROM SONIC LOG
CALWS   .MM     : CALIPER [CALDED]
CONDWS  .MMHO   : CONDUCTIVITY [1000/DRESWS]
DCORWS  .KG/M3  : DENSITY CORRECTION [DRHOED]
DENWS   .KG/M3  : FORMATION BULK DENSITY [CALC FROM DPOLSWS, M=2710, F=1000]
DPHILSED.V/V    : DENSITY POROSITY LIMESTONE [M=2710, F=1000] FROM DENSITY LOG
DPHISSED.V/V    : DENSITY POROSITY SANDSTONE [M=2650, F=1000] FROM DENSITY LOG
DPOLSWS .V/V    : DENSITY POROSITY LIMESTONE [DPHISSED CONERTED TO LIMESTONE MATRIX , M=2710, F=1000, SPL TO DPHILSED @ 1031 M]
DRESWS  .OHMM   : DEEP RESISTIVITY [ILDED]
DRHOED  .KG/M3  : BULK DENSITY CORRECTION FROM DENSITY LOG [ADJ. TO DPHISSED/DPHILSED]
DTED    .US/M   : DELTA TIME  FROM SONIC LOG
DTWS    .US/M   : COMPRESSIONAL SONIC [DTED]
GRRED   .GAPI   : GAMMA RAY FROM RESISTIVITY LOG
GRSED   .GAPI   : GAMMA RAY FROM SONIC LOG
GRWS    .GAPI   : GAMMA RAY [GRSED SPL. TO SGRDED @ 385 M]
ILDED   .OHMM   : DEEP INDUCTION RESISTIVITY FROM RESISTIVITY LOG
ILMED   .OHMM   : MEDIUM INDUCTION RESISTIVITY FROM RESISTIVITY LOG
MLLED   .OHMM   : MICRO LATEROLOG RESISTIVITY  FROM MLL LOG
MRESWS  .OHMM   : MEDIUM RESISTIVITY [ILMED]
NPHILSED.V/V    : NEUTRON POROSITY LIMESTONE FROM DENSITY LOG
NPHISSED.V/V    : NEUTRON POROSITY SANDSTONE FROM DENSITY LOG
NPOLSWS .V/V    : NEUTRON POROSITY LIMESTONE [NPHISSED MATRIX CONVERSION FOR LIMESTONE , SPL. TO NPHILSED @ 1031M ]
PEFED   .B/E    : PHOTOELECTRIC FACTOR FROM DENSITY LOG
PEFWS   .B/E    : PHOTOELECTRIC FACTOR [PEFED]
RHOBED  .KG/M3  : BULK DENSITY FROM DENSITY LOG[ADJ. TO DPHISSED/DPHILSED]
SFLUED  .OHMM   : SHALLOW FOCUSED LOG FROM RESISTIVITY LOG
SGRDED  .GAPI   : SPECTROSCOPY GAMMA RAY FROM DENSITY LOG
SPRED   .MV     : SPONTANEOUS POTENTIAL FROM RESISTIVITY LOG
SPWS    .MV     : SPONTANEOUS POTENTIAL [BASELINE 0 MV, SPRED]
SRESWS  .OHMM   : SHALLOW RESISTIVITY [SFLUED]
TENDED  .N      : TENSION FROM DENSITY LOG
TENRED  .N      : TENSION FROM RESISTIVITY LOG
TENSED  .N      : TENSION FROM SONIC LOG
~Params ----------------------------------------------------
PD  .                         GL : PERMANENT DATUM
EPD .M                       556 : ELEVATION PERMANENT DATUM
LMF .                         KB : LOG MEASURED FROM
DAPD.M                       4.9 : FEET ABOVE PERMANENT DATUM
DMF .                         KB : DRILLING MEASURED FROM
EKB .M                     560.9 : KELLY BUSHING
EDF .M                     560.5 : DRILLING FLOOR
EGL .M                       556 : GROUND LEVEL
DATE.                   06/28/85 : RUN DATE
RUN .                          2 : RUN NUMBER
DD  .M                      2430 : DEPTH DRILLER
DL  .M                      2427 : DEPTH LOGGER
BLI .M                      2425 : BOTTOM LOG INTERVAL
TLI .M                      1775 : TOP LOG INTERVAL
CS  .MM                      244 : CASING SIZE
CBD .M                       386 : CASING BOTTOM DRILLER
CBL .M                       385 : CASING BOTTOM LOGGER
BS  .MM                      222 : BIT SIZE
BSD .M                      2430 : BIT SIZE AT DEPTH
DFT .                   GEL CHEM : DRILLING FLUID TYPE
DFD .                       1145 : DRILLING FLUID DENSITY
DFV .                         52 : DRILLING FLUID VISCOSITY
DFPH.                       11.4 : DRILLING FLUID PH
DFL .                        7.5 : DRILLING FLUID LOSS
MSS .                   FLOWLINE : MUD SAMPLE SOURCE
RMS .OHMM                   1.11 : RESISTIVITY MUD SAMPLE
MST .DEGC                     22 : MUD SAMPLE TEMPERATURE
RMF .OHMM                  0.963 : RESISTIVITY MUD FILTRATE SAMPLE
MFST.DEGC                     18 : MUD FILTRATE SAMPLE TEMPERATURE
RMC .OHMM                   1.22 : RESISTIVITY MUD CAKE
MCST.DEGC                     20 : MUD CAKE SAMPLE TEMPERATURE
MFSS.                       MEAS : MUD FILTRATE SAMPLE SOURCE
MCSS.                       MEAS : MUD CAKE SAMPLE SOURCE
RMB .OHMM                  0.579 : RESISTIVITY MUD AT BHT
TCS .HRS                     200 : TIME CIRCULATED STOPPED
TLAB.HRS                     830 : TIME LOGGER AT BOTTOM
LUN .                       8093 : LOGGING UNIT NUMBER
LUL .             GRANDE PRAIRIE : LOGGING UNIT LOCATION
ENGI.                 MACPHERSON : RECORDING ENGINEER
WITN.           SYMINGTON BRAZEZ : WITNESSED BY
CLNT.                    A2DTECH : CLIENT CODE
ORIG. 6.5"/100M 16.5"/100M PRINT : ORIGIN OF DATA
UWI .           100062007823W500 : UNIQUE WELL ID
DICO.     A2D Technologies, Inc. : DIGITIZING COMPANY
~Other -----------------------------------------------------
DLL-FDC-CNL-BHC-CVL LOG RUN IN COMBO
RHOB & DRHO DATA VERIFY FROM SMALL SECTION
~ASCII -----------------------------------------------------
  400.00000  272.17040  368.47090  318.57700  368.47090  259.36300   64.34840 1864.10500    -999.25    0.47630    0.49470    3.85560   64.34840  380.25130  380.25130    -999.25   66.54080   77.07370    3.85560    3.52780    -999.25    3.52780    -999.25    0.35580    0.31220    1.91090    1.91090 1847.60680    3.91260   77.07370  -11.25280   -3.23100    3.91260 7087.54100  493.88250 5518.30760
  450.00000  222.00060  219.16930  219.41680  219.16930  202.86440    7.38180 2182.06000    -999.25    0.28360    0.30870    4.92940    7.38180  332.04800  332.04800    -999.25   24.22150   27.99630    4.92940    7.86070    -999.25    7.86070    -999.25    0.31550    0.27160    1.70080    1.70080 2177.50510   13.11630   27.99630  -61.21700  -54.35730   13.11630 7277.27780  578.80990 5555.05860
  500.00000  230.18730  221.72450  222.55740  221.72450  307.04040   -0.10440 2161.60000    -999.25    0.29600    0.32070    3.25690   -0.10440  370.16340  370.16340    -999.25   54.91360   60.14810    3.25690    4.06370    -999.25    4.06370    -999.25    0.40490    0.36210    2.50230    2.50230 2163.18990    5.98420   60.14810  -43.14230  -35.57310    5.98420 7607.01270  643.05270 5885.91890
  550.00000  227.79700  221.90400  225.58030  221.90400  294.36870   12.55230 2131.90000    -999.25    0.31400    0.33810    3.39710   12.55230  366.24290  366.24290    -999.25   48.99070   49.30250    3.39710    4.19240    -999.25    4.19240    -999.25    0.41540    0.37280    2.17400    2.17400 2128.42290    5.92840   49.30250  -44.82670  -40.19840    5.92840 7913.16650  708.86460 6391.52980
  600.00000  228.90530  221.62520  223.96450  221.62520  268.26910    8.46930 2276.11000    -999.25    0.22660    0.25370    3.72760    8.46930  348.02650  348.02650    -999.25   67.41430   71.53070    3.72760    3.93380    -999.25    3.93380    -999.25    0.37420    0.33090    3.00470    3.00470 2277.54100    4.81370   71.53070  -20.62940  -16.98760    4.81370 8314.06540  776.74950 6703.15280
  650.00000  228.06470  233.48710  232.95380  233.48710  240.21720    8.73090 2362.90000    -999.25    0.17400    0.20300    4.16290    8.73090  335.41540  335.41540    -999.25   71.20360   74.98050    4.16290    4.24390    -999.25    4.24390    -999.25    0.40310    0.36030    3.05810    3.05810 2364.73360    4.90130   74.98050   -6.45330   -4.63770    4.90130 8609.72850  833.64340 6757.70950
  700.00000  224.14060  218.92760  221.14060  218.92760  281.94430    3.76750 2202.19000    -999.25    0.27140    0.29700    3.54680    3.76750  342.56270  342.56270    -999.25   52.83070   57.38360    3.54680    3.68010    -999.25    3.68010    -999.25    0.37100    0.32760    2.56140    2.56140 2201.46240    4.42720   57.38360  -26.74220  -25.97720    4.42720 8628.32230  890.72310 7022.46190
  750.00000  236.98230  229.30010  230.84050  229.30010  201.11420   45.30520 2359.60000    -999.25    0.17600    0.20490    4.97230   45.30520  337.81900  337.81900    -999.25   74.83770   83.24750    4.97230    5.15270    -999.25    5.15270    -999.25    0.37620    0.33290    3.09400    3.09400 2358.62130    5.43270   83.24750   -3.93020   -3.75720    5.43270 9278.43650  951.76490 7435.95950
  800.00000  227.35380  225.48620  228.59540  225.48620  116.58950   16.41140 2495.56000    -999.25    0.09360    0.12540    8.57710   16.41140  300.54010  300.54010    -999.25   72.97210   71.47120    8.57710    9.12120    -999.25    9.12120    -999.25    0.28140    0.23740    2.99260    2.99260 2495.90720   10.90880   71.47120   -4.10220   -5.16850   10.90880 9932.96480 1014.17110 8035.84720
  850.00000  235.45810  226.95240  232.64260  226.95240   48.28450   67.79770 2490.61000    -999.25    0.09660    0.12830   20.71060   67.79770  267.53180  267.53180    -999.25   52.36400   55.37080   20.71060   24.59500    -999.25   24.59500    -999.25    0.28070    0.23670    2.48420    2.48420 2487.19460   40.38520   55.37080  -11.12550   -9.59180   40.38520 9975.81150 1075.13780 8103.49800
  900.00000  264.66670  247.75340  249.09220  247.75340  193.61460   79.20130 2217.53500    -999.25    0.26210    0.28800    5.16490   79.20130  325.33100  325.33100    -999.25   88.33980   90.99520    5.16490    5.07300    -999.25    5.07300    -999.25    0.48800    0.44770    2.07290    2.07290 2267.67510    4.81240   90.99520   -2.13860   -3.17810    4.81240 10260.80960 1151.37040 8432.68550
  950.00000  238.27150  234.47110  229.36690  234.47110  211.98120    1.90370 2489.78500    -999.25    0.09710    0.12880    4.71740    1.90370  236.47890  236.47890    -999.25  134.58590  121.32810    4.71740    5.50670    -999.25    5.50670    -999.25    0.38430    0.34110    3.09970    3.09970 2527.84130    6.79290  121.32810  -41.74120  -44.41730    6.79290 10195.53120 1191.34770 9180.27050
 1000.00000  241.44600  222.86350  229.90550  222.86350  546.23910   11.01470 2429.56000    -999.25    0.13360    0.16400    1.83070   11.01470  272.46520  272.46520    -999.25   68.83110   78.91100    1.83070    2.54470    -999.25    2.54470    -999.25    0.26400    0.22000    2.35670    2.35670 2429.15670    7.39220   78.91100  -66.42760  -70.07690    7.39220 9942.55570 1275.40660 8577.74900
 1050.00000  236.56630  224.27440  223.38520  224.27440  741.67470   69.90230 2298.74500    0.24050    0.22830    0.24050    1.34830   69.90230  280.59890  280.59890    -999.25   23.10740   26.42690    1.34830    1.65900    -999.25    1.65900    0.21450    0.25730    0.21450    1.74850    1.74850 2278.46070    3.41080   26.42690  -93.00400  -97.62650    3.41080 10460.87300 1334.55660 8889.32130
 1100.00000  284.96680  275.76120  252.07440  275.76120  106.89010  -14.95560 2419.30000    0.17000    0.10820    0.17000    9.35540  -14.95560  196.52640  196.52640    -999.25   35.81420   26.13060    9.35540   11.85600    -999.25   11.85600    0.21950    0.25980    0.21950    5.02430    5.02430 2546.62330   10.93710   26.13060  -27.93840  -33.53410   10.93710 11380.66890 1385.63850 9380.97170
 1150.00000  283.00290  262.40950  270.04190  262.40950   75.58240    2.33640 2739.92500   -0.01750    -999.25   -0.01750   13.23060    2.33640  186.94230  186.94230    -999.25   27.32370   34.62130   13.23060   14.62750    -999.25   14.62750    0.02620    -999.25    0.02620    5.08800    5.08800 2740.27610   29.55410   34.62130  -37.63280  -44.20160   29.55410 11063.65620 1446.91700 9557.18550
 1200.00000  317.20620  299.39750  293.47310  299.39750  705.56690   -4.84980 2533.69900    0.10310    -999.25    0.10310    1.41730   -4.84980  242.80680  242.80680    -999.25   49.17390   44.60590    1.41730    1.71570    -999.25    1.71570    0.24520    -999.25    0.24520    3.30570    3.30570 2521.46440    2.57300   44.60590  -56.31640  -63.85840    2.57300 11555.50390 1525.82640 9839.55180
 1250.00000  270.17180  256.48660  258.87070  256.48660  130.92600   -4.12190 2603.29600    0.06240    -999.25    0.06240    7.63790   -4.12190  193.87170  193.87170    -999.25   31.96000   33.64060    7.63790    9.33630    -999.25    9.33630    0.11880    -999.25    0.11880    4.81680    4.81680 2594.42360   18.99010   33.64060  -31.22970  -39.74490   18.99010 11696.38280 1584.84840 10322.22560
 1300.00000  293.16250  266.40310  278.95540  266.40310   72.22090    2.26070 2606.37400    0.06060    -999.25    0.06060   13.84640    2.26070  185.37600  185.37600    -999.25   15.86100   17.97050   13.84640   16.80790    -999.25   16.80790    0.06210    -999.25    0.06210    4.73300    4.73300 2609.09940   28.50780   17.97050  -44.10230  -53.59060   28.50780 11498.99320 1642.97160 10522.58200
 1350.00000  277.05290  262.16510  262.41300  262.16510   99.81240    4.69120 2607.05800    0.06020    -999.25    0.06020   10.01880    4.69120  208.34380  208.34380    -999.25   32.60930   33.76440   10.01880   11.17490    -999.25   11.17490    0.09030    -999.25    0.09030    4.54260    4.54260 2580.22730   13.32230   33.76440    4.70670   -5.75480   13.32230 12217.89260 1692.97380 10818.97950
 1400.00000  293.74490  282.39770  281.41480  282.39770  367.40390   32.13100 2508.22000    0.11800    -999.25    0.11800    2.72180   32.13100  203.53670  203.53670    -999.25    9.48600   11.22200    2.72180    3.63840    -999.25    3.63840    0.09710    -999.25    0.09710    4.70380    4.70380 2501.39700   14.02550   11.22200  -72.22950  -83.93680   14.02550 12362.11720 1766.11190 11464.47850
