~Version ---------------------------------------------------
VERS.      2.0 : CWLS log ASCII Standard -VERSION 2.0
WRAP.       NO : One line per depth step
CREA. 10/09/14 : LAS Creation Date
~Well ------------------------------------------------------
STRT.M                             300.0 : START DEPTH
STOP.M                            1450.0 : STOP DEPTH
STEP.M                          50.00000 : STEP LENGTH
NULL.                            -999.25 : NULL VALUE
COMP.           ANDERSON EXPLORATION LTD : COMPANY
WELL. ANDERSON ET AL THORHILD 1-12-60-21 : WELL
FLD .                                    : FIELD
LOC .                                    : LOCATION
CTRY.                             CANADA : COUNTRY
SRVC.                       Schlumberger : SERVICE COMPANY
DATE.                        13-Nov-1980 : LOGDATE
PROV.                            Alberta : PROVINCE
UWI .                   100011206021W400 : UNIQUE WELL ID
SLAT.WGS84                      54.16735 : SURFACE LATITUDE
SLON.WGS84                     -113.0017 : SURFACE LONGITUDE
~Curve Information -----------------------------------------
DEPT    .M                       : Depth METER
CALDED  .MM                      : CALIPER FROM DENSITY LOG
CALSED  .MM                      : CALIPER FROM SONIC LOG [ADJ. TO RESISTIVITY LOG]
CALWS   .MM                      : CALIPER [CALDED]
CONDWS  .MMHO                    : CONDUCTIVITY [1000/DRESWS]
DCORED  .KG/M3                   : DENSITY CORRECTION FROM DENSITY LOG
DCORWS  .KG/M3                   : DENSITY CORRECTION [DCORED]
DENWS   .KG/M3                   : FORMATION BULK DENSITY [CALC. FROM DPOLSWS M=2710,F=1000]
DPHILSED.V/V                     : DENSITY POROSITY LIMESTONE [M=2710,F=1000] FROM DENSITY LOG
DPHISSED.V/V                     : DENSITY POROSITY SANDSTONE [M=2650,F=1000] FROM DENSITY LOG
DPOLSWS .V/V                     : DENSITY POROSITY M=2710,F=1000 [DPHISSED, SPL TO DPHILSED @774M]
DRESWS  .OHMM                    : DEEP RESISTIVITY [LLDED]
DTED    .US/M                    : DELTA-T FROM SONIC LOG
DTWS    .US/M                    : COMPRESSIONAL SONIC [DTED]
GRDED   .GAPI                    : GAMMA RAY FROM DENSITY LOG
GRSED   .GAPI                    : GAMMA RAY FROM SONIC LOG [ADJ. TO RESISTIVITY LOG]
GRWS    .GAPI                    : GAMMA RAY [GRDED, GRWS(CSG+30) @11.8-186M]
LLDED   .OHMM                    : DEEP LATERO FROM RESISTIVITY LOG
LLSED   .OHMM                    : SHALLOW LATERO FROM RESISTIVITY LOG
NPHILSED.V/V                     : NEUTRON POROSITY LIMESTONE FROM DENSITY LOG
NPHISSED.V/V                     : NEUTRON POROSITY SANDSTONE FROM DENSITY LOG
NPOLSWS .V/V                     : NEUTRON POROSITY LIMESTONE [NPHISSED, SPL. TO NPHILSED @774M]
RHOBED  .KG/M3                   : BULK DENSITY FROM DENSITY LOG
SPRED   .MV                      : SPONTANEOUS POTENTIAL FROM RESISTIVITY LOG
SPWS    .MV                      : SPONTANEOUS POTENTIAL [BASELINE 0 MV,SPRED]
SRESWS  .OHMM                    : SHALLOW RESISTIVITY [LLSED]
TENDED  .N :   TENSION [LBF TO N : *4.44822162] FROM DENSITY LOG
~Params ----------------------------------------------------
PD  .                      GL : PERMANENT DATUM
EPD .M                  647.1 : ELEVATION PERMANENT DATUM
LMF .                      KB : LOG MEASURED FROM
DAPD.M                    4.0 : FEET ABOVE PERMANENT DATUM
DMF .                      KB : DRILLING MEASURED FROM
EKB .M                  651.1 : KELLY BUSHING
EGL .M                  647.1 : GROUND LEVEL
DATE.              11/13/1980 : RUN DATE
RUN .                       1 : RUN NUMBER
DD  .M                   1492 : DEPTH DRILLER
DL  .M                 1492.6 : DEPTH LOGGER
BLI .M                 1492.1 : BOTTOM LOG INTERVAL
TLI .M                     20 : TOP LOG INTERVAL
CS  .MM                   219 : CASING SIZE
CBD .M                    185 : CASING BOTTOM DRILLER
CBL .M                    186 : CASING BOTTOM LOGGER
BS  .MM                   200 : BIT SIZE
BSD .M                 1492.6 : BIT SIZE AT DEPTH
DFT .                GEL CHEM : DRILLING FLUID TYPE
DFD .                    1105 : DRILLING FLUID DENSITY
DFV .                      60 : DRILLING FLUID VISCOSITY
DFPH.                    10.5 : DRILLING FLUID PH
DFL .                    11.8 : DRILLING FLUID LOSS
MSS .                FLOWLINE : MUD SAMPLE SOURCE
RMS .OHMM               0.317 : RESISTIVITY MUD SAMPLE
MST .DEGC                  15 : MUD SAMPLE TEMPERATURE
RMF .OHMM               0.265 : RESISTIVITY MUD FILTRATE SAMPLE
MFST.DEGC                  15 : MUD FILTRATE SAMPLE TEMPERATURE
MFSS.                MEASURED : MUD FILTRATE SAMPLE SOURCE
RMB .OHMM               0.176 : RESISTIVITY MUD AT BHT
TCS .HRS                 1430 : TIME CIRCULATED STOPPED
TLAB.HRS                 2300 : TIME LOGGER AT BOTTOM
LUN .                    8194 : LOGGING UNIT NUMBER
LUL .                     EDM : LOGGING UNIT LOCATION
ENGI.       IRELAND, MACAULAY : RECORDING ENGINEER
WITN.                   GRANT : WITNESSED BY
CLNT.                 A2DTECH : CLIENT CODE
ORIG. 40'/100M 24"/100M PRINT : ORIGIN OF DATA
UWI .        100011206021W400 : UNIQUE WELL ID
DICO.  A2D Technologies, Inc. : DIGITIZING COMPANY
~Other -----------------------------------------------------
MUD DENSITY 1105 PPM, RESISTIVITY FROM LARGE LOG IMAGE.
~ASCII -----------------------------------------------------
  300.00000  227.09220  211.14840  227.09220  196.29780   42.42260   42.42260 2250.53500    -999.25    0.24210    0.26870    5.09430  412.68460  412.68460  103.67490  110.77420  103.67490    5.09430    4.67350    -999.25    0.42150    0.37910 2249.03690 -118.63710   -2.83960    4.67350 4854.71880
  350.00000  219.43230  218.27970  219.43230  185.35680  114.95850  114.95850 2164.24000    -999.25    0.29440    0.31920    5.39500  420.22370  420.22370  123.49620  133.96010  123.49620    5.39500    5.09960    -999.25    0.47240    0.43140 2167.11600 -117.81100   -2.90160    5.09960 5339.96190
  400.00000  205.65190  203.84370  205.65190  195.42320   94.36170   94.36170 2213.74000    -999.25    0.26440    0.29020    5.11710  406.80940  406.80940  108.49740  119.39950  108.49740    5.11710    4.95950    -999.25    0.45170    0.41010 2219.80250 -118.09680   -4.07550    4.95950 5376.60110
  450.00000  229.82970  211.73320  229.82970  214.48180   77.48090   77.48090 2123.98000    -999.25    0.31880    0.34270    4.66240  398.61210  398.61210  104.05600  119.10020  104.05600    4.66240    4.55560    -999.25    0.46210    0.42080 2126.94850 -114.67830   -1.54520    4.55560 5527.20760
  500.00000  234.06090  220.27070  234.06090  146.19030   29.40980   29.40980 2359.60000    -999.25    0.17600    0.20490    6.84040  371.92160  371.92160  198.57290  219.59030  198.57290    6.84040    7.11050    -999.25    0.44300    0.40110 2362.21260 -119.96640   -8.66000    7.11050 5737.57650
  550.00000  236.59910  216.78890  236.59910  314.72270   95.72260   95.72260 2271.65500    -999.25    0.22930    0.25630    3.17740  376.34490  376.34490  102.90340  115.24620  102.90340    3.17740    3.32260    -999.25    0.47630    0.43550 2285.34300 -111.69030   -2.34580    3.32260 6039.53150
  600.00000  231.41220  221.13670  231.41220  513.92740   83.35290   83.35290 2050.72000    -999.25    0.36320    0.38550    1.94580  431.98390  431.98390   85.06290   92.97730   85.06290    1.94580    1.86460    -999.25    0.55350    0.51650 2048.28030 -108.07310   -0.69060    1.86460 6189.20440
  650.00000  202.63550  206.92160  202.63550  233.45940   17.44640   17.44640 2281.06000    -999.25    0.22360    0.25080    4.28340  333.80910  333.80910   61.76760   66.59050   61.76760    4.28340    4.48230    -999.25    0.39190    0.34890 2280.73440 -115.82340  -11.32510    4.48230 6584.57120
  700.00000  227.50800  214.94890  227.50800  197.94140   10.02480   10.02480 2284.36000    -999.25    0.22160    0.24890    5.05200  339.79170  339.79170   59.04210   52.62320   59.04210    5.05200    5.87290    -999.25    0.34560    0.30190 2285.60890 -116.81950  -15.26220    5.87290 6763.44760
  750.00000  279.40840  251.70890  279.40840  298.16040   56.36690   56.36690 2344.58500    -999.25    0.18510    0.21370    3.35390  351.10110  351.10110   76.34390   79.28880   76.34390    3.35390    3.48370    -999.25    0.38810    0.34500 2350.43630 -102.61090   -3.99450    3.48370 6906.42450
  800.00000  268.24460  245.69910  268.24460  165.04370   10.21660   10.21660 2497.61800    0.12420    0.10770    0.12420    6.05900  251.35830  251.35830   54.46600   58.15830   54.46600    6.05900    6.56440    0.27420    -999.25    0.27420 2507.27830 -113.43350  -15.75230    6.56440 7118.44550
  850.00000  203.63970  205.00440  203.63970   37.43570    9.83650    9.83650 2689.82200    0.01180    -999.25    0.01180   26.71250  179.50110  179.50110   19.24160   23.63800   19.24160   26.71250   39.62910    0.10030    -999.25    0.10030 2691.78820 -110.26310  -15.63590   39.62910 7112.58850
  900.00000  221.10200  223.19740  221.10200   39.10790    8.87410    8.87410 2746.08100   -0.02110    -999.25   -0.02110   25.57030  189.02740  189.02740   35.79930   33.99770   35.79930   25.57030   32.87390    0.13930    -999.25    0.13930 2749.12750 -102.18500  -21.43930   32.87390 7567.09090
  950.00000  251.21740  248.06080  251.21740  108.45050   -0.51740   -0.51740 2599.70500    0.06450    -999.25    0.06450    9.22080  263.24050  263.24050   62.14310   56.54900   62.14310    9.22080    8.79080    0.18450    -999.25    0.18450 2597.46880  -80.86210  -13.99800    8.79080 7720.20270
 1000.00000  239.22670  238.99510  239.22670   65.10420   -0.37920   -0.37920 2648.44000    0.03600    -999.25    0.03600   15.36000  224.86560  224.86560   43.25620   44.13100   43.25620   15.36000   16.84230    0.07950    -999.25    0.07950 2651.65700  -62.94120   -9.95860   16.84230 8103.77010
 1050.00000  238.84930  238.69130  238.84930  144.02790    0.93020    0.93020 2547.72100    0.09490    -999.25    0.09490    6.94310  258.21950  258.21950   80.70180   83.47490   80.70180    6.94310    7.29430    0.21660    -999.25    0.21660 2556.77030  -44.23600   -4.35600    7.29430 8238.06370
 1100.00000  227.10110  230.15850  227.10110   85.61790    4.89190    4.89190 2643.82300    0.03870    -999.25    0.03870   11.67980  223.25370  223.25370   45.74560   46.80360   45.74560   11.67980   12.83950    0.15070    -999.25    0.15070 2650.22730  -44.50440   -8.25600   12.83950 8262.59120
 1150.00000  236.71450  237.91500  236.71450   37.02690    2.21700    2.21700 2656.47700    0.03130    -999.25    0.03130   27.00740  194.11290  194.11290   23.45760   26.79800   23.45760   27.00740   28.12890    0.07300    -999.25    0.07300 2657.88550  -47.90060  -14.26410   28.12890 8530.62100
 1200.00000  196.17730  202.17600  196.17730   40.32100   37.97630   37.97630 2472.65200    0.13880    -999.25    0.13880   24.80100  209.80760  209.80760    7.68590    7.95340    7.68590   24.80100   38.38490    0.16550    -999.25    0.16550 2470.25680  -80.63180  -46.15420   38.38490 8464.18770
 1250.00000  326.18010  279.02420  326.18010  154.96670  240.52670  240.52670 2345.42800    0.21320    -999.25    0.21320    6.45300  255.15260  255.15260   55.35630   56.25750   55.35630    6.45300    7.20770    0.23430    -999.25    0.23430 2376.40040  -39.57040   -4.25180    7.20770 8904.77390
 1300.00000  221.00590  223.20430  221.00590   37.85150   42.97450   42.97450 2561.91400    0.08660    -999.25    0.08660   26.41900  193.14530  193.14530    9.24940   11.02070    9.24940   26.41900   33.68050    0.10840    -999.25    0.10840 2565.12960  -65.61690  -30.64840   33.68050 8892.52440
 1350.00000  252.90140  251.24810  252.90140   79.53550   54.92120   54.92120 2693.07100    0.00990    -999.25    0.00990   12.57300  215.98970  215.98970   42.21660   44.90220   42.21660   12.57300   12.88410    0.14540    -999.25    0.14540 2693.79130  -36.77070   -2.21760   12.88410 9221.67810
 1400.00000  209.83790  212.01750  209.83790   57.67880   -0.52830   -0.52830 2689.30900    0.01210    -999.25    0.01210   17.33740  194.68430  194.68430   35.00640   30.96180   35.00640   17.33740   19.60150    0.08830    -999.25    0.08830 2688.52250  -51.22920  -13.19480   19.60150 9585.82640
 1450.00000  202.64170  203.98230  202.64170   26.02430    4.70900    4.70900 2588.76100    0.07090    -999.25    0.07090   38.42560  220.87620  220.87620   29.34260   28.45550   29.34260   38.42560   44.69380    0.15930    -999.25    0.15930 2596.09030  -55.46130   -9.76520   44.69380 9698.47940
