~Version ---------------------------------------------------
VERS.      2.0 : CWLS log ASCII Standard -VERSION 2.0
WRAP.       NO : One line per depth step
CREA. 08/23/13 : LAS Creation Date
~Well ------------------------------------------------------
STRT.m                      550.0 : START DEPTH
STOP.m                     3100.0 : STOP DEPTH
STEP.m                   50.00000 : STEP LENGTH
NULL.                     -999.25 : NULL VALUE
COMP. PARAMOUNT RESOURCES COMPANY : COMPANY
WELL.     PARA KAYBOB 16-15-63-19 : WELL
FLD .                             : FIELD
LOC .                             : LOCATION
CTRY.                      CANADA : COUNTRY
SRVC.                     Unknown : SERVICE COMPANY
DATE.                 19-Jul-2002 : LOGDATE
PROV.                     Alberta : PROVINCE
UWI .            100161506319W500 : UNIQUE WELL ID
SLAT.WGS84               54.45481 : SURFACE LATITUDE
SLON.WGS84              -116.7782 : SURFACE LONGITUDE
~Curve Information -----------------------------------------
DEPT    .m      : Depth meter
CALWS   .MM     : CALIPER [CALYSED]
CALXDED .MM     : CALIPER FROM X AXIS OF X-Y CALIPER(S) FROM FDC LOG
CALYDED .MM     : CALIPER FROM X AXIS OF X-Y CALIPER[S]
CALYSED .MM     : CALIPER Y FROM Y-AIX OF X-Y CALIPER (S)
CONDWS  .MMHO   : CONDUCTIVITY [1000/DRESWS]
CORRED  .KG/M3  : DENSITY CORRECTION FROM FDC LOG
DCORWS  .KG/M3  : DENSITY CORRECTION [DRHOED]
DENWS   .KG/M3  : BUCK DENSITY  M=2.65 F=1.0] [RHOZED]
DPOLSWS .V/V    : DENSITY POROSITY [M=2.71 F=1.0] [DENWS]
DPORLSED.V/V    : DENSITY POROSITY LIMESTONE
DPORSSED.V/V    : DENSITY POROSITY SANDSTONE
DRESWS  .OHMM   : DEEP RESISTIVITY [ILDED]
DTED    .US/M   : DELTA TIME FROM SONIC LOG
DTWS    .US/M   : DELTA TIME [DTED]
GRDED   .GAPI   : GAMMA RAY FROM FDC LOG
GRRED   .GAPI   : GAMMA RAY FROM RESISTIVITY LOG
GRSED   .GAPI   : GAMMA RAY FROM SONIC LOG
GRWS    .GAPI   : GAMMA RAY [GRRED]
ILDED   .OHMM   : INDUCTION LOG DEEP RESISTIVITY
ILMED   .OHMM   : INDUCTION MEDIUM RESISTIVITY
MRESWS  .OHMM   : SHALLOW LATERAL RESISTIVITY [ILMED]
NPOLSWS .V/V    : NEUTRON POROSITY[CONVERTED FROM [NPORSSED,SPLICED NPORLSED AT 1885 M]
NPORLSED.V/V    : ENCHANCED THERMAL NEUTRON POROSITY IN SELECTED LITHOLOGY SANDSTONE
NPORSSED.V/V    : NEUTRON POROSITY SANDSTONE FROM DENSITY LOG
PEFED   .B/E    : PHOTO ELECTROL LOG FROM FDC LOG
PEFWS   .B/E    : PHOTO ELECTROL [PEFED]
RHOBED  .KG/M3  : BUCK DENSITY FROM FDC LOG
SFLED   .OHMM   : SPHERICALLY FOCUSED LOG
SPRED   .MV     : SPONTANEOUS POTENTIAL FROM RESISTIVITY LOG
SPWS    .MV     : SPONTANEOUS POTENTIAL [BASELINE 0 MV] [SPRED]
SRESWS  .OHMM   : SHALLOW RESISTIVITY [SFLED]
TENDED  .N      : TENSION FROM FDC LOG
TENRED  .N      : TENSION FROM RESISTIVITY LOG
TENSED  .N      : TENSTION FROM SONIC LOG
~Params ----------------------------------------------------
PD  .                                   GL : PERMANENT DATUM
EPD .M                               777.4 : ELEVATION PERMANENT DATUM
LMF .                                   KB : LOG MEASURED FROM
DAPD.M                                5.25 : FEET ABOVE PERMANENT DATUM
DMF .                                   KB : DRILLING MEASURED FROM
EKB .M                              782.65 : KELLY BUSHING
EGL .M                               777.4 : GROUND LEVEL
DATE.                             07/19/02 : RUN DATE
RUN .                                    1 : RUN NUMBER
DD  .M                                3125 : DEPTH DRILLER
DL  .M                              3126.5 : DEPTH LOGGER
BLI .M                              3124.4 : BOTTOM LOG INTERVAL
TLI .M                                 537 : TOP LOG INTERVAL
CS  .MM                                219 : CASING SIZE
CBD .M                                 537 : CASING BOTTOM DRILLER
CBL .M                                 537 : CASING BOTTOM LOGGER
BS  .MM                                200 : BIT SIZE
BSD .M                                3125 : BIT SIZE AT DEPTH
DFT .                         GEL CHEMICAL : DRILLING FLUID TYPE
DFD .                                 1170 : DRILLING FLUID DENSITY
DFV .                                  120 : DRILLING FLUID VISCOSITY
DFPH.                                    9 : DRILLING FLUID PH
DFL .                                    8 : DRILLING FLUID LOSS
MSS .                             FLOWLINE : MUD SAMPLE SOURCE
RMS .OHMM                              1.3 : RESISTIVITY MUD SAMPLE
MST .DEGC                               23 : MUD SAMPLE TEMPERATURE
RMF .OHMM                              0.9 : RESISTIVITY MUD FILTRATE SAMPLE
MFST.DEGC                               23 : MUD FILTRATE SAMPLE TEMPERATURE
RMC .OHMM                              1.4 : RESISTIVITY MUD CAKE
MCST.DEGC                               21 : MUD CAKE SAMPLE TEMPERATURE
RMB .OHMM                              0.5 : RESISTIVITY MUD AT BHT
TCS .HRS                               5.5 : TIME CIRCULATED STOPPED
LUN .                                  384 : LOGGING UNIT NUMBER
LUL .                      GRAND PRAIRE OH : LOGGING UNIT LOCATION
ENGI.                                 KOCH : RECORDING ENGINEER
WITN.                               BREDIN : WITNESSED BY
CLNT.                              A2DTECH : CLIENT CODE
ORIG. 6.5"/100M 16.5"/100M 33"/100M  PRINT : ORIGIN OF DATA
UWI .                     100161506319W500 : UNIQUE WELL ID
DICO.               A2D Technologies, Inc. : DIGITIZING COMPANY
~Other -----------------------------------------------------
1. ALL CURVES APPEAR ON DEPTH, MUD DENSITY 1170 PPM.
~ASCII -----------------------------------------------------
# ...
 1600.00000  212.31140  214.83360  216.27240  212.31140   81.14310    9.77200    9.77200 2644.72020    0.03820    -999.25    0.01780   12.32390  239.65320  239.65320   77.50990   84.48310   85.69790   84.48310   12.32390   12.62770   12.62770    0.29470    -999.25    0.29470    3.19610    3.19610 2644.72020   17.82430   60.74140   -0.20750   17.82430 14783.10320 12945.24170 13038.34480
 1650.00000  273.36210  262.27930  278.44600  273.36210   24.37660  -11.91900  -11.91900 1850.36270    0.50270    -999.25    0.83410   41.02290  407.33980  407.33980   16.34110   21.00100   17.77980   21.00100   41.02290   35.17620   35.17620    0.61520    -999.25    0.61520    1.50000    1.50000 1850.36270  215.53870   30.50230  -26.87370  215.53870 15203.27640 13086.29880 13343.57150
 1700.00000  228.89280  238.58980  228.17580  228.89280  102.55460   36.82990   36.82990 2616.30000    0.05480    -999.25    0.02390    9.75090  242.42380  242.42380   65.09420   68.15400   68.28860   68.15400    9.75090    9.96230    9.96230    0.27770    -999.25    0.27770    3.32620    3.32620 2616.30000   10.15420  -11.78270  -69.15870   10.15420 14855.72750 13577.16270 13575.20460
 1750.00000  226.38400  221.72150  219.85920  226.38400   81.61930    4.04210    4.04210 2641.91890    0.03980    -999.25    0.01150   12.25200  240.88070  240.88070   79.59030   73.17900   72.37210   73.17900   12.25200   12.00810   12.00810    0.26620    -999.25    0.26620    3.30240    3.30240 2641.91890   13.46950   -7.50480  -64.88080   13.46950 14812.82220 13414.78840 13575.28600
 1800.00000  213.83010  224.65110  220.17300  213.83010   71.12930   16.46580   16.46580 2644.30740    0.03840    -999.25    0.00880   14.05890  246.69660  246.69660   88.94800   85.80820   91.20740   85.80820   14.05890   14.14170   14.14170    0.27170    -999.25    0.27170    3.29990    3.29990 2644.30740   20.26300   -3.57660  -60.95260   20.26300 14915.49290 13850.13850 13825.73740
 1850.00000  345.02920  325.30940  281.70060  345.02920  234.63160  265.14770  265.14770 2315.14060    0.23090    -999.25    0.20810    4.26200  270.66820  270.66820   80.82630   73.29280   71.50730   73.29280    4.26200    4.37600    4.37600    0.37880    -999.25    0.37880    4.52420    4.52420 2315.14060    4.90350   -2.17180  -59.54780    4.90350 15816.12350 14468.07300 14558.24740
 1900.00000  215.83830  210.81180  216.90530  215.83830    2.17220   18.23820   18.23820 2551.18360    0.09290    0.08940    0.05640  460.36760  205.65350  205.65350   67.70800   83.08180   72.28600   83.08180  460.36760  827.84310  827.84310    0.12650    0.12650    0.18760    4.26240    4.26240 2551.18360 1744.24670  -26.59920  -83.97520 1744.24670 15973.02960 14418.17510 14458.83810
 1950.00000  199.82490  224.99990  238.58770  199.82490  119.21940    1.92680    1.92680 2602.99800    0.06260    0.05900    0.02520    8.38790  209.91600  209.91600   61.08630   62.30180   61.53910   62.30180    8.38790    8.37710    8.37710    0.11020    0.11020    0.16580    2.84530    2.84530 2602.99800   10.00660  -41.30970  -98.68570   10.00660 16246.78210 14820.68490 14806.10980
 2000.00000  221.47150  222.15640  217.56320  221.47150   17.59930   47.94740   47.94740 2667.60520    0.02480    0.02190    -999.25   56.82030  164.53640  164.53640   22.13680   26.33300   23.75520   26.33300   56.82030   64.53330   64.53330    0.01810    0.01810    -999.25    4.76590    4.76590 2667.60520  306.07910  -45.35700 -102.73300  306.07910 16826.43650 15209.37760 15280.04960
 2050.00000  245.15210  217.49710  240.10800  245.15210   88.56610   58.50280   58.50280 2666.02080    0.02570    0.02830    -999.25   11.29100  190.00410  190.00410   48.99440   49.45180   49.69170   49.45180   11.29100   13.46260   13.46260    0.08100    0.08100    -999.25    5.27190    5.27190 2666.02080   72.35990  -51.90470 -109.28070   72.35990 16558.67000 15419.67750 15486.56720
 2100.00000  222.40440  218.25390  228.08880  222.40440   37.51680   39.41180   39.41180 2690.12380    0.01160    0.00930    -999.25   26.65470  162.64630  162.64630   12.75810   11.76720   11.23880   11.76720   26.65470   47.95850   47.95850    0.03230    0.03230    -999.25    4.88990    4.88990 2690.12380  217.00520  -92.28640 -149.66240  217.00520 17088.10400 15864.08380 15866.15400
 2150.00000  224.77880  224.58160  243.16270  224.77880  251.90820  100.31860  100.31860 2614.11160    0.05610    0.06260    -999.25    3.96970  204.28520  204.28520   38.36640   35.59220   34.48420   35.59220    3.96970    4.66510    4.66510    0.14920    0.14920    -999.25    3.64230    3.64230 2614.11160   11.41230  -54.42410 -111.80010   11.41230 16760.38890 16076.91430 16047.17350
 2200.00000  231.92460  223.73080  224.83800  231.92460   16.08400   67.57630   67.57630 2675.81980    0.02000    0.02270    -999.25   62.17370  168.58310  168.58310   10.71270   12.93190   13.50420   12.93190   62.17370   69.67330   69.67330    0.03220    0.03220    -999.25    5.64990    5.64990 2675.81980  191.62480  -85.09500 -142.47100  191.62480 17379.27260 16406.37180 16363.83350
 2250.00000  206.58650  209.90460  208.48260  206.58650   13.22030    3.34920    3.34920 2706.67820    0.00190   -0.00040    -999.25   75.64120  175.75920  175.75920   37.71710   35.53560   34.78050   35.53560   75.64120   87.99440   87.99440    0.03950    0.03950    -999.25    4.03060    4.03060 2706.67820  143.08960  -45.89070 -103.26670  143.08960 17865.45030 16794.66820 16769.29370
 2300.00000  229.40010  217.64820  211.27100  229.40010   16.16830   70.34750   70.34750 2499.43770    0.12310    0.12310    -999.25   61.84940  187.03690  187.03690   71.61290   55.04540   60.48830   55.04540   61.84940   46.35430   46.35430    0.07950    0.07950    -999.25    4.06600    4.06600 2499.43770   57.29260  -24.90360  -82.27960   57.29260 17411.99860 17158.17200 17220.46570
 2350.00000  198.95480  209.07210  226.11410  198.95480    1.41720   25.25330   25.25330 2694.73290    0.00890    0.00940    -999.25  705.59630  159.82110  159.82110    9.98760   10.48510    9.88260   10.48510  705.59630  695.88300  695.88300    0.00430    0.00430    -999.25    5.16010    5.16010 2694.73290 1120.84560  -71.29860 -128.67460 1120.84560 19066.59830 17580.40250 17204.11500
 2400.00000  195.78290  195.97430  243.40520  195.78290    0.68300   26.23420   26.23420 2723.37110   -0.00780   -0.00270    -999.25 1464.06860  160.70040  160.70040    7.02980    6.97270    6.96370    6.97270 1464.06860  672.16560  672.16560    0.00420    0.00420    -999.25    5.50360    5.50360 2723.37110    -999.25  -71.63810 -129.01410    -999.25 18666.77300 17750.61190 17696.92190
 2450.00000  194.17170  225.58000  182.38370  194.17170    0.51720  349.40090  349.40090 2668.56100    0.02420    0.01880    -999.25 1933.59610  161.75060  161.75060   12.38700   11.14560   11.90300   11.14560 1933.59610  591.62730  591.62730    0.01090    0.01090    -999.25    6.02520    6.02520 2668.56100    -999.25  -92.19390 -149.56990    -999.25 19067.23700 17821.48500 18047.57960
 2500.00000  192.68980  218.08740  198.92130  192.68980   12.65410  416.13350  416.13350 2766.04880   -0.03280   -0.03260    -999.25   79.02600  161.29290  161.29290    9.96790    8.64050    9.41550    8.64050   79.02600   83.74630   83.74630    0.01490    0.01490    -999.25    6.94730    6.94730 2766.04880   96.66250  -63.69230 -121.06830   96.66250 19420.04280 18405.49870 18512.44280
 2550.00000  196.72890  200.06210  196.89570  196.72890   35.70690   29.84010   29.84010 2760.43600   -0.02950   -0.02950    -999.25   28.00580  160.18810  160.18810   11.12990   11.29160   11.16460   11.29160   28.00580   59.24830   59.24830    0.06820    0.06820    -999.25    3.85120    3.85120 2760.43600  179.63450  -68.12510 -125.50110  179.63450 19116.10430 18932.28070 18759.22570
 2600.00000  197.58950  224.82250  192.62350  197.58950    6.91440  450.87550  450.87550 2739.27880   -0.01710   -0.00690    -999.25  144.62540  154.17880  154.17880   14.62340   15.20040   14.71480   15.20040  144.62540  201.54040  201.54040    0.06220    0.06220    -999.25    6.60780    6.60780 2739.27880  235.66890  -63.85110 -121.22710  235.66890 19151.83330 19112.03200 19176.13130
