~Version ---------------------------------------------------
VERS.      2.0 : CWLS log ASCII Standard -VERSION 2.0
WRAP.       NO : One line per depth step
CREA. 09/20/13 : LAS Creation Date
~Well ------------------------------------------------------
STRT.M                                    400.0 : START DEPTH
STOP.M                                   2550.0 : STOP DEPTH
STEP.M                                 50.00000 : STEP LENGTH
NULL.                                   -999.25 : NULL VALUE
COMP.              HUSKY OIL OPERATIONS LIMITED : COMPANY
WELL. CANTERRA ET AL TWINING 10-30-32-23 #10-30 : WELL
FLD .                                           : FIELD
LOC .                                           : LOCATION
CTRY.                                    CANADA : COUNTRY
SRVC.                              Schlumberger : SERVICE COMPANY
DATE.                               19-Sep-1988 : LOGDATE
PROV.                                   Alberta : PROVINCE
UWI .                          100103003223W400 : UNIQUE WELL ID
SLAT.WGS84                             51.77547 : SURFACE LATITUDE
SLON.WGS84                            -113.2476 : SURFACE LONGITUDE
~Curve Information -----------------------------------------
DEPT    .M      : DEPTH METER
CALDED  .MM     : CALIPER FROM DENSITY LOG [ADJ.TO DISFL LOG]
CALSDED .MM     : CALIPER FROM DENSITY LOG [ADJ.TO DISFL LOG]
CALSED  .MM     : CALIPER FROM SONIC LOG [ADJ.TO DISFL LOG]
CALWS   .MM     : CALIPER [CALDED]
CONDWS  .MMHO   : CONDUCTIVITY [1000/DRESWS]
DCORWS  .KG/M3  : DENSITY CORRECTION [DRHOED]
DENWS   .KG/M3  : FORMATION BULK DENSITY [RHOBED]
DPOLSWS .V/V    : DENSITY POROSITY LIMESTONE [CALC. FROM DENWS M=2710, F=1000]
DRESWS  .OHMM   : DEEP RESISTIVITY [ILDED]
DRHOED  .KG/M3  : BULK DENSITY CORRECTION FROM DENSITY LOG [ADJ.TO DISFL LOG]
DTED    .US/M   : DELTA-T  FROM SONIC LOG [ADJ.TO DISFL LOG]
DTWS    .US/M   : COMPRESSIONAL SONIC [DTED]
GRDED   .GAPI   : GAMMA RAY FROM DENSITY LOG [ADJ.TO DISFL LOG]
GRR1ED  .GAPI   : GAMMA RAY FROM DLL LOG [ADJ.TO DISFL LOG]
GRRED   .GAPI   : GAMMA RAY FROM DISFL LOG
GRSED   .GAPI   : GAMMA RAY FROM SONIC LOG [ADJ.TO DISFL LOG]
GRWS    .GAPI   : GAMMA RAY [GRSED SPL. TO GRRED @ 369 M]
ILDED   .OHMM   : DEEP INDUCTION FROM DISFL LOG
ILMED   .OHMM   : MEDIUM INDUCTION FROM DISFL LOG
LLDED   .OHMM   : DEEP LATEROLOG FROM DLL LOG
LLSED   .OHMM   : SHALLOW LATEROLOG FROM DLL LOG
MRESWS  .OHMM   : MEDIUM RESISTIVITY [ILMED]
NPHILSED.V/V    : NEUTRON POROSITY LIMESTONE FROM DENSITY LOG [ADJ.TO DISFL LOG]
NPHISSED.V/V    : NEUTRON POROSITY SANDSTONE FROM DENSITY LOG [ADJ.TO DISFL LOG]
NPOLSWS .V/V    : NEUTRON POROSITY LIMESTONE [NPHILSED]
PEFED   .B/E    : PHOTOELECTRIC FACTOR FROM DENSITY LOG [ADJ.TO DISFL LOG]
PEFWS   .B/E    : PHOTOELECTRIC FACTOR [PEFED]
RHOBED  .KG/M3  : BULK DENSITY FROM DENSITY LOG [ADJ.TO DISFL LOG]
SFLUED  .OHMM   : SHALLOW FOCUSED FROM DISFL LOG
SPR1ED  .MV     : SPONTANEOUS POTENTIAL DLL LOG [ADJ.TO DISFL LOG]
SPRED   .MV     : SPONTANEOUS POTENTIAL FROM DISFL LOG
SPWS    .MV     : SPONTANEOUS POTENTIAL [BASELINE 0 MV, SPRED]
SRESWS  .OHMM   : SHALLOW RESISTIVITY [SFLUED]
TENDED  .N      : TENSION FROM DENSITY LOG [ADJ.TO DISFL LOG]
TENR1ED .N      : TENSION FROM DLL LOG [ADJ.TO DISFL LOG]
TENRED  .N      : TENSION FROM DISFL LOG
TENSED  .N      : TENSION FROM SONIC LOG [ADJ.TO DISFL LOG]
~Params ----------------------------------------------------
PD  .                         GL : PERMANENT DATUM
EPD .M                     882.7 : ELEVATION PERMANENT DATUM
LMF .                         KB : LOG MEASURED FROM
DAPD.M                       4.9 : FEET ABOVE PERMANENT DATUM
DMF .                         KB : DRILLING MEASURED FROM
EKB .M                     887.6 : KELLY BUSHING
EDF .M                     887.4 : DRILLING FLOOR
EGL .M                     882.7 : GROUND LEVEL
DATE.                   09/19/88 : RUN DATE
RUN .                          1 : RUN NUMBER
DD  .M                      2564 : DEPTH DRILLER
DL  .M                    2561.2 : DEPTH LOGGER
BLI .M                    2560.7 : BOTTOM LOG INTERVAL
TLI .M                     392.2 : TOP LOG INTERVAL
CS  .MM                    244.5 : CASING SIZE
CBD .M                       393 : CASING BOTTOM DRILLER
CBL .M                     392.2 : CASING BOTTOM LOGGER
BS  .MM                      222 : BIT SIZE
BSD .M                      2564 : BIT SIZE AT DEPTH
DFT .                   GEL CHEM : DRILLING FLUID TYPE
DFD .                       1070 : DRILLING FLUID DENSITY
DFV .                        120 : DRILLING FLUID VISCOSITY
DFPH.                       10.5 : DRILLING FLUID PH
DFL .                          9 : DRILLING FLUID LOSS
MSS .                   FLOWLINE : MUD SAMPLE SOURCE
RMS .OHMM                   1.48 : RESISTIVITY MUD SAMPLE
MST .DEGC                   15.5 : MUD SAMPLE TEMPERATURE
RMF .OHMM                    0.9 : RESISTIVITY MUD FILTRATE SAMPLE
MFST.DEGC                   15.5 : MUD FILTRATE SAMPLE TEMPERATURE
RMC .OHMM                   2.31 : RESISTIVITY MUD CAKE
MCST.DEGC                   15.5 : MUD CAKE SAMPLE TEMPERATURE
MFSS.                   MEASURED : MUD FILTRATE SAMPLE SOURCE
MCSS.                 CALCULATED : MUD CAKE SAMPLE SOURCE
RMB .OHMM                  0.575 : RESISTIVITY MUD AT BHT
TCS .HRS                    1100 : TIME CIRCULATED STOPPED
TLAB.HRS                     630 : TIME LOGGER AT BOTTOM
LUN .                       8175 : LOGGING UNIT NUMBER
LUL .                     BROOKS : LOGGING UNIT LOCATION
ENGI.                    CAMERON : RECORDING ENGINEER
WITN.                    JOHNSON : WITNESSED BY
CLNT.                    A2DTECH : CLIENT CODE
ORIG. 6.5"/100M 16.5"/100M PRINT : ORIGIN OF DATA
UWI .           100103003223W400 : UNIQUE WELL ID
DICO.     A2D Technologies, Inc. : DIGITIZING COMPANY
~Other -----------------------------------------------------
RUN#1: DIL-BHC LOG RAN IN COMBO & CNL-LDT LOG
RUN#2: DIL-SFL-DLL-BHC-CNL-LDT LOG RAN
~ASCII -----------------------------------------------------
# ...
 1350.00000  297.30230  266.62300  272.27860  297.30230  237.95930   78.53800 2005.17050    0.41220    4.20240   78.53800  345.99410  345.99410  149.19160    -999.25  143.72990  149.01530  143.72990    4.20240    4.09740    -999.25    -999.25    4.09740    0.34470    -999.25    0.34470    2.79080    2.79080 2005.17050    5.38670    -999.25 -219.35480   -2.94330    5.38670 80251.41100    -999.25 79906.03260 69114.22790
 1400.00000  264.09110  229.87200  257.73240  264.09110   83.57780   64.22320 2526.98630    0.10700   11.96490   64.22320  253.79610  253.79610   88.74050    -999.25   88.36130   88.72550   88.36130   11.96490   11.49910    -999.25    -999.25   11.49910    0.13400    -999.25    0.13400    2.44800    2.44800 2526.98630   14.81940    -999.25 -225.36380  -12.46890   14.81940 85828.59260    -999.25 85594.77200 69896.75820
 1450.00000  361.40770  253.60740  305.19940  361.40770  483.95680   95.44040 2004.58090    0.41250    2.06630   95.44040  324.40120  324.40120   90.73080    -999.25   90.92750   88.01070   90.92750    2.06630    1.98330    -999.25    -999.25    1.98330    0.34910    -999.25    0.34910    2.52440    2.52440 2004.58090    2.73190    -999.25 -215.39660   -6.29420    2.73190 85318.14960    -999.25 86020.34780 72458.38510
 1500.00000  286.17170  284.56600  301.50570  286.17170   49.27100   -3.66190 1649.72680    0.62000   20.29590   -3.66190  424.73590  424.73590   55.47160    -999.25   60.20020   73.81210   60.20020   20.29590   29.58590    -999.25    -999.25   29.58590    0.50760    -999.25    0.50760    1.40800    1.40800 1649.72680  492.08640    -999.25 -206.69450   -2.52680  492.08640 85397.26920    -999.25 86871.20290 74764.88930
 1550.00000  290.40550  267.78510  267.03780  290.40550  133.14690   53.70160 2588.38720    0.07110    7.51050   53.70160  260.67790  260.67790   95.86720    -999.25   94.82060   95.39660   94.82060    7.51050    5.64040    -999.25    -999.25    5.64040    0.26350    0.32420    0.26350    2.66950    2.66950 2588.38720    4.85530    -999.25 -173.57610   -7.36740    4.85530 87794.65770    -999.25 87111.58840 77599.42960
 1600.00000  465.63480  280.78330  336.22130  465.63480   96.86820   45.40600 1821.41160    0.51960   10.32330   45.40600  264.61050  264.61050   62.19390    -999.25   62.29180   67.96020   62.29180   10.32330    9.27180    -999.25    -999.25    9.27180    0.34880    0.35470    0.34880    1.95050    1.95050 1821.41160    9.15290    -999.25 -168.98210  -21.96810    9.15290 90371.28240    -999.25 89498.15520 80980.28180
 1650.00000  268.30030  237.36930  269.16990  268.30030   20.33980    8.20570 2704.14230    0.00340   49.16470    8.20570  188.75780  188.75780   52.08820    -999.25   49.00870   52.44970   49.00870   49.16470   39.02390    -999.25    -999.25   39.02390    0.03250    0.07280    0.03250    4.39770    4.39770 2704.14230   57.36150    -999.25 -192.03790  -42.65460   57.36150 86008.45740    -999.25 91983.83260 82892.42700
 1700.00000  269.73850  250.00970  269.72220  269.73850   63.76660    9.51330 2702.89700    0.00420   15.68220    9.51330  211.78930  211.78930   53.51510    -999.25   56.81070   59.47030   56.81070   15.68220   14.95070    -999.25    -999.25   14.95070    0.08960    0.12890    0.08960    4.51420    4.51420 2702.89700   20.97870    -999.25 -205.30910  -15.45320   20.97870 90830.72420    -999.25 92813.44850 83314.24890
 1750.00000  255.77190  263.12340  268.01070  255.77190   89.44060   14.40380 2681.37300    0.01670   11.18060   14.40380  225.13950  225.13950   56.14380    -999.25   61.17620   56.47430   61.17620   11.18060   10.54570    -999.25    -999.25   10.54570    0.10390    0.14300    0.10390    4.06340    4.06340 2681.37300   15.66730    -999.25 -205.12760  -12.05040   15.66730 87639.41800    -999.25 59007.77370 85700.29480
 1800.00000  277.46900  250.21930  258.64710  277.46900   62.02700  123.51570 2615.42600    0.05530   16.12200  123.51570  225.01680  225.01680   68.43370    -999.25   62.96770   68.38520   62.96770   16.12200   13.42960    -999.25    -999.25   13.42960    0.09910    0.13070    0.09910    3.54040    3.54040 2615.42600   24.35830    -999.25 -211.76230  -21.88290   24.35830 91114.29770    -999.25 60968.73780 87814.61280
 1850.00000  238.85570  232.88200  237.12530  238.85570   19.27810   23.96310 2942.59400   -0.13600   51.87220   23.96310  173.91680  173.91680    8.36840    -999.25   11.73960   10.81730   11.73960   51.87220   47.80580    -999.25    -999.25   47.80580    0.01150    0.04100    0.01150    5.29640    5.29640 2942.59400  116.49800    -999.25 -240.93520  -72.79350  116.49800 89507.41420    -999.25 62748.30150 89054.93240
 1900.00000  253.33170  269.33770  268.38680  253.33170   18.58730   29.39340 2827.66800   -0.06880   53.80010   29.39340  167.37600  167.37600   16.89070    -999.25   18.71460   21.42100   18.71460   53.80010   42.59380    -999.25    -999.25   42.59380    0.02920    0.06620    0.02920    4.04950    4.04950 2827.66800  151.32330    -999.25 -240.56920  -94.16510  151.32330 93665.75850    -999.25 65790.72630 91956.86370
 1950.00000  252.88820  271.05550  265.38350  252.88820    2.69720   59.09070 2911.91480   -0.11810  370.75990   59.09070  162.20590  162.20590   13.17260    -999.25   11.73920   11.64060   11.73920  370.75990  137.94880    -999.25    -999.25  137.94880    0.01550    0.06000    0.01550    4.70100    4.70100 2911.91480 1684.07710    -999.25 -278.25540 -153.58900 1684.07710 93656.28390    -999.25 66149.36020 92633.59270
 2000.00000  251.62210  235.32200  244.36610  251.62210   21.07620    3.93030 2796.76560   -0.05070   47.44680    3.93030  156.37870  156.37870   13.34490    -999.25   14.37640   14.86350   14.37640   47.44680   80.83280    -999.25    -999.25   80.83280    0.05860    0.09780    0.05860    3.39780    3.39780 2796.76560  481.04630    -999.25 -394.33110 -291.40240  481.04630 96761.42960    -999.25 68722.04230 95375.17420
 2050.00000  231.01360  239.49880  242.58980  231.01360    0.54220   11.51680 2721.58420   -0.00680 1844.38060   11.51680  168.31690  168.31690   25.92700    -999.25   28.11040   27.96670   28.11040 1844.38060  282.78140    -999.25    -999.25  282.78140    0.01440    0.04700    0.01440    4.69510    4.69510 2721.58420 1840.96850    -999.25 -284.69830 -203.50720 1840.96850 97758.66960    -999.25 70867.22680 97745.63870
 2100.00000  238.41360  253.01250  244.63120  238.41360   22.17920   10.00840 2714.58690   -0.00270   45.08730   10.00840  193.18910  193.18910   91.34330    -999.25   95.21390   91.98740   95.21390   45.08730   41.94540    -999.25    -999.25   41.94540    0.07890    0.12930    0.07890    3.91660    3.91660 2714.58690   54.81940    -999.25  -80.63630  -21.18290   54.81940 101913.92450    -999.25 71549.50590 100080.80920
 2150.00000  242.17400  234.39860  248.86960  242.17400   25.99750   15.73200 2722.96410   -0.00760   38.46520   15.73200  197.65260  197.65260   89.61840   85.96670   88.93460   86.60190   88.93460   38.46520   33.95700   49.33840   48.00800   33.95700    0.10840    0.15380    0.10840    4.34420    4.34420 2722.96410   52.72170 -324.02570  -60.00000   -2.46750   52.72170 104975.08300 15186.08980 73080.57450 102624.91480
 2200.00000  229.23270  230.55210  238.88990  229.23270   25.65180   10.28800 2683.56230    0.01550   38.98360   10.28800  188.18810  188.18810   44.05410   33.13780   41.89300   37.81930   41.89300   38.98360   28.70280   56.66720   33.58240   28.70280    0.05090    0.09440    0.05090    4.68610    4.68610 2683.56230   47.47380 -418.97970 -145.69650  -72.68600   47.47380 106303.89810 16173.88150 74173.38680 104347.27160
 2250.00000  219.97310  277.09120  247.17360  219.97310   18.41790    5.87460 2666.93800    0.02520   54.29510    5.87460  171.37160  171.37160   12.58220   13.97750   14.06430   12.45710   14.06430   54.29510   41.79580   65.15730   58.17610   41.79580    0.01950    0.05680    0.01950    4.50170    4.50170 2666.93800   63.04480 -640.00000 -182.70840  -92.62910   63.04480 107568.10630 15635.84770 76851.87010 104937.91200
