~Version ---------------------------------------------------
VERS.      2.0 : CWLS log ASCII Standard -VERSION 2.0
WRAP.       NO : One line per depth step
CREA. 07/27/17 : LAS Creation Date
~Well ------------------------------------------------------
STRT.FT                       700.0 : START DEPTH
STOP.FT                     10900.0 : STOP DEPTH
STEP.FT                    50.00000 : STEP LENGTH
NULL.                       -999.25 : NULL VALUE
COMP.   SHELL CANADA RESOURCES LTD. : COMPANY
WELL. SHELL ET AL PEERS 11-34-53-14 : WELL
FLD .                               : FIELD
LOC .                               : LOCATION
CTRY.                        CANADA : COUNTRY
SRVC.        Schlumberger of Canada : SERVICE COMPANY
DATE.                   29-Aug-1977 : LOGDATE
PROV.                       Alberta : PROVINCE
UWI .              100113405314W500 : UNIQUE WELL ID
SLAT.WGS84                 53.62396 : SURFACE LATITUDE
SLON.WGS84                -115.9841 : SURFACE LONGITUDE
~Curve Information -----------------------------------------
DEPT    .FT    : Depth Curve
CALDED  .IN    : CALIPER FROM FDC/CNL LOG
CALSED  .IN    : CALIPER FROM BHC/GR LOG
CALWS   .IN    : CALIPER [CALDED]
CONDWS  .MMHO  : CONDUCTIVITY [1000/DRESWS]
DCORED  .G/C3  : DENSITY CORRECTION FROM FDC/CNL LOG
DCORWS  .G/C3  : DENSITY CORRECTION [DCORED]
DENWS   .G/C3  : BULK DENSITY [M=2.650,2.710 F=1000] [RHOBED]
DPHILSED.V/V   : DENSITY POROSITY [M=2.710 F=1.000] FROM FDC/CNL LOG
DPHISSED.V/V   : DENSITY POROSITY [M=2.650 F=1.000] FROM FDC/CNL LOG
DPOLSWS .V/V   : DENSITY POROSITY [M=2.710 F=1.000] [CALCULATED FROM DENWS]
DRESWS  .OHMM  : DEEP RESISTIVITY [LLDED]
DTED    .US/F  : DELTA TIME FROM BHC/GR LOG
DTWS    .US/F  : DELTA TIME [DTED]
GRDED   .GAPI  : GAMMA RAY FROM FDC/CNL LOG
GRRED   .GAPI  : GAMMA RAY FROM DLL LOG
GRSED   .GAPI  : GAMMA RAY FROM BHC/GR LOG
GRWS    .GAPI  : GAMMA RAY [MERGED GRSED/GRRED at 1160.5']
LLDED   .OHMM  : LATEROLOG DEEP RESISTIVITY FROM DLL LOG
LLSED   .OHMM  : LATEROLOG SHALLOW RESISTIVITY FROM DLL LOG
MCALED  .IN    : CALIPER MICROLOG FROM PML LOG
NPHILSED.V/V   : NEUTRON POROSITY LIMESTONE FROM FDC/CNL LOG
NPHISSED.V/V   : NEUTRON POROSITY SANDSTONE FROM FDC/CNL LOG
NPOLSWS .V/V   : NEUTRON POROSITY LIMESTONE [MERGED NPHISSED CONVERTED TO LS/NPHILSED at 7316']
PROXED  .OHMM  : PROXIMITY RESISTIVITY FROM PML LOG
RHOBED  .G/C3  : BULK DENSITY FROM FDC/CNL LOG
SRESWS  .OHMM  : SHALLOW RESISTIVITY [LLSED]
~Params ----------------------------------------------------
PD  .                     GL : PERMANENT DATUM
EPD .FT               2853.7 : ELEVATION PERMANENT DATUM
LMF .                     KB : LOG MEASURED FROM
DAPD.FT                 20.6 : FEET ABOVE PERMANENT DATUM
EKB .FT               2874.3 : KELLY BUSHING
EGL .FT               2853.7 : GROUND LEVEL
DATE.               08/29/77 : RUN DATE
RUN .                      1 : RUN NUMBER
DD  .FT                10950 : DEPTH DRILLER
DL  .FT                10935 : DEPTH LOGGER
BLI .FT                10932 : BOTTOM LOG INTERVAL
TLI .FT                 1159 : TOP LOG INTERVAL
CS  .IN                9.625 : CASING SIZE
CBD .FT                 1159 : CASING BOTTOM DRILLER
CBL .FT                 1159 : CASING BOTTOM LOGGER
BS  .IN                 8.75 : BIT SIZE
BSD .FT                10950 : BIT SIZE AT DEPTH
DFT .             KCL BARITE : DRILLING FLUID TYPE
DFD .                    9.2 : DRILLING FLUID DENSITY
DFV .                     65 : DRILLING FLUID VISCOSITY
DFPH.                   10.5 : DRILLING FLUID PH
DFL .                   14.2 : DRILLING FLUID LOSS
RMS .OHMM              0.243 : RESISTIVITY MUD SAMPLE
MST .DEGF                 60 : MUD SAMPLE TEMPERATURE
RMF .OHMM              0.172 : RESISTIVITY MUD FILTRATE SAMPLE
MFST.DEGF                 74 : MUD FILTRATE SAMPLE TEMPERATURE
RMB .OHMM              0.069 : RESISTIVITY MUD AT BHT
TCS .HRS                   5 : TIME CIRCULATED STOPPED
LUN .                   7772 : LOGGING UNIT NUMBER
LUL .                    EDM : LOGGING UNIT LOCATION
ENGI.               BERNISKY : RECORDING ENGINEER
WITN.                  CRAIG : WITNESSED BY
CLNT.                A2DTECH : CLIENT CODE
ORIG.            2" 5" PRINT : ORIGIN OF DATA
UWI .       100113405314W500 : UNIQUE WELL ID
DICO. A2D Technologies, Inc. : DIGITIZING COMPANY
~Other -----------------------------------------------------
~ASCII -----------------------------------------------------
# ...
 8800.00000    9.06870    9.12860    9.12860    9.52330    0.09520    0.09520    2.78560   -0.05410    -999.25   -0.04420  105.00610   50.40060   50.40060   19.51380   20.27970   19.98150   20.27970  105.00610  121.38970    8.91200    0.03370    -999.25    0.03370   63.91170    2.78560  121.38970
 8850.00000   11.83730    9.22850    9.22850    0.03850    0.24820    0.24820    2.44010    0.14970    -999.25    0.15780 26003.34180   47.58600   47.58600   22.66020   23.60030   24.55760   23.60030 26003.34180 11851.29610   11.22900    0.03040    -999.25    0.03040    4.75090    2.44010 11851.29610
 8900.00000    8.79070    9.07590    9.07590   12.87040    0.15120    0.15120    2.73130   -0.00130    -999.25   -0.01250   77.69770   55.98890   55.98890   82.07710   82.97070   83.14740   82.97070   77.69770  101.58650    8.64400    0.05800    -999.25    0.05800   63.65020    2.73130  101.58650
 8950.00000   12.23690    9.89030    9.89030    7.01050    0.24960    0.24960    2.38950    0.18180    -999.25    0.18740  142.64220   52.97340   52.97340   37.42380   33.70930   36.13390   33.70930  142.64220   51.32610   13.05650    0.08850    -999.25    0.08850    0.49680    2.38950   51.32610
 9000.00000   11.15830    9.88360    9.88360    7.50300    0.24810    0.24810    2.60450    0.05650    -999.25    0.06170  133.28090   51.63150   51.63150   43.83860   43.37330   37.66340   43.37330  133.28090   59.49120   11.06600    0.09890    -999.25    0.09890    1.14780    2.60450   59.49120
 9050.00000   13.88110    9.85490    9.85490    9.38090    0.23930    0.23930    2.28400    0.24820    -999.25    0.24910  106.59950   50.74140   50.74140   34.70420   35.36030   32.50540   35.36030  106.59950   84.34560   14.29300    0.12340    -999.25    0.12340    0.73750    2.28400   84.34560
 9100.00000    8.78430    9.04150    9.04150   12.47260    0.01460    0.01460    2.72520   -0.01240    -999.25   -0.00890   80.17580   54.50280   54.50280   52.10950   53.54210   56.55270   53.54210   80.17580  100.31730    8.66000    0.05950    -999.25    0.05950   87.94610    2.72520  100.31730
 9150.00000    8.74470    9.11280    9.11280   18.12290    0.02770    0.02770    2.77320   -0.04140    -999.25   -0.03700   55.17890   57.14170   57.14170   65.29070   66.03620   63.99130   66.03620   55.17890   73.09280    8.63600    0.07420    -999.25    0.07420   69.76540    2.77320   73.09280
 9200.00000    8.83370    9.18120    9.18120   31.16510    0.00670    0.00670    2.70300    0.00260    -999.25    0.00410   32.08720   57.68080   57.68080   62.96210   65.07980   60.89410   65.07980   32.08720   40.49050    8.76750    0.08980    -999.25    0.08980   40.58970    2.70300   40.49050
 9250.00000   10.61480    9.56000    9.56000  100.83900    0.22610    0.22610    2.65860    0.02370    -999.25    0.03010    9.91680   72.10850   72.10850  111.36410  112.41410  111.28940  112.41410    9.91680   12.35400    9.98600    0.20210    -999.25    0.20210    3.91140    2.65860   12.35400
 9300.00000   13.12510   10.40670   10.40670  105.45740    0.12820    0.12820    2.52040    0.11300    -999.25    0.11090    9.48250   77.30290   77.30290  119.05730  114.87870  119.53200  114.87870    9.48250   12.49100   13.23100    0.28210    -999.25    0.28210    1.15360    2.52040   12.49100
 9350.00000    8.85040    9.08310    9.08310   50.64640    0.06700    0.06700    2.67110    0.02150    -999.25    0.02270   19.74480   68.97940   68.97940  105.15910  101.53910  104.08460  101.53910   19.74480   23.49420    8.67600    0.20900    -999.25    0.20900   30.03210    2.67110   23.49420
 9400.00000    8.86720    9.14040    9.14040   23.37030    0.00670    0.00670    2.70690   -0.00120    -999.25    0.00180   42.78940   62.74270   62.74270   85.81340   70.24210   74.69980   70.24210   42.78940   53.27960    8.80600    0.11820    -999.25    0.11820   37.70130    2.70690   53.27960
 9450.00000   10.58820    9.78850    9.78850   80.80480    0.24940    0.24940    2.55990    0.09840    -999.25    0.08780   12.37550   68.42730   68.42730  101.51370   89.46330   94.83070   89.46330   12.37550   14.05810   10.85850    0.18800    -999.25    0.18800    2.84810    2.55990   14.05810
 9500.00000    8.99720    9.20170    9.20170   18.83550    0.05930    0.05930    2.73670   -0.01620    -999.25   -0.01560   53.09130   56.08460   56.08460   57.52290   61.70570   55.82140   61.70570   53.09130   65.48260    8.77400    0.07390    -999.25    0.07390   68.80220    2.73670   65.48260
 9550.00000    8.83350    9.16230    9.16230   24.46500    0.02560    0.02560    2.71520   -0.00150    -999.25   -0.00300   40.87470   59.93130   59.93130   75.59640   69.02850   74.25500   69.02850   40.87470   51.40950    8.79000    0.11760    -999.25    0.11760   51.34990    2.71520   51.40950
 9600.00000    8.80320    9.08980    9.08980   62.94570    0.01350    0.01350    2.69520    0.00490    -999.25    0.00870   15.88670   66.33900   66.33900  109.63210  110.50190  106.89390  110.50190   15.88670   20.43280    8.76600    0.19410    -999.25    0.19410   19.97010    2.69520   20.43280
 9650.00000    8.81890    9.11220    9.11220   42.00530    0.02090    0.02090    2.74340   -0.01870    -999.25   -0.01950   23.80650   62.83790   62.83790   83.52340   79.31200   84.76040   79.31200   23.80650   28.30570    8.73300    0.14040    -999.25    0.14040   26.29040    2.74340   28.30570
 9700.00000    8.87410    9.11070    9.11070   66.25940    0.01840    0.01840    2.71930   -0.00790    -999.25   -0.00540   15.09220   67.61060   67.61060  115.75500  110.31260  109.40710  110.31260   15.09220   19.58730    8.66000    0.19850    -999.25    0.19850   20.57040    2.71930   19.58730
 9750.00000    8.79030    9.13240    9.13240   71.34450    0.01690    0.01690    2.71270   -0.00320    -999.25   -0.00160   14.01650   71.55040   71.55040  128.82730  118.89230  119.99510  118.89230   14.01650   17.84610    8.70100    0.22500    -999.25    0.22500   15.67800    2.71270   17.84610
 9800.00000    8.83240    9.09050    9.09050   86.23220    0.00440    0.00440    2.69340    0.00830    -999.25    0.00970   11.59660   72.85420   72.85420  127.02380  124.49250  130.34390  124.49250   11.59660   15.05490    8.34300    0.22690    -999.25    0.22690   17.13160    2.69340   15.05490
 9850.00000    8.79270    9.01100    9.01100   55.07180    0.03490    0.03490    2.75880   -0.03140    -999.25   -0.02850   18.15810   66.19040   66.19040  109.56630  103.28660  113.11110  103.28660   18.15810   23.73600    8.43300    0.19260    -999.25    0.19260   25.73550    2.75880   23.73600
 9900.00000    8.80250    8.99890    8.99890   82.80960   -0.00880   -0.00880    2.67930    0.01740    -999.25    0.01800   12.07590   70.44040   70.44040  113.25090  113.20760  105.39620  113.20760   12.07590   15.66140    8.44100    0.21280    -999.25    0.21280   16.31460    2.67930   15.66140
 9950.00000    8.70470    9.00950    9.00950   40.26940    0.00650    0.00650    2.71690   -0.00890    -999.25   -0.00410   24.83280   63.93410   63.93410   92.41790   93.85800   92.59080   93.85800   24.83280   30.49690    8.44300    0.15330    -999.25    0.15330   30.57160    2.71690   30.49690
 10000.00000    8.74420    8.99660    8.99660   80.11920    0.02520    0.02520    2.72840   -0.01300    -999.25   -0.01080   12.48140   72.14900   72.14900  127.28110  123.88450  133.00390  123.88450   12.48140   16.34970    8.47300    0.21370    -999.25    0.21370   19.56690    2.72840   16.34970
 10050.00000    8.68870    9.02870    9.02870   79.98660   -0.00840   -0.00840    2.68370    0.01230    -999.25    0.01540   12.50210   72.59850   72.59850  135.52110  128.58220  118.01010  128.58220   12.50210   15.98060    8.46700    0.22180    -999.25    0.22180   19.29660    2.68370   15.98060
 10100.00000    8.63040    8.97620    8.97620    0.84510    0.00700    0.00700    2.62370    0.05180    -999.25    0.05050 1183.31490   66.88910   66.88910  120.00720  118.11660  120.26140  118.11660 1183.31490  851.82890    8.61900    0.16170    -999.25    0.16170  825.62450    2.62370  851.82890
