~Version ---------------------------------------------------
VERS.      2.0 : CWLS log ASCII Standard -VERSION 2.0
WRAP.       NO : One line per depth step
CREA. 10/25/17 : LAS Creation Date
~Well ------------------------------------------------------
STRT.FT                       1050.0 : START DEPTH
STOP.FT                      10200.0 : STOP DEPTH
STEP.FT                     50.00000 : STEP LENGTH
NULL.                        -999.25 : NULL VALUE
COMP.           MARATHON OIL COMPANY : COMPANY
WELL. MARATHON HEAVYSOUND 7-16-62-17 : WELL
FLD .                                : FIELD
LOC .                                : LOCATION
CTRY.                         CANADA : COUNTRY
SRVC.                        Unknown : SERVICE COMPANY
DATE.                    27-Feb-1976 : LOGDATE
PROV.                        Alberta : PROVINCE
UWI .               100071606217W500 : UNIQUE WELL ID
SLAT.WGS84                  54.36142 : SURFACE LATITUDE
SLON.WGS84                 -116.4847 : SURFACE LONGITUDE
~Curve Information -----------------------------------------
DEPT    .FT                                       : Depth Curve
CALDED  .IN                                       : CALIPER FROM DENSITY LOG [DEP. ADJ. TO GRSED]
CALSED  .IN                                       : CALIPER FROM SONIC LOG
CALWS   .IN                                       : CALIPER [1132' CALSED 5088' CALDED 8507' CALSED 10228' CALDED]
CILDED  .MMho : CONDUCTIVITY FROM RESISTIVITY LOG : 
CONDWS  .MMHO                                     : CONDUCTIVITY [1000/DRESWS]
DCORED  .G/C3                                     : DENSITY CORRECTION FROM DENSITY LOG [DEP. ADJ. TO GRSED]
DCORWS  .G/C3                                     : DENSITY CORRECTION [DCORED]
DENWS   .G/C3                                     : BULK DENSITY [M=2.71, F=1.00] [RHOBED]
DPHILSED.V/V                                      : DENSITY POROSITY [M=2.71, F=1.00] FROM DENSITY LOG [DEP. ADJ. TO GRSED]
DPHISSED.V/V                                      : DENSITY POROSITY [M=2.65, F=1.00] FROM DENSITY LOG [DEP. ADJ. TO GRSED]
DPOLSWS .V/V                                      : DENSITY POROSITY [M=2.71, F=1.00] [CAL. FROM DENWS]
DRESWS  .OHMM                                     : DEEP RESISTIVITY [1132' 1000/CILDED 5088' ILDED 8507' 1000/CILDED 10228' ILDED][REDUC. TO 2000 OHMM]
DTED    .US/F                                     : DELTA TIME FROM SONIC LOG
DTWS    .US/F                                     : DELTA TIME [DTED]
GRDED   .GAPI                                     : GAMMA RAY FROM DENSITY LOG [DEP. ADJ. TO GRSED]
GRSED   .GAPI                                     : GAMMA RAY FROM SONIC LOG
GRWS    .GAPI                                     : GAMMA RAY [1050' GRSED 10222' GRDED]
ILDED   .OHMM                                     : INDUCTION LOG DEEP RESISTIVITY
ILMED   .OHMM                                     : INDUCTION LOG MEDIUM RESISTIVITY
LL8ED   .OHMM                                     : 8 INCH LATEROLOG RESISTIVITY
MRESWS  .OHMM                                     : MEDIUM RESISTIVITY [ILMED]
NPHILSED.V/V                                      : NEUTRON POROSITY LIMESTONE FROM DENSITY LOG [DEP. ADJ. TO GRSED]
NPHISSED.V/V                                      : NEUTRON POROSITY SANDSTONE FROM DENSITY LOG [DEP. ADJ. TO GRSED]
NPOLSWS .V/V                                      : NEUTRON POROSITY SANDSTONE [5098' [NPHISSED IS CONVERTED TO LIMESTONE MATRIX] 6397' NPHILSED]
RHOBED  .G/C3                                     : BULK DENSITY FROM DENSITY LOG [DEP. ADJ. TO GRSED]
SPRED   .MV                                       : SPONTANEOUS POTENTIAL FROM RESISTIVITY LOG
SPWS    .MV                                       : SPONTANEOUS POTENTIAL [BASELINE 0 MV] [SPRED]
SRESWS  .OHMM                                     : SHALLOW RESISTIVITY [LL8ED] [FILLED GAPS]
~Params ----------------------------------------------------
PD  .                     GL : PERMANENT DATUM
EPD .FT                 2966 : ELEVATION PERMANENT DATUM
LMF .                     KB : LOG MEASURED FROM
DAPD.FT                   14 : FEET ABOVE PERMANENT DATUM
EKB .FT                 2980 : KELLY BUSHING
EGL .FT                 2966 : GROUND LEVEL
DATE.               02/27/76 : RUN DATE
RUN .                      1 : RUN NUMBER
DD  .FT                10240 : DEPTH DRILLER
DL  .FT                10242 : DEPTH LOGGER
BLI .FT                10239 : BOTTOM LOG INTERVAL
TLI .FT                 1133 : TOP LOG INTERVAL
CS  .IN                9.625 : CASING SIZE
CBD .FT                 1128 : CASING BOTTOM DRILLER
CBL .FT                 1133 : CASING BOTTOM LOGGER
BS  .IN                 8.75 : BIT SIZE
BSD .FT                10240 : BIT SIZE AT DEPTH
RMS .OHMM                2.3 : RESISTIVITY MUD SAMPLE
MST .DEGF                 68 : MUD SAMPLE TEMPERATURE
RMF .OHMM                2.1 : RESISTIVITY MUD FILTRATE SAMPLE
MFST.DEGF                 68 : MUD FILTRATE SAMPLE TEMPERATURE
TCS .HRS                   2 : TIME CIRCULATED STOPPED
LUN .                   7636 : LOGGING UNIT NUMBER
LUL .                    EDM : LOGGING UNIT LOCATION
ENGI.                  LAZOR : RECORDING ENGINEER
WITN.                 DEWULF : WITNESSED BY
CLNT.                A2DTECH : CLIENT CODE
ORIG.            2" 5" PRINT : ORIGIN OF DATA
UWI .       100071606217W500 : UNIQUE WELL ID
DICO. A2D Technologies, Inc. : DIGITIZING COMPANY
~Other -----------------------------------------------------
~ASCII -----------------------------------------------------
# ...
 6050.00000   12.13560   10.59920   12.13560    -999.25  131.13890    0.21760    0.21760    2.21020    -999.25    0.26250    0.29230    7.62550   77.19130   77.19130   98.30120   89.95210   89.95210    7.62550    7.43240   11.13010    7.43240    -999.25    0.33620    0.29240    2.21020  -69.06790  -37.67250   11.13010
 6100.00000    9.68070   10.31070    9.68070    -999.25   91.67330    0.01910    0.01910    2.53410    -999.25    0.07260    0.10290   10.90830   74.31900   74.31900   82.19100   78.35980   78.35980   10.90830   10.68940   13.49250   10.68940    -999.25    0.22020    0.17650    2.53410  -92.82670  -61.87750   13.49250
 6150.00000    9.77180   10.06720    9.77180    -999.25   52.79160    0.03300    0.03300    2.50940    -999.25    0.08440    0.11730   18.94240   71.43130   71.43130   95.20020   94.59150   94.59150   18.94240   15.89130   32.22940   15.89130    -999.25    0.28920    0.24520    2.50940  -91.22050  -60.71310   32.22940
 6200.00000   12.49960   10.48410   12.49960    -999.25   97.01960    0.23890    0.23890    2.31600    -999.25    0.20560    0.23040   10.30720   74.01280   74.01280   98.90530  104.73850  104.73850   10.30720    9.80870   15.04040    9.80870    -999.25    0.34940    0.30580    2.31600  -85.81870  -55.75750   15.04040
 6250.00000   14.18580   11.06030   14.18580    -999.25  363.35890    0.15730    0.15730    1.99240    -999.25    0.39500    0.41960    2.75210   90.48500   90.48500  112.53500  114.90090  114.90090    2.75210    2.72070    3.41610    2.72070    -999.25    0.44940    0.40770    1.99240  -79.71400  -50.09460    3.41610
 6300.00000   13.09590   11.55690   13.09590    -999.25  166.54180    0.20830    0.20830    1.95570    -999.25    0.40710    0.44110    6.00450  103.90240  103.90240  114.74730  104.76330  104.76330    6.00450    5.77700    9.90250    5.77700    -999.25    0.51640    0.47740    1.95570  -67.40230  -38.22690    9.90250
 6350.00000    9.85330   11.61080    9.85330    -999.25   83.77490    0.07240    0.07240    2.53260    -999.25    0.06980    0.10380   11.93680   76.05940   76.05940  103.71020   76.19430   76.19430   11.93680   11.17240   20.99350   11.17240    -999.25    0.30000    0.25600    2.53260  -56.36040  -27.63120   20.99350
 6400.00000    9.95810   10.20910    9.95810    -999.25  114.95570    0.18800    0.18800    2.56380    0.08560    -999.25    0.08550    8.69900   87.88830   87.88830  122.01670   80.76430   80.76430    8.69900    8.51030   13.57000    8.51030    0.30390    -999.25    0.30390    2.56380  -50.97380  -22.68640   13.57000
 6450.00000    9.17770    9.48530    9.17770    -999.25    0.66410    0.02010    0.02010    2.63070    0.04190    -999.25    0.04630 1505.74970   59.62830   59.62830   65.06270   58.34120   58.34120 1505.74970  964.21210  522.03070  964.21210    0.10510    -999.25    0.10510    2.63070  -81.95570  -54.11450  522.03070
 6500.00000   10.17870   10.45010   10.17870    -999.25  332.34740    0.02230    0.02230    2.69580    0.00460    -999.25    0.00830    3.00890   61.48730   61.48730   95.96610   92.76660   92.76660    3.00890    2.46040    3.65870    2.46040    0.10390    -999.25    0.10390    2.69580  -62.36640  -34.96690    3.65870
 6550.00000    8.30310    7.72360    8.30310    -999.25  402.54410    0.12680    0.12680    2.48740    0.12940    -999.25    0.13020    2.48420   70.77900   70.77900   47.14540   44.13050   44.13050    2.48420    4.07660   21.07680    4.07660    0.16840    -999.25    0.16840    2.48740 -159.24620 -132.29070   21.07680
 6600.00000    9.54040    9.40010    9.54040    -999.25  171.13620    0.08430    0.08430    2.70770   -0.00050    -999.25    0.00130    5.84330   53.85220   53.85220   26.54830   25.62490   25.62490    5.84330    4.94220   12.23850    4.94220    0.13990    -999.25    0.13990    2.70770 -106.55570  -83.35920   12.23850
 6650.00000   10.33280   10.20830   10.33280    -999.25   19.99140    0.25890    0.25890    2.40090    0.18270    -999.25    0.18080   50.02160   54.43790   54.43790   59.38030   50.78470   50.78470   50.02160   53.39740  229.67430   53.39740    0.02250    -999.25    0.02250    2.40090  -60.92110  -41.97700  229.67430
 6700.00000    9.45290    9.66910    9.45290    -999.25  353.29450    0.09220    0.09220    2.62830    0.04780    -999.25    0.04770    2.83050   65.39370   65.39370   49.71410   48.44590   48.44590    2.83050    2.72540    8.28730    2.72540    0.18760    -999.25    0.18760    2.62830 -127.24610 -112.59710    8.28730
 6750.00000    9.68210    9.86390    9.68210    -999.25   64.25700    0.10090    0.10090    2.76610    -999.25    -999.25   -0.03280   15.56250   60.49080   60.49080   78.93370   74.29540   74.29540   15.56250   12.32290   29.70600   12.32290    0.11690    -999.25    0.11690    2.76610  -80.37490  -69.97830   29.70600
 6800.00000    9.61160   10.06760    9.61160    -999.25  113.10040    0.01030    0.01030    2.65680    0.03270    -999.25    0.03110    8.84170   61.51570   61.51570   64.94080   67.92720   67.92720    8.84170    7.73110   16.63620    7.73110    0.11770    -999.25    0.11770    2.65680  -79.56930  -73.44650   16.63620
 6850.00000   10.54120    9.91100   10.54120    -999.25   28.46170    0.11590    0.11590    2.71090    0.00730    -999.25   -0.00050   35.13500   50.90000   50.90000    9.15050   10.20140   10.20140   35.13500   32.61740  442.83490   32.61740    0.02370    -999.25    0.02370    2.71090 -134.39780 -132.57010  442.83490
 6900.00000    9.31090    9.29390    9.31090    -999.25  115.06950    0.12300    0.12300    2.63260    0.04530    -999.25    0.04530    8.69040   53.43470   53.43470   17.37900   16.13620   16.13620    8.69040   10.55990  104.58170   10.55990    0.08120    -999.25    0.08120    2.63260 -151.03190 -153.45660  104.58170
 6950.00000    9.08970    9.64480    9.08970    -999.25   99.25850    0.04510    0.04510    2.59870    0.06450    -999.25    0.06510   10.07470   56.73070   56.73070   15.49410   16.11480   16.11480   10.07470   12.86980   80.19630   12.86980    0.08980    -999.25    0.08980    2.59870 -145.80800 -152.52790   80.19630
 7000.00000    9.47540    9.89070    9.47540    -999.25  209.74030    0.02020    0.02020    2.67420    0.01760    -999.25    0.02090    4.76780   62.56390   62.56390   74.12910   67.55670   67.55670    4.76780    4.68830    5.72440    4.68830    0.17970    -999.25    0.17970    2.67420  -43.27680  -54.24910    5.72440
 7050.00000    9.39180    9.69700    9.39180    -999.25  119.31180    0.02730    0.02730    2.71020    0.00490    -999.25   -0.00010    8.38140   62.97090   62.97090  113.76760  102.83460  102.83460    8.38140    3.92090   12.78610    3.92090    0.14230    -999.25    0.14230    2.71020   -6.78690  -22.03300   12.78610
 7100.00000   10.22170   10.40120   10.22170  295.07980  295.07980    0.01670    0.01670    2.68680    0.01100    -999.25    0.01360    3.38890   64.32900   64.32900   61.60000   62.19210   62.19210    3.26980    -999.25    4.48880    -999.25    0.16350    -999.25    0.16350    2.68680  -18.25180  -37.79300    4.48880
 7150.00000    9.93100   10.34710    9.93100   50.58840   50.58840    0.26390    0.26390    2.61980    0.04810    -999.25    0.05270   19.76740   63.33430   63.33430   65.67600   62.93960   62.93960  191.98940    -999.25  189.18800    -999.25    0.10080    -999.25    0.10080    2.61980  -21.55830  -45.35190  189.18800
 7200.00000   11.91700   10.61470   11.91700    2.03120    2.03120    0.11710    0.11710    2.67160    0.02310    -999.25    0.02250  492.31980   50.71860   50.71860   12.55550   13.53230   13.53230  441.53020    -999.25  422.97680    -999.25    0.00590    -999.25    0.00590    2.67160  -73.73180 -101.82050  422.97680
 7250.00000    9.23000    9.58940    9.23000   23.77110   23.77110    0.01190    0.01190    2.71130    -999.25    -999.25   -0.00080   42.06790   55.31400   55.31400   50.77380   49.28820   49.28820   49.36040    -999.25   50.84290    -999.25    0.05560    -999.25    0.05560    2.71130  -41.53580  -73.87690   50.84290
