~Version ---------------------------------------------------
VERS.      2.0 : CWLS log ASCII Standard -VERSION 2.0
WRAP.       NO : One line per depth step
CREA. 11/15/17 : LAS Creation Date
~Well ------------------------------------------------------
STRT.FT                        600.0 : START DEPTH
STOP.FT                      10800.0 : STOP DEPTH
STEP.FT                     50.00000 : STEP LENGTH
NULL.                        -999.25 : NULL VALUE
COMP.           PETROFINA CANADA LTD : COMPANY
WELL. FINA AMOCO HB FOXCK 6-35-60-18 : WELL
FLD .                                : FIELD
LOC .                                : LOCATION
CTRY.                         CANADA : COUNTRY
SRVC.         Schlumberger of Canada : SERVICE COMPANY
DATE.                    29-Aug-1976 : LOGDATE
PROV.                        Alberta : PROVINCE
UWI .               100063506018W500 : UNIQUE WELL ID
SLAT.WGS84                  54.22952 : SURFACE LATITUDE
SLON.WGS84                 -116.5928 : SURFACE LONGITUDE
~Curve Information -----------------------------------------
DEPT    .FT    : Depth Curve
CALDED  .IN    : CALIPER FROM DENSITY LOG, DEPTH ADJUSTED WITH [SPRED]
CALSED  .IN    : CALIPER FROM SONIC LOG, DEPTH ADJUSTED WITH [SPRED]
CALWS   .IN    : CALIPER [CALSED]
CONDWS  .MMHO  : CONDUCTIVITY [1000/DRESWS]
DCORED  .G/C3  : DENSITY CORRECTION FROM DENSITY LOG, DEPTH ADJUSTED WITH [SPRED]
DCORWS  .G/C3  : DENSITY CORRECTION [DCORED]
DENWS   .G/C3  : BULK DENSITY [RHOBED]
DPOLSWS .V/V   : DENSITY POROSITY LIMESTONE [CALCULATED FROM DENWS]
DPORLSED.V/V   : DENSITY POROSITY LIMESTONE FROM DENSITY LOG, DEPTH ADJUSTED WITH [SPRED]
DPORSSED.V/V   : DENSITY POROSITY SANDSTONE FROM DENSITY LOG, DEPTH ADJUSTED WITH [SPRED]
DRESWS  .OHMM  : DEEP RESISTIVITY [ILDED]
DTED    .US/F  : DELTA TIME FROM SONIC LOG, DEPTH ADJUSTED WITH [SPRED]
DTWS    .US/F  : DELTA TIME [DTED]
GRDED   .GAPI  : GAMMA RAY FROM DENSITY LOG, DEPTH ADJUSTED WITH [SPRED]
GRED    .GAPI  : GAMMA RAY FROM CEMENT LOG, DEPTH ADJUSTED WITH [SPRED]
GRSED   .GAPI  : GAMMA RAY FROM SONIC LOG, DEPTH ADJUSTED WITH [SPRED]
GRWS    .GAPI  : GAMMA RAY [GRSED], SPLICED WITH [GRED] FROM TOP TO 1095'
ILDED   .OHMM  : INDUCTION LOG DEEP RESISTIVITY
ILMED   .OHMM  : INDUCTION LOG MEDIUM RESISTIVITY
LL8ED   .OHMM  : 8 INCH LATEROLOG RESISTIVITY
MRESWS  .OHMM  : MEDIUM RESISTIVITY [ILMED]
NPOLSWS .V/V   : NEUTRON POROSITY LIMESTONE [NPORLSED], MATRIX CONVERTED FROM [NPORSSED] TO LIMESTONE FROM TOP TO 6954'
NPORLSED.V/V   : NEUTRON POROSITY LIMESTONE FROM DENSITY LOG, DEPTH ADJUSTED WITH [SPRED]
NPORSSED.V/V   : NEUTRON POROSITY SANDSTONE FROM DENSITY LOG, DEPTH ADJUSTED WITH [SPRED]
RHOBED  .G/C3  : BULK DENSITY FROM DENSITY LOG, DEPTH ADJUSTED WITH [SPRED]
SPRED   .MV    : SPONTANEOUS POTENTIAL FROM RESISTIVITY LOG
SPWS    .MV    : SPONTANEOUS POTENTIAL [BASELINE 0 MV] [SPRED]
SRESWS  .OHMM  : SHALLOW RESISTIVITY [LL8ED]
~Params ----------------------------------------------------
PD  .                     GL : PERMANENT DATUM
EPD .FT                 3085 : ELEVATION PERMANENT DATUM
LMF .                     KB : LOG MEASURED FROM
DAPD.FT                 15.7 : FEET ABOVE PERMANENT DATUM
EKB .FT               3100.9 : KELLY BUSHING
EDF .FT               3085.2 : DRILLING FLOOR
EGL .FT               3085.5 : GROUND LEVEL
DATE.               08/29/76 : RUN DATE
RUN .                      1 : RUN NUMBER
DD  .FT                10843 : DEPTH DRILLER
DL  .FT                10840 : DEPTH LOGGER
BLI .FT                10834 : BOTTOM LOG INTERVAL
TLI .FT                 1119 : TOP LOG INTERVAL
CBD .FT                 1119 : CASING BOTTOM DRILLER
CBL .FT                 1119 : CASING BOTTOM LOGGER
BS  .IN                 8.75 : BIT SIZE
BSD .FT                10843 : BIT SIZE AT DEPTH
DFT .               GEL CHEM : DRILLING FLUID TYPE
DFD .                    9.3 : DRILLING FLUID DENSITY
DFV .                    150 : DRILLING FLUID VISCOSITY
DFPH.                   10.5 : DRILLING FLUID PH
DFL .                    7.0 : DRILLING FLUID LOSS
MSS .            CIRCULATION : MUD SAMPLE SOURCE
RMS .OHMM               2.43 : RESISTIVITY MUD SAMPLE
MST .DEGF                 76 : MUD SAMPLE TEMPERATURE
RMF .OHMM               2.33 : RESISTIVITY MUD FILTRATE SAMPLE
MFST.DEGF                 73 : MUD FILTRATE SAMPLE TEMPERATURE
RMC .OHMM               2.22 : RESISTIVITY MUD CAKE
MCST.DEGF                 67 : MUD CAKE SAMPLE TEMPERATURE
RMB .OHMM               0.86 : RESISTIVITY MUD AT BHT
TCS .HRS                   3 : TIME CIRCULATED STOPPED
LUN .                   7691 : LOGGING UNIT NUMBER
LUL .                    WCT : LOGGING UNIT LOCATION
ENGI.              CROCKFORD : RECORDING ENGINEER
WITN.                 HALKOW : WITNESSED BY
CLNT.                A2DTECH : CLIENT CODE
ORIG.            2" 5" PRINT : ORIGIN OF DATA
UWI .       100063506018W500 : UNIQUE WELL ID
DICO. A2D Technologies, Inc. : DIGITIZING COMPANY
~Other -----------------------------------------------------
~ASCII -----------------------------------------------------
# ...
 3100.00000   13.08710   10.31320   10.31320  152.01730    0.21020    0.21020    2.23530    0.27760    -999.25    0.25370    6.57820   89.41430   89.41430   66.16620    -999.25   59.52330   59.52330    6.57820    5.12930    6.05830    5.12930    0.29500    -999.25    0.34420    2.23530  -38.30930  -12.81830    6.05830
 3150.00000   12.96180   10.83600   10.83600   65.84060    0.03610    0.03610    2.37600    0.19540    -999.25    0.16820   15.18820   83.98560   83.98560   44.84600    -999.25   42.10570   42.10570   15.18820   12.87270   12.31170   12.87270    0.21300    -999.25    0.26560    2.37600  -39.06610  -13.95670   12.31170
 3200.00000   15.50940   13.75430   13.75430  192.63740    0.14230    0.14230    1.97980    0.42700    -999.25    0.40700    5.19110  104.93070  104.93070   51.07030    -999.25   52.42670   52.42670    5.19110    4.58060    4.51100    4.58060    0.36500    -999.25    0.40920    1.97980  -36.43650  -11.70870    4.51100
 3250.00000   11.66440   10.31440   10.31440   28.66890    0.13930    0.13930    2.39450    0.18450    -999.25    0.15380   34.88100   73.82050   73.82050   39.83480    -999.25   39.20970   39.20970   34.88100   37.97620   40.07870   37.97620    0.20550    -999.25    0.25810    2.39450  -38.41010  -14.06390   40.07870
 3300.00000   10.45250    9.32690    9.32690   61.42440    0.13740    0.13740    2.26010    0.26310    -999.25    0.22980   16.38580   86.32050   86.32050   42.88530    -999.25   45.30160   45.30160   16.38580   17.46740   19.18060   17.46740    0.27390    -999.25    0.32430    2.26010  -39.19520  -15.22870   19.18060
 3350.00000   10.11000    9.95080    9.95080  107.03090    0.00870    0.00870    2.46790    0.14160    -999.25    0.10850    9.34310   85.70200   85.70200   67.54990    -999.25   65.47360   65.47360    9.34310    8.83750   10.40480    8.83750    0.29090    -999.25    0.34030    2.46790  -30.46540   -6.88250   10.40480
 3400.00000   15.26820   12.82130   12.82130  194.41260    0.15920    0.15920    1.75990    0.55560    -999.25    0.51070    5.14370  110.91070  110.91070   57.30400    -999.25   56.58840   56.58840    5.14370    4.93520    5.59250    4.93520    0.44780    -999.25    0.48380    1.75990  -34.08970  -10.88840    5.59250
 3450.00000   11.17640   11.35350   11.35350   63.26270    0.04420    0.04420    2.45920    0.14670    -999.25    0.11940   15.80710   81.06560   81.06560   43.36960    -999.25   41.25100   41.25100   15.80710   14.45050   15.30990   14.45050    0.22290    -999.25    0.27520    2.45920  -29.01310   -6.19340   15.30990
 3500.00000   11.77900   11.93300   11.93300  182.94910    0.14690    0.14690    2.37110    0.19820    -999.25    0.18160    5.46600  126.24670  126.24670   58.53680    -999.25   51.67830   51.67830    5.46600    4.42970    5.51300    4.42970    0.37180    -999.25    0.41540    2.37110  -28.88740   -6.44930    5.51300
 3550.00000   11.77710   11.63740   11.63740  132.45100    0.08200    0.08200    2.49220    0.12740    -999.25    0.09310    7.57190   87.06220   87.06220   57.36990    -999.25   54.81560   54.81560    7.57190    6.29170    6.74570    6.29170    0.35890    -999.25    0.40360    2.49220  -25.44850   -3.33450    6.74570
 3600.00000   14.11640   12.41530   12.41530  202.38820    0.12140    0.12140    1.80710    0.52800    -999.25    0.49640    4.94100  120.28960  120.28960   53.29630    -999.25   53.12960   53.12960    4.94100    3.70080    4.70300    3.70080    0.42740    -999.25    0.46550    1.80710  -29.29760   -7.35590    4.70300
 3650.00000    9.55980    9.89440    9.89440  128.53310    0.02940    0.02940    2.51330    0.11500    -999.25    0.08480    7.78010   89.15800   89.15800   67.55290    -999.25   61.08610   61.08610    7.78010    6.74950    8.87450    6.74950    0.32660    -999.25    0.37380    2.51330  -28.35360   -6.58350    8.87450
 3700.00000    9.53800    9.03220    9.03220   44.81610    0.08130    0.08130    2.35630    0.20680    -999.25    0.17510   22.31340   82.87720   82.87720   44.85720    -999.25   43.10900   43.10900   22.31340   24.34820   26.80990   24.34820    0.22130    -999.25    0.27370    2.35630  -60.31970  -38.72110   26.80990
 3750.00000   11.13580   10.39110   10.39110   95.88740    0.05630    0.05630    2.50860    0.11780    -999.25    0.09290   10.42890   79.77330   79.77330   66.79030    -999.25   58.50510   58.50510   10.42890    9.25190    9.85160    9.25190    0.23020    -999.25    0.28230    2.50860  -26.10610   -4.67900    9.85160
 3800.00000   12.24740   10.56520   10.56520  102.09550    0.03450    0.03450    2.48990    0.12870    -999.25    0.09920    9.79480   87.45610   87.45610   58.92200    -999.25   56.31180   56.31180    9.79480    8.87970    9.41830    8.87970    0.22060    -999.25    0.27300    2.48990  -26.57710   -5.32070    9.41830
 3850.00000   14.50140   11.13880   11.13880  180.54130    0.06840    0.06840    2.35310    0.20870    -999.25    0.18680    5.53890   92.53130   92.53130   76.70890    -999.25   73.74220   73.74220    5.53890    4.75330    5.44470    4.75330    0.35240    -999.25    0.39760    2.35310  -30.45380   -9.36980    5.44470
 3900.00000   13.59460   10.29730   10.29730  125.29130    0.09120    0.09120    2.44300    0.15610    -999.25    0.12880    7.98140   91.47350   91.47350   96.41090    -999.25   84.74880   84.74880    7.98140    6.89880    7.49100    6.89880    0.26370    -999.25    0.31450    2.44300  -30.36620   -9.45370    7.49100
 3950.00000   12.66420   10.54630   10.54630  109.29200    0.09210    0.09210    2.45510    0.14910    -999.25    0.13720    9.14980   86.88070   86.88070   98.74070    -999.25   89.81380   89.81380    9.14980    8.22890    7.85360    8.22890    0.28150    -999.25    0.33140    2.45510  -26.41690   -5.67600    7.85360
 4000.00000   12.86300   10.46910   10.46910  126.30090    0.07670    0.07670    2.45860    0.14700    -999.25    0.11990    7.91760   87.68840   87.68840  104.65100    -999.25   89.54570   89.54570    7.91760    7.11900    8.39730    7.11900    0.27580    -999.25    0.32600    2.45860  -29.24930   -8.67990    8.39730
 4050.00000   13.07830   10.32770   10.32770  128.57060    0.07680    0.07680    2.44080    0.15740    -999.25    0.12830    7.77810   91.14710   91.14710  112.68710    -999.25   95.72990   95.72990    7.77810    6.74920    8.15460    6.74920    0.29450    -999.25    0.34370    2.44080  -28.14230   -7.74360    8.15460
 4100.00000   13.48310   10.10010   10.10010  103.78290    0.15530    0.15530    2.44860    0.15290    -999.25    0.12910    9.63550   95.73220   95.73220  140.41580    -999.25  125.07770  125.07770    9.63550    8.73460   11.12190    8.73460    0.33270    -999.25    0.37950    2.44860  -24.11740   -3.89110   11.12190
 4150.00000   13.20490   10.19150   10.19150  101.65180    0.18240    0.18240    2.47020    0.14020    -999.25    0.10770    9.83750   86.58220   86.58220  114.05740    -999.25  103.84940  103.84940    9.83750    9.13240   11.79610    9.13240    0.23180    -999.25    0.28380    2.47020  -23.03420   -2.97940   11.79610
 4200.00000   12.91330   10.20650   10.20650  113.56020    0.11100    0.11100    2.49760    0.12420    -999.25    0.09360    8.80590   87.56350   87.56350  109.95350    -999.25  101.73220  101.73220    8.80590    7.94160    9.17340    7.94160    0.23380    -999.25    0.28570    2.49760  -28.22710   -8.54290    9.17340
 4250.00000   12.81350    9.94050    9.94050  160.42350    0.12850    0.12850    2.40430    0.17880    -999.25    0.15140    6.23350   92.53440   92.53440  107.16930    -999.25   99.35190   99.35190    6.23350    5.58190    6.56890    5.58190    0.32000    -999.25    0.36770    2.40430  -30.65520  -11.56600    6.56890
 4300.00000   12.72200   10.20570   10.20570  134.04540    0.08140    0.08140    2.53140    0.10440    -999.25    0.07760    7.46030   90.30870   90.30870  103.10950    -999.25   93.42170   93.42170    7.46030    6.56820    7.86080    6.56820    0.26710    -999.25    0.31770    2.53140  -29.18520  -10.68800    7.86080
