~Version ---------------------------------------------------
VERS.      2.0 : CWLS log ASCII Standard -VERSION 2.0
WRAP.       NO : One line per depth step
CREA. 12/11/17 : LAS Creation Date
~Well ------------------------------------------------------
STRT.FT                1000.0 : START DEPTH
STOP.FT                9350.0 : STOP DEPTH
STEP.FT              50.00000 : STEP LENGTH
NULL.                 -999.25 : NULL VALUE
COMP.   TEXACO CANADA LIMITED : COMPANY
WELL. TEXCAN WABAT 7-29-72-22 : WELL
FLD .                         : FIELD
LOC .                         : LOCATION
CTRY.                  CANADA : COUNTRY
SRVC.            Schlumberger : SERVICE COMPANY
DATE.             20-Nov-1973 : LOGDATE
PROV.                 Alberta : PROVINCE
UWI .        100072907222W500 : UNIQUE WELL ID
SLAT.WGS84           55.26257 : SURFACE LATITUDE
SLON.WGS84          -117.3421 : SURFACE LONGITUDE
~Curve Information -----------------------------------------
DEPT  .FT    : Depth Curve
CALSED.IN    : CALIPER FROM SONIC LOG
CALWS .IN    : CALIPER [CALSED]
CONDWS.MMHO  : CONDUCTIVITY [1000/DRESWS]
DRESWS.OHMM  : DEEP RESISTIVITY [ILDED]
DTED  .US/F  : DELTA- TIME FROM SONIC LOG
DTWS  .US/F  : COMPRESSIONAL SONIC [DTED]
GRED  .GAPI  : GAMMA RAY FROM GR LOG
GRSED .GAPI  : GAMMA RAY FROM SONIC LOG
GRWS  .GAPI  : GAMMA RAY [GRSED]
ILDED .OHMM  : DEEP INDUCTION RESISTIVITY FROM RESISTIVITY LOG
ILMED .OHMM  : MEDIUM INDUCTION RESISTIVITY FROM RESISTIVITY LOG
LL8ED .OHMM  : LATEROLOG 8 RESISTIVITY FROM RESISTIVITY LOG
MCALED.IN    : MICRO CALIPER FROM ML LOG [ADJ. TO RESISTIVITY LOG]
MRESWS.OHMM  : MEDIUM RESISTIVITY [ILMED]
SPRED .MV    : SPONTANEOUS POTENTIAL FROM RESISTIVITY LOG
SPWS  .MV    : SPONTANEOUS POTENTIAL [BASELINE 0 MV, SPRED]
SRESWS.OHMM  : SHALLOW RESISTIVITY [LL8ED]
~Params ----------------------------------------------------
PD  .                     GL : PERMANENT DATUM
EPD .FT               2350.7 : ELEVATION PERMANENT DATUM
LMF .                     KB : LOG MEASURED FROM
DAPD.FT                 18.6 : FEET ABOVE PERMANENT DATUM
EKB .FT               2369.3 : KELLY BUSHING
EGL .FT               2350.7 : GROUND LEVEL
DATE.               11/20/73 : RUN DATE
RUN .                      1 : RUN NUMBER
DD  .FT                 9395 : DEPTH DRILLER
DL  .FT                 9392 : DEPTH LOGGER
BLI .FT                 9386 : BOTTOM LOG INTERVAL
TLI .FT                  990 : TOP LOG INTERVAL
CBD .FT                  991 : CASING BOTTOM DRILLER
CBL .FT                  990 : CASING BOTTOM LOGGER
BS  .IN                 8.75 : BIT SIZE
BSD .FT                 9395 : BIT SIZE AT DEPTH
DFT .                    GEL : DRILLING FLUID TYPE
DFD .                    9.6 : DRILLING FLUID DENSITY
DFV .                    100 : DRILLING FLUID VISCOSITY
DFPH.                    9.5 : DRILLING FLUID PH
DFL .                    9.6 : DRILLING FLUID LOSS
RMS .OHMM                3.1 : RESISTIVITY MUD SAMPLE
MST .DEGF                 65 : MUD SAMPLE TEMPERATURE
RMF .OHMM               3.82 : RESISTIVITY MUD FILTRATE SAMPLE
MFST.DEGF                 71 : MUD FILTRATE SAMPLE TEMPERATURE
RMC .OHMM               3.02 : RESISTIVITY MUD CAKE
MCST.DEGF                 67 : MUD CAKE SAMPLE TEMPERATURE
RMB .OHMM               1.35 : RESISTIVITY MUD AT BHT
TCS .HRS                   4 : TIME CIRCULATED STOPPED
LUN .                   7502 : LOGGING UNIT NUMBER
LUL .                    EDM : LOGGING UNIT LOCATION
ENGI.           EARLEY LEITH : RECORDING ENGINEER
WITN.      WILCOCK PATTERSON : WITNESSED BY
CLNT.                A2DTECH : CLIENT CODE
ORIG.            2" 5" PRINT : ORIGIN OF DATA
UWI .       100072907222W500 : UNIQUE WELL ID
DICO. A2D Technologies, Inc. : DIGITIZING COMPANY
~Other -----------------------------------------------------
~ASCII -----------------------------------------------------
# ...
 3050.00000    9.44470    9.44470  203.99840    4.90200   95.94760   95.94760    -999.25   93.16080   93.16080    4.90200    4.66630    7.52330   10.07320    4.66630  -67.99840  -28.42650    7.52330
 3100.00000    9.78520    9.78520  287.15830    3.48240  109.40000  109.40000    -999.25   74.83630   74.83630    3.48240    3.39220    6.31770   11.45530    3.39220  -70.91440  -31.32270    6.31770
 3150.00000    9.09240    9.09240  193.12850    5.17790   77.79000   77.79000    -999.25   42.10420   42.10420    5.17790    6.00510    9.05330    9.45550    6.00510  -75.95330  -36.34190    9.05330
 3200.00000    8.67280    8.67280  208.99080    4.78490   96.88310   96.88310    -999.25   74.34790   74.34790    4.78490    4.78740    6.70130    8.85790    4.78740  -76.95500  -37.32380    6.70130
 3250.00000    8.36910    8.36910  129.24410    7.73730   93.73570   93.73570    -999.25   50.86720   50.86720    7.73730    9.85720   15.94140    8.70260    9.85720 -124.33970  -84.68880   15.94140
 3300.00000    8.64580    8.64580  181.68270    5.50410   94.07810   94.07810    -999.25   52.03180   52.03180    5.50410    6.87020   11.41860    8.68020    6.87020 -105.76990  -66.09930   11.41860
 3350.00000    9.14270    9.14270  131.23360    7.62000   84.40280   84.40280    -999.25   58.58600   58.58600    7.62000    7.33800   12.65880    9.33060    7.33800  -67.33660  -27.64620   12.65880
 3400.00000    9.24140    9.24140  198.91390    5.02730   93.24040   93.24040    -999.25   84.94900   84.94900    5.02730    4.70570    6.48710    9.58280    4.70570  -65.91950  -26.20940    6.48710
 3450.00000    9.21860    9.21860  225.01740    4.44410   94.74950   94.74950    -999.25   77.79730   77.79730    4.44410    4.33940    5.89070    9.63230    4.33940  -70.23480  -30.50490    5.89070
 3500.00000    9.23700    9.23700  244.91800    4.08300   94.70050   94.70050    -999.25   71.63180   71.63180    4.08300    3.83540    5.00630    9.54360    3.83540  -66.56260  -26.81300    5.00630
 3550.00000    8.69640    8.69640  147.64940    6.77280   84.05870   84.05870    -999.25   57.52930   57.52930    6.77280    7.32330   11.92840    8.79590    7.32330  -85.50250  -45.73320   11.92840
 3600.00000    8.82880    8.82880  176.64100    5.66120   93.83950   93.83950    -999.25   68.76850   68.76850    5.66120    6.99580   14.84820    8.62340    6.99580 -104.01670  -64.22760   14.84820
 3650.00000    8.95080    8.95080  192.14880    5.20430   92.44060   92.44060    -999.25   62.10960   62.10960    5.20430    5.89730    9.93290    9.01620    5.89730  -95.42990  -55.62110    9.93290
 3700.00000    8.84330    8.84330  143.37740    6.97460   85.15920   85.15920    -999.25   58.21680   58.21680    6.97460    8.75760   16.48480    8.92640    8.75760 -108.11330  -68.28470   16.48480
 3750.00000    8.98420    8.98420  202.65480    4.93450   89.78990   89.78990    -999.25   68.01650   68.01650    4.93450    5.83200   10.16720    8.96850    5.83200 -101.33840  -61.49010   10.16720
 3800.00000    9.32900    9.32900  198.36150    5.04130   89.48940   89.48940    -999.25   76.00180   76.00180    5.04130    4.79710    6.87450    9.61260    4.79710  -65.15010  -25.28210    6.87450
 3850.00000    8.70890    8.70890  135.98040    7.35400   87.22630   87.22630    -999.25   66.49190   66.49190    7.35400    8.78610   16.38350    8.87230    8.78610 -101.92070  -62.03290   16.38350
 3900.00000    9.45270    9.45270  161.48830    6.19240   82.23560   82.23560    -999.25   70.09700   70.09700    6.19240    5.76000   11.66790    9.81620    5.76000  -73.86520  -33.95770   11.66790
 3950.00000    9.12210    9.12210  157.23760    6.35980   81.97070   81.97070    -999.25   60.57800   60.57800    6.35980    6.51100    9.36210    9.88620    6.51100  -72.65120  -32.72380    9.36210
 4000.00000    9.87390    9.87390  154.01440    6.49290   87.54050   87.54050    -999.25   78.58290   78.58290    6.49290    5.92540    7.81550   10.58350    5.92540  -64.92630  -24.97930    7.81550
 4050.00000    9.94100    9.94100  181.38290    5.51320   92.67290   92.67290    -999.25  106.66610  106.66610    5.51320    4.98590    7.25170   10.84540    4.98590  -64.04880  -24.08210    7.25170
 4100.00000   10.15740   10.15740  144.36260    6.92700   82.98060   82.98060    -999.25   80.59300   80.59300    6.92700    6.86660    9.99490   10.91310    6.86660  -65.56640  -25.57980    9.99490
 4150.00000    9.50510    9.50510   62.42630   16.01890   80.72860   80.72860    -999.25   54.35940   54.35940   16.01890   16.31020   30.42400    9.74190   16.31020  -71.67930  -31.67310   30.42400
 4200.00000   10.26690   10.26690  106.21460    9.41490  117.36770  117.36770    -999.25   94.61930   94.61930    9.41490    8.18930   13.06300   11.07310    8.18930  -73.92530  -33.89920   13.06300
 4250.00000   11.76010   11.76010  462.17130    2.16370  118.55560  118.55560    -999.25   82.96840   82.96840    2.16370    1.89610    3.18970   14.79170    1.89610  -66.09000  -26.04420    3.18970
 4300.00000   11.64260   11.64260  314.78220    3.17680   99.82350   99.82350    -999.25   85.82310   85.82310    3.17680    3.04320    4.32590   13.77120    3.04320  -62.53860  -22.47320    4.32590
 4350.00000   13.11620   13.11620  391.31290    2.55550  111.35690  111.35690    -999.25   82.77060   82.77060    2.55550    2.27270    3.69950   14.92650    2.27270  -63.82130  -23.73600    3.69950
 4400.00000   12.32780   12.32780  497.95840    2.00820  107.80090  107.80090    -999.25   73.63760   73.63760    2.00820    1.81930    3.29730   15.42310    1.81930  -64.84610  -24.74110    3.29730
 4450.00000    9.62670    9.62670   47.00570   21.27400  112.36460  112.36460    -999.25  147.37370  147.37370   21.27400   19.58420   37.83950   10.03510   19.58420  -57.40850  -17.28370   37.83950
 4500.00000    8.80950    8.80950    3.99350  250.40670   73.79360   73.79360    -999.25  243.96660  243.96660  250.40670  292.61090 1565.29700    9.29600  292.61090  -60.55380  -20.61350 1565.29700
 4550.00000    9.04070    9.04070  228.44090    4.37750   75.27200   75.27200    -999.25   58.76620   58.76620    4.37750    6.39310   20.74320    8.92250    6.39310 -141.74770 -102.00780   20.74320
 4600.00000    9.34720    9.34720  245.15810    4.07900   72.94430   72.94430    -999.25   54.57560   54.57560    4.07900    6.09230   20.36870    9.03490    6.09230 -135.85580  -96.31770   20.36870
 4650.00000    9.19370    9.19370  416.38910    2.40160   75.59910   75.59910    -999.25   52.10700   52.10700    2.40160    4.09070   18.10000    9.14510    4.09070 -163.25320 -123.91550   18.10000
 4700.00000    9.47400    9.47400  263.27570    3.79830   74.04190   74.04190    -999.25   70.05920   70.05920    3.79830    5.80310   18.98130    9.49910    5.80310 -126.55450  -87.41850   18.98130
 4750.00000    9.38880    9.38880  265.16760    3.77120   73.97670   73.97670    -999.25   69.77410   69.77410    3.77120    6.07400   21.73000    9.53300    6.07400 -138.61340  -99.67780   21.73000
 4800.00000    9.66940    9.66940  351.24690    2.84700   75.94390   75.94390    -999.25   74.57800   74.57800    2.84700    4.24420   17.18270    9.73060    4.24420 -122.14740  -83.41220   17.18270
 4850.00000   10.06390   10.06390  220.87730    4.52740   71.87160   71.87160    -999.25   91.49050   91.49050    4.52740    4.44190   11.03250   10.53440    4.44190  -79.34330  -40.80990   11.03250
 4900.00000    8.69330    8.69330   71.80970   13.92570   57.78340   57.78340    -999.25   28.59950   28.59950   13.92570   18.74230  109.08160    9.19660   18.74230 -161.99520 -123.66220  109.08160
 4950.00000    9.06610    9.06610  338.46670    2.95450   59.77180   59.77180    -999.25   25.58920   25.58920    2.95450    3.44320   28.76550    9.13630    3.44320 -132.74940  -94.61810   28.76550
 5000.00000   10.11350   10.11350  224.39640    4.45640   88.79740   88.79740    -999.25   87.42040   87.42040    4.45640    3.44150    5.83450   11.31080    3.44150 -100.80320  -62.87230    5.83450
 5050.00000    9.54180    9.54180  274.86120    3.63820   57.55380   57.55380    -999.25   37.36890   37.36890    3.63820    3.77260    6.60260   10.07050    3.77260 -111.57490  -73.84440    6.60260
