~Version ---------------------------------------------------
VERS. 2.0 : CWLS log ASCII Standard -VERSION 2.0
WRAP.  NO : ONE LINE PER DEPTH STEP
~Well ------------------------------------------------------
STRT.F                           1000.0 : START DEPTH
STOP.F                          10450.0 : STOP DEPTH
STEP.F                         50.00000 : STEP LENGTH
NULL.                           -999.25 : NULL VALUE
COMP.     CANADIAN SUPERIOR OIL COMPANY : COMPANY
WELL. CDN-SUP CEGO FOX CR 10-11SH-62-18 : WELL
FLD .                                   : FIELD
LOC .                                   : LOCATION
CTRY.                            CANADA : COUNTRY
SRVC.                      Schlumberger : SERVICE COMPANY
DATE.                       29-Mar-1977 : LOGDATE
PROV.                           Alberta : PROVINCE
UWI .                  102101106218W500 : UNIQUE WELL ID
SLAT.WGS84                     54.35151 : SURFACE LATITUDE
SLON.WGS84                    -116.5828 : SURFACE LONGITUDE
~Curve Information -----------------------------------------
DEPT   .F                 : 
SPR    .MV                : SPONTANEOUS POTENTIAL FROM RESISTIVITY
LL8    .OHMM              : LATEROLOG-8 RESISTIVITY
ILD    .OHMM 06 121 12 00 : INDUCTION LOG DEEP RESISTIVITY
ILM    .OHMM 07 120 44 00 : INDUCTION LOG MEDIUM RESISTIVITY
CILD   .MMHO 07 110 00 00 : CONDUCTIVITY INDUCTION LOG
GRS    .GAPI              : GAMMA RAY FROM SONIC LOG
DT     .US/F 60 520 00 00 : SONIC
CALD   .IN   45 280 60 00 : CALIPER FROM DENSITY LOG
DCOR   .G/C3 45 356 01 00 : DENSITY CORRECTION
RHOB   .G/C3 45 350 01 00 : BULK DENSITY
NPOR_SS.DEC               : NEUTRON POROSITY SANDSTONE
DPOR_SS.DEC               : DENSITY POROSITY
CALS   .IN                : CALIPER FROM SONIC LOG
GRD    .GAPI              : GAMMA RAY FROM DENSITY LOG
NPOR_LS.DEC               : NEUTRON POROSITY LIMESTONE
DPOR_LS.DEC               : DENSITY POROSITY LIMESTONE
~Params ----------------------------------------------------
PD  .                     GL : PERMANENT DATUM
EPD .FT                 2963 : ELEVATION PERMANENT DATUM
LMF .                     KB : LOG MEASURED FROM
DAPD.FT                   13 : FEET ABOVE PERMANENT DATUM
EKB .FT                 2976 : KELLY BUSHING
EGL .FT                 2963 : GROUND LEVEL
DATE.               03/29/77 : RUN DATE
RUN .                      1 : RUN NUMBER
DD  .FT                10475 : DEPTH DRILLER
DL  .FT                10478 : DEPTH LOGGER
BLI .FT                10472 : BOTTOM LOG INTERVAL
TLI .FT                 1071 : TOP LOG INTERVAL
CBD .FT                 1070 : CASING BOTTOM DRILLER
CBL .FT                 1071 : CASING BOTTOM LOGGER
BS  .IN                 8.75 : BIT SIZE
BSD .FT                10475 : BIT SIZE AT DEPTH
DFT .               GEL CHEM : DRILLING FLUID TYPE
DFD .                    9.2 : DRILLING FLUID DENSITY
DFV .                     81 : DRILLING FLUID VISCOSITY
DFPH.                    9.5 : DRILLING FLUID PH
DFL .                      8 : DRILLING FLUID LOSS
MSS .             CIRCULATED : MUD SAMPLE SOURCE
RMS .OHMM                1.1 : RESISTIVITY MUD SAMPLE
MST .DEGF                 62 : MUD SAMPLE TEMPERATURE
RMF .OHMM               0.76 : RESISTIVITY MUD FILTRATE SAMPLE
MFST.DEGF                 62 : MUD FILTRATE SAMPLE TEMPERATURE
TCS .HRS                   4 : TIME CIRCULATED STOPPED
LUN .                   7690 : LOGGING UNIT NUMBER
LUL .                    EDM : LOGGING UNIT LOCATION
ENGI.                WOROWUK : RECORDING ENGINEER
WITN.                  KELLY : WITNESSED BY
CLNT.                A2DTECH : CLIENT CODE
ORIG.            2" 5" PRINT : ORIGIN OF DATA
UWI .       102101106218W500 : UNIQUE WELL ID
DICO. A2D Technologies, Inc. : DIGITIZING COMPANY
~Other -----------------------------------------------------
~ASCII -----------------------------------------------------
 1000.00000    -999.25    -999.25    -999.25    -999.25    -999.25   38.16430    -999.25    -999.25    -999.25    -999.25    -999.25    -999.25    -999.25    -999.25    -999.25    -999.25
 1050.00000    -999.25    -999.25    -999.25    -999.25    -999.25   34.01450    -999.25    -999.25    -999.25    -999.25    0.58370    -999.25    -999.25   35.27970    -999.25    -999.25
 1100.00000  -90.52390    4.57490    3.89550    4.07350    -999.25   54.79680   98.51640   10.28930    0.15700    2.25440    0.29570    0.21870   10.22990   82.67810    -999.25    -999.25
 1150.00000  -93.27280    5.45180    5.87140    6.40010    -999.25   36.54810  104.72330   10.27250    0.06060    2.22110    0.38200    0.26150   10.39880   55.12730    -999.25    -999.25
 1200.00000  -86.15950    6.76920    7.05720    7.16910    -999.25   39.82620  100.98080   10.26670    0.08550    2.27910    0.39970    0.22210    9.77660   57.05880    -999.25    -999.25
 1250.00000  -85.79260    9.05250   10.36530   11.96840    -999.25   36.82750   86.24530   11.06540    0.05550    2.29960    0.36140    0.21990   11.01120   49.72750    -999.25    -999.25
 1300.00000  -86.62500    5.52920    5.72500    5.99580    -999.25   51.25600  103.11890   11.99360    0.05500    2.26220    0.37610    0.22960   11.14370   67.80200    -999.25    -999.25
 1350.00000  -84.79490   10.15790    8.58410    9.30360    -999.25   41.99150   97.45630   12.38770    0.04410    2.32330    0.35730    0.20000   11.18340   50.72490    -999.25    -999.25
 1400.00000  -87.22910    3.91260    3.54770    3.65920    -999.25   61.44780  109.16920   12.19810    0.08730    2.23000    0.42690    0.24020   11.14300   77.26490    -999.25    -999.25
 1450.00000  -89.81950    3.62570    3.29260    3.48770    -999.25   50.35320  100.35980   12.65280    0.11980    2.34500    0.36580    0.19150   11.00680   60.48320    -999.25    -999.25
 1500.00000  -89.23410    4.63270    4.12020    4.39020    -999.25   68.65510  109.71310   12.25790    0.08300    2.29430    0.40610    0.21330   10.93380   68.57710    -999.25    -999.25
 1550.00000  -89.55090   11.05850    9.83400   11.86660    -999.25   69.00280   93.46810   11.86850    0.05880    2.37330    0.30200    0.15970   11.33260   74.88550    -999.25    -999.25
 1600.00000  -90.87270    8.07110    8.70950    9.13330    -999.25   37.43190   95.12530   11.02750    0.02230    2.35160    0.32820    0.18580   10.67400   53.64210    -999.25    -999.25
 1650.00000  -92.33950    4.15140    3.96840    4.08600    -999.25   63.29640  104.23580   10.91520    0.21420    2.22280    0.37180    0.26500    9.96470   60.30600    -999.25    -999.25
 1700.00000  -91.93770    4.35000    4.09030    4.17820    -999.25   53.32190  103.10320   10.49020    0.18030    2.23020    0.42810    0.25660   10.03540   68.62560    -999.25    -999.25
 1750.00000  -90.90340    4.40890    4.24270    4.48850    -999.25   44.86640   92.32950   10.63890    0.22980    2.31680    0.29390    0.20790   10.18000   64.56520    -999.25    -999.25
 1800.00000  -90.77860    3.52690    3.18290    3.32150    -999.25   55.19240  108.74460   11.01400    0.09260    2.13130    0.39780    0.29410   10.44670   75.51150    -999.25    -999.25
 1850.00000  -91.47180    9.68270    8.29420    8.48310    -999.25   44.05990  131.72060   11.55860    0.12400    2.30600    0.49470    0.27730   10.42450   61.79200    -999.25    -999.25
 1900.00000  -89.36280    3.24250    2.90000    2.97880    -999.25   40.93590   94.20440   12.84720    0.19890    2.34130    0.30530    0.19190   10.67470   71.81630    -999.25    -999.25
 1950.00000  -89.36180    2.63450    2.42310    2.56530    -999.25   53.71030  105.19510   12.70450    0.17710    1.88470    0.40840    0.44510   10.66080   76.62040    -999.25    -999.25
 2000.00000  -91.59460    8.73600    8.25020    8.96290    -999.25   38.69070   84.18660   10.32310    0.07650    2.44560    0.26790    0.12660   10.33930   52.83720    -999.25    -999.25
 2050.00000  -91.90220   14.37020    8.16230    9.84600    -999.25   50.50830   95.38660   10.93760    0.05640    2.36280    0.33810    0.17450   10.60970   61.61350    -999.25    -999.25
 2100.00000  -91.23050    3.85950    3.74110    4.07450    -999.25   46.24940   87.98510   10.61540    0.16810    2.11980    0.30340    0.26980   10.50470   64.31520    -999.25    -999.25
 2150.00000  -91.22430    2.31160    1.94180    2.07960    -999.25   58.13010  111.52200   10.58880    0.15800    2.10910    0.44390    0.33590    9.47190   93.12620    -999.25    -999.25
 2200.00000  -93.58570    6.87420    5.54250    5.85620    -999.25   55.99290  106.65650   11.47460    0.20390    2.16760    0.40680    0.32580   10.50230   75.18670    -999.25    -999.25
 2250.00000  -90.00400    3.42830    3.01750    3.15510    -999.25   54.37280  110.76280   11.73130    0.20470    2.14650    0.47100    0.31900    9.78510   67.21350    -999.25    -999.25
 2300.00000  -89.82310    1.92190    1.70210    1.90040    -999.25   83.72220  113.93200   11.23070    0.20530    1.97670    0.50180    0.40460    9.81640  122.92970    -999.25    -999.25
 2350.00000  -96.01840    7.22050    7.52640    8.14400    -999.25   45.12710   94.64580   10.08590    0.12060    2.25260    0.38590    0.25980   10.77730   60.37800    -999.25    -999.25
 2400.00000  -92.13070   11.31580   12.24720   11.77790    -999.25   30.88720   93.63830    8.45890    0.08750    2.24370    0.34560    0.25500    8.84690   39.89910    -999.25    -999.25
 2450.00000  -89.49200    3.85520    3.36890    3.58140    -999.25   49.68620  111.58560   11.82600    0.16860    2.08390    0.45920    0.33380   10.15930   70.23400    -999.25    -999.25
 2500.00000  -94.53270   11.17250   10.95710   11.90150    -999.25   43.79310   93.57090    8.51420    0.17890    2.36830    0.38320    0.18740    8.94430   51.02660    -999.25    -999.25
 2550.00000  -92.26050    5.34760    4.85440    5.22250    -999.25   53.74570   93.53910    9.56010    0.04930    2.39280    0.35880    0.15320    9.79080   56.86550    -999.25    -999.25
 2600.00000  -91.91150    4.08060    3.71550    3.86650    -999.25   52.97660  103.59560   10.26150    0.20230    2.24030    0.45710    0.28120   10.02130   65.38770    -999.25    -999.25
 2650.00000  -91.65360    5.99570    5.25740    5.84120    -999.25   41.90910  100.05350    9.62200    0.05840    2.39750    0.43640    0.14780    9.92370   61.75450    -999.25    -999.25
 2700.00000  -90.24020    3.69480    3.80900    3.93690    -999.25   41.61650   97.79280    9.77280    0.06650    2.38960    0.35480    0.14920    9.02100   49.29470    -999.25    -999.25
 2750.00000  -93.63630    6.76670    7.03460    7.25830    -999.25   33.87450   89.45230   10.12930    0.05290    2.32650    0.33990    0.17630    9.96810   47.17710    -999.25    -999.25
 2800.00000  -88.71520    3.52180    3.72060    3.59840    -999.25   45.61940  104.87420   11.00700    0.07180    2.37750    0.42500    0.16980   11.00430   60.62900    -999.25    -999.25
 2850.00000  -89.04070    4.73970    3.72960    4.12230    -999.25   42.64930  106.87800   10.58800    0.10780    2.42040    0.37440    0.15800   10.97130   58.02650    -999.25    -999.25
 2900.00000  -88.76170    2.85380    2.97470    3.12620    -999.25   44.27970   97.92970   10.96000    0.05280    2.25030    0.43420    0.21790   11.09850   66.03600    -999.25    -999.25
 2950.00000  -91.62840   11.45830    9.86960   10.66710    -999.25   28.62540   61.24580   10.11510    0.01480    2.54400    0.12550    0.05370    9.77280   40.69100    -999.25    -999.25
 3000.00000  -89.69230    4.06920    3.91300    4.06990    -999.25   42.81820   98.31290   10.93470    0.17930    2.29940    0.38400    0.21910   10.13440   57.31630    -999.25    -999.25
 3050.00000  -95.23890    8.58800    8.46220    9.69810    -999.25   25.19730   81.18730    9.71460    0.08460    2.32620    0.30490    0.17320   10.08850   41.34540    -999.25    -999.25
 3100.00000  -88.48480    3.81000    3.54490    3.66450    -999.25   44.06370   97.20650   11.85740    0.09130    2.31670    0.36600    0.16990   10.06540   63.06850    -999.25    -999.25
