~Version ---------------------------------------------------
VERS.      2.0 : CWLS log ASCII Standard -VERSION 2.0
WRAP.       NO : One line per depth step
CREA. 09/28/17 : LAS Creation Date
~Well ------------------------------------------------------
STRT.FT                          850.0 : START DEPTH
STOP.FT                        10000.0 : STOP DEPTH
STEP.FT                       50.00000 : STEP LENGTH
NULL.                          -999.25 : NULL VALUE
COMP. SOCONY MOBIL OIL OF CANADA, LTD. : COMPANY
WELL.         MOBIL MCLEOD 12-33-55-13 : WELL
FLD .                               WC : FIELD
LOC .                                  : LOCATION
CTRY.                           CANADA : COUNTRY
SRVC.                     Schlumberger : SERVICE COMPANY
DATE.                      15-Feb-1963 : LOGDATE
PROV.                          Alberta : PROVINCE
UWI .                 100123305513W500 : UNIQUE WELL ID
SLAT.WGS84                    53.79757 : SURFACE LATITUDE
SLON.WGS84                   -115.8798 : SURFACE LONGITUDE
~Curve Information -----------------------------------------
DEPT  .FT    : Depth Curve
CALWS .IN    : CALIPER [MCALED]
CILDED.MMHO  : CONDUCTIVITY FROM RESISTIVITY LOG
CONDWS.MMHO  : CONDUCTIVITY [1000/DRESWS]
DRESWS.OHMM  : DEEP RESISTIVITY [1000/CILDED IF ILDED <=5, ILDED]
DT2ED .us/m  : DELTA TIME FROM SONIC LOG
DTED  .US/F  : DELTA TIME FROM SONIC LOG
DTWS  .US/F  : COMPRESSIONAL SONIC [DTED]
GRSED .GAPI  : GAMMA RAY FROM SONIC LOG
GRWS  .GAPI  : GAMMA RAY [GRSED]
ILDED .OHMM  : DEEP INDUCTION RESISTIVITY FROM RESISTIVITY LOG
MCALED.IN    : CALIPER FROM MICROLOG
SNED  .OHMM  : 16 INCH SHORT NORMAL RESISTIVITY FROM RESISTIVITY LOG
SPRED .MV    : SPONTANEOUS POTENTIAL FROM RESISTIVITY LOG
SPWS  .MV    : SPONTANEOUS POTENTIAL [BASELINE 0 MV, SPRED]
SRESWS.OHMM  : SHALLOW RESISTIVITY [SNED]
~Params ----------------------------------------------------
LMF .                     KB : LOG MEASURED FROM
EKB .FT                 2772 : KELLY BUSHING
DATE.               02/15/63 : RUN DATE
RUN .                      3 : RUN NUMBER
DD  .FT                10056 : DEPTH DRILLER
DL  .FT                10051 : DEPTH LOGGER
BLI .FT                10050 : BOTTOM LOG INTERVAL
TLI .FT                 9500 : TOP LOG INTERVAL
CBD .FT                 1020 : CASING BOTTOM DRILLER
BS  .IN                    9 : BIT SIZE
BSD .FT                10056 : BIT SIZE AT DEPTH
DFT .       CAUSTIC Q BROXIN : DRILLING FLUID TYPE
DFD .                    9.5 : DRILLING FLUID DENSITY
DFV .                    123 : DRILLING FLUID VISCOSITY
DFPH.                   10.5 : DRILLING FLUID PH
DFL .                    5.6 : DRILLING FLUID LOSS
RMF .OHMM               1.23 : RESISTIVITY MUD FILTRATE SAMPLE
MFST.DEGF                 64 : MUD FILTRATE SAMPLE TEMPERATURE
RMC .OHMM                1.9 : RESISTIVITY MUD CAKE
MCST.DEGF                 59 : MUD CAKE SAMPLE TEMPERATURE
TCS .HRS                 300 : TIME CIRCULATED STOPPED
LUN .                   3534 : LOGGING UNIT NUMBER
LUL .                     WC : LOGGING UNIT LOCATION
ENGI.               HATLELID : RECORDING ENGINEER
WITN.                MCMANUS : WITNESSED BY
CLNT.                A2DTECH : CLIENT CODE
ORIG.            2" 5" PRINT : ORIGIN OF DATA
UWI .       100123305513W500 : UNIQUE WELL ID
DICO. A2D Technologies, Inc. : DIGITIZING COMPANY
~Other -----------------------------------------------------
IEL-SONIC LOG RUN
SP SLIGHTLY AFFECTED BY TELLURIC CURRENTS
~ASCII -----------------------------------------------------
  850.00000    -999.25    -999.25    -999.25    -999.25    -999.25    -999.25    -999.25   34.15230   34.15230    -999.25    -999.25    -999.25    -999.25    -999.25    -999.25
  900.00000    -999.25    -999.25    -999.25    -999.25    -999.25    -999.25    -999.25   47.06990   47.06990    -999.25    -999.25    -999.25    -999.25    -999.25    -999.25
  950.00000    -999.25    -999.25    -999.25    -999.25    -999.25    -999.25    -999.25   43.54310   43.54310    -999.25    -999.25    -999.25    -999.25    -999.25    -999.25
 1000.00000    -999.25    -999.25    -999.25    -999.25    -999.25    -999.25    -999.25   28.92520   28.92520    -999.25    -999.25    -999.25    -999.25    -999.25    -999.25
 1050.00000   14.68470  229.89110  229.89110    4.34990    -999.25  127.05620  127.05620   69.65210   69.65210    4.35230   14.68470    4.49290  -41.42740   -2.04070    4.49290
 1100.00000   13.45180  290.55530  290.55530    3.44170    -999.25  156.27680  156.27680   66.53900   66.53900    3.18900   13.45180    3.34510  -41.69110   -2.51580    3.34510
 1150.00000   12.25760   98.41380   93.54450   10.69010    -999.25  101.17170  101.17170   46.67030   46.67030   10.69010   12.25760   10.67380  -47.17120   -8.20730   10.67380
 1200.00000   11.62810  217.87440  217.87440    4.58980    -999.25  140.03050  140.03050   58.63470   58.63470    4.35280   11.62810   10.13890  -42.18260   -3.43010   10.13890
 1250.00000   13.02700  174.84810  167.47610    5.97100    -999.25  113.94200  113.94200   68.90980   68.90980    5.97100   13.02700    6.23480  -40.07150   -1.53040    6.23480
 1300.00000   11.83670  161.05920  151.58860    6.59680    -999.25  105.51100  105.51100   75.74480   75.74480    6.59680   11.83670    8.06880  -40.14420   -1.81450    8.06880
 1350.00000   11.38620  147.97970  133.37780    7.49750    -999.25   95.57150   95.57150   69.91180   69.91180    7.49750   11.38620    5.74390  -40.56170   -1.95730    5.74390
 1400.00000   11.79260  134.64880  130.65750    7.65360    -999.25  104.83780  104.83780   63.80320   63.80320    7.65360   11.79260    7.42680  -40.35620   -1.34010    7.42680
 1450.00000   13.25930  213.76310  213.76310    4.67810    -999.25  115.60770  115.60770   77.49020   77.49020    4.79530   13.25930    4.92350  -40.55860   -1.13070    4.92350
 1500.00000   12.60540  161.61190  157.73370    6.33980    -999.25  108.52190  108.52190   72.83050   72.83050    6.33980   12.60540    5.51450  -44.05280   -4.76620    5.51450
 1550.00000   12.34650  201.60810  201.60810    4.96010    -999.25  126.04980  126.04980   61.49330   61.49330    4.97470   12.34650    4.78360  -42.60250   -3.51190    4.78360
 1600.00000   11.32240  110.95200  115.73270    8.64060    -999.25   99.01150   99.01150   61.94690   61.94690    8.64060   11.32240   11.04400  -46.40320   -7.50860   11.04400
 1650.00000   10.69180  263.37000  263.37000    3.79690    -999.25  128.61550  128.61550   85.05750   85.05750    3.49220   10.69180    5.47920  -40.43070   -1.73200    5.47920
 1700.00000   10.95830  124.30870  111.87810    8.93830    -999.25  107.61480  107.61480   64.50770   64.50770    8.93830   10.95830    8.45380  -41.96690   -3.46420    8.45380
 1750.00000   10.78280  307.10500  307.10500    3.25620    -999.25  108.75200  108.75200   70.36230   70.36230    3.19930   10.78280    3.39130  -40.33730   -2.03060    3.39130
 1800.00000   12.84890  220.63410  220.63410    4.53240    -999.25  126.78290  126.78290   71.27990   71.27990    4.35680   12.84890    4.46010  -41.83110   -3.54790    4.46010
 1850.00000   11.27420  172.78400  175.05780    5.71240    -999.25   97.27850   97.27850   60.43840   60.43840    5.71240   11.27420    5.45470  -42.77160   -4.48840    5.45470
 1900.00000   11.40380  129.13300  122.72200    8.14850    -999.25   96.85570   96.85570   54.88380   54.88380    8.14850   11.40380    6.54670  -43.72660   -5.44340    6.54670
 1950.00000   10.61700  117.54110  125.33530    7.97860    -999.25   93.26970   93.26970   60.50760   60.50760    7.97860   10.61700   10.70360  -54.28420  -16.00100   10.70360
 2000.00000   12.47410  193.71600  195.11810    5.12510    -999.25  102.80400  102.80400   69.51110   69.51110    5.12510   12.47410    4.52550  -43.98180   -5.69860    4.52550
 2050.00000   11.56260  164.10310  160.71740    6.22210    -999.25  109.15770  109.15770   73.26390   73.26390    6.22210   11.56260    6.14770  -43.22990   -4.94670    6.14770
 2100.00000   12.52410  191.31090  183.05300    5.46290    -999.25   91.16380   91.16380   66.67300   66.67300    5.46290   12.52410    6.24050  -42.11700   -3.83380    6.24050
 2150.00000   12.17970  193.95650  181.02820    5.52400    -999.25   97.83320   97.83320   67.96250   67.96250    5.52400   12.17970    4.63900  -40.80690   -2.52370    4.63900
 2200.00000   13.81950  181.88190  175.76550    5.68940    -999.25  104.96200  104.96200   72.69100   72.69100    5.68940   13.81950    4.98680  -41.37840   -2.99090    4.98680
 2250.00000   11.91460   99.50760   98.51440   10.15080    -999.25   94.78120   94.78120   46.63840   46.63840   10.15080   11.91460    9.29070  -44.65090   -5.94740    9.29070
 2300.00000   12.26340  124.30230  115.07220    8.69020    -999.25   95.54030   95.54030   84.73370   84.73370    8.69020   12.26340    8.68180  -42.78110   -3.76170    8.68180
 2350.00000   12.15540   86.52340   83.64980   11.95460    -999.25   88.76570   88.76570   58.07680   58.07680   11.95460   12.15540    9.51090  -42.77770   -3.44230    9.51090
 2400.00000   11.91640   90.76700   78.91040   12.67260    -999.25   97.08570   97.08570   55.22740   55.22740   12.67260   11.91640    9.26120  -42.47910   -3.12810    9.26120
 2450.00000   13.16220  148.56830  151.35460    6.60700    -999.25  112.20260  112.20260   51.12740   51.12740    6.60700   13.16220    6.17280  -41.66210   -2.50420    6.17280
 2500.00000   12.84490  120.93830  116.82380    8.55990    -999.25   92.14400   92.14400   79.25720   79.25720    8.55990   12.84490    8.45940  -43.68720   -4.72240    8.45940
 2550.00000   15.09680  223.36540  223.36540    4.47700    -999.25  107.81430  107.81430   63.47690   63.47690    4.59920   15.09680    3.60900  -41.34640   -2.57470    3.60900
 2600.00000   14.91820  260.50740  260.50740    3.83870    -999.25  115.42430  115.42430   64.71670   64.71670    3.73520   14.91820    3.97900  -40.81530   -2.23660    3.97900
 2650.00000   14.16170  229.88860  229.88860    4.34990    -999.25  107.21500  107.21500   62.58810   62.58810    4.29500   14.16170    4.21510  -40.95870   -2.57310    4.21510
 2700.00000   13.66200   63.78420   57.65420   17.34480    -999.25   91.49400   91.49400   40.15860   40.15860   17.34480   13.66200   15.21010  -45.77350   -7.40600   15.21010
 2750.00000   14.70100  173.60840  182.80530    5.47030    -999.25   96.13080   96.13080   57.08390   57.08390    5.47030   14.70100    5.32560  -42.25590   -3.70910    5.32560
 2800.00000   13.38320   65.67700   59.81760   16.71750    -999.25   92.54700   92.54700   45.83140   45.83140   16.71750   13.38320   13.86020  -45.68470   -6.95860   13.86020
 2850.00000   13.69460  232.51420  232.51420    4.30080    -999.25  102.90360  102.90360   43.10740   43.10740    4.30470   13.69460    5.40210  -42.41650   -3.51100    5.40210
 2900.00000   11.42750   39.22670   32.72220   30.56030    -999.25   94.67500   94.67500   37.15600   37.15600   30.56030   11.42750   24.17870  -55.03530  -15.95050   24.17870
 2950.00000   11.47080   63.64770   60.70500   16.47310    -999.25   86.77320   86.77320   44.84940   44.84940   16.47310   11.47080   12.63420  -49.91050  -10.64640   12.63420
 3000.00000   11.39210  214.92060  214.92060    4.65290    -999.25  101.83330  101.83330   66.07960   66.07960    4.85220   11.39210    5.01340  -41.96420   -2.52080    5.01340
 3050.00000   11.02630  117.88460  114.24780    8.75290    -999.25   89.64380   89.64380   55.71710   55.71710    8.75290   11.02630    8.39600  -40.61950   -1.35230    8.39600
 3100.00000   11.38400  159.94490  159.73170    6.26050    -999.25   91.49900   91.49900   52.34090   52.34090    6.26050   11.38400    6.55030  -40.46180   -1.41920    6.55030
