~Version ---------------------------------------------------
VERS.      2.0 : CWLS log ASCII Standard -VERSION 2.0
WRAP.       NO : One line per depth step
CREA. 08/21/14 : LAS Creation Date
~Well ------------------------------------------------------
STRT.M                               350.0 : START DEPTH
STOP.M                              3400.0 : STOP DEPTH
STEP.M                            50.00000 : STEP LENGTH
NULL.                              -999.25 : NULL VALUE
COMP.         CANADIAN HOMESTEAD OILS LTD. : COMPANY
WELL. HOMESTEAD ET AL ROSEVEAR 11-26-53-15 : WELL
FLD .                                      : FIELD
LOC .                                      : LOCATION
CTRY.                               CANADA : COUNTRY
SRVC.                         Schlumberger : SERVICE COMPANY
DATE.                          31-Oct-1978 : LOGDATE
PROV.                              Alberta : PROVINCE
UWI .                     100112605315W500 : UNIQUE WELL ID
SLAT.WGS84                        53.60961 : SURFACE LATITUDE
SLON.WGS84                       -116.1017 : SURFACE LONGITUDE
~Curve Information -----------------------------------------
DEPT   .M      : DEPTH METER
CALD   .MM     : CALIPER FROM DENSITY LOG
CALS   .MM     : CALIPER FROM SONIC LOG
DPHI_LS.V/V    : DENSITY POROSITY LIMESTONE [M=2710,F=1000] FROM DENSITY LOG
DPHI_SS.V/V    : DENSITY POROSITY SANDSTONE [M=2650,F=1000] FROM DENSITY LOG
DRHO   .KG/M3  : DENSITY CORRECTION FROM DENSITY LOG
DT     .US/M   : DELTA TIME FROM SONIC LOG
GRD    .GAPI   : GAMMA RAY FROM DENSITY LOG
GRR    .GAPI   : GAMMA RAY FROM RESISTIVITY LOG
GRS    .GAPI   : GAMMA RAY FROM SONIC LOG
LLD    .OHMM   : DEEP LATEROLOG RESISTIVITY FROM RESISTIVITY LOG
LLS    .OHMM   : SHALLOW LATEROLOG RESISTIVITY FROM RESISTIVITY LOG
NPHI_LS.V/V    : NEUTRON POROSITY LIMESTONE FROM DENSITY LOG
NPHI_SS.V/V    : NEUTRON POROSITY SANDSTONE FROM DENSITY LOG
RHOB   .KG/M3  : BULK DENSITY FROM DENSITY LOG
SPOR_LS.V/V    : SONIC POROSITY LIMESTONE [DTM=47.6,DTF=189]  FROM SONIC LOG
SPOR_SS.V/V    : SONIC POROSITY SANDSTONE [DTM=55.6,DTF=189] FROM SONIC LOG
~Params ----------------------------------------------------
PD  .                         GL : PERMANENT DATUM
EPD .M                     911.4 : ELEVATION PERMANENT DATUM
LMF .                         KB : LOG MEASURED FROM
DAPD.M                       3.9 : FEET ABOVE PERMANENT DATUM
EKB .M                     915.3 : KELLY BUSHING
EGL .M                     911.4 : GROUND LEVEL
DATE.                   10/31/78 : RUN DATE
RUN .                          1 : RUN NUMBER
DD  .M                      3405 : DEPTH DRILLER
DL  .M                      3401 : DEPTH LOGGER
BLI .M                      3397 : BOTTOM LOG INTERVAL
TLI .M                       340 : TOP LOG INTERVAL
CBD .M                       340 : CASING BOTTOM DRILLER
CBL .M                       340 : CASING BOTTOM LOGGER
BS  .MM                      222 : BIT SIZE
BSD .M                      3405 : BIT SIZE AT DEPTH
DFT .                    KCL GEL : DRILLING FLUID TYPE
DFD .                       1080 : DRILLING FLUID DENSITY
DFV .                         71 : DRILLING FLUID VISCOSITY
DFPH.                         10 : DRILLING FLUID PH
MSS .                       TANK : MUD SAMPLE SOURCE
RMS .OHMM                  0.213 : RESISTIVITY MUD SAMPLE
MST .DEGC                   16.7 : MUD SAMPLE TEMPERATURE
RMF .OHMM                  0.176 : RESISTIVITY MUD FILTRATE SAMPLE
MFST.DEGC                   16.7 : MUD FILTRATE SAMPLE TEMPERATURE
RMB .OHMM                  0.057 : RESISTIVITY MUD AT BHT
TCS .HRS                       8 : TIME CIRCULATED STOPPED
LUN .                       7690 : LOGGING UNIT NUMBER
LUL .                        EDM : LOGGING UNIT LOCATION
ENGI.                      COWAN : RECORDING ENGINEER
WITN.                  STOCKWELL : WITNESSED BY
CLNT.                    A2DTECH : CLIENT CODE
ORIG. 6.5"/100M 16.5"/100M PRINT : ORIGIN OF DATA
UWI .           100112605315W500 : UNIQUE WELL ID
DICO.     A2D Technologies, Inc. : DIGITIZING COMPANY
~Other -----------------------------------------------------
~ASCII -----------------------------------------------------
  350.00000  257.36060  246.59050    -999.25    0.18950   61.39030  319.31830   66.88860   54.42850   69.57030   11.12820    3.65570    -999.25    0.39540 2350.35570    -999.25    0.31810
  400.00000  337.20700  278.70940    -999.25    0.15020   26.43410  291.57170   74.50690   63.23800   64.23600   22.04580    8.49800    -999.25    0.29720 2427.91850    -999.25    0.25630
  450.00000  373.70300  257.36900    -999.25    0.40960   25.62650  411.19530  120.35920   81.43600  118.02400    5.34430    5.88710    -999.25    0.59290 1957.21560    -999.25    -999.25
  500.00000  318.75300  260.05720    -999.25    0.10200  146.41650  280.47000   75.96630   71.13100   83.86990    9.85700    6.54310    -999.25    0.32020 2515.64260    -999.25    0.23290
  550.00000  246.74520  238.20470    -999.25    0.13950   -7.80080  291.30400   89.53670   78.79010   88.40830    7.01720    5.81460    -999.25    0.32570 2383.28960    -999.25    0.24680
  600.00000  289.83250  258.07100    -999.25    0.08810   20.72540  297.22940   94.97990   93.26750   99.72670    7.85950    5.51600    -999.25    0.39490 2516.95120    -999.25    0.26900
  650.00000  296.76510  260.16780    -999.25    0.10060   31.66130  281.26090   95.30520   88.62860  100.42960    6.62420    4.86630    -999.25    0.39970 2490.76050    -999.25    0.23150
  700.00000  295.41880  246.26300    -999.25    0.32050  226.39570  300.71010   92.52250   73.51460   94.59540    7.97800    6.18250    -999.25    0.41390 2130.31470    -999.25    0.27970
  750.00000  236.86860  251.53550    -999.25    0.13640  145.17040  276.03610   55.64140   54.82510   60.54710   11.37540    7.46560    -999.25    0.36280 2414.34200    -999.25    0.21700
  800.00000  312.45040  250.84420    -999.25    0.18890  196.35310  294.29970   90.74800   91.90010  105.36050    6.55960    5.28190    -999.25    0.40490 2328.86250    -999.25    0.26250
  850.00000  303.08890  258.00430    -999.25    0.29360  175.10870  333.02090  108.76060   98.78640  106.27400    5.54600    4.08460    -999.25    0.41880 2160.94850    -999.25    0.34040
  900.00000  268.39750  258.81160    -999.25    0.09940  197.21460  275.19410  104.76200   91.52350   98.44780    6.70260    5.63140    -999.25    0.33750 2491.82130    -999.25    0.21430
  950.00000  375.36580  266.46800    -999.25    0.34210  192.18540  318.66820  105.12820   94.53310  100.93250    5.63990    4.20520    -999.25    0.39770 2126.25760    -999.25    0.32040
 1000.00000  323.72550  252.47960    -999.25    0.28940  186.31740  286.92350   96.87280   95.79000  111.95720    7.64630    6.12390    -999.25    0.37860 2165.84420    -999.25    0.24250
 1050.00000  317.20250  253.43470    -999.25    0.25800  206.10910  283.07010   89.46760   89.58950  103.06560    5.52760    4.56260    -999.25    0.34250 2210.78860    -999.25    0.23410
 1100.00000  315.87380  278.25750    -999.25    0.37220  200.73890  293.54040   86.18540   81.34590   83.99800    7.04410    5.23520    -999.25    0.37960 2035.70500    -999.25    0.25610
 1150.00000  333.78530  262.26490    -999.25    0.26720  183.21950  278.82300   74.04250   72.68260   86.19190   11.34050    8.11410    -999.25    0.36100 2245.43240    -999.25    0.23490
 1200.00000  294.44820  261.61900    -999.25    0.18320  200.62850  262.15770   79.94710   82.84900   74.32290    8.15830    6.25710    -999.25    0.31680 2340.30080    -999.25    0.18870
 1250.00000  375.27210  256.35630    -999.25    0.44410  189.93530  262.79710   75.18670   77.49030   80.99670   10.95810    8.22030    -999.25    0.39120 2054.86180    -999.25    0.19330
 1300.00000  359.30490  262.43670    -999.25    0.26480  201.97150  287.22860   75.03620   68.64180   80.24850    7.14460    5.54700    -999.25    0.34740 2205.08060    -999.25    0.24580
 1350.00000  250.14840  243.69050    -999.25    0.06630   39.36610  218.97370   42.63460   39.04770   41.21150   75.03330   46.22510    -999.25    0.22380 2573.95410    -999.25    0.09970
 1400.00000  302.69600  265.26610    -999.25    0.13940  229.24710  260.27350  105.74070   94.99390  120.55890   13.76540   11.70110    -999.25    0.30610 2400.64550    -999.25    0.18240
 1450.00000  328.60180  262.62700    -999.25    0.14570  256.62700  250.50450  105.51510  108.12370  128.87450   14.25140   11.52010    -999.25    0.32340 2408.31670    -999.25    0.16150
 1500.00000  293.65700  253.85550    -999.25    0.12440  198.01750  266.81250  118.51960  121.87150  138.59220   18.33500   16.47970    -999.25    0.37440 2466.07840    -999.25    0.19960
 1550.00000  307.03100  255.44540    -999.25    0.22940  184.66880  239.45700  100.59530   99.62220  112.59350   12.42810   10.37920    -999.25    0.35650 2282.61380    -999.25    0.14310
 1600.00000  331.01390  269.65580    -999.25    0.22350  218.84320  264.59760  112.18740  118.66150  121.91610    7.30700    6.43940    -999.25    0.37740 2256.65230    -999.25    0.19510
 1650.00000  310.49770  260.54000    -999.25    0.23560  211.95250  256.31540  101.40310  107.21330  120.25980   11.00660    9.45870    -999.25    0.36710 2264.32420    -999.25    0.17570
 1700.00000  311.49150  254.02970    -999.25    0.22860  224.09690  250.35200  105.75950  109.38370  118.37210   12.54490   10.62570    -999.25    0.33580 2265.66820    -999.25    0.16090
 1750.00000  310.45950  256.51840    -999.25    0.21090  251.67990  267.79590  119.06070  112.91770  133.59000   10.81550   10.12690    -999.25    0.33270 2270.48170    -999.25    0.20000
 1800.00000  257.37810  247.20510    -999.25    0.04390    5.08610  275.09080  136.89630  132.20370  145.90780   18.08710   16.84140    -999.25    0.34420 2608.07030    -999.25    0.21730
 1850.00000  240.86090  235.59600    -999.25    0.04350   50.62910  276.27250  129.96720  129.11740  145.38310   34.60870   37.51980    -999.25    0.42300 2555.83420    -999.25    0.22700
 1900.00000  289.47770  246.04430    -999.25    0.14880  252.97770  257.91960  107.26150  103.42300  121.25220   10.94210   10.37480    -999.25    0.29210 2392.47490    -999.25    0.17890
 1950.00000  291.70730  258.85270    -999.25    0.07840  244.38880  257.27620  117.73830  114.70500  123.26450   12.57490   11.59880    -999.25    0.33610 2508.09910    -999.25    0.17690
 2000.00000  344.88480  258.57140    -999.25    0.33660  175.13880  285.09150  116.89780  116.61890  130.91130    6.88990    6.49840    -999.25    0.38790 2090.71750    -999.25    0.24060
 2050.00000  385.07400  299.98390    -999.25    0.37450  164.26800  287.73580  109.14020  104.59910  116.02430    4.73740    3.69980    -999.25    0.46650 1985.85110    -999.25    0.25290
 2100.00000  276.56100  246.40270    -999.25    0.03660   34.51720  226.74120   92.12050   99.71770   91.68450   22.87480   20.52860    -999.25    0.24020 2569.09230    -999.25    0.10460
 2150.00000  368.66710  283.81220    -999.25    -999.25  -14.46920  406.36880   26.53350   26.25270   20.88560 21018.17970  151.61400    -999.25    0.69740 1390.00070    -999.25    0.44830
 2200.00000  259.54480  244.76220    -999.25    0.00300    0.28250  221.74280   77.10260   54.89870   79.39950   23.15770   17.74680    -999.25    0.20760 2614.31180    -999.25    0.09610
 2250.00000  309.62740  241.00520    0.17270    0.10560  141.12760  220.79250   72.95810   77.42960   80.37690   76.35170   60.07880    0.15700    0.18070 2458.46900    -999.25    0.09270
 2300.00000  251.91930  232.68970    0.08130    0.06710   26.30700  203.70810   35.63030   43.86510   31.64820  173.86060   91.93080    0.09600    0.14860 2534.54960    -999.25    0.04990
 2350.00000  234.92840  228.50250    0.08910    -999.25   13.49260  189.71020   18.32310   22.11980   23.32500  326.32700  203.76730    0.03610    -999.25 2547.67290    0.07880    -999.25
 2400.00000  249.42020  236.20540   -0.02700    -999.25   40.54680  191.27760   82.06670   76.41730   92.21040   47.83580   39.34880    0.09170    -999.25 2743.30540    0.08240    -999.25
 2450.00000  279.18550  228.48300    0.09630    -999.25  121.57010  182.07940   66.51950   73.92940   73.41710   14.55350   13.28310    0.14260    -999.25 2590.31100    0.06000    -999.25
