~Version ---------------------------------------------------
VERS.      2.0 : CWLS log ASCII Standard -VERSION 2.0
WRAP.       NO : One line per depth step
CREA. 08/22/14 : LAS Creation Date
~Well ------------------------------------------------------
STRT.M                               350.0 : START DEPTH
STOP.M                              3400.0 : STOP DEPTH
STEP.M                            50.00000 : STEP LENGTH
NULL.                              -999.25 : NULL VALUE
COMP.         CANADIAN HOMESTEAD OILS LTD. : COMPANY
WELL. HOMESTEAD ET AL ROSEVEAR 11-26-53-15 : WELL
FLD .                                      : FIELD
LOC .                                      : LOCATION
CTRY.                               CANADA : COUNTRY
SRVC.                         Schlumberger : SERVICE COMPANY
DATE.                          31-Oct-1978 : LOGDATE
PROV.                              Alberta : PROVINCE
UWI .                     100112605315W500 : UNIQUE WELL ID
SLAT.WGS84                        53.60961 : SURFACE LATITUDE
SLON.WGS84                       -116.1017 : SURFACE LONGITUDE
~Curve Information -----------------------------------------
DEPT    .M      : Depth Curve
CALDED  .MM     : CALIPER FROM DENSITY LOG [ADJ. TO RESISTIVITY LOG]
CALSED  .MM     : CALIPER FROM SONIC LOG [ADJ. TO RESISTIVITY LOG]
CALWS   .MM     : CALIPER [CALDED]
CONDWS  .MMHO   : CONDUCTIVITY [1000/DRESWS]
DCORWS  .KG/M3  : DENSITY CORRECTION [DRHOED]
DENWS   .KG/M3  : FORMATION BULK DENSITY [RHOBED]
DPHILSED.V/V    : DENSITY POROSITY LIMESTONE [M=2710,F=1000] FROM DENSITY LOG [ADJ. TO RESISTIVITY LOG]
DPHISSED.V/V    : DENSITY POROSITY SANDSTONE [M=2650,F=1000] FROM DENSITY LOG [ADJ. TO RESISTIVITY LOG]
DPOLSWS .V/V    : DENSITY POROSITY LIMESTONE [CALC FROM DENWS, M=2710,F=1000]
DRESWS  .OHMM   : DEEP RESISTIVITY [LLDED]
DRHOED  .KG/M3  : DENSITY CORRECTION FROM DENSITY LOG [ADJ. TO RESISTIVITY LOG]
DTED    .US/M   : DELTA TIME FROM SONIC LOG [ADJ. TO RESISTIVITY LOG]
DTWS    .US/M   : COMPRESSIONAL SONIC [DTED]
GRDED   .GAPI   : GAMMA RAY FROM DENSITY LOG [ADJ. TO RESISTIVITY LOG]
GRRED   .GAPI   : GAMMA RAY FROM RESISTIVITY LOG [ADJ. TO LLDED]
GRSED   .GAPI   : GAMMA RAY FROM SONIC LOG [ADJ. TO RESISTIVITY LOG]
GRWS    .GAPI   : GAMMA RAY [SPL. GRSED 340M  GRDED ]
LLDED   .OHMM   : DEEP LATEROLOG RESISTIVITY FROM RESISTIVITY LOG
LLSED   .OHMM   : SHALLOW LATEROLOG RESISTIVITY FROM RESISTIVITY LOG
NPHILSED.V/V    : NEUTRON POROSITY LIMESTONE FROM DENSITY LOG [ADJ. TO RESISTIVITY LOG]
NPHISSED.V/V    : NEUTRON POROSITY SANDSTONE FROM DENSITY LOG [ADJ. TO RESISTIVITY LOG]
NPOLSWS .V/V    : NEUTRON POROSITY LIMESTONE [NPHISSED MATRIX CONVERSION TO LIMESTONE & SPL. TO NPHILSED @ 2322M]
RHOBED  .KG/M3  : BULK DENSITY FROM DENSITY LOG [ADJ. TO RESISTIVITY LOG]
SPORLSED.V/V    : SONIC POROSITY LIMESTONE [DTM=47.6,DTF=189]  FROM SONIC LOG [ADJ. TO RESISTIVITY LOG]
SPORSSED.V/V    : SONIC POROSITY SANDSTONE [DTM=55.6,DTF=189] FROM SONIC LOG [ADJ. TO RESISTIVITY LOG]
SPOWS   .V/V    : SONIC POROSITY [SPORSSED SPL. TO SPORLSED @ 2325M]
SRESWS  .OHMM   : SHALLOW RESISTIVITY [LLSED]
~Params ----------------------------------------------------
PD  .                         GL : PERMANENT DATUM
EPD .M                     911.4 : ELEVATION PERMANENT DATUM
LMF .                         KB : LOG MEASURED FROM
DAPD.M                       3.9 : FEET ABOVE PERMANENT DATUM
EKB .M                     915.3 : KELLY BUSHING
EGL .M                     911.4 : GROUND LEVEL
DATE.                   10/31/78 : RUN DATE
RUN .                          1 : RUN NUMBER
DD  .M                      3405 : DEPTH DRILLER
DL  .M                      3401 : DEPTH LOGGER
BLI .M                      3397 : BOTTOM LOG INTERVAL
TLI .M                       340 : TOP LOG INTERVAL
CBD .M                       340 : CASING BOTTOM DRILLER
CBL .M                       340 : CASING BOTTOM LOGGER
BS  .MM                      222 : BIT SIZE
BSD .M                      3405 : BIT SIZE AT DEPTH
DFT .                    KCL GEL : DRILLING FLUID TYPE
DFD .                       1080 : DRILLING FLUID DENSITY
DFV .                         71 : DRILLING FLUID VISCOSITY
DFPH.                         10 : DRILLING FLUID PH
MSS .                       TANK : MUD SAMPLE SOURCE
RMS .OHMM                  0.213 : RESISTIVITY MUD SAMPLE
MST .DEGC                   16.7 : MUD SAMPLE TEMPERATURE
RMF .OHMM                  0.176 : RESISTIVITY MUD FILTRATE SAMPLE
MFST.DEGC                   16.7 : MUD FILTRATE SAMPLE TEMPERATURE
RMB .OHMM                  0.057 : RESISTIVITY MUD AT BHT
TCS .HRS                       8 : TIME CIRCULATED STOPPED
LUN .                       7690 : LOGGING UNIT NUMBER
LUL .                        EDM : LOGGING UNIT LOCATION
ENGI.                      COWAN : RECORDING ENGINEER
WITN.                  STOCKWELL : WITNESSED BY
CLNT.                    A2DTECH : CLIENT CODE
ORIG. 6.5"/100M 16.5"/100M PRINT : ORIGIN OF DATA
UWI .           100112605315W500 : UNIQUE WELL ID
DICO.     A2D Technologies, Inc. : DIGITIZING COMPANY
~Other -----------------------------------------------------
PLEASE NOTE - GAMMA RAY ON DLL APPEARED OBVIOUSLY OFF DEPTH TO RESISTIVITY CURVES * HENCE DEPTH ADJUSTED TO RESISTIVITY.
SPOWS - COMPOSE OF LIMESTONE AND SANDSTONE PER IMAGE: TOP-2325 ( SANDSTONE); 2325-TD (LIMESTONE).
~ASCII -----------------------------------------------------
# ...
 1650.00000  310.49770  260.76550  310.49770   90.85460  208.31430 2251.55400    -999.25    0.23560    0.26810   11.00660  208.31430  260.36670  260.36670  101.40310  104.63880  122.91920  101.40310   11.00660    9.45870    -999.25    0.36710    0.31940 2251.55400    -999.25    0.18380    0.18380    9.45870
 1700.00000  315.29190  259.88690  315.29190   79.71370  238.34640 2301.17070    -999.25    0.21580    0.23910   12.54490  238.34640  249.47730  249.47730  106.66180  110.78440  119.13400  106.66180   12.54490   10.62570    -999.25    0.31960    0.26900 2301.17070    -999.25    0.15940    0.15940   10.62570
 1750.00000  310.45950  256.14490  310.45950   92.45990  256.33010 2266.72970    -999.25    0.23730    0.25920   10.81550  256.33010  266.39300  266.39300  119.06070  115.00320  132.46850  119.06070   10.81550   10.12690    -999.25    0.33570    0.28600 2266.72970    -999.25    0.19660    0.19660   10.12690
 1800.00000  257.37810  246.77120  257.37810   55.28800   13.72090 2599.81490    -999.25    0.03040    0.06440   18.08710   13.72090  273.39080  273.39080  136.89630  135.19760  144.84020  136.89630   18.08710   16.84140    -999.25    0.34280    0.29350 2599.81490    -999.25    0.21500    0.21500   16.84140
 1850.00000  240.87820  235.64130  240.87820   28.89450   19.33040 2561.68040    -999.25    0.05830    0.08670   34.60870   19.33040  264.14770  264.14770  124.07070  122.66320  135.82860  124.07070   34.60870   37.51980    -999.25    0.36590    0.31810 2561.68040    -999.25    0.19470    0.19470   37.51980
 1900.00000  296.70590  246.04430  296.70590   91.39010  255.72640 2377.16260    -999.25    0.17170    0.19460   10.94210  255.72640  258.02340  258.02340  109.43250  105.92110  120.45180  109.43250   10.94210   10.37480    -999.25    0.30630    0.25510 2377.16260    -999.25    0.17890    0.17890   10.37480
 1950.00000  287.92840  258.93300  287.92840   79.52350  219.57460 2512.08860    -999.25    0.09010    0.11570   12.57490  219.57460  258.09610  258.09610  118.48730  116.25190  122.92570  118.48730   12.57490   11.59880    -999.25    0.31620    0.26550 2512.08860    -999.25    0.17850    0.17850   11.59880
 2000.00000  353.20940  258.42360  353.20940  145.14000  198.36870 2069.55180    -999.25    0.35220    0.37450    6.88990  198.36870  282.50850  282.50850  115.85450  117.86920  123.49050  115.85450    6.88990    6.49840    -999.25    0.38990    0.34400 2069.55180    -999.25    0.23740    0.23740    6.49840
 2050.00000  393.18690  299.98390  393.18690  211.08620  112.21560 1836.73800    -999.25    0.46620    0.51070    4.73740  112.21560  287.73580  287.73580  109.39800  103.92530  116.02430  109.39800    4.73740    3.69980    -999.25    0.50920    0.47610 1836.73800    -999.25    0.25290    0.25290    3.69980
 2100.00000  276.06620  246.51800  276.06620   43.71620   86.27950 2612.57060    -999.25    0.03220    0.05700   22.87480   86.27950  232.77350  232.77350   95.60220   87.88980  100.03080   95.60220   22.87480   20.52860    -999.25    0.26370    0.21110 2612.57060    -999.25    0.11760    0.11760   20.52860
 2150.00000  375.74890  275.78050  375.74890    0.04760   -4.82650 1390.07370    -999.25    0.60000    0.77190 21018.17970   -4.82650  408.16960  408.16960   23.50120   19.13490   20.88560   23.50120 21018.17970  151.61400    -999.25    0.69790    0.68330 1390.07370    -999.25    0.44830    0.44830  151.61400
 2200.00000  259.54480  244.76220  259.54480   43.18220   -4.51550 2648.20460    -999.25   -0.00140    0.03610   23.15770   -4.51550  221.74280  221.74280   77.10260   68.04580   79.39950   77.10260   23.15770   17.74680    -999.25    0.18590    0.13620 2648.20460    -999.25    0.09610    0.09610   17.74680
 2250.00000  309.62740  241.00520  309.62740   13.09730  135.28810 2438.70650    0.18810    0.13180    0.15870   76.35170  135.28810  220.79250  220.79250   72.95810   77.01230   80.56380   72.95810   76.35170   60.07880    0.15220    0.17750    0.12850 2438.70650    -999.25    0.09270    0.09270   60.07880
 2300.00000  251.05760  232.83800  251.05760    5.75170   20.42890 2526.61770    0.07060    0.07840    0.10720  173.86060   20.42890  203.70810  203.70810   38.40070   34.54430   33.86000   38.40070  173.86060   91.93080    0.08850    0.14190    0.09690 2526.61770    -999.25    0.04990    0.04990   91.93080
 2350.00000  236.29040  229.65370  236.29040    3.06440   18.25120 2525.78470    0.10740    -999.25    0.10770  326.32700   18.25120  186.99630  186.99630   17.97450   22.90660   26.34660   17.97450  326.32700  203.76730    0.04050    -999.25    0.04050 2525.78470    0.07200    -999.25    0.07200  203.76730
 2400.00000  249.34600  236.43500  249.34600   20.90480   31.71080 2740.36180   -0.01980    -999.25   -0.01780   47.83580   31.71080  193.08190  193.08190   83.09980   86.30880   91.60730   83.09980   47.83580   39.34880    0.09270    -999.25    0.09270 2740.36180    0.08530    -999.25    0.08530   39.34880
 2450.00000  279.18550  233.03820  279.18550   68.71200  121.57010 2590.31100    0.07560    -999.25    0.07000   14.55350  121.57010  179.13010  179.13010   66.51950   70.46490   74.01380   66.51950   14.55350   13.28310    0.14770    -999.25    0.14770 2590.31100    0.05360    -999.25    0.05360   13.28310
 2500.00000  251.83200  238.52990  251.83200   23.30210   19.36450 2702.32180    0.00460    -999.25    0.00450   42.91460   19.36450  183.23350  183.23350   49.79900   56.17230   64.32170   49.79900   42.91460   36.37220    0.05990    -999.25    0.05990 2702.32180    0.06440    -999.25    0.06440   36.37220
 2550.00000  228.23750  225.06920  228.23750   17.01380    7.02540 2680.08520    0.01890    -999.25    0.01750   58.77570    7.02540  182.23180  182.23180   48.81590   49.72230   50.79210   48.81590   58.77570   52.04740    0.05730    -999.25    0.05730 2680.08520    0.06110    -999.25    0.06110   52.04740
 2600.00000  228.03810  224.04120  228.03810    2.71670   17.92160 2711.15820   -0.00310    -999.25   -0.00070  368.09160   17.92160  177.00400  177.00400   67.07490   70.06800   68.60000   67.07490  368.09160  217.73980    0.04890    -999.25    0.04890 2711.15820    0.04900    -999.25    0.04900  217.73980
 2650.00000  269.69110  233.31520  269.69110    2.96980  202.69900 2672.40890    0.02640    -999.25    0.02200  336.71810  202.69900  159.53740  159.53740   16.19210   18.03860   19.51060   16.19210  336.71810  144.38510    0.00850    -999.25    0.00850 2672.40890    0.01080    -999.25    0.01080  144.38510
 2700.00000  324.58540  238.81150  324.58540    9.27930  209.96110 2275.17110    0.25840    -999.25    0.25430  107.76730  209.96110  161.33160  161.33160   17.71990   19.23540   19.26840   17.71990  107.76730   43.78530    0.10400    -999.25    0.10400 2275.17110    0.01570    -999.25    0.01570   43.78530
 2750.00000  246.37010  233.65940  246.37010   11.39130   34.21170 2735.72510   -0.00890    -999.25   -0.01500   87.78620   34.21170  164.42690  164.42690   13.55520   16.67500   15.15920   13.55520   87.78620   88.89880    0.01690    -999.25    0.01690 2735.72510    0.02500    -999.25    0.02500   88.89880
 2800.00000  332.38530  244.21030  332.38530    2.71280  197.70400 2329.33590    0.27640    -999.25    0.22260  368.62730  197.70400  164.83880  164.83880   14.33860   15.88510   17.50910   14.33860  368.62730   60.69350    0.01440    -999.25    0.01440 2329.33590    0.02330    -999.25    0.02330   60.69350
 2850.00000  235.95660  227.10870  235.95660    1.45980   23.18110 2749.23750   -0.02150    -999.25   -0.02290  685.03490   23.18110  156.34530  156.34530   26.49440   30.01210   32.76690   26.49440  685.03490  151.59020    0.03780    -999.25    0.03780 2749.23750    0.00510    -999.25    0.00510  151.59020
 2900.00000  237.05230  227.09630  237.05230   19.77050   12.92470 2702.28030    0.00510    -999.25    0.00450   50.58050   12.92470  180.23920  180.23920   45.26670   48.66360   53.88680   45.26670   50.58050   43.13100    0.06390    -999.25    0.06390 2702.28030    0.05530    -999.25    0.05530   43.13100
