~Version ---------------------------------------------------
VERS.      2.0 : CWLS log ASCII Standard -VERSION 2.0
WRAP.       NO : One line per depth step
CREA. 06/23/13 : LAS Creation Date
~Well ------------------------------------------------------
STRT.M                              350.0 : START DEPTH
STOP.M                             2450.0 : STOP DEPTH
STEP.M                           50.00000 : STEP LENGTH
NULL.                             -999.25 : NULL VALUE
COMP.                TALISMAN ENERGY INC. : COMPANY
WELL. BP TRICAL CARBON 16-36-29-23 #16-36 : WELL
FLD .                                     : FIELD
LOC .                                     : LOCATION
CTRY.                              CANADA : COUNTRY
SRVC.                             Unknown : SERVICE COMPANY
DATE.                         09-Sep-1989 : LOGDATE
PROV.                             Alberta : PROVINCE
UWI .                    100163602923W400 : UNIQUE WELL ID
SLAT.WGS84                        51.5291 : SURFACE LATITUDE
SLON.WGS84                      -113.1034 : SURFACE LONGITUDE
~Curve Information -----------------------------------------
DEPT    .M      : DEPTH METER
C1ED    .mm     : CALIPER 1 FROM DENSITY LOG [ADJ. RESISTIVITY LOG]
C2ED    .mm     : CALIPER 2 FROM DENSITY LOG [ADJ. RESISTIVITY LOG]
CALWS   .mm     : CALIPER [C1ED]
CONDWS  .MMHO   : CONDUCTIVITY [1000/DRESWS]
DCORWS  .KG/M3  : DENSITY CORRECTION [DRHOED]
DENWS   .KG/M3  : FORMATION BULK DENSITY [CALC FROM DPOLSWS, M=2710, F=1000]
DPHILSED.V/V    : DENSITY POROSITY LIMESTONE [M=2710, F=1000] FROM DENSITY LOG [ADJ. RESISTIVITY LOG]
DPOLSWS .V/V    : DENSITY POROSITY LIMESTONE [DPHILSED]
DRESWS  .OHMM   : DEEP RESISTIVITY [IDPHED]
DRHOED  .KG/M3  : DENSITY CORRECTION FROM DENSITY LOG [ADJ. RESISTIVITY LOG]
DTED    .us/m   : DELTA TIME FROM SONIC LOG
DTWS    .us/m   : COMPRESSIONAL SONIC [DTED]
GRDED   .GAPI   : GAMMA RAY FROM DENSITY LOG [ADJ. RESISTIVITY LOG]
GRRED   .GAPI   : GAMMA RAY FROM RESISTIVITY LOG
GRWS    .GAPI   : GAMMA RAY [GRRED SPL.TO GRDED @ 2450.1M]
HDED    .mm     : HOLE DIAMETER FROM SONIC LOG
IDPHED  .OHMM   : INDUCTION DEEP PHASOR FROM RESISTIVITY LOG
IMPHED  .OHMM   : INDUCTION MEDIUM PHASOR FROM RESISTIVITY LOG
MRESWS  .OHMM   : MEDIUM RESISTIVITY [IMPHED]
NPHILSED.V/V    : NEUTRON POROSITY LIMESTONE FROM DENSITY LOG [ADJ. RESISTIVITY LOG]
NPOLSWS .V/V    : NEUTRON POROSITY LIMESTONE [NPHILSED]
PEFED   .B/E    : PHOTOELECTRIC FACTOR FROM DENSITY LOG [ADJ. RESISTIVITY LOG]
PEFWS   .B/E    : PHOTOELECTRIC FACTOR [PEFED]
RHOBED  .KG/M3  : BULK DENSITY FROM DENSITY LOG [ADJ. RESISTIVITY LOG]
SFLUED  .OHMM   : SHALLOW FOCUSED FROM RESISTIVITY LOG
SPRED   .MV     : SPONTANEOUS POTENTIAL FROM RESISTIVITY LOG
SPWS    .MV     : SPONTANEOUS POTENTIAL [BASELINE 0 MV, SPRED]
SRESWS  .OHMM   : SHALLOW RESISTIVITY [SFLUED]
TENDED  .N      : TENSION FROM DENSITY LOG [ADJ. RESISTIVITY LOG]
TENRED  .N      : TENSION FROM RESISTIVITY LOG
~Params ----------------------------------------------------
PD  .                           GL : PERMANENT DATUM
EPD .M                       894.3 : ELEVATION PERMANENT DATUM
EKB .M                         899 : KELLY BUSHING
EGL .M                       894.3 : GROUND LEVEL
DATE.                     09/09/89 : RUN DATE
RUN .                            1 : RUN NUMBER
DD  .M                        2471 : DEPTH DRILLER
DL  .M                      2471.1 : DEPTH LOGGER
BLI .M                      2467.9 : BOTTOM LOG INTERVAL
TLI .M                       379.5 : TOP LOG INTERVAL
CS  .MM                      244.5 : CASING SIZE
CBD .M                       379.5 : CASING BOTTOM DRILLER
CBL .M                       379.5 : CASING BOTTOM LOGGER
BS  .MM                        222 : BIT SIZE
BSD .M                        2471 : BIT SIZE AT DEPTH
DFT .                   GEL GYPSUM : DRILLING FLUID TYPE
DFD .                         1080 : DRILLING FLUID DENSITY
DFV .                           73 : DRILLING FLUID VISCOSITY
DFPH.                         10.5 : DRILLING FLUID PH
DFL .                          7.4 : DRILLING FLUID LOSS
MSS .                     FLOWLINE : MUD SAMPLE SOURCE
RMS .OHMM                     1.47 : RESISTIVITY MUD SAMPLE
MST .DEGC                       10 : MUD SAMPLE TEMPERATURE
RMF .OHMM                     1.12 : RESISTIVITY MUD FILTRATE SAMPLE
MFST.DEGC                       18 : MUD FILTRATE SAMPLE TEMPERATURE
RMC .OHMM                     1.17 : RESISTIVITY MUD CAKE
MCST.DEGC                       20 : MUD CAKE SAMPLE TEMPERATURE
MFSS.                        PRESS : MUD FILTRATE SAMPLE SOURCE
MCSS.                   FILTERCAKE : MUD CAKE SAMPLE SOURCE
RMB .OHMM                    0.599 : RESISTIVITY MUD AT BHT
TCS .HRS                       500 : TIME CIRCULATED STOPPED
TLAB.HRS                      1030 : TIME LOGGER AT BOTTOM
LUN .                         8063 : LOGGING UNIT NUMBER
LUL .                     RED DEER : LOGGING UNIT LOCATION
ENGI.                        DAVEL : RECORDING ENGINEER
WITN.                         DUNK : WITNESSED BY
CLNT.                      A2DTECH : CLIENT CODE
ORIG. 6.5"/100M  16.5"/100M  PRINT : ORIGIN OF DATA
UWI .             100163602923W400 : UNIQUE WELL ID
DICO.       A2D Technologies, Inc. : DIGITIZING COMPANY
~Other -----------------------------------------------------
PI-SFL-BHC LOG RUN IN COMBO & CNL-LDT LOG RUN
C1ED,C2ED,TENDED,DIG IN SMALL SCALE @ 379.3M TO 1500M
~ASCII -----------------------------------------------------
  350.00000    -999.25    -999.25    -999.25    -999.25    -999.25    -999.25    -999.25    -999.25    -999.25    -999.25    -999.25    -999.25    -999.25   32.15140   32.15140    -999.25    -999.25    -999.25    -999.25    -999.25    -999.25    -999.25    -999.25    -999.25    -999.25    -999.25    -999.25    -999.25    -999.25    -999.25
  400.00000  240.55550  229.61640  240.55550  110.02790    -999.25    -999.25    -999.25    -999.25    9.08860    -999.25  301.57410  301.57410    -999.25   66.45150   66.45150  234.41320    9.08860    7.78710    7.78710    -999.25    -999.25    -999.25    -999.25    -999.25    6.88210  -55.55050  -18.25840    6.88210 8921.00100 6436.61890
  450.00000  293.74820  232.17420  293.74820  223.66360    -999.25    -999.25    -999.25    -999.25    4.47100    -999.25  386.10450  386.10450    -999.25   66.68290   66.68290  249.82750    4.47100    4.15280    4.15280    -999.25    -999.25    -999.25    -999.25    -999.25    4.73140  -46.28590   -5.23870    4.73140 8982.79700 6672.98990
  500.00000  262.89600  223.26130  262.89600  191.44250    -999.25    -999.25    -999.25    -999.25    5.22350    -999.25  501.25530  501.25530    -999.25   62.81810   62.81810  303.23020    5.22350    3.87790    3.87790    -999.25    -999.25    -999.25    -999.25    -999.25    4.69830  -44.81530   -3.69090    4.69830 9147.24110 6923.28060
  550.00000  301.09700  218.90640  301.09700  354.22050    -999.25    -999.25    -999.25    -999.25    2.82310    -999.25  323.70940  323.70940    -999.25   71.31400   71.31400  274.39730    2.82310    2.48450    2.48450    -999.25    -999.25    -999.25    -999.25    -999.25    2.47320  -42.54930   -2.13250    2.47320 9588.27960 7266.29320
  600.00000  229.21510  226.22250  229.21510   88.59360    -999.25    -999.25    -999.25    -999.25   11.28750    -999.25  279.93210  279.93210    -999.25   51.04230   51.04230  231.65140   11.28750   11.65290   11.65290    -999.25    -999.25    -999.25    -999.25    -999.25   10.80970  -47.61780   -8.07000   10.80970 9558.28120 7241.06030
  650.00000  361.28360  264.39980  361.28360  197.98450    -999.25    -999.25    -999.25    -999.25    5.05090    -999.25  317.33870  317.33870    -999.25   56.61790   56.61790  286.66660    5.05090    4.47290    4.47290    -999.25    -999.25    -999.25    -999.25    -999.25    4.10730  -40.51850   -3.24270    4.10730 10207.30790 7586.70220
  700.00000  241.81510  225.76400  241.81510  163.44940    -999.25    -999.25    -999.25    -999.25    6.11810    -999.25  288.67120  288.67120    -999.25   54.62320   54.62320  248.15900    6.11810    5.76950    5.76950    -999.25    -999.25    -999.25    -999.25    -999.25    5.01000  -41.73660   -6.73270    5.01000 10214.11900 7717.44880
  750.00000  265.35460  237.85810  265.35460  200.14010    -999.25    -999.25    -999.25    -999.25    4.99650    -999.25  296.08500  296.08500    -999.25   48.98950   48.98950  241.93840    4.99650    4.94620    4.94620    -999.25    -999.25    -999.25    -999.25    -999.25    4.65310  -38.63290   -5.90100    4.65310 10324.32910 8052.09560
  800.00000  276.51370  232.95480  276.51370  202.18770    -999.25    -999.25    -999.25    -999.25    4.94590    -999.25  320.07010  320.07010    -999.25   60.10400   60.10400  246.62420    4.94590    4.63160    4.63160    -999.25    -999.25    -999.25    -999.25    -999.25    4.60700  -36.94210   -6.19960    4.60700 11240.08930 8271.50550
  850.00000  277.06200  245.28540  277.06200  173.53580    -999.25    -999.25    -999.25    -999.25    5.76250    -999.25  310.21910  310.21910    -999.25   93.49360   93.49360  263.21850    5.76250    5.46560    5.46560    -999.25    -999.25    -999.25    -999.25    -999.25    5.86150  -36.29840   -1.64450    5.86150 11007.04610 8498.13120
  900.00000  332.37320  233.85860  332.37320   89.01550    -999.25    -999.25    -999.25    -999.25   11.23400    -999.25  276.02960  276.02960    -999.25   81.92230   81.92230  264.69300   11.23400    8.99510    8.99510    -999.25    -999.25    -999.25    -999.25    -999.25    8.68280  -39.49620   -4.32410    8.68280 12117.01750 8615.09280
  950.00000  242.42150  228.86110  242.42150   77.94600    -999.25    -999.25    -999.25    -999.25   12.82940    -999.25  281.01080  281.01080    -999.25  114.51830  114.51830  240.13330   12.82940   12.39600   12.39600    -999.25    -999.25    -999.25    -999.25    -999.25   14.97070  -36.26610   -2.64830   14.97070 11683.86970 8782.06610
 1000.00000  250.06230  239.12580  250.06230  132.31190    -999.25    -999.25    -999.25    -999.25    7.55790    -999.25  286.78190  286.78190    -999.25   84.09830   84.09830  244.59690    7.55790    6.84790    6.84790    -999.25    -999.25    -999.25    -999.25    -999.25    7.94350  -34.08200   -3.74450    7.94350 11867.34280 8978.62900
 1050.00000  258.78840  253.92350  258.78840  113.14910    -999.25    -999.25    -999.25    -999.25    8.83790    -999.25  289.79600  289.79600    -999.25  100.38320  100.38320  266.81160    8.83790    8.67880    8.67880    -999.25    -999.25    -999.25    -999.25    -999.25    8.51410  -30.98450   -3.92730    8.51410 10671.75830 9073.60030
 1100.00000  296.54260  240.42450  296.54260  131.78360    -999.25    -999.25    -999.25    -999.25    7.58820    -999.25  286.07020  286.07020    -999.25   95.04640   95.04640  257.88160    7.58820    7.08390    7.08390    -999.25    -999.25    -999.25    -999.25    -999.25    6.85490  -30.94210   -6.15850    6.85490 12089.76460 9466.96460
 1150.00000  277.91070  259.68980  277.91070  129.18900    -999.25    -999.25    -999.25    -999.25    7.74060    -999.25  305.68350  305.68350    -999.25   83.70420   83.70420  277.74290    7.74060    7.00880    7.00880    -999.25    -999.25    -999.25    -999.25    -999.25    6.64540  -29.41250   -6.42120    6.64540 12752.04250 9612.83160
 1200.00000  274.64970  254.21680  274.64970  136.29550    -999.25    -999.25    -999.25    -999.25    7.33700    -999.25  312.90860  312.90860    -999.25  115.54530  115.54530  264.82140    7.33700    6.95810    6.95810    -999.25    -999.25    -999.25    -999.25    -999.25    7.46760  -25.26570   -4.06660    7.46760 13026.81140 9769.24700
 1250.00000  236.12150  256.18520  236.12150  104.76030    -999.25    -999.25    -999.25    -999.25    9.54560    -999.25  278.41120  278.41120    -999.25  104.66620  104.66620  246.18450    9.54560    9.81800    9.81800    -999.25    -999.25    -999.25    -999.25    -999.25   10.91590  -23.43810   -4.96050   10.91590 12269.46560 10005.13760
 1300.00000  235.46860  256.39110  235.46860  142.46030    -999.25    -999.25    -999.25    -999.25    7.01950    -999.25  309.23530  309.23530    -999.25  151.82850  151.82850  247.99120    7.01950    7.26360    7.26360    -999.25    -999.25    -999.25    -999.25    -999.25    8.11140  -18.22600   -4.00390    8.11140 12233.18820 10139.87420
 1350.00000  232.51840  225.92060  232.51840   85.40580    -999.25    -999.25    -999.25    -999.25   11.70880    -999.25  266.91540  266.91540    -999.25   69.19370   69.19370  246.36150   11.70880   12.00260   12.00260    -999.25    -999.25    -999.25    -999.25    -999.25   10.51270  -32.01420  -20.18130   10.51270 12091.05150 10338.62470
 1400.00000  280.90270  301.34770  280.90270  256.93730    -999.25    -999.25    -999.25    -999.25    3.89200    -999.25  290.52840  290.52840    -999.25   77.62800   77.62800  289.39040    3.89200    3.94410    3.94410    -999.25    -999.25    -999.25    -999.25    -999.25    4.00060  -15.01940   -5.57320    4.00060 12502.77260 10572.57580
 1450.00000  244.32990  242.00340  244.32990   65.93910    -999.25    -999.25    -999.25    -999.25   15.16550    -999.25  224.98360  224.98360    -999.25   48.61990   48.61990  248.85680   15.16550   14.31660   14.31660    -999.25    -999.25    -999.25    -999.25    -999.25   11.68810  -19.87180  -13.06190   11.68810 13272.41730 10719.82440
 1500.00000  258.69160  262.93430  258.69160   46.05640   -2.12470 2588.24800    0.07120    0.07120   21.71250   -2.12470  384.94730  384.94730   37.83070   39.56870   39.56870  270.65670   21.71250   18.12750   18.12750    0.20920    0.20920    2.97520    2.97520    -999.25   26.80100  -45.05620  -43.26050   26.80100 13639.49300 10872.68180
