~Version ---------------------------------------------------
VERS.      2.0 : CWLS log ASCII Standard -VERSION 2.0
WRAP.       NO : One line per depth step
CREA. 11/22/17 : LAS Creation Date
~Well ------------------------------------------------------
STRT.FT                              1100.0 : START DEPTH
STOP.FT                             10450.0 : STOP DEPTH
STEP.FT                            50.00000 : STEP LENGTH
NULL.                               -999.25 : NULL VALUE
COMP. HUDSONS BAY OIL & GAS COMPANY LIMITED : COMPANY
WELL.       HB ET AL EAGLE TOWER 7-14-63-17 : WELL
FLD .                                       : FIELD
LOC .                                       : LOCATION
CTRY.                                CANADA : COUNTRY
SRVC.                          Schlumberger : SERVICE COMPANY
DATE.                           30-Mar-1973 : LOGDATE
PROV.                               Alberta : PROVINCE
UWI .                      100071406317W500 : UNIQUE WELL ID
SLAT.WGS84                         54.44795 : SURFACE LATITUDE
SLON.WGS84                        -116.4526 : SURFACE LONGITUDE
~Curve Information -----------------------------------------
DEPT  .FT    : Depth Curve
CALSED.IN    : CALIPER FROM SONIC LOG
CALWS .IN    : CALIPER [CALSED]
CILDED.MMHO  : CONDUCTIVITY FROM RESISTIVITY LOG
CONDWS.MMHO  : CONDUCTIVITY [1000/DRESWS]
DRESWS.OHMM  : DEEP RESISTIVITY [1080' 1000/CILDED 10472' ILDED]
DTED  .US/F  : DELTA TIME FROM SONIC LOG
DTWS  .US/F  : DELTA TIME [DTED]
GRSED .GAPI  : GAMMA RAY FROM SONIC LOG
GRWS  .GAPI  : GAMMA RAY [GRSED]
ILDED .OHMM  : INDUCTION LOG DEEP RESISTIVITY
ILMED .OHMM  : INDUCTION LOG MEDIUM RESISTIVITY
LL8ED .OHMM  : 8 INCH LATEROLOG RESISTIVITY
MRESWS.OHMM  : MEDIUM RESISTIVITY [ILMED]
SPRED .MV    : SPONTANEOUS POTENTIAL FROM RESISTIVITY LOG [NUMEROUS SHIFTS ARE REMOVED, PATCHED, TOOK HOURS]
SPWS  .MV    : SPONTANEOUS POTENTIAL [BASELINE 0 MV] [SPRED] [STILL, PL. USE W/ A HUGE RESERVATION]
SRESWS.OHMM  : SHALLOW RESISTIVITY [LL8ED]
~Params ----------------------------------------------------
PD  .                     GL : PERMANENT DATUM
EPD .FT                 3394 : ELEVATION PERMANENT DATUM
LMF .                     KB : LOG MEASURED FROM
DAPD.FT                   13 : FEET ABOVE PERMANENT DATUM
EKB .FT                 3407 : KELLY BUSHING
EGL .FT                 3394 : GROUND LEVEL
DATE.               03/30/73 : RUN DATE
RUN .                      1 : RUN NUMBER
DD  .FT                10470 : DEPTH DRILLER
DL  .FT                10480 : DEPTH LOGGER
BLI .FT                10474 : BOTTOM LOG INTERVAL
TLI .FT                 1076 : TOP LOG INTERVAL
CBD .FT                 1075 : CASING BOTTOM DRILLER
CBL .FT                 1076 : CASING BOTTOM LOGGER
BS  .IN                 8.75 : BIT SIZE
BSD .FT                10470 : BIT SIZE AT DEPTH
DFT .               GEL CHEM : DRILLING FLUID TYPE
DFD .                    9.6 : DRILLING FLUID DENSITY
DFV .                    126 : DRILLING FLUID VISCOSITY
DFPH.                   11.4 : DRILLING FLUID PH
DFL .                    9.2 : DRILLING FLUID LOSS
RMF .OHMM                1.1 : RESISTIVITY MUD FILTRATE SAMPLE
MFST.DEGF                 60 : MUD FILTRATE SAMPLE TEMPERATURE
LUN .                   7636 : LOGGING UNIT NUMBER
LUL .                    EDM : LOGGING UNIT LOCATION
ENGI.                  SCOTT : RECORDING ENGINEER
WITN.                  WIEBE : WITNESSED BY
CLNT.                A2DTECH : CLIENT CODE
ORIG.            2" 5" PRINT : ORIGIN OF DATA
UWI .       100071406317W500 : UNIQUE WELL ID
DICO. A2D Technologies, Inc. : DIGITIZING COMPANY
~Other -----------------------------------------------------
~ASCII -----------------------------------------------------
# ...
 7550.00000    9.17720    9.17720    -999.25   35.06590   28.51820   59.70520   59.70520   49.25350   49.25350   28.51820   29.70760   41.21330   29.70760   18.50590  -53.84140   41.21330
 7600.00000    8.86700    8.86700    -999.25    4.96270  201.50320   51.22180   51.22180   34.67010   34.67010  201.50320  208.59450  305.15630  208.59450  -46.16810 -114.33500  305.15630
 7650.00000    8.83290    8.83290    -999.25    4.96410  201.45470   52.97120   52.97120   22.10630   22.10630  201.45470  161.68600  279.66160  161.68600  -37.97870 -102.00670  279.66160
 7700.00000    8.92980    8.92980    -999.25    0.69240 1444.28520   55.37220   55.37220   31.46230   31.46230 1444.28520 1584.62890 1650.17590 1584.62890  -40.80390 -100.65130 1650.17590
 7750.00000    9.24850    9.24850    -999.25   13.19050   75.81210   73.25080   73.25080  117.34380  117.34380   75.81210   62.68910   88.61200   62.68910  -15.56680  -71.25450   88.61200
 7800.00000    9.05450    9.05450    -999.25    7.48310  133.77370   69.29400   69.29400  272.65000  272.65000  133.77370  159.12230  246.08650  159.12230  -48.21790  -99.51030  246.08650
 7850.00000    9.40470    9.40470    -999.25    6.20520  161.15610   51.99260   51.99260   15.54530   15.54530  161.15610  123.42110  174.35720  123.42110  -86.29950 -129.97590  174.35720
 7900.00000    9.15990    9.15990    -999.25    0.84190 1188.09250   50.64380   50.64380   19.96140   19.96140 1188.09250  488.62220  852.74970  488.62220  -53.48570  -89.62190  852.74970
 7950.00000    9.43760    9.43760    -999.25    6.09430  164.08720   50.14220   50.14220   19.69260   19.69260  164.08720  306.86010  930.11390  306.86010  -77.80440 -106.32450  930.11390
 8000.00000    9.38480    9.38480    -999.25   10.31590   96.93800   50.99690   50.99690   12.65540   12.65540   96.93800   89.90210  165.80890   89.90210  -62.79010  -83.73210  165.80890
 8050.00000    9.31310    9.31310    -999.25    6.91530  144.64700   50.70050   50.70050   15.32430   15.32430  144.64700  104.40090  157.96040  104.40090  -45.09250  -58.49420  157.96040
 8100.00000    8.74120    8.74120    -999.25   10.99430   90.95640   53.34520   53.34520   15.81060   15.81060   90.95640  109.90400  323.92850  109.90400  -80.57610  -86.36180  323.92850
 8150.00000    9.40260    9.40260    -999.25   12.13180   82.50390   50.84730   50.84730   11.65820   11.65820   82.50390   90.92090  221.05500   90.92090  -92.27550  -90.52100  221.05500
 8200.00000    9.00990    9.00990    -999.25   17.06970   58.58340   52.99080   52.99080   12.79270   12.79270   58.58340   52.08730  147.09330   52.08730  -84.21870  -74.84810  147.09330
 8250.00000    9.89230    9.89230    -999.25    5.51530  181.31540   50.78200   50.78200   20.73450   20.73450  181.31540  497.07280  836.87770  497.07280  -89.96240  -73.01370  836.87770
 8300.00000    9.49920    9.49920    -999.25    6.09270  164.38440   50.82620   50.82620   13.97280   13.97280  164.38440  496.10300  408.92470  496.10300  -59.24970  -34.76070  408.92470
 8350.00000    9.76440    9.76440    -999.25    3.57920  279.39320   50.39650   50.39650   17.86910   17.86910  279.39320  827.77170  632.80200  827.77170  -63.06110  -30.95610  632.80200
 8400.00000    8.95440    8.95440    -999.25   17.77430   56.26860   53.17530   53.17530   13.41540   13.41540   56.26860   66.26740  256.49750   66.26740  -93.94180  -54.29660  256.49750
 8450.00000    9.42200    9.42200    -999.25    2.36640  422.58940   50.45530   50.45530   14.38310   14.38310  422.58940 1043.99050 1004.25870 1043.99050 -117.10770  -69.84640 1004.25870
 8500.00000    8.39300    8.39300    -999.25   25.41750   39.34290   53.73050   53.73050   10.67210   10.67210   39.34290   74.54990  266.56270   74.54990 -179.89760 -125.05820  266.56270
 8550.00000    9.21060    9.21060    -999.25   91.41790   10.93940   52.25170   52.25170   27.40930   27.40930   10.93940   18.02320   28.42710   18.02320 -142.56950  -80.18980   28.42710
 8600.00000    8.82660    8.82660    -999.25    3.02280  330.81950   49.25240   49.25240   36.58730   36.58730  330.81950  690.54600 1557.60360  690.54600 -138.89340  -93.56470 1557.60360
 8650.00000    9.39980    9.39980    -999.25    7.52040  132.97770   50.61190   50.61190   21.32020   21.32020  132.97770  142.62380  264.67700  142.62380 -150.19450 -125.53650  264.67700
 8700.00000    9.20460    9.20460    -999.25   98.19320   10.18400   55.86410   55.86410   34.71980   34.71980   10.18400   11.67150   13.10670   11.67150  -98.76460  -94.98520   13.10670
 8750.00000    9.01560    9.01560    -999.25    7.64560  130.79470   52.31890   52.31890   32.99650   32.99650  130.79470  147.70760  215.96420  147.70760  -13.09890  -30.09420  215.96420
 8800.00000    9.22830    9.22830    -999.25    2.98200  335.37110   51.80730   51.80730   27.17920   27.17920  335.37110  416.33590  514.94960  416.33590  -27.39200  -53.61800  514.94960
 8850.00000    9.45390    9.45390    -999.25   12.86980   77.70120   54.03470   54.03470   37.98820   37.98820   77.70120   84.37800  118.90900   84.37800   25.77130   -7.39690  118.90900
 8900.00000    9.06160    9.06160    -999.25   13.39690   74.64440   55.10050   55.10050   47.84340   47.84340   74.64440   78.49580   98.04420   78.49580   20.16270  -19.72670   98.04420
 8950.00000    9.13150    9.13150    -999.25   23.60360   42.36640   56.70390   56.70390   40.57970   40.57970   42.36640   46.62000   57.06030   46.62000  -13.11670  -59.56150   57.06030
 9000.00000    9.11970    9.11970    -999.25   43.10640   23.19840   58.82090   58.82090   48.89100   48.89100   23.19840   25.12870   30.70720   25.12870   19.53180  -33.43580   30.70720
 9050.00000    9.14640    9.14640    -999.25   79.24340   12.61940   64.05950   64.05950   60.96370   60.96370   12.61940   13.42580   20.81940   13.42580   21.02150  -38.43630   20.81940
 9100.00000    9.28770    9.28770    -999.25   63.48080   15.75280   62.43400   62.43400   52.44800   52.44800   15.75280   16.77120   23.28700   16.77120   44.79290  -21.22030   23.28700
 9150.00000    -999.25    -999.25    -999.25  215.97810    4.63010   79.97460   79.97460   74.68270   74.68270    4.63010    5.35210    6.64730    5.35210   66.68930   -5.81400    6.64730
 9200.00000    9.18940    9.18940    -999.25   16.53470   60.47900   69.20230   69.20230   68.63800   68.63800   60.47900   66.95760  159.52960   66.95760   50.86860  -25.10840  159.52960
 9250.00000    9.49890    9.49890    -999.25  132.47840    7.54840   70.40660   70.40660   66.52890   66.52890    7.54840    7.81630   10.38930    7.81630   29.07320  -50.04000   10.38930
 9300.00000   11.95560   11.95560    -999.25  201.53730    4.96300   78.38580   78.38580   77.36970   77.36970    4.96300    5.30450    7.09530    5.30450   14.11940  -68.11430    7.09530
 9350.00000   12.92440   12.92440    -999.25  242.03110    4.13170   83.55300   83.55300   82.98160   82.98160    4.13170    4.38440    5.73730    4.38440   14.69160  -70.69410    5.73730
 9400.00000   11.62640   11.62640    -999.25  167.20700    5.98070   74.87940   74.87940   73.12040   73.12040    5.98070    6.17590    8.02550    6.17590   29.61240  -58.89390    8.02550
 9450.00000    9.10270    9.10270    -999.25   81.63330   12.24990   69.19670   69.19670   62.87020   62.87020   12.24990   12.72730   19.86790   12.72730   52.80160  -38.85650   19.86790
 9500.00000    9.30390    9.30390    -999.25   95.02810   10.52320   70.99580   70.99580   77.61710   77.61710   10.52320   11.08460   15.03880   11.08460   54.65830  -40.13600   15.03880
 9550.00000    9.17250    9.17250    -999.25   90.15140   11.09260   68.43800   68.43800   80.49090   80.49090   11.09260   11.59830   17.40970   11.59830   66.53870  -30.70120   17.40970
 9600.00000    9.08660    9.08660    -999.25   80.29360   12.45430   66.22980   66.22980   72.16910   72.16910   12.45430   12.90750   18.34890   12.90750    3.84520  -84.21390   18.34890
 9650.00000    9.20790    9.20790    -999.25  113.86310    8.78320   74.05060   74.05060   93.64140   93.64140    8.78320    9.72740   14.49770    9.72740  -51.11910 -150.00890   14.49770
