~Version ---------------------------------------------------
VERS.      2.0 : CWLS log ASCII Standard -VERSION 2.0
WRAP.       NO : One line per depth step
CREA. 08/02/17 : LAS Creation Date
~Well ------------------------------------------------------
STRT.FT                       300.0 : START DEPTH
STOP.FT                     10150.0 : STOP DEPTH
STEP.FT                    50.00000 : STEP LENGTH
NULL.                       -999.25 : NULL VALUE
COMP.          MOBIL OIL CANADA LTD : COMPANY
WELL. MOBIL MCLEOD RIVER 11-1-57-14 : WELL
FLD .                               : FIELD
LOC .                               : LOCATION
CTRY.                        CANADA : COUNTRY
SRVC.        Schlumberger of Canada : SERVICE COMPANY
DATE.                   02-May-1978 : LOGDATE
PROV.                       Alberta : PROVINCE
UWI .              100110105714W500 : UNIQUE WELL ID
SLAT.WGS84                 53.89809 : SURFACE LATITUDE
SLON.WGS84                -115.9478 : SURFACE LONGITUDE
~Curve Information -----------------------------------------
DEPT    .FT    : Depth Curve
CALDED  .IN    : CALIPER FROM CNL-FDC LOG [ADJ. TO ILDED/CALSED]
CALSED  .IN    : CALIPER FROM BCS LOG
CALWS   .IN    : CALIPER [CALSED]
CONDWS  .MMHO  : CONDUCTIVITY [1000/DRESWS]
DCORED  .G/C3  : DENSITY CORRECTION FROM CNL-FDC LOG [ADJ. TO ILDED]
DCORWS  .G/C3  : DENSITY CORRECTION [DCORED]
DENWS   .G/C3  : FORMATION BULK DENSITY [RHOBED]
DPHILSED.V/V   : DENSITY POROSITY LIMESTONE [M=2.71, F=1.0] FROM CNL-FDC LOG [ADJ. TO ILDED]
DPHISSED.V/V   : DENSITY POROSITY SANDSTONE [M=2.65, F=1.0] FROM CNL-FDC LOG [ADJ. TO ILDED]
DPOLSWS .V/V   : DENSITY POROSITY LIMESTONE [CALCULATED FROM DENWS, M=2.71, F=1.0]
DRESWS  .OHMM  : DEEP RESISTIVITY [ILDED]
DTED    .US/F  : DELTA-T (INTERVAL TRANSIT TIME) FROM BCS LOG
DTWS    .US/F  : COMPRESSIONAL SONIC [DTED]
GRDED   .GAPI  : GAMMA RAY FROM CNL-FDC LOG  [ADJ. TO ILDED]
GRSED   .GAPI  : GAMMA RAY FROM BCS LOG
GRWS    .GAPI  : GAMMA RAY [GRDED SPL. TO GRSED @ 10161']
ILDED   .OHMM  : DEEP INDUCTION FROM DIL-LL LOG
ILMED   .OHMM  : MEDIUM INDUCTION FROM DIL-LL LOG
LL8ED   .OHMM  : LATEROLOG 8 FROM DIL-LL LOG
MRESWS  .OHMM  : MEDIUM RESISTIVITY [ILMED]
NPHILSED.V/V   : NEUTRON POROSITY LIMESTONE FROM CNL-FDC LOG [ADJ. TO ILDED]
NPHISSED.V/V   : NEUTRON POROSITY SANDSTONE FROM CNL-FDC LOG [ADJ. TO ILDED]
NPOLSWS .V/V   : NEUTRON POROSITY LIMESTONE [NPHISSED CONVERTED TO LIMESTONE MATRIX & SPL. TO NPHILSED @ 6700']
RHOBED  .G/C3  : BULK DENSITY FROM CNL-FDC LOG [ADJ. TO ILDED]
SPRED   .MV    : SPONTANEOUS POTENTIAL FROM DIL-LL LOG
SPWS    .MV    : SPONTANEOUS POTENTIAL [BASELINE 0 MV, SPRED]
SRESWS  .OHMM  : SHALLOW RESISTIVITY [LL8ED]
~Params ----------------------------------------------------
PD  .                     GL : PERMANENT DATUM
EPD .FT               2845.4 : ELEVATION PERMANENT DATUM
LMF .                     KB : LOG MEASURED FROM
DAPD.FT                   20 : FEET ABOVE PERMANENT DATUM
EKB .FT               2865.2 : KELLY BUSHING
EGL .FT               2845.4 : GROUND LEVEL
DATE.               05/02/78 : RUN DATE
RUN .                      1 : RUN NUMBER
DD  .FT                10200 : DEPTH DRILLER
DL  .FT                10189 : DEPTH LOGGER
BLI .FT                10183 : BOTTOM LOG INTERVAL
TLI .FT                 1217 : TOP LOG INTERVAL
CBD .FT                 1217 : CASING BOTTOM DRILLER
CBL .FT                 1217 : CASING BOTTOM LOGGER
BS  .IN                 8.75 : BIT SIZE
BSD .FT                10200 : BIT SIZE AT DEPTH
DFT .                    GEL : DRILLING FLUID TYPE
DFD .                    9.4 : DRILLING FLUID DENSITY
DFV .                    205 : DRILLING FLUID VISCOSITY
DFPH.                   10.0 : DRILLING FLUID PH
DFL .                    8.5 : DRILLING FLUID LOSS
MSS .               FLOWLINE : MUD SAMPLE SOURCE
RMS .OHMM               2.27 : RESISTIVITY MUD SAMPLE
MST .DEGF                 66 : MUD SAMPLE TEMPERATURE
RMF .OHMM               1.96 : RESISTIVITY MUD FILTRATE SAMPLE
MFST.DEGF                 65 : MUD FILTRATE SAMPLE TEMPERATURE
TCS .HRS                   4 : TIME CIRCULATED STOPPED
LUN .                   7800 : LOGGING UNIT NUMBER
LUL .                    EDM : LOGGING UNIT LOCATION
ENGI.                 KUBICA : RECORDING ENGINEER
WITN.                   RUSH : WITNESSED BY
CLNT.                A2DTECH : CLIENT CODE
ORIG.            2" 5" PRINT : ORIGIN OF DATA
UWI .       100110105714W500 : UNIQUE WELL ID
DICO. A2D Technologies, Inc. : DIGITIZING COMPANY
~Other -----------------------------------------------------
~ASCII -----------------------------------------------------
# ...
 1600.00000   11.88500   10.38200   10.38200  275.19290    0.15580    0.15580    1.97370    -999.25    0.40390    0.43060    3.63490  106.33230  106.33230   95.92440   92.06770   95.92440    3.63490    3.98070    4.40080    3.98070    -999.25    0.39550    0.35250    1.97370  -80.42090   -3.68680    4.40080
 1650.00000   11.38310   10.25140   10.25140  123.08750    0.07510    0.07510    2.34180    -999.25    0.17320    0.21530    8.12430   94.03140   94.03140   86.36540   81.64630   86.36540    8.12430    8.52720    7.87670    8.52720    -999.25    0.38110    0.33790    2.34180  -83.99050   -7.14330    7.87670
 1700.00000    9.49630    9.27680    9.27680   97.81250    0.10710    0.10710    2.32810    -999.25    0.20220    0.22330   10.22510   90.04190   90.04190   78.46260   80.33360   78.46260   10.22510   10.66560    9.78670   10.66560    -999.25    0.34490    0.30120    2.32810  -93.97920  -17.01700    9.78670
 1750.00000   11.74810    9.96420    9.96420  291.22260    0.16000    0.16000    2.07270    -999.25    0.33550    0.37270    3.43380  125.04920  125.04920   88.25830   88.34910   88.25830    3.43380    3.58550    3.99300    3.58550    -999.25    0.48890    0.44720    2.07270  -80.30300   -3.22770    3.99300
 1800.00000   12.58350    9.55630    9.55630  326.06210    0.15300    0.15300    1.99580    -999.25    0.39850    0.41770    3.06690  111.75590  111.75590   92.43590   87.77190   92.43590    3.06690    3.21700    3.50830    3.21700    -999.25    0.48310    0.44140    1.99580  -81.47690   -4.71530    3.50830
 1850.00000    9.58600   10.14470   10.14470  288.23500    0.04910    0.04910    2.32320    -999.25    0.19820    0.22620    3.47480  105.34590  105.34590   86.66430   80.16490   86.66430    3.47480    3.71260    3.88780    3.71260    -999.25    0.43650    0.39450    2.32320  -80.36470   -4.00060    3.88780
 1900.00000   10.58920   10.11030   10.11030  279.57950    0.03050    0.03050    2.40670    -999.25    0.14630    0.17740    3.57680  101.13270  101.13270   93.02480   78.79470   93.02480    3.57680    3.77700    4.13680    3.77700    -999.25    0.39880    0.35590    2.40670  -79.24030   -3.27030    4.13680
 1950.00000    8.47760    8.94910    8.94910   74.69960    0.10740    0.10740    2.32660    -999.25    0.20200    0.22420   13.38770   97.47950   97.47950   57.62320   56.68800   57.62320   13.38770   14.03230   14.99320   14.03230    -999.25    0.36990    0.32650    2.32660  -97.49480  -21.92230   14.99320
 2000.00000   10.97620   10.42950   10.42950  306.16620    0.19130    0.19130    2.03510    -999.25    0.36130    0.39470    3.26620  109.15620  109.15620   99.66740   94.51510   99.66740    3.26620    3.50710    4.08340    3.50710    -999.25    0.45410    0.41240    2.03510  -79.32080   -4.14250    4.08340
 2050.00000   11.32570   10.14030   10.14030  276.72470    0.13480    0.13480    1.98970    -999.25    0.39180    0.42120    3.61370  128.73550  128.73550  103.83510  105.63410  103.83510    3.61370    3.94080    4.71440    3.94080    -999.25    0.47820    0.43650    1.98970  -79.57810   -4.79510    4.71440
 2100.00000   11.55190   10.23190   10.23190  100.21570    0.06780    0.06780    2.41570    -999.25    0.13600    0.17210    9.98150   88.36020   88.36020   70.08290   72.71070   70.08290    9.98150   10.41730   13.95190   10.41730    -999.25    0.33940    0.29560    2.41570  -79.12630   -4.74090   13.95190
 2150.00000   11.86930   10.45240   10.45240  139.45830    0.11470    0.11470    2.32620    -999.25    0.19660    0.22440    7.17060   85.58600   85.58600   75.33260   81.67700   75.33260    7.17060    7.45730    8.26130    7.45730    -999.25    0.30170    0.25770    2.32620  -78.42900   -4.43780    8.26130
 2200.00000   11.59070   10.43020   10.43020  183.06960    0.12330    0.12330    2.29880    -999.25    0.21380    0.24050    5.46500   89.18150   89.18150   79.78870   80.63080   79.78870    5.46500    5.72450    6.26010    5.72450    -999.25    0.33620    0.29240    2.29880  -78.84960   -5.25590    6.26010
 2250.00000   11.37270   10.64630   10.64630  278.80000    0.19610    0.19610    2.00150    -999.25    0.38760    0.41430    3.58680  107.51940  107.51940  100.23590  106.84900  100.23590    3.58680    3.83930    4.16600    3.83930    -999.25    0.50250    0.46080    2.00150  -77.86460   -4.66500    4.16600
 2300.00000   10.31600   10.06170   10.06170   88.01420    0.05340    0.05340    2.32270    -999.25    0.20800    0.22650   11.36180   84.30960   84.30960   72.89020   78.43800   72.89020   11.36180   12.13870   12.88780   12.13870    -999.25    0.32890    0.28510    2.32270  -85.19650  -12.13300   12.88780
 2350.00000   10.72350    9.92630    9.92630  268.03730    0.20920    0.20920    2.16180    -999.25    0.29220    0.32060    3.73610  102.44500  102.44500   97.06340   94.39210   97.06340    3.73610    3.98350    4.42890    3.98350    -999.25    0.42440    0.38210    2.16180  -77.60190   -4.66250    4.42890
 2400.00000    9.76120    9.73440    9.73440  293.38420    0.12710    0.12710    2.28640    -999.25    0.21720    0.24770    3.40850   90.46740   90.46740  112.78560  106.84760  112.78560    3.40850    3.68480    4.66790    3.68480    -999.25    0.40760    0.36490    2.28640  -76.38260   -3.56570    4.66790
 2450.00000    9.21770    9.67550    9.67550  215.52170    0.16090    0.16090    2.23560    -999.25    0.27320    0.27750    4.64100   97.99800   97.99800   99.16330   98.44310   99.16330    4.64100    4.83830    5.11360    4.83830    -999.25    0.43680    0.39480    2.23560  -78.57100   -5.87820    5.11360
 2500.00000    8.88280    9.65130    9.65130   55.28190    0.14520    0.14520    2.35490    -999.25    0.17470    0.20770   18.08910   89.92320   89.92320   96.12570   96.52340   96.12570   18.08910   18.71070   20.16930   18.71070    -999.25    0.34090    0.29720    2.35490  -92.21980  -19.64940   20.16930
 2550.00000   10.03160   10.22320   10.22320  208.94270    0.19850    0.19850    2.25030    -999.25    0.24710    0.26880    4.78600   93.59460   93.59460   84.41410   74.70460   84.41410    4.78600    5.12240    5.22790    5.12240    -999.25    0.39080    0.34780    2.25030  -77.86500   -5.41820    5.22790
 2600.00000   11.90200   10.44590   10.44590  470.79270    0.18640    0.18640    2.05040    -999.25    0.36660    0.38570    2.12410  107.35670  107.35670  115.33570  115.77280  115.33570    2.12410    2.23510    2.63800    2.23510    -999.25    0.43870    0.39670    2.05040  -76.66500   -4.34230    2.63800
 2650.00000    9.29490    9.08210    9.08210   93.92050    0.08750    0.08750    2.29910    -999.25    0.21630    0.24030   10.64730   95.30050   95.30050   60.71520   60.56210   60.71520   10.64730   12.37790   14.20090   12.37790    -999.25    0.35300    0.30940    2.29910  -84.38360  -12.61770   14.20090
 2700.00000   12.79500   11.92220   11.92220  274.69210    0.18950    0.18950    2.14190    -999.25    0.30690    0.33220    3.64280  100.97500  100.97500   75.81230   76.53840   75.81230    3.64280    3.82790    3.89370    3.82790    -999.25    0.36630    0.32290    2.14190  -76.84490   -5.77740    3.89370
 2750.00000   14.93130   11.25680   11.25680  189.73890    0.16920    0.16920    2.02320    -999.25    0.37760    0.40160    5.27040   97.50140   97.50140   93.57010   90.20140   93.57010    5.27040    5.94280    5.81460    5.94280    -999.25    0.42720    0.38490    2.02320  -76.48260   -6.10610    5.81460
 2800.00000   13.20760   10.70750   10.70750  274.92160    0.18140    0.18140    1.84770    -999.25    0.44840    0.50430    3.63740   93.30040   93.30040   78.99760   77.85400   78.99760    3.63740    3.78060    3.95690    3.78060    -999.25    0.40800    0.36530    1.84770  -76.07540   -6.39390    3.95690
 2850.00000   11.47240   11.06220   11.06220   57.41440    0.10520    0.10520    2.39710    -999.25    0.15900    0.18300   17.41730   89.33110   89.33110   66.16420   66.61520   66.16420   17.41730   17.94520   18.55860   17.94520    -999.25    0.34810    0.30440    2.39710  -91.74340  -22.76030   18.55860
