~Version ---------------------------------------------------
VERS.      2.0 : CWLS log ASCII Standard -VERSION 2.0
WRAP.       NO : One line per depth step
CREA. 07/27/17 : LAS Creation Date
~Well ------------------------------------------------------
STRT.FT                           800.0 : START DEPTH
STOP.FT                         10500.0 : STOP DEPTH
STEP.FT                        50.00000 : STEP LENGTH
NULL.                           -999.25 : NULL VALUE
COMP.        THE CALIFORNIA STANDARD CO : COMPANY
WELL. CALSTAN BA KAYBOB WEST 2-28-63-20 : WELL
FLD .                                WC : FIELD
LOC .                                   : LOCATION
CTRY.                            CANADA : COUNTRY
SRVC.            Schlumberger of Canada : SERVICE COMPANY
DATE.                       31-Dec-1960 : LOGDATE
PROV.                           Alberta : PROVINCE
UWI .                  100022806320W500 : UNIQUE WELL ID
SLAT.WGS84                     54.47443 : SURFACE LATITUDE
SLON.WGS84                    -116.9579 : SURFACE LONGITUDE
~Curve Information -----------------------------------------
DEPT  .FT         : Depth Curve
CALWS .IN         : CALIPER [MCALED]
CILDED.MMHO       : INDUCTION DEEP CONDUCTIVITY FROM IEL LOG
CONDWS.MMHO       : CONDUCTIVITY [1000/DRESWS]
DRESWS.OHMM       : DEEP RESISTIVITY [CALC FROM 1000/CILDED, IF ILDED<1, ILDED]
DTED  .US/F       : COMPRESSIONAL DELTA-T (INTERVAL TRANSIT TIME) FROM SONIC LOG
DTWS  .US/F       : COMPRESSIONAL SONIC [DTED]
GRSED .UgRa-Eq/T  : GAMMA RAY FROM SONIC LOG FROM SONIC LOG
GRWS  .GAPI       : GAMMA RAY [GRSED*16.5 CONVERTED TO API UNIT]
ILDED .OHMM       : DEEP INDUCTION FROM IEL LOG
MCALED.IN         : MLT (MICROLOG) CALIPER FROM ML LOG
SNED  .OHMM       : SHORT NORMAL INDUCTION FROM IEL LOG
SPRED .MV         : SPONTANEOUS POTENTIAL FROM IEL LOG
SPWS  .MV         : SPONTANEOUS POTENTIAL [BASELINE 0 MV, SPRED]
SRESWS.OHMM       : SHALLOW RESISTIVITY [SNED]
~Params ----------------------------------------------------
LMF .                     KB : LOG MEASURED FROM
DMF .                     KB : DRILLING MEASURED FROM
EKB .FT                 2582 : KELLY BUSHING
EGL .FT                 2568 : GROUND LEVEL
DATE.               12/31/60 : RUN DATE
RUN .                      2 : RUN NUMBER
DD  .FT                10548 : DEPTH DRILLER
DL  .FT                10549 : DEPTH LOGGER
BLI .FT                10548 : BOTTOM LOG INTERVAL
TLI .FT                 6778 : TOP LOG INTERVAL
BSD .FT                10548 : BIT SIZE AT DEPTH
DFT .               OIL EMUL : DRILLING FLUID TYPE
DFD .                   10.1 : DRILLING FLUID DENSITY
DFV .                    109 : DRILLING FLUID VISCOSITY
DFPH.                     10 : DRILLING FLUID PH
DFL .                   10.2 : DRILLING FLUID LOSS
MSS .             CIRCULATED : MUD SAMPLE SOURCE
RMS .OHMM                5.2 : RESISTIVITY MUD SAMPLE
MST .DEGF                 58 : MUD SAMPLE TEMPERATURE
RMF .OHMM               1.64 : RESISTIVITY MUD FILTRATE SAMPLE
MFST.DEGF                 74 : MUD FILTRATE SAMPLE TEMPERATURE
RMC .OHMM               2.22 : RESISTIVITY MUD CAKE
MCST.DEGF                 74 : MUD CAKE SAMPLE TEMPERATURE
RMB .OHMM               0.75 : RESISTIVITY MUD AT BHT
TCS .HRS                 2.5 : TIME CIRCULATED STOPPED
LUN .                   1534 : LOGGING UNIT NUMBER
LUL .                     WC : LOGGING UNIT LOCATION
ENGI.                   GRAY : RECORDING ENGINEER
WITN.               MALOWANY : WITNESSED BY
CLNT.                A2DTECH : CLIENT CODE
ORIG.            2" 5" PRINT : ORIGIN OF DATA
UWI .       100022806320W500 : UNIQUE WELL ID
DICO. A2D Technologies, Inc. : DIGITIZING COMPANY
~Other -----------------------------------------------------
~ASCII -----------------------------------------------------
# ...
 3250.00000    -999.25  108.81720  132.51350    7.54640   97.84400   97.84400   10.84280  178.90620    7.54640    -999.25   10.82440  -76.66670   -2.95430   10.82440
 3300.00000    -999.25   77.93060   84.08660   11.89250   84.98530   84.98530   10.46780  172.71870   11.89250    -999.25   16.12320  -77.88300   -3.09270   16.12320
 3350.00000    -999.25   96.18420  116.48500    8.58480   94.99300   94.99300   10.43210  172.12970    8.58480    -999.25   12.23130  -76.10480   -1.86780   12.23130
 3400.00000    -999.25   88.45160  106.19320    9.41680   86.16060   86.16060   10.39990  171.59840    9.41680    -999.25   12.28050  -78.55720   -1.96860   12.28050
 3450.00000    -999.25  125.18400  155.40020    6.43500   95.69180   95.69180   10.11960  166.97340    6.43500    -999.25    8.98840  -80.73920   -4.15060    8.98840
 3500.00000    -999.25  100.40780  121.00530    8.26410   87.06000   87.06000   10.07570  166.24900    8.26410    -999.25   11.06250  -79.20100   -2.61240   11.06250
 3550.00000    -999.25   56.89570   63.67840   15.70390   84.01100   84.01100    9.13340  150.70110   15.70390    -999.25   18.77200  -86.43200   -9.84340   18.77200
 3600.00000    -999.25  108.58970  133.78820    7.47450   91.55580   91.55580   10.51050  173.42330    7.47450    -999.25   10.51370  -80.00780   -3.41920   10.51370
 3650.00000    -999.25  105.80600  130.01530    7.69140   98.27810   98.27810   10.46090  172.60570    7.69140    -999.25   11.00370  -78.17070   -1.58210   11.00370
 3700.00000   10.43360  111.13570  134.10580    7.45680   93.03800   93.03800   10.42830  172.06690    7.45680   10.43360   10.03760  -79.79450   -3.20590   10.03760
 3750.00000   10.58570   87.70720  101.62600    9.84000   84.63600   84.63600   10.27240  169.49460    9.84000   10.58570   12.59430  -79.34000   -2.75140   12.59430
 3800.00000   10.69550   76.77180   77.38500   12.92240   87.16910   87.16910   10.76710  177.65720   12.92240   10.69550   16.36320  -78.73700   -2.47450   16.36320
 3850.00000   10.70050   81.26920   92.89100   10.76530   84.24070   84.24070   10.53310  173.79610   10.76530   10.70050   13.24440  -79.99360   -4.59150   13.24440
 3900.00000   10.78660   90.93840  105.01110    9.52280   89.46050   89.46050   10.78610  177.97060    9.52280   10.78660   13.55100  -78.41700   -3.78360   13.55100
 3950.00000   10.91640  104.05450  124.43850    8.03610   91.11850   91.11850   10.45050  172.43320    8.03610   10.91640   11.04120  -78.23000   -3.85900   11.04120
 4000.00000    -999.25  111.08300  131.94530    7.57890   91.24150   91.24150   11.03570  182.08910    7.57890    -999.25   10.97810  -77.32490   -3.21460   10.97810
 4050.00000    -999.25  116.77190  139.12660    7.18770   90.32300   90.32300   10.98990  181.33330    7.18770    -999.25   10.20550  -79.80030   -5.95070   10.20550
 4100.00000    -999.25  108.02060  127.61120    7.83630   89.60570   89.60570   10.84120  178.87980    7.83630    -999.25   11.87960  -77.58180   -3.99470   11.87960
 4150.00000    -999.25  121.35450  143.83320    6.95250   91.24060   91.24060   11.36180  187.46890    6.95250    -999.25   10.54500  -76.98810   -3.66170   10.54500
 4200.00000    -999.25   99.18980  117.60140    8.50330   92.83820   92.83820   11.29630  186.38890    8.50330    -999.25   13.08610  -76.27710   -3.21310   13.08610
 4250.00000    -999.25   94.94320  114.20350    8.75630   92.47150   92.47150   11.02920  181.98180    8.75630    -999.25   13.75820  -75.42670   -2.62340   13.75820
 4300.00000    -999.25   79.85080   94.50190   10.58180   98.27600   98.27600   11.30190  186.48140   10.58180    -999.25   17.31770  -73.85420   -2.42930   17.31770
 4350.00000    -999.25   87.34340  106.54960    9.38530   93.47680   93.47680   10.80220  178.23630    9.38530    -999.25   14.52200  -72.07140   -2.29940   14.52200
 4400.00000    -999.25   51.50960   60.17790   16.61740   99.07470   99.07470   11.51720  190.03380   16.61740    -999.25   25.75890  -71.61330   -2.09910   25.75890
 4450.00000    8.97350   81.12740   84.92210   11.77550   96.52530   96.52530   12.01720  198.28380   11.77550    8.97350   18.91320  -74.94420   -4.18150   18.91320
 4500.00000    8.90550   70.84100   76.56380   13.06100   74.18380   74.18380    9.86600  162.78900   13.06100    8.90550   16.54950  -79.21240   -6.45880   16.54950
 4550.00000   10.81480  158.54570  201.62920    4.95960   91.02990   91.02990   10.81710  178.48210    4.95960   10.81480    8.19070  -75.78400   -3.03040    8.19070
 4600.00000   10.68410  147.00100  184.59040    5.41740   90.88850   90.88850   10.80200  178.23300    5.41740   10.68410    9.11500  -76.22560   -3.47200    9.11500
 4650.00000    9.98280  158.39100  201.75930    4.95640   90.07850   90.07850   10.31380  170.17850    4.95640    9.98280    8.33930  -76.81350   -4.05990    8.33930
 4700.00000    9.13770  100.94130  120.58510    8.29290   82.43850   82.43850   10.33900  170.59350    8.29290    9.13770   12.07280  -78.67890   -5.92530   12.07280
 4750.00000   11.61330  177.06010  230.53690    4.33770   88.77420   88.77420   10.65870  175.86860    4.33770   11.61330    7.55520  -77.59800   -4.84440    7.55520
 4800.00000   10.48460  150.81110  191.12780    5.23210   87.65780   87.65780    9.93600  163.94400    5.23210   10.48460    8.67220  -77.85900   -5.10540    8.67220
 4850.00000   10.66970  156.29870  208.64190    4.79290   90.27130   90.27130   10.83150  178.71980    4.79290   10.66970    8.43560  -76.85840   -4.10480    8.43560
 4900.00000   10.45730  252.45980  378.60140    2.64130  109.79620  109.79620   15.81420  260.93350    2.64130   10.45730    6.17830  -74.59920   -1.84560    6.17830
 4950.00000   12.85040  315.19880  469.85860    2.12830   98.88800   98.88800   11.13900  183.79350    2.12830   12.85040    4.86560  -79.26550   -6.41530    4.86560
 5000.00000   11.24530  213.44630  297.68110    3.35930   91.97500   91.97500   10.50480  173.32920    3.35930   11.24530    6.55860  -77.48370   -4.53760    6.55860
 5050.00000   10.58020  159.37830  207.45170    4.82040   88.18460   88.18460   10.02810  165.46370    4.82040   10.58020    8.54280  -75.66490   -2.62280    8.54280
 5100.00000    9.42820   79.79180   93.89670   10.65000   81.60280   81.60280    9.91870  163.65850   10.65000    9.42820   15.65250  -79.61580   -6.47720   15.65250
 5150.00000   10.38020  115.58940  143.08400    6.98890   81.65160   81.65160    9.80030  161.70500    6.98890   10.38020   11.01680  -77.43510   -4.20050   11.01680
 5200.00000    9.07860  120.18270  141.84800    7.04980   73.09720   73.09720    9.30490  153.53080    7.04980    9.07860    9.91890  -79.38830   -6.05710    9.91890
 5250.00000    9.29940   70.51290   79.39850   12.59470   75.45250   75.45250    8.48530  140.00750   12.59470    9.29940   21.41640 -109.49230  -36.06520   21.41640
 5300.00000    9.37620   77.13090   89.59050   11.16190   76.42100   76.42100    8.90140  146.87310   11.16190    9.37620   15.85460  -83.15050   -9.62750   15.85460
 5350.00000    9.26880   61.61400   67.28930   14.86120   62.24150   62.24150   10.20600  168.39900   14.86120    9.26880   18.50050  -83.52920   -9.90960   18.50050
 5400.00000    9.16470   59.44990   68.29950   14.64140   76.72730   76.72730    9.29220  153.32210   14.64140    9.16470   28.49390  -82.58480   -8.88460   28.49390
 5450.00000    8.82130   90.88210  106.79540    9.36370   71.78250   71.78250    8.04730  132.78050    9.36370    8.82130   31.59910 -153.29820  -79.96980   31.59910
 5500.00000    9.98780  120.98020  143.36920    6.97500   74.37100   74.37100    8.69120  143.40480    6.97500    9.98780   11.32460  -82.17260   -9.21360   11.32460
 5550.00000    9.25260   86.06940   99.59560   10.04060   77.97370   77.97370   10.18530  168.05830   10.04060    9.25260   17.98520  -80.48660   -7.89700   17.98520
 5600.00000    9.30190   50.84360   56.47260   17.70770   73.04610   73.04610    9.26550  152.88070   17.70770    9.30190   27.17460  -80.00360   -7.78580   27.17460
 5650.00000    9.16850  130.42930  165.15550    6.05490  102.95610  102.95610    9.73450  160.61920    6.05490    9.16850   11.53920  -74.08920   -2.24080   11.53920
