~Version ---------------------------------------------------
VERS.      2.0 : CWLS log ASCII Standard -VERSION 2.0
WRAP.       NO : One line per depth step
CREA. 10/01/14 : LAS Creation Date
~Well ------------------------------------------------------
STRT.FT                                        800.0 : START DEPTH
STOP.FT                                       7700.0 : STOP DEPTH
STEP.FT                                     50.00000 : STEP LENGTH
NULL.                                        -999.25 : NULL VALUE
COMP. GREAT PLAINS DEVELOPMENT COMPANY OF CANADA LTD : COMPANY
WELL.                   GRT PLNS THUNDER LK 2-6-59-4 : WELL
FLD .                                                : FIELD
LOC .                                                : LOCATION
CTRY.                                         CANADA : COUNTRY
SRVC.                                   Schlumberger : SERVICE COMPANY
DATE.                                    23-Jun-1962 : LOGDATE
PROV.                                        Alberta : PROVINCE
UWI .                               100020605904W500 : UNIQUE WELL ID
SLAT.WGS84                                  54.06654 : SURFACE LATITUDE
SLON.WGS84                                 -114.5851 : SURFACE LONGITUDE
~Curve Information -----------------------------------------
DEPT.FT    : DEPTH FEET
CALS.IN    : CALIPER FROM SONIC LOG
CILD.MMHO  : CONDUCTIVITY FROM IE LOG
DT  .US/F  : DELTA TIME SPACING 3' PICKUP SPAN 3' FROM SONIC LOG
DT1 .US/F  : DELTA TIME SPACING 3' PICKUP SPAN 1' FROM SONIC LOG
DT2 .US/F  : DELTA TIME SPACING 3' PICKUP SPAN 3' FROM SONIC LOG
DT3 .US/F  : DELTA TIME SPACING 3' PICKUP SPAN 1' FROM SONIC LOG
GRS .GAPI  : GAMMA RAY FROM SONIC LOG
ILD .OHMM  : INDUCTION LOG DEEP RESISTIVITY FROM IE LOG
SN  .OHMM  : 16 INCH SHORT NORMAL RESISTIVITY FROM IE LOG
SPR .MV    : SPONTANEOUS POTENTIAL FROM IE LOG
~Params ----------------------------------------------------
PD  .                 GROUND : PERMANENT DATUM
EPD .FT                 2131 : ELEVATION PERMANENT DATUM
LMF .                     KB : LOG MEASURED FROM
DAPD.FT                 12.3 : FEET ABOVE PERMANENT DATUM
EKB .FT               2143.3 : KELLY BUSHING
EGL .FT                 2131 : GROUND LEVEL
DATE.             06/23/1962 : RUN DATE
RUN .                      2 : RUN NUMBER
CBD .FT                  804 : CASING BOTTOM DRILLER
BS  .IN                 8.75 : BIT SIZE
DFT .              SALT& GEL : DRILLING FLUID TYPE
DFD .                   10.6 : DRILLING FLUID DENSITY
DFV .                     70 : DRILLING FLUID VISCOSITY
DFPH.                      7 : DRILLING FLUID PH
DFL .                    6.6 : DRILLING FLUID LOSS
RMF .OHMM               1.02 : RESISTIVITY MUD FILTRATE SAMPLE
MFST.DEGF                 69 : MUD FILTRATE SAMPLE TEMPERATURE
RMC .OHMM               1.85 : RESISTIVITY MUD CAKE
MCST.DEGF                 69 : MUD CAKE SAMPLE TEMPERATURE
ENGI.             ARMBRUSTER : RECORDING ENGINEER
WITN.                GOODMAN : WITNESSED BY
CLNT.                A2DTECH : CLIENT CODE
ORIG.           2", 5" PRINT : ORIGIN OF DATA
UWI .       100020605904W500 : UNIQUE WELL ID
DICO. A2D Technologies, Inc. : DIGITIZING COMPANY
~Other -----------------------------------------------------
~ASCII -----------------------------------------------------
# ...
 4100.00000    9.13820   34.41610   58.38150   58.31890   58.19440   57.50040   40.14800   30.59090   36.08670  -49.15780
 4150.00000    8.97610   29.36130   57.63100   56.53010   57.54390   56.05170   43.69560   36.64480   43.13100  -44.25190
 4200.00000    8.84370   27.42130   59.08910   57.75440   58.76650   57.07860   52.85210   39.37380   46.42040  -38.46820
 4250.00000    8.96670   23.19840   73.55120   73.15890   72.97380   72.50500  103.04070   45.07840   58.92140  -29.83940
 4300.00000    8.72590   29.60460   50.23890   47.37690   50.06440   47.29030   27.29590   34.66850   97.28390  -75.08300
 4350.00000    8.52020  513.61560   60.47280   60.03740   60.09870   59.43850   25.84560    2.08400   25.55260 -142.97170
 4400.00000    8.65490  208.67440   54.26550   55.16090   54.13040   54.88130   23.61250    4.97920   27.01020 -136.76630
 4450.00000    8.54920  153.87930   51.97440   51.16540   51.74510   51.00430   18.50190    6.60380   34.74200 -129.63890
 4500.00000    8.62810  294.26120   57.60220   55.11440   57.22350   54.30360   21.44320    4.04370   19.06980 -121.08300
 4550.00000    8.61870   14.38000   48.70620   48.50560   48.48020   48.15640   20.43830   73.57190   83.41700 -126.13900
 4600.00000    8.67820   23.27050   48.54890   49.32050   48.33370   48.79250   17.35600   44.46080   89.97910 -117.32020
 4650.00000    8.58060   27.37980   49.01320   49.52750   48.83490   49.17060   19.52110   38.28610   77.98130 -130.43460
 4700.00000    8.72360    9.44750   47.67360   45.58460   47.42410   45.38040   20.79010  108.08460  135.27050 -117.58010
 4750.00000    8.70570  162.55230   57.17810   57.62070   56.91670   56.86330   20.46240    6.36090   20.82150 -107.04800
 4800.00000    8.76670  252.72210   56.18940   62.80570   55.95700   62.34760   27.92530    3.98150   27.30140 -135.57950
 4850.00000    8.67890  184.71900   55.81800   60.81600   55.58150   60.68330   17.81970    5.73840   15.61150 -140.24170
 4900.00000    9.09250  198.93400   74.81830   74.78290   73.70650   70.78580   82.04670    4.95840    7.58880  -72.96020
 4950.00000    8.67660  467.71690   55.42490   50.57270   55.44580   51.00880   28.59810    1.65980   21.16610 -138.06430
 5000.00000    8.76360  152.76690   53.70930   54.42690   53.48360   53.89250   24.21910    6.42210   31.21850 -123.56360
 5050.00000    8.74530   83.53750   54.96470   55.12900   54.72570   54.48030   30.98490   12.45660   44.55590 -125.30550
 5100.00000    8.79250  218.38490   61.11240   58.96900   60.90570   58.43410   60.72490    4.45270    8.72410  -85.94950
 5150.00000    9.81910  122.28980   73.98470   73.32680   73.02850   71.80410   69.52360    8.42500   13.11250  -54.12560
 5200.00000   10.16630  292.47870   94.66860   96.52560    -999.25    -999.25  113.08370    2.95660    5.06560  -54.37150
 5250.00000    8.78790  147.98280   72.07830   90.71820   72.89690   77.29730   79.93590    7.01660    9.34660  -51.26550
 5300.00000    8.86100   46.13640   66.06220   65.01900   65.83060   64.27270   73.85980   22.50180   23.75500  -62.01580
 5350.00000   10.11120  187.55460   71.97860   71.67750   70.93940   72.97460   51.86010    5.10710    8.62900  -55.90310
 5400.00000   10.08180  184.28210   81.60220   81.71350   79.96410   79.95850   89.02900    5.26070    7.57740  -52.09150
 5450.00000   11.62540  202.81280   84.27570   79.35710    -999.25   78.43050   90.84490    4.82170    6.37520  -48.33510
 5500.00000   11.41830  232.01110   85.49660   83.11050    -999.25   79.96860   77.97410    4.13680    6.12240  -46.42670
 5550.00000    9.96470  194.63640   75.54490   68.10500   74.50820   65.21030   76.71480    5.22620    7.51900  -47.82690
 5600.00000    8.91460   36.13020   57.71660   60.83530   57.60220   59.46090   50.05670   28.59020   31.21190  -48.51390
 5650.00000    9.67090  103.01970   65.91730   59.74680   65.03680   59.06730   40.30380    9.68640   13.79740  -52.21620
 5700.00000    9.12930   63.58200   62.30140   59.52520   61.99810   58.90690   50.61010   16.38290   21.93490  -45.37750
 5750.00000    9.40620  121.54040   74.72250   72.26330   73.67530   73.36170   64.55510    8.40400   11.37380  -46.81560
 5800.00000    9.05320   47.61450   60.92420   59.75000   60.67270   60.11910   45.82430   21.46720   26.90040  -44.50140
 5850.00000    9.27510  108.21390   68.04130   66.02140   67.21130   64.60120   61.50230    9.32380   13.15250  -42.21230
 5900.00000    9.72710  208.76500   77.51960   71.06780   76.85090   72.31530   65.84400    4.47120    8.43460  -45.26340
 5950.00000   10.07990  196.91960   79.44820   76.52970   78.95250   77.70140   65.44290    5.08990    8.61550  -42.34200
 6000.00000    9.78810  246.17510   87.09570   80.52560    -999.25   79.82120  100.23640    3.84160    7.17660  -47.01180
 6050.00000    8.74690   46.08860   63.79380   68.66500   63.54500   69.56850   60.65410   22.47070   33.47660  -41.07660
 6100.00000    8.95030   79.07090   63.53100   63.42280   63.37480   63.63420   56.88670   12.87040   17.10470  -42.82130
 6150.00000    8.93140   44.56150   58.03600   57.61570   57.81600   57.20990   40.75910   22.17620   28.03880  -41.20090
 6200.00000   10.19020  294.74070   84.43240   87.64530    -999.25   79.97620   90.76000    2.96200    5.66510  -49.36610
 6250.00000   10.67230  213.91600   75.62540   87.47340   75.43610   79.90940   77.40660    4.65230    6.90950  -46.63940
 6300.00000   10.57610  250.61680   79.16100   78.83450   78.42900   77.34510   80.73280    3.66480    6.09520  -48.43750
 6350.00000    8.87710   82.18700   66.14570   80.36050   65.72490   79.85520   70.07120   13.93250   18.21140  -40.72410
 6400.00000    8.96820   34.68870   56.46510   59.48350   56.24820   59.28760   41.75020   28.98890   33.02740  -56.37650
 6450.00000    8.90120   74.25880   59.34580   56.21980   58.69000   56.66350   48.06340   14.63570   18.24010  -52.71520
 6500.00000    9.11470   31.26150   52.37660   52.13570   52.09820   51.50200   24.55730   33.90950   39.20480  -54.37930
 6550.00000    8.97130   71.05570   61.94930   62.74040   61.74110   62.33560   46.85030   14.41690   19.93500  -50.66850
 6600.00000    8.79470    9.04340   51.45130   49.71320   51.10480   49.39570   24.98970  149.67400   89.41840  -66.86040
 6650.00000    9.33680   24.19240   51.84280   53.36910   51.37780   52.59110   33.69000   47.82480   38.51030  -54.16740
 6700.00000    9.00230   83.56580   63.98090   62.59870   64.09700   62.32520   61.97150   12.33840   16.49600  -49.69200
 6750.00000    8.76000   10.35460   53.59240   48.33880   53.45670   48.06830   20.94440  124.45300   99.09070  -75.54190
 6800.00000    8.99510  124.66490   71.07810   69.26840   70.81830   69.86060   88.67910    8.13250   12.04580  -49.15410
 6850.00000    8.94550   18.93420   53.94380   52.96070   53.71980   52.82180   33.82860   64.11740   59.70720  -54.46370
 6900.00000    8.92330   51.09130   66.57310   64.93430   66.33820   64.24680   59.89220   20.32550   27.39930  -41.04690
 6950.00000    8.78110   24.02210   50.60630   50.88150   50.19870   50.68560   24.15620   42.96820   57.71330  -54.50830
 7000.00000    8.76630  315.38190   79.14880  116.47160   79.95800   80.03520  113.90490    2.80570    6.49160  -65.46660
 7050.00000    8.97570  318.59620   69.37280   71.96620   69.70920   72.83050  107.12310    2.69490    5.42700  -73.33380
 7100.00000    8.79220  207.03710   73.66460   71.36300   73.02350   71.10280  109.95960    4.85620    9.41890  -58.35100
 7150.00000    8.79930  118.47230   61.18240   63.23970   61.01580   64.65900   76.49650    9.92810   17.49130  -68.99450
 7200.00000    8.93300  175.50320   74.67300   73.12890   70.61520   67.17130   93.30560    5.86160    9.01540  -58.95150
 7250.00000    8.86610   78.68760   63.58380   64.95180   63.18380   67.11420  118.16580   13.02540   17.19860  -46.15410
 7300.00000    9.04170   71.53210   59.73390   53.96600   59.76350   54.14320  130.96340   14.60100   18.54830  -45.68200
 7350.00000    8.77780   76.25970   60.49180   62.57950   60.32130   60.54860  100.27490   13.30980   17.76660  -46.63070
