~Version ---------------------------------------------------
VERS.      2.0 : CWLS log ASCII Standard -VERSION 2.0
WRAP.       NO : One line per depth step
CREA. 10/27/17 : LAS Creation Date
~Well ------------------------------------------------------
STRT.FT                          950.0 : START DEPTH
STOP.FT                         9950.0 : STOP DEPTH
STEP.FT                       50.00000 : STEP LENGTH
NULL.                          -999.25 : NULL VALUE
COMP. AMOCO CANADA PETROLEUM CO., LTD. : COMPANY
WELL.  AMOCO HBOG WINDFALL 16-29-61-16 : WELL
FLD .                                  : FIELD
LOC .                                  : LOCATION
CTRY.                           CANADA : COUNTRY
SRVC.                     Schlumberger : SERVICE COMPANY
DATE.                      22-Dec-1976 : LOGDATE
PROV.                          Alberta : PROVINCE
UWI .                 100162906116W500 : UNIQUE WELL ID
SLAT.WGS84                    54.30881 : SURFACE LATITUDE
SLON.WGS84                   -116.3532 : SURFACE LONGITUDE
~Curve Information -----------------------------------------
DEPT    .FT    : Depth Curve
CALDED  .IN    : CALIPER FROM DENSITY LOG [ADJ. TO RESISTIVITY LOG]
CALSED  .IN    : CALIPER FROM SONIC LOG [ADJ. TO RESISTIVITY LOG]
CALWS   .IN    : CALIPER [CALDED]
CONDWS  .MMHO  : CONDUCTIVITY [1000/DRESWS]
DCORWS  .G/C3  : DENSITY CORRECTION [DRHOED]
DENWS   .G/C3  : FORMATION BULK DENSITY [RHOBED]
DPHILSED.V/V   : DENSITY POROSITY LIMESTONE [M=2.71, F=1.00] FROM DENSITY LOG [ADJ. TO RESISTIVITY LOG]
DPHISSED.V/V   : DENSITY POROSITY SANDSTONE [M=2.65, F=1.00] FROM DENSITY LOG [ADJ. TO RESISTIVITY LOG]
DPOLSWS .V/V   : DENSITY POROSITY LIMESTONE [CALC. FROM DENWS M=2.71, F=1.00]
DRESWS  .OHMM  : DEEP RESISTIVITY [ILDED]
DRHOED  .G/C3  : DENSITY CORRECTION FROM DENSITY LOG [ADJ. TO RESISTIVITY LOG/DPHISSED/DPHILSED]
DTED    .US/F  : DELTA TIME FROM SONIC LOG [ADJ. TO RESISTIVITY LOG]
DTWS    .US/F  : COMPRESSIONAL SONIC [DTED]
GRDED   .GAPI  : GAMMA RAY FROM DENSITY LOG [ADJ. TO RESISTIVITY LOG]
GRSED   .GAPI  : GAMMA RAY FROM SONIC LOG [ADJ. TO RESISTIVITY LOG]
GRWS    .GAPI  : GAMMA RAY [GRSED]
ILDED   .OHMM  : DEEP INDUCTION FROM RESISTIVITY LOG
ILMED   .OHMM  : MEDIUM INDUCTION FROM RESISTIVITY LOG
LL8ED   .OHMM  : 8 INCH LATEROLOG FROM RESISTIVITY LOG
MRESWS  .OHMM  : MEDIUM RESISTIVITY [ILMED]
NPHILSED.V/V   : NEUTRON POROSITY LIMESTONE FROM DENSITY LOG [ADJ. TO RESISTIVITY LOG]
NPHISSED.V/V   : NEUTRON POROSITY SANDSTONE FROM DENSITY LOG [ADJ. TO RESISTIVITY LOG]
NPOLSWS .V/V   : NEUTRON POROSITY LIMESTONE [NPHISSED MATRIX CONVERSION FOR LIMESTONE, SPL. TO NPHILSED @ 6250']
RHOBED  .G/C3  : BULK DENSITY FROM DENSITY LOG [ADJ. TO RESISTIVITY LOG/DPHISSED/DPHILSED]
SPRED   .MV    : SPONTANEOUS POTENTIAL FROM RESISTIVITY LOG
SPWS    .MV    : SPONTANEOUS POTENTIAL [BASELINE 0 MV, SPRED]
SRESWS  .OHMM  : SHALLOW RESISTIVITY [LL8ED]
~Params ----------------------------------------------------
PD  .                     GL : PERMANENT DATUM
EPD .FT                 2851 : ELEVATION PERMANENT DATUM
LMF .                     KB : LOG MEASURED FROM
DAPD.FT                   14 : FEET ABOVE PERMANENT DATUM
DMF .                     KB : DRILLING MEASURED FROM
EKB .FT                 2875 : KELLY BUSHING
EGL .FT                 2861 : GROUND LEVEL
DATE.               12/22/76 : RUN DATE
RUN .                      1 : RUN NUMBER
DD  .FT                 9966 : DEPTH DRILLER
DL  .FT                 9964 : DEPTH LOGGER
BLI .FT                 9958 : BOTTOM LOG INTERVAL
TLI .FT                 1029 : TOP LOG INTERVAL
CBD .FT                 1030 : CASING BOTTOM DRILLER
CBL .FT                 1029 : CASING BOTTOM LOGGER
BS  .IN                 8.75 : BIT SIZE
BSD .FT                 9966 : BIT SIZE AT DEPTH
DFT .               GEL CHEM : DRILLING FLUID TYPE
DFD .                    9.3 : DRILLING FLUID DENSITY
DFV .                     70 : DRILLING FLUID VISCOSITY
DFPH.                      9 : DRILLING FLUID PH
DFL .                      9 : DRILLING FLUID LOSS
MSS .             CIRCULATED : MUD SAMPLE SOURCE
RMF .OHMM               2.16 : RESISTIVITY MUD FILTRATE SAMPLE
MFST.DEGF                 74 : MUD FILTRATE SAMPLE TEMPERATURE
RMC .OHMM               2.83 : RESISTIVITY MUD CAKE
MCST.DEGF                 68 : MUD CAKE SAMPLE TEMPERATURE
LUN .                   7772 : LOGGING UNIT NUMBER
LUL .                    EDM : LOGGING UNIT LOCATION
ENGI.                   BIGG : RECORDING ENGINEER
WITN.                  LENTZ : WITNESSED BY
CLNT.                A2DTECH : CLIENT CODE
ORIG.            2" 5" PRINT : ORIGIN OF DATA
UWI .       100162906116W500 : UNIQUE WELL ID
DICO. A2D Technologies, Inc. : DIGITIZING COMPANY
~Other -----------------------------------------------------
DIL-LL-CNFD-BHC LOG RUN
~ASCII -----------------------------------------------------
  950.00000    -999.25    -999.25    -999.25    -999.25    -999.25    -999.25    -999.25    -999.25    -999.25    -999.25    -999.25    -999.25    -999.25    -999.25   32.16430   32.16430    -999.25    -999.25    -999.25    -999.25    -999.25    -999.25    -999.25    -999.25    -999.25    -999.25    -999.25
 1000.00000    -999.25    -999.25    -999.25    -999.25    -999.25    -999.25    -999.25    -999.25    -999.25    -999.25    -999.25    -999.25    -999.25   56.50970   36.39360   36.39360    -999.25    -999.25    -999.25    -999.25    -999.25    -999.25    -999.25    -999.25    -999.25    -999.25    -999.25
 1050.00000   11.99930   12.91440   11.99930  240.27490    0.18630    2.24650    -999.25    0.24180    0.27110    4.16190    0.18630  112.85680  112.85680   96.89940   65.72660   65.72660    4.16190    4.26110    4.52500    4.26110    -999.25    0.39520    0.35220    2.24650  -66.13760   -6.85330    4.52500
 1100.00000   11.40600   12.90700   11.40600  153.06250    0.04700    2.23920    -999.25    0.24540    0.27530    6.53350    0.04700  108.71540  108.71540   91.40450   59.79820   59.79820    6.53350    6.83610    7.64860    6.83610    -999.25    0.33960    0.29590    2.23920  -64.22750   -5.13140    7.64860
 1150.00000   14.35820   13.25540   14.35820  263.88010    0.23700    2.15350    -999.25    0.29370    0.32540    3.78960    0.23700  111.40270  111.40270   94.61040   61.41550   61.41550    3.78960    3.96100    4.13310    3.96100    -999.25    0.37740    0.33410    2.15350  -63.61660   -4.70680    4.13310
 1200.00000   13.43860   14.99930   13.43860  295.12630    0.23250    2.04040    -999.25    0.36890    0.39160    3.38850    0.23250  116.33790  116.33790  102.80010   66.90160   66.90160    3.38850    3.52290    3.72000    3.52290    -999.25    0.44520    0.40340    2.04040  -61.78190   -3.06040    3.72000
 1250.00000   14.96910   13.16520   14.96910  206.58600    0.24640    2.06580    -999.25    0.35550    0.37670    4.84060    0.24640  115.65710  115.65710  110.20590   76.32890   76.32890    4.84060    5.01940    5.61040    5.01940    -999.25    0.42390    0.38150    2.06580  -61.04340   -2.50810    5.61040
 1300.00000   12.25200   14.36430   12.25200  250.13760    0.20070    2.01740    -999.25    0.38390    0.40510    3.99780    0.20070  106.83510  106.83510  114.44930   80.09420   80.09420    3.99780    4.11110    4.63090    4.11110    -999.25    0.40070    0.35780    2.01740  -64.41150   -6.06350    4.63090
 1350.00000   15.00000   15.00000   15.00000  287.15870    0.14300    1.80990    -999.25    0.45000    0.52640    3.48310    0.14300  113.45130  113.45130   87.74140   67.94160   67.94160    3.48310    3.69480    4.10310    3.69480    -999.25    0.45790    0.41640    1.80990  -62.60350   -4.44370    4.10310
 1400.00000   11.58080   13.34670   11.58080  140.31540    0.02090    2.28640    -999.25    0.21970    0.24770    7.12680    0.02090  104.30420  104.30420  100.41900   64.01650   64.01650    7.12680    6.79000    6.55180    6.79000    -999.25    0.37640    0.33310    2.28640  -65.78610   -7.81260    6.55180
 1450.00000   11.77780   15.00000   11.77780  267.87400    0.01640    2.30660    -999.25    0.20630    0.23590    3.73330    0.01640  102.26770  102.26770  104.35230   72.51270   72.51270    3.73330    3.62850    4.10060    3.62850    -999.25    0.42800    0.38570    2.30660  -65.91210   -8.12680    4.10060
 1500.00000   15.24650   15.00000   15.24650  395.61660    0.14700    2.12180    -999.25    0.32020    0.34400    2.52770    0.14700  133.50770  133.50770   89.05660   73.39530   73.39530    2.52770    2.67470    3.21650    2.67470    -999.25    0.54430    0.50680    2.12180  -63.45270   -5.85370    3.21650
 1550.00000    9.85210   13.53850    9.85210  203.54580    0.14120    2.21010    -999.25    0.26500    0.29230    4.91290    0.14120   96.64300   96.64300   90.70960   63.54450   63.54450    4.91290    4.60130    6.29150    4.60130    -999.25    0.34190    0.29820    2.21010  -60.86270   -3.44660    6.29150
 1600.00000   12.30290   12.71570   12.30290  261.45020    0.16910    2.04530    -999.25    0.38260    0.38870    3.82500    0.16910  107.68160  107.68160   89.58910   67.27010   67.27010    3.82500    4.02030    4.11260    4.02030    -999.25    0.40590    0.36310    2.04530  -61.13090   -3.46260    4.11260
 1650.00000   15.02110   14.69520   15.02110  329.58700    0.13940    1.69390    -999.25    0.45000    0.59420    3.03410    0.13940  132.38710  132.38710   85.25170   61.10820   61.10820    3.03410    3.13150    3.71640    3.13150    -999.25    0.46530    0.42410    1.69390  -63.77090   -5.85290    3.71640
 1700.00000   10.73100   12.42190   10.73100  101.28820    0.02670    2.35260    -999.25    0.17810    0.20900    9.88350    0.02670   88.52340   88.52340  111.50230   75.02770   75.02770    9.88350   10.88090   17.47200   10.88090    -999.25    0.29760    0.25370    2.35260  -63.98290   -5.81260   17.47200
 1750.00000   14.97580   14.33910   14.97580  318.83690    0.11570    1.71920    -999.25    0.45000    0.57940    3.13640    0.11570  108.26610  108.26610   90.60740   65.49440   65.49440    3.13640    3.00270    3.37940    3.00270    -999.25    0.52170    0.48290    1.71920  -64.33870   -5.64580    3.37940
 1800.00000   14.04280   13.75120   14.04280  270.33600    0.07770    1.79440    -999.25    0.45000    0.53540    3.69910    0.07770   98.31280   98.31280   87.33130   63.41300   63.41300    3.69910    3.51680    3.96060    3.51680    -999.25    0.47660    0.43580    1.79440  -64.61280   -4.23250    3.96060
 1850.00000   10.98970   13.71550   10.98970  109.13280    0.03590    1.45010    -999.25    0.45000    0.73680    9.19760    0.03590  138.04500  138.04500   66.56330   44.05450   44.05450    9.19760   11.18980   41.22590   11.18980    -999.25    0.62330    0.59080    1.45010  -64.62790   -2.55170   41.22590
 1900.00000   11.72020   12.82210   11.72020  149.98580    0.20480    2.19530    -999.25    0.27520    0.30100    6.66730    0.20480  113.72340  113.72340   87.71160   64.11990   64.11990    6.66730    5.52690    6.23960    5.52690    -999.25    0.36790    0.32450    2.19530  -67.22850   -3.47330    6.23960
 1950.00000   10.79180   14.33130   10.79180  475.01900    0.08120    1.62930    -999.25    0.45000    0.63200    2.11010    0.08120  151.43050  151.43050   90.16110   66.87850   66.87850    2.11010    2.30960    2.60210    2.30960    -999.25    0.60930    0.57590    1.62930  -67.32440   -1.87330    2.60210
 2000.00000   15.00000   14.12030   15.00000  277.55420    0.12640    1.58950    -999.25    0.45000    0.65530    3.60290    0.12640  107.63190  107.63190   96.34580   65.71480   65.71480    3.60290    3.33020    3.90270    3.33020    -999.25    0.42500    0.38270    1.58950  -70.01260   -2.88260    3.90270
 2050.00000   12.03670   13.04880   12.03670  175.29410    0.01770    1.95460    -999.25    0.44850    0.44180    5.70470    0.01770   89.36300   89.36300   88.76600   67.50350   67.50350    5.70470    5.44390    7.23190    5.44390    -999.25    0.37970    0.33650    1.95460  -70.79550   -1.97810    7.23190
 2100.00000   10.04310   12.55570   10.04310  120.77220    0.04050    2.34510    -999.25    0.18560    0.21340    8.28020    0.04050   91.96050   91.96050   77.85720   53.94220   53.94220    8.28020    8.10450    8.63620    8.10450    -999.25    0.35400    0.31050    2.34510  -75.35190   -7.58520    8.63620
 2150.00000    9.70970   11.28540    9.70970   94.75440    0.11180    2.30640    -999.25    0.20650    0.23600   10.55360    0.11180   95.84770   95.84770   80.88840   54.99210   54.99210   10.55360   10.18810    9.72860   10.18810    -999.25    0.34830    0.30460    2.30640  -88.70970  -22.15590    9.72860
 2200.00000    9.38840   12.19380    9.38840  107.28660    0.06140    2.21040    -999.25    0.26620    0.29220    9.32790    0.06140   97.33880   97.33880   73.60100   47.13110   47.13110    9.32790   10.20070    9.85810   10.20070    -999.25    0.33450    0.29070    2.21040  -86.81080  -21.48210    9.85810
