~Version ---------------------------------------------------
VERS. 2.0 : CWLS log ASCII Standard -VERSION 2.0
WRAP.  NO : ONE LINE PER DEPTH STEP
~Well ------------------------------------------------------
STRT.M                               380.5 : START DEPTH
STOP.M                              2549.3 : STOP DEPTH
STEP.M                             0.20000 : STEP LENGTH
NULL.                              -999.25 : NULL VALUE
COMP.                DEVON ARL CORPORATION : COMPANY
WELL. DEVON ARL ETAL 7D GVILLEE 7-25-76-23 : WELL
FLD .                                      : FIELD
LOC .                                      : LOCATION
CTRY.                               CANADA : COUNTRY
SRVC.                         Schlumberger : SERVICE COMPANY
DATE.                          06-Mar-2003 : LOGDATE
PROV.                              Alberta : PROVINCE
UWI .                     100072507623W500 : UNIQUE WELL ID
SLAT.WGS84                        55.61368 : SURFACE LATITUDE
SLON.WGS84                       -117.4224 : SURFACE LONGITUDE
~Curve Information -----------------------------------------
DEPT    .M    0   1   0  0 : 1 MEASURED DEPTH
GRS     .GAPI 60 310 01 00 : GAMMA RAY FROM SONIC LOG
HDS     .MM   60 280 00 00 : HOLE DIAMETER FROM SONIC
DT      .US/M 60 500 00 00 : DELTA-T (INTERVAL TRANSIT TIME)
HCALS   .MM   60 280 50 00 : HRCC CALIPER CALIBRATED FROM SONIC LOG
TENS    .N    60 635 00 00 : TENSION FROM SONIC LOG
GRR     .GAPI 06 310 01 00 : GAMMA RAY FROM RESISTIVITY LOG
RXOZ    .OHMM 06 270 04 00 : INVADED FORMATION RESISTIVITY FILTERED AT 18 INCHES
TENR    .N    06 635 00 00 : TENSION FROM RESISTIVITY LOG
SPR     .MV   06 010 01 00 : SPONTANEOUS POTENTIAL FROM RESISTIVITY LOG
AHF30   .OHMM 06 120 30 00 : ARRAY INDUCTION FOUR FOOT RESISTIVITY A30
AHF20   .OHMM 06 120 20 00 : ARRAY INDUCTION FOUR FOOT RESISTIVITY A20
AHF60   .OHMM 06 120 60 00 : ARRAY INDUCTION FOUR FOOT RESISTIVITY A60
GRD     .GAPI 45 310 01 00 : GAMMA RAY FROM DENSITY LOG
NPOR_SAN.DEC  42 890 03 00 : ENHANCED THERMAL NEUTRON POROSITY (SANDSTONE)
HDD     .MM   45 280 60 00 : HOLE DIAMETER
HCALD   .MM   45 280 60 00 : HRCC CALIPER CALIBRATED FROM DENSITY LOG
DPHI_SAN.DEC  45 890 12 00 : DENSITY POROSITY (MATRIX SANDSTONE)
HDRA    .K/M3 45 356 01 00 : HRDD SPINE AND RIBS DENSITY CORRECTION
PEFZ    .B/E  45 358 01 00 : HRDD STANDARD RESOLUTION FORMATION PHOTOELECTRIC FACTOR
TEND    .N    45 635 00 00 : TENSION FROM DENSITY LOG
NPOR_LS .DEC  42 890 01 00 : NEUTRON POROSITY LIMESTONE
DPHI_LS .DEC  45 890 10 00 : DENSITY POROSITY LIMESTONE
RHOZ    .K/M3 45 350 01 00 : HRDD STANDARD RESOLUTION FORMATION DENSITY
~Params ----------------------------------------------------
PD  .                                  GL : PERMANENT DATUM
EPD .M                              551.9 : ELEVATION PERMANENT DATUM
LMF .                                  KB : LOG MEASURED FROM
DAPD.M                                4.7 : FEET ABOVE PERMANENT DATUM
DMF .                                  KB : DRILLING MEASURED FROM
EKB .M                              556.6 : KELLY BUSHING
EDF .M                              556.3 : DRILLING FLOOR
EGL .M                              551.9 : GROUND LEVEL
DATE.                            03/06/03 : RUN DATE
RUN .                                   1 : RUN NUMBER
DD  .M                               2545 : DEPTH DRILLER
DL  .M                               2544 : DEPTH LOGGER
BLI .M                             2538.3 : BOTTOM LOG INTERVAL
TLI .M                                421 : TOP LOG INTERVAL
CS  .MM                             219.1 : CASING SIZE
CBD .M                                421 : CASING BOTTOM DRILLER
CBL .M                              420.5 : CASING BOTTOM LOGGER
BS  .MM                               200 : BIT SIZE
BSD .M                               2545 : BIT SIZE AT DEPTH
DFT .                            GEL CHEM : DRILLING FLUID TYPE
DFD .                                1050 : DRILLING FLUID DENSITY
DFV .                                  83 : DRILLING FLUID VISCOSITY
DFPH.                                10.5 : DRILLING FLUID PH
DFL .                                   7 : DRILLING FLUID LOSS
MSS .                            FLOWLINE : MUD SAMPLE SOURCE
RMS .OHMM                            1.27 : RESISTIVITY MUD SAMPLE
MST .DEGC                              17 : MUD SAMPLE TEMPERATURE
RMF .OHMM                            0.98 : RESISTIVITY MUD FILTRATE SAMPLE
MFST.DEGC                              18 : MUD FILTRATE SAMPLE TEMPERATURE
RMC .OHMM                            1.55 : RESISTIVITY MUD CAKE
MCST.DEGC                              18 : MUD CAKE SAMPLE TEMPERATURE
MFSS.                            MEASURED : MUD FILTRATE SAMPLE SOURCE
MCSS.                             MEAURED : MUD CAKE SAMPLE SOURCE
RMB .OHMM                           0.566 : RESISTIVITY MUD AT BHT
TCS .HRS                              640 : TIME CIRCULATED STOPPED
TLAB.HRS                             1645 : TIME LOGGER AT BOTTOM
LUN .                                2133 : LOGGING UNIT NUMBER
LUL .                      GRANDE PRAIRIE : LOGGING UNIT LOCATION
ENGI.                            STIRLING : RECORDING ENGINEER
WITN.                              MCLEAY : WITNESSED BY
CLNT.                             A2DTECH : CLIENT CODE
ORIG. 6.5"/100M 16.5"/100M 33"/100M PRINT : ORIGIN OF DATA
UWI .                    100072507623W500 : UNIQUE WELL ID
DICO.              A2D Technologies, Inc. : DIGITIZING COMPANY
~Other -----------------------------------------------------
~ASCII -----------------------------------------------------
# ...
 1550.50000   18.15430  218.08420  181.63530  216.97540 16031.99510   18.57940  108.93480 15962.05270  -41.54980   54.03580   43.20770   53.74310   18.28870    -999.25  216.99630  217.62630    -999.25   -3.02010    4.39700 16050.35450    0.05760    0.02510 2670.09330
 1550.70000   19.87780  218.32960  186.53940  217.49160 16025.77250   20.25020   70.11880 15991.70310  -40.93350   38.99480   28.80130   44.04050   19.90550    -999.25  217.23120  218.16250    -999.25   -5.29940    4.37490 16031.10550    0.06320    0.02800 2658.55250
 1550.90000   19.66480  218.89380  187.62200  218.43740 16026.05080   19.61000   69.31960 15995.80860  -41.20950   22.64900   19.80280   25.88790   20.02080    -999.25  217.55790  218.69870    -999.25   -6.75990    4.36390 16020.71190    0.05230    0.02590 2665.39970
 1551.10000   18.18790  219.15540  191.46400  219.38310 15998.34960   18.00450   75.53420 15971.81640  -42.32550   12.95800   11.24970   15.13840   18.28080    -999.25  217.95860  219.23490    -999.25   -5.71880    4.31120 16014.65720    0.06960    0.02690 2671.87210
 1551.30000   17.69010  219.15750  199.48550  220.32890 15970.64840   18.26870   18.53260 15932.91700  -43.38610    7.41350    6.36630    8.60810   17.81730    -999.25  218.35920  219.77110    -999.25   -4.06470    4.11330 15928.87990    0.12510    0.03730 2653.47710
 1551.50000   19.98980  219.15960  212.22100  221.27470 15942.94730   20.53060    5.97030 15870.54980  -44.82880    5.08950    4.65620    5.30410   19.95560    -999.25  218.75990  220.34260    -999.25   -3.31650    3.81690 15917.87300    0.16320    0.04990 2629.87300
 1551.70000   22.45410  219.16170  217.04940  221.46700 15957.59860   22.78780    4.37620 15888.82230  -44.90270    4.20810    4.14100    4.29290   22.83800    -999.25  219.16060  221.46220    -999.25   -3.22130    3.64060 15924.99410    0.15570    0.05620 2610.15940
 1551.90000   23.98050  219.16380  209.51650  221.32220 16036.03910   24.15500    5.61410 15873.47950  -43.76990    4.79280    4.40350    5.09600   24.31480    -999.25  219.38380  220.54920    -999.25   -7.13180    3.68780 15925.39750    0.10830    0.05050 2609.65870
 1552.10000   24.65560  219.16590  195.99840  221.33560 15985.39750   24.75830   10.87050 16001.86040  -42.42740    6.75290    6.31160    8.26490   24.80910    -999.25  219.44950  220.33840    -999.25   -9.64650    3.94110 16009.28910    0.05650    0.03800 2631.33420
 1552.30000   24.53740  219.16800  184.64640  221.34910 15944.21390   24.43370   75.88030 15977.36520  -42.40700   11.80600   10.03500   13.40450   24.73230    -999.25  219.51520  220.33840    -999.25  -10.61690    4.24780 15962.48730    0.04510    0.02540 2660.09380
 1552.50000   24.01680  219.16120  178.21550  221.36250 15899.54790   23.98860   93.86040 15929.66210  -43.08410   20.64040   17.72560   25.08930   24.25560    -999.25  219.58090  220.34240    -999.25   -7.67970    4.43190 15931.87300    0.04200    0.02070 2678.41670
 1552.70000   23.38840  219.10390  175.95600  221.37930 15846.60840   23.43060   84.18160 15857.57320  -44.09140   35.54820   31.30990   44.54890   23.70950    -999.25  219.64650  220.52520    -999.25   -5.35680    4.42930 15839.92190    0.04290    0.02470 2676.08500
 1552.90000   22.82210  219.04780  174.59320  221.64180 15889.21290   22.83190   71.22270 15818.09670  -45.64280   55.67180   52.19530   64.51530   23.12160    -999.25  219.06450  220.84270    -999.25   -6.16210    4.43030 15829.83300    0.03630    0.02880 2661.68430
 1553.10000   21.11390  219.06950  173.48360  222.03540 15944.35450   20.79370  102.62690 15994.39360  -47.65400   82.45810   68.78330   93.43030   21.11140    -999.25  219.08530  221.51630    -999.25   -6.84570    4.59610 15907.04790    0.03030    0.02640 2660.76460
 1553.30000   19.68620  219.09110  173.25110  223.43570 16142.09180   19.81920  159.02760 16018.57130  -49.86920   94.38600   75.98560   99.79540   19.66900    -999.25  218.88440  222.18980    -999.25   -5.31740    4.77750 16064.59860    0.03430    0.02070 2669.49710
 1553.50000   21.10080  219.11270  174.37890  224.21630 16158.63770   21.18310  131.02290 16042.74800  -51.80410   79.47310   69.22100   87.25600   21.15010    -999.25  219.22360  222.86340    -999.25   -2.79240    4.80370 16189.51560    0.03820    0.01610 2678.97170
 1553.70000   22.22510  219.13440  175.24220  224.23360 16012.66990   22.07600   79.68710 16029.14260  -53.55390   66.91640   59.60670   71.03260   22.29250    -999.25  219.54010  223.32010    -999.25   -1.29540    4.76590 16105.42090    0.04360    0.01140 2687.45700
 1553.90000   20.72410  219.15600  175.58160  224.25090 15977.54390   20.39190   58.74130 15995.33500  -54.78720   56.34360   51.01650   57.82560   21.02190    -999.25  219.10000  223.73700    -999.25   -0.86310    4.73450 16037.11910    0.04480    0.01310 2692.41850
 1554.10000   18.43630  219.17770  175.57550  224.26820 15942.41800   18.19310   61.88640 15974.82230  -56.19590   47.44140   43.66420   50.16950   18.37450    -999.25  219.07770  224.15380    -999.25   -1.82720    4.75230 16006.42870    0.04530    0.01930 2681.83350
 1554.30000   17.70830  219.19930  175.60630  224.19930 15943.42770   18.00630   61.40740 15965.70020  -57.34740   43.94930   40.63540   45.28170   17.66840    -999.25  219.09440  224.47050    -999.25   -2.99730    4.76340 16017.08690    0.04840    0.02310 2670.78520
 1554.50000   19.23550  219.28620  176.35050  224.12500 15962.58110   19.81440   58.32100 16007.10160  -58.71390   43.48790   40.08110   44.73190   19.26370    -999.25  219.09250  224.36080    -999.25   -4.35450    4.79020 15972.26070    0.05080    0.02440 2669.46040
 1554.70000   21.69510  219.57320  176.77700  224.05060 15981.73440   22.02790   57.62970 15844.74020  -59.46660   44.27640   40.08110   45.15330   21.68000    -999.25  219.11720  224.25100    -999.25   -5.95730    4.80480 15985.69240    0.05340    0.02630 2666.43460
 1554.90000   22.40760  219.32240  177.00010  223.97630 16000.88770   22.09320   59.00180 15990.51270  -60.44810   44.81200   40.08110   45.60860   22.29250    -999.25  219.43340  224.17190    -999.25   -6.35390    4.79630 16008.92380    0.05710    0.02590 2663.76590
 1555.10000   21.20650  219.12700  176.34820  223.90200 16020.04200   21.12880   59.86690 16000.40140  -61.92360   42.52730   39.24660   45.07880   21.40570    -999.25  219.43890  224.40460    -999.25   -4.61700    4.80260 16020.20410    0.05880    0.02210 2667.32690
 1555.30000   19.61920  218.71080  175.51560  223.82770 16080.29000   19.40360   63.85380 15999.76460  -63.29910   36.70700   34.98280   39.07160   19.84600    -999.25  219.42450  224.89360    -999.25   -2.78550    4.79140 16048.57420    0.05600    0.01980 2677.43900
 1555.50000   17.35930  218.73140  176.52380  223.75340 16165.91310   17.42490   79.81120 16057.03810  -63.91980   31.52880   29.93380   32.98470   17.38090    -999.25  219.41010  224.54580    -999.25   -2.49450    4.77160 16148.23930    0.06270    0.02500 2678.90310
 1555.70000   16.42400  218.88200  179.14970  223.67900 16208.41410   16.97400   65.19840 16164.88180  -63.92500   27.30300   25.61350   28.36180   16.72560    -999.25  219.39560  224.26120    -999.25   -4.15330    4.76460 16243.47460    0.07000    0.03490 2667.51590
 1555.90000   16.88180  219.19380  181.26550  223.44620 16207.08590   17.19320   50.84410 16114.95020  -63.29780   23.68240   22.53130   24.63730   16.91880    -999.25  219.37560  223.79700    -999.25   -5.26520    4.75370 16153.45700    0.07510    0.04130 2646.02420
 1556.10000   16.54370  219.46790  181.65160  222.88260 16205.75680   16.73340   49.76420 16036.69140  -62.26600   21.29500   21.01550   21.83050   16.67300    -999.25  219.25290  223.55870    -999.25   -5.65390    4.75940 16115.26170    0.07390    0.03780 2634.78420
 1556.30000   16.05000  219.38770  180.78670  222.56870 16205.93650   16.21440   52.78750 16029.98730  -61.02680   23.10720   22.39070   23.52780   16.24320    -999.25  219.13010  223.18610    -999.25   -3.46640    4.75860 16115.41410    0.06880    0.02420 2644.96900
