~Version ---------------------------------------------------
VERS.      2.0 : CWLS log ASCII Standard -VERSION 2.0
WRAP.       NO : One line per depth step
CREA. 12/01/17 : LAS Creation Date
~Well ------------------------------------------------------
STRT.FT                        300.0 : START DEPTH
STOP.FT                      17800.0 : STOP DEPTH
STEP.FT                     50.00000 : STEP LENGTH
NULL.                        -999.25 : NULL VALUE
COMP.           BPOG OPERATIONS LTD. : COMPANY
WELL. BP MOBIL CREE ROUGH 4-21-38-12 : WELL
FLD .                                : FIELD
LOC .                                : LOCATION
CTRY.                         CANADA : COUNTRY
SRVC.                   Schlumberger : SERVICE COMPANY
DATE.                    26-Oct-1973 : LOGDATE
PROV.                        Alberta : PROVINCE
UWI .               100042103812W500 : UNIQUE WELL ID
SLAT.WGS84                  52.27739 : SURFACE LATITUDE
SLON.WGS84                 -115.6641 : SURFACE LONGITUDE
~Curve Information -----------------------------------------
DEPT  .FT    : Depth Curve
CALSED.IN    : CALIPER FROM SONIC LOG [ADJ. TO RESISTIVITY LOG]
CALWS .IN    : CALIPER [CALSED]
CILDED.MMHO  : CONDUCTIVITY FROM RESISTIVITY LOG
CONDWS.MMHO  : CONDUCTIVITY [1000/DRESWS]
DRESWS.OHMM  : DEEP RESISTIVITY [ILDED]
DTED  .US/F  : DELTA-T FROM SONIC LOG [ADJ. TO RESISTIVITY LOG]
DTWS  .US/F  : COMPRESSIONAL SONIC [DTED]
GRNED .CU    : GAMMA RAY FROM GRN LOG [ADJ. TO RESISTIVITY LOG]
GRSED .CU    : GAMMA RAY FROM SONIC LOG [ADJ. TO RESISTIVITY LOG]
GRWS  .GAPI  : GAMMA RAY [GRSED] GRWS IN CSG. @ 13195'-13297' @ 10API ADDED
ILDED .OHMM  : DEEP INDUCTION RESISTIVITY FROM RESISTIVITY LOG
ILMED .OHMM  : MEDIUM INDUCTION RESISTIVITY FROM RESISTIVITY LOG
LL8ED .OHMM  : LATEROLOG 8 FROM RESISTIVITY LOG
MRESWS.OHMM  : MEDIUM RESISTIVITY [ILMED]
NEUTED.CU    : NEUTRON FROM GRN LOG [ADJ. TO RESISTIVITY LOG]
NEUTWS.CU    : NEUTRON [NEUTED]
SNED  .OHMM  : SHORT NORMAL RESISTIVITY 16" FROM RESISTIVITY LOG
SPRED .MV    : SPONTANEOUS POTENTIAL FROM RESISTIVITY LOG
SPWS  .MV    : SPONTANEOUS POTENTIAL [BASELINE 0 MV,SPRED]
SRESWS.OHMM  : SHALLOW RESISTIVITY [LL8ED SPL. TO SNED @ 2008']
~Params ----------------------------------------------------
PD  .                     GL : PERMANENT DATUM
EPD .FT                 5371 : ELEVATION PERMANENT DATUM
LMF .                     KB : LOG MEASURED FROM
DAPD.FT                   24 : FEET ABOVE PERMANENT DATUM
EKB .FT                 5395 : KELLY BUSHING
EGL .FT                 5371 : GROUND LEVEL
DATE.               10/26/73 : RUN DATE
RUN .                      2 : RUN NUMBER
DD  .FT                17815 : DEPTH DRILLER
DL  .FT                17792 : DEPTH LOGGER
BLI .FT                17791 : BOTTOM LOG INTERVAL
TLI .FT                13299 : TOP LOG INTERVAL
CBD .FT                13265 : CASING BOTTOM DRILLER
CBL .FT                13299 : CASING BOTTOM LOGGER
BS  .IN                 8.25 : BIT SIZE
BSD .FT                17815 : BIT SIZE AT DEPTH
DFT .               GEL CHEM : DRILLING FLUID TYPE
DFD .                    8.9 : DRILLING FLUID DENSITY
DFV .                     41 : DRILLING FLUID VISCOSITY
DFPH.                    9.5 : DRILLING FLUID PH
DFL .                   11.9 : DRILLING FLUID LOSS
RMS .OHMM               1.05 : RESISTIVITY MUD SAMPLE
MST .DEGF                 72 : MUD SAMPLE TEMPERATURE
RMF .OHMM               0.76 : RESISTIVITY MUD FILTRATE SAMPLE
MFST.DEGF                 70 : MUD FILTRATE SAMPLE TEMPERATURE
RMB .OHMM               0.31 : RESISTIVITY MUD AT BHT
TCS .HRS                   5 : TIME CIRCULATED STOPPED
LUN .                   7640 : LOGGING UNIT NUMBER
LUL .                     RD : LOGGING UNIT LOCATION
ENGI.           NIXON KOVACS : RECORDING ENGINEER
WITN.      WILLIAMS COSTELLO : WITNESSED BY
CLNT.                A2DTECH : CLIENT CODE
ORIG.            2" 5" PRINT : ORIGIN OF DATA
UWI .       100042103812W500 : UNIQUE WELL ID
DICO. A2D Technologies, Inc. : DIGITIZING COMPANY
~Other -----------------------------------------------------
DIL-IEL-BHC-GRN LOG RUN.
SNED MISSING IN SEVERAL DEPTH AS PER PRINT.
~ASCII -----------------------------------------------------
# ...
 9050.00000   12.42570   12.42570   52.19360   52.59610   19.01280   70.95260   70.95260   28.74010   31.48340   31.48340   19.01280    -999.25    -999.25    -999.25  610.74430  610.74430    -999.25    -999.25    -999.25    -999.25
 9100.00000   12.60650   12.60650   44.80840   43.85310   22.80340   70.04460   70.04460   31.77120   35.02060   35.02060   22.80340    -999.25    -999.25    -999.25  682.50180  682.50180    -999.25    -999.25    -999.25    -999.25
 9150.00000   12.27830   12.27830  169.96460  171.99270    5.81420   76.39320   76.39320   56.78430   79.08520   79.08520    5.81420    -999.25    -999.25    -999.25  425.84520  425.84520    -999.25    -999.25    -999.25    -999.25
 9200.00000   12.59130   12.59130   89.91150   95.69960   10.44940   72.74520   72.74520   49.49500   53.14380   53.14380   10.44940    -999.25    -999.25    -999.25  420.91010  420.91010    -999.25    -999.25    -999.25    -999.25
 9250.00000   12.41470   12.41470   80.14880   81.09120   12.33180   77.90190   77.90190   44.63590   49.41520   49.41520   12.33180    -999.25    -999.25    -999.25  399.43480  399.43480    -999.25    -999.25    -999.25    -999.25
 9300.00000   12.58160   12.58160  107.38040  112.05240    8.92440   77.75110   77.75110   39.88730   53.69220   53.69220    8.92440    -999.25    -999.25    -999.25  410.15550  410.15550    -999.25    -999.25    -999.25    -999.25
 9350.00000   12.85690   12.85690  116.74770  119.75190    8.35060   77.33360   77.33360   44.99210   52.82250   52.82250    8.35060    -999.25    -999.25    -999.25  441.32780  441.32780    -999.25    -999.25    -999.25    -999.25
 9400.00000   12.75630   12.75630  104.72400  107.54890    9.29810   74.15490   74.15490   38.53410   48.70250   48.70250    9.29810    -999.25    -999.25    -999.25  437.30400  437.30400    -999.25    -999.25    -999.25    -999.25
 9450.00000   12.70300   12.70300  108.10120  111.62650    8.96110   75.14110   75.14110   35.46560   45.70730   45.70730    8.96110    -999.25    -999.25    -999.25  398.28100  398.28100    -999.25    -999.25    -999.25    -999.25
 9500.00000   12.15510   12.15510   72.25680   72.09030   13.87150   69.24440   69.24440   45.31860   50.92730   50.92730   13.87150    -999.25    -999.25    -999.25  446.48910  446.48910    -999.25    -999.25    -999.25    -999.25
 9550.00000   12.17460   12.17460   55.64320   56.78530   17.61020   66.25890   66.25890   41.72340   43.96310   43.96310   17.61020    -999.25    -999.25    -999.25  441.31010  441.31010    -999.25    -999.25    -999.25    -999.25
 9600.00000   12.39890   12.39890  118.91280  127.08420    7.86880   77.26200   77.26200   42.00980   51.55830   51.55830    7.86880    -999.25    -999.25    -999.25  444.63440  444.63440    -999.25    -999.25    -999.25    -999.25
 9650.00000   12.94820   12.94820  119.59440  124.71160    8.01850   80.82850   80.82850   45.49320   50.11670   50.11670    8.01850    -999.25    -999.25    -999.25  457.54030  457.54030    -999.25    -999.25    -999.25    -999.25
 9700.00000   12.16350   12.16350   96.32720   99.56980   10.04330   72.45230   72.45230   42.33610   54.99440   54.99440   10.04330    -999.25    -999.25    -999.25  561.58800  561.58800    -999.25    -999.25    -999.25    -999.25
 9750.00000   12.30460   12.30460   51.27800   49.93710   20.02520   70.22590   70.22590   21.04120   23.24360   23.24360   20.02520    -999.25    -999.25    -999.25  838.73580  838.73580    -999.25    -999.25    -999.25    -999.25
 9800.00000   12.95320   12.95320  121.19170  125.89860    7.94290   77.96840   77.96840   45.82760   63.30760   63.30760    7.94290    -999.25    -999.25    -999.25  505.91490  505.91490    -999.25    -999.25    -999.25    -999.25
 9850.00000   12.43240   12.43240   96.15710   96.77360   10.33340   75.05770   75.05770    -999.25   48.99500   48.99500   10.33340    -999.25    -999.25    -999.25    -999.25    -999.25    -999.25    -999.25    -999.25    -999.25
 9900.00000   12.54350   12.54350   47.92580   49.15620   20.34330   66.59910   66.59910    -999.25   44.99770   44.99770   20.34330    -999.25    -999.25    -999.25    -999.25    -999.25    -999.25    -999.25    -999.25    -999.25
 9950.00000   12.25510   12.25510   92.68860   95.09970   10.51630   76.64100   76.64100    -999.25   55.97110   55.97110   10.51630    -999.25    -999.25    -999.25    -999.25    -999.25    -999.25    -999.25    -999.25    -999.25
 10000.00000   12.09010   12.09010  111.56080  109.57220    9.12640   82.37370   82.37370    -999.25   50.23070   50.23070    9.12640    -999.25    -999.25    -999.25    -999.25    -999.25    -999.25    -999.25    -999.25    -999.25
 10050.00000   12.27940   12.27940  121.04620  128.82120    7.76270   84.76970   84.76970    -999.25   66.16710   66.16710    7.76270    -999.25    -999.25    -999.25    -999.25    -999.25    -999.25    -999.25    -999.25    -999.25
 10100.00000   13.15800   13.15800   48.86650   49.84150   20.06360   62.88060   62.88060    -999.25   36.25570   36.25570   20.06360    -999.25    -999.25    -999.25    -999.25    -999.25    -999.25    -999.25    -999.25    -999.25
 10150.00000   12.15030   12.15030  123.63280  131.02210    7.63230   79.06010   79.06010    -999.25   54.71380   54.71380    7.63230    -999.25    -999.25    -999.25    -999.25    -999.25    -999.25    -999.25    -999.25    -999.25
 10200.00000   12.24520   12.24520  163.24230  169.05610    5.91550   82.38040   82.38040    -999.25   57.92760   57.92760    5.91550    -999.25    -999.25    -999.25    -999.25    -999.25    -999.25    -999.25    -999.25    -999.25
 10250.00000   12.21740   12.21740  117.23320  121.76710    8.21240   77.87620   77.87620    -999.25   73.75890   73.75890    8.21240    -999.25    -999.25    -999.25    -999.25    -999.25    -999.25    -999.25    -999.25    -999.25
 10300.00000   12.27110   12.27110   84.62770   86.98750   11.49590   71.86880   71.86880    -999.25   70.33690   70.33690   11.49590    -999.25    -999.25    -999.25    -999.25    -999.25    -999.25    -999.25    -999.25    -999.25
 10350.00000   12.12100   12.12100   88.80890   90.46580   11.05390   71.46610   71.46610    -999.25   69.76270   69.76270   11.05390    -999.25    -999.25    -999.25    -999.25    -999.25    -999.25    -999.25    -999.25    -999.25
 10400.00000   12.14080   12.14080   73.62320   74.75630   13.37680   68.17630   68.17630    -999.25   69.50890   69.50890   13.37680    -999.25    -999.25    -999.25    -999.25    -999.25    -999.25    -999.25    -999.25    -999.25
 10450.00000   12.20900   12.20900   96.71890   99.31520   10.06930   73.58550   73.58550    -999.25   72.48080   72.48080   10.06930    -999.25    -999.25    -999.25    -999.25    -999.25    -999.25    -999.25    -999.25    -999.25
 10500.00000   12.17410   12.17410   78.26390   80.25420   12.46040   71.45270   71.45270    -999.25   72.61570   72.61570   12.46040    -999.25    -999.25    -999.25    -999.25    -999.25    -999.25    -999.25    -999.25    -999.25
 10550.00000   12.20220   12.20220   98.99360  106.09180    9.42580   73.91600   73.91600    -999.25   81.60930   81.60930    9.42580    -999.25    -999.25    -999.25    -999.25    -999.25    -999.25    -999.25    -999.25    -999.25
 10600.00000   12.17290   12.17290  108.65520  110.52040    9.04810   77.80670   77.80670    -999.25   79.78760   79.78760    9.04810    -999.25    -999.25    -999.25    -999.25    -999.25    -999.25    -999.25    -999.25    -999.25
 10650.00000   12.19030   12.19030   71.52030   72.31910   13.82760   72.52840   72.52840    -999.25   75.26810   75.26810   13.82760    -999.25    -999.25    -999.25    -999.25    -999.25    -999.25    -999.25    -999.25    -999.25
 10700.00000   12.19050   12.19050   72.40690   73.32170   13.63880   70.82810   70.82810    -999.25   65.02030   65.02030   13.63880    -999.25    -999.25    -999.25    -999.25    -999.25    -999.25    -999.25    -999.25    -999.25
 10750.00000   12.38630   12.38630  105.12100  107.17880    9.33020   79.79430   79.79430    -999.25   81.83450   81.83450    9.33020    -999.25    -999.25    -999.25    -999.25    -999.25    -999.25    -999.25    -999.25    -999.25
