~Version ---------------------------------------------------
VERS.      2.0 : CWLS log ASCII Standard -VERSION 2.0
WRAP.       NO : One line per depth step
CREA. 11/20/17 : LAS Creation Date
~Well ------------------------------------------------------
STRT.FT                      1000.0 : START DEPTH
STOP.FT                      9200.0 : STOP DEPTH
STEP.FT                    50.00000 : STEP LENGTH
NULL.                       -999.25 : NULL VALUE
COMP. AMOCO CANADA PETROLEUM CO LTD : COMPANY
WELL.    AMOCO HB SAKWA 11-26-62-14 : WELL
FLD .                               : FIELD
LOC .                               : LOCATION
CTRY.                        CANADA : COUNTRY
SRVC.                       Unknown : SERVICE COMPANY
DATE.                   15-Jan-1977 : LOGDATE
PROV.                       Alberta : PROVINCE
UWI .              100112606214W500 : UNIQUE WELL ID
SLAT.WGS84                 54.39502 : SURFACE LATITUDE
SLON.WGS84                 -115.993 : SURFACE LONGITUDE
~Curve Information -----------------------------------------
DEPT    .FT    : Depth Curve
CALDED  .IN    : CALIPER FROM DENSITY LOG [ADJ. TO RESISTIVITY LOG]
CALSED  .IN    : CALIPER FROM SONIC LOG [ADJ. TO RESISTIVITY LOG]
CALWS   .IN    : CALIPER [CALDED]
CONDWS  .MMHO  : CONDUCTIVITY [1000/DRESWS]
DCORWS  .G/C3  : DENSITY CORRECTION [DRHOED]
DENWS   .G/C3  : FORMATION BULK DENSITY [CALC. FROM DPOLSWS,M=2.71, F=1.00]
DPHILSED.V/V   : DENSITY POROSITY LIMESTONE [M=2.71, F=1.00] FROM DENSITY LOG [ADJ. TO RESISTIVITY LOG/NPHILS/NPHISS]
DPHISSED.V/V   : DENSITY POROSITY SANDSTONE [M=2.65, F=1.00] FROM DENSITY LOG [ADJ. TO RESISTIVITY LOG/NPHILSED/NPHISSED]
DPOLSWS .V/V   : DENSITY POROSITY LIMESTONE [DPHISSED CONVERTED TO LIMESTONE MATRIX,M=2.71, F=1.00,SPL. TO DPHILSED @ 5507']
DRESWS  .OHMM  : DEEP RESISTIVITY [ILDED]
DRHOED  .G/C3  : DENSITY CORRECTION FROM DENSITY LOG [ADJ. TO RESISTIVITY LOG/NPHILSED/NPHISSED/DPHILSED/DPHISSED]
DTED    .US/F  : DELTA-T FROM SONIC LOG [ADJ. TO RESISTIVITY LOG]
DTWS    .US/F  : COMPRESSIONAL SONIC [DTED]
GRDED   .GAPI  : GAMMA RAY FROM DENSITY LOG [ADJ. TO RESISTIVITY LOG]
GRSED   .GAPI  : GAMMA RAY FROM SONIC LOG [ADJ. TO RESISTIVITY LOG]
GRWS    .GAPI  : GAMMA RAY [GRSED SPL. TO GRDED @ 1007']
ILDED   .OHMM  : DEEP INDUCTION RESISTIVITY FROM RESISTIVITY LOG
ILMED   .OHMM  : MEDIUM INDUCTION RESISTIVITY FROM RESISTIVITY LOG
LL8ED   .OHMM  : LATEROLOG 8 FROM RESISTIVITY LOG
MRESWS  .OHMM  : MEDIUM RESISTIVITY [ILMED]
NPHILSED.V/V   : NEUTRON POROSITY LIMESTONE FROM DENSITY LOG [ADJ. TO RESISTIVITY LOG]
NPHISSED.V/V   : NEUTRON POROSITY SANDSTONE FROM DENSITY LOG [ADJ. TO RESISTIVITY LOG]
NPOLSWS .V/V   : NEUTRON POROSITY LIMESTONE [NPHISSED MATRIX CONVERSION FOR LIMESTONE, SPL. TO NPHILSED @5597']
RHOBED  .G/C3  : BULK DENSITY FROM DENSITY LOG [ADJ. TO RESISTIVITY LOG/NPHILSED/NPHISSED/DPHILSED/DPHISSED]
SPRED   .MV    : SPONTANEOUS POTENTIAL FROM RESISTIVITY LOG
SPWS    .MV    : SPONTANEOUS POTENTIAL [BASELINE 0 MV,SPRED]
SRESWS  .OHMM  : SHALLOW RESISTIVITY [LL8ED]
~Params ----------------------------------------------------
PD  .                     GL : PERMANENT DATUM
EPD .FT                 2835 : ELEVATION PERMANENT DATUM
LMF .                     KB : LOG MEASURED FROM
DAPD.FT                 14.6 : FEET ABOVE PERMANENT DATUM
EKB .FT               2849.6 : KELLY BUSHING
EGL .FT               2835.0 : GROUND LEVEL
DATE.               01/15/77 : RUN DATE
RUN .                      1 : RUN NUMBER
DD  .FT                 9200 : DEPTH DRILLER
DL  .FT                 9205 : DEPTH LOGGER
BLI .FT                 9204 : BOTTOM LOG INTERVAL
TLI .FT                 1012 : TOP LOG INTERVAL
CBD .FT                 1015 : CASING BOTTOM DRILLER
CBL .FT                 1012 : CASING BOTTOM LOGGER
BS  .IN                 8.25 : BIT SIZE
BSD .FT                 9200 : BIT SIZE AT DEPTH
DFT .                    GEL : DRILLING FLUID TYPE
DFD .                    9.1 : DRILLING FLUID DENSITY
DFV .                    105 : DRILLING FLUID VISCOSITY
DFPH.                    9.5 : DRILLING FLUID PH
RMS .OHMM               3.85 : RESISTIVITY MUD SAMPLE
MST .DEGF                 48 : MUD SAMPLE TEMPERATURE
RMF .OHMM               3.25 : RESISTIVITY MUD FILTRATE SAMPLE
MFST.DEGF                 62 : MUD FILTRATE SAMPLE TEMPERATURE
TCS .HRS                   8 : TIME CIRCULATED STOPPED
LUN .                   7802 : LOGGING UNIT NUMBER
LUL .                    EDM : LOGGING UNIT LOCATION
ENGI.                   PIHM : RECORDING ENGINEER
WITN.            PHILLIPCHUK : WITNESSED BY
CLNT.                A2DTECH : CLIENT CODE
ORIG.            2" 5" PRINT : ORIGIN OF DATA
UWI .       100112606214W500 : UNIQUE WELL ID
DICO. A2D Technologies, Inc. : DIGITIZING COMPANY
~Other -----------------------------------------------------
DIL-CNFD-BHC LOG RUN.
RHOB & DRHO VERIFYED FROM 2" OF SCALE
~ASCII -----------------------------------------------------
# ...
 3600.00000   12.16340    9.56080   12.16340  123.48580    0.02340    2.35940    -999.25    0.17610    0.20500    8.09810    0.02340   86.22580   86.22580   89.43450  105.82610   89.43450    8.09810    7.62300    9.84910    7.62300    -999.25    0.30980    0.26590    2.39210 -164.53110   -2.98600    9.84910
 3650.00000   10.60070    9.83050   10.60070  125.53350    0.18690    2.26320    -999.25    0.23440    0.26130    7.96600    0.18690   83.52710   83.52710   92.47400  109.49480   92.47400    7.96600    6.27360    8.11450    6.27360    -999.25    0.35980    0.31630    2.18140 -165.19250   -4.65180    8.11450
 3700.00000   11.24010   10.93040   11.24010  147.41440    0.19430    2.32990    -999.25    0.19400    0.22230    6.78360    0.19430   99.16370   99.16370  111.69970  135.07150  111.69970    6.78360    6.15420    6.11730    6.15420    -999.25    0.40300    0.36020    2.33410 -163.64630   -4.38750    6.11730
 3750.00000   12.51080   10.00780   12.51080  138.09680    0.14480    2.40250    -999.25    0.15000    0.17980    7.24130    0.14480   92.78720   92.78720  104.79890  131.78620  104.79890    7.24130    6.73500    7.86630    6.73500    -999.25    0.30800    0.26400    2.41270 -160.89050   -2.91360    7.86630
 3800.00000   10.30640    9.47150   10.30640  159.91960    0.06450    2.39360    -999.25    0.15540    0.18500    6.25320    0.06450   97.19900   97.19900  117.66640  144.95260  117.66640    6.25320    5.90280    6.69020    5.90280    -999.25    0.35790    0.31430    2.40970 -158.69970   -1.99830    6.69020
 3850.00000    9.99170    9.95110    9.99170  164.00970    0.19170    2.39670    -999.25    0.15350    0.18320    6.09720    0.19170  100.63610  100.63610  116.54210  142.89430  116.54210    6.09720    5.72290    6.72340    5.72290    -999.25    0.40710    0.36440    2.39850 -157.58640   -2.17320    6.72340
 3900.00000    9.31940    9.80290    9.31940  139.51480    0.07950    2.47280    -999.25    0.10740    0.13870    7.16770    0.07950   99.63440   99.63440  131.80030  164.84600  131.80030    7.16770    6.61050    8.16590    6.61050    -999.25    0.42820    0.38590    2.47420 -156.08250   -1.95120    8.16590
 3950.00000    9.47690    9.70340    9.47690  136.95440    0.04200    2.38240    -999.25    0.16220    0.19160    7.30170    0.04200   99.48290   99.48290  135.00670  157.64510  135.00670    7.30170    6.76320    8.29950    6.76320    -999.25    0.39980    0.35690    2.45110 -154.86080   -2.01140    8.29950
 4000.00000    9.79470    9.39880    9.79470  100.40970    0.02810    2.45200    -999.25    0.12000    0.15090    9.95920    0.02810   96.56860   96.56860  135.99620  160.96900  135.99620    9.95920    9.27410   11.04200    9.27410    -999.25    0.39370    0.35070    2.45740 -153.24610   -1.67850   11.04200
 4050.00000   13.85970   11.30590   13.85970  172.24840    0.22440    2.16400    -999.25    0.29450    0.31930    5.80570    0.22440   99.99380   99.99380  115.53150  134.50630  115.53150    5.80570    5.43610    6.48320    5.43610    -999.25    0.45720    0.41580    2.18770 -153.89580   -3.60370    6.48320
 4100.00000   11.64840   11.42350   11.64840  152.04500    0.09050    2.46070    -999.25    0.11470    0.14580    6.57700    0.09050   87.88440   87.88440   97.53740  116.87370   97.53740    6.57700    6.01490    6.19140    6.01490    -999.25    0.32470    0.28080    2.49490 -155.31130   -5.87660    6.19140
 4150.00000   11.40610   10.98020   11.40610  193.30400    0.09810    2.35630    -999.25    0.17800    0.20680    5.17320    0.09810   91.67650   91.67650  109.18720  132.18760  109.18720    5.17320    4.75120    5.64260    4.75120    -999.25    0.37190    0.32850    2.36880 -152.62460   -3.98990    5.64260
 4200.00000   12.72120   10.92180   12.72120  172.57450    0.25090    2.19160    -999.25    0.27780    0.30310    5.79460    0.25090   87.50900   87.50900   99.82270  122.53000   99.82270    5.79460    5.50920    6.24590    5.50920    -999.25    0.35140    0.30780    2.22940 -153.06480   -5.23020    6.24590
 4250.00000   12.67960   11.15950   12.67960  201.93050    0.15710    2.46440    -999.25    0.11250    0.14360    4.95220    0.15710   92.50150   92.50150  100.75750  136.38280  100.75750    4.95220    4.59740    5.48130    4.59740    -999.25    0.35220    0.30860    2.47510 -152.35900   -5.32440    5.48130
 4300.00000   12.64590   12.06350   12.64590  222.37070    0.08580    2.32770    -999.25    0.19540    0.22360    4.49700    0.08580   94.77140   94.77140  111.39980  129.37800  111.39980    4.49700    4.17390    4.97110    4.17390    -999.25    0.40210    0.35920    2.32890 -152.00050   -5.76200    4.97110
 4350.00000   12.87370   10.92390   12.87370  201.53160    0.18300    2.40550    -999.25    0.14820    0.17810    4.96200    0.18300   91.21570   91.21570   96.74850  116.68240   96.74850    4.96200    4.65730    5.61100    4.65730    -999.25    0.36560    0.32220    2.43120 -152.11430   -6.67980    5.61100
 4400.00000   13.47790   10.69230   13.47790  175.13440    0.24980    2.30020    -999.25    0.21200    0.23960    5.70990    0.24980   92.80820   92.80820  117.61600  125.46670  117.61600    5.70990    5.43710    6.48830    5.43710    -999.25    0.39440    0.35140    2.31820 -150.73110   -6.09670    6.48830
 4450.00000   13.82920   11.49630   13.82920  328.82840    0.18640    2.14460    -999.25    0.30630    0.33060    3.04110    0.18640  104.52470  104.52470  181.62250  205.43020  181.62250    3.04110    2.70370    3.61270    2.70370    -999.25    0.41840    0.37590    2.16550 -145.76910   -1.93470    3.61270
 4500.00000   12.80830   11.11030   12.80830  500.62580    0.10170    2.29410    -999.25    0.21570    0.24320    1.99750    0.10170  109.83580  109.83580  110.97120  122.25940  110.97120    1.99750    1.90130    2.58180    1.90130    -999.25    0.42480    0.38250    2.29980 -144.43110   -1.39670    2.58180
 4550.00000   13.35500   11.53170   13.35500  236.91380    0.17440    2.21910    -999.25    0.26110    0.28710    4.22100    0.17440   92.89370   92.89370   98.87760  106.85770   98.87760    4.22100    3.98280    4.82710    3.98280    -999.25    0.35580    0.31220    2.23920 -144.22360   -1.98530    4.82710
 4600.00000   13.11620   11.15970   13.11620  185.56320    0.25120    2.19760    -999.25    0.27420    0.29970    5.38900    0.25120   87.86810   87.86810  108.02480  117.12970  108.02480    5.38900    5.19430    6.01200    5.19430    -999.25    0.35380    0.31020    2.20440 -143.72930   -2.29500    6.01200
 4650.00000    8.62080    9.22920    8.62080  118.45530    0.08330    2.29810    -999.25    0.21330    0.24090    8.44200    0.08330   83.39840   83.39840   43.33830   55.48620   43.33830    8.44200   10.50990   12.92760   10.50990    -999.25    0.24710    0.20320    2.31800 -189.19340  -48.55920   12.92760
 4700.00000   11.88200   11.18470   11.88200  585.85740    0.08200    2.22410    -999.25    0.25810    0.28420    1.70690    0.08200  115.40910  115.40910   89.71480  105.51010   89.71480    1.70690    1.58100    2.33240    1.58100    -999.25    0.48610    0.44570    2.24280 -141.15090   -1.43150    2.33240
 4750.00000   11.42780   10.81780   11.42780  131.08910    0.03590    2.37300    -999.25    0.16790    0.19710    7.62840    0.03590   81.92370   81.92370   74.97270   88.89950   74.97270    7.62840    7.28250   14.12290    7.28250    -999.25    0.31510    0.27120    2.38670 -144.39350   -6.11140   14.12290
 4800.00000   10.78960   10.61070   10.78960   95.22280    0.06720    2.36740    -999.25    0.17120    0.20030   10.50230    0.06720   88.67290   88.67290   65.82520   78.33830   65.82520   10.50230   11.40140   14.03260   11.40140    -999.25    0.34000    0.29630    2.37050 -168.56120  -31.70930   14.03260
 4850.00000   11.70930   11.61400   11.70930  117.92310    0.06380    2.13930    -999.25    0.30950    0.33370    8.48010    0.06380   86.97780   86.97780   82.18890  105.10950   82.18890    8.48010    8.03940   11.06040    8.03940    -999.25    0.40720    0.36450    2.21190 -139.92120   -4.51390   11.06040
