~Version ---------------------------------------------------
VERS.      2.0 : CWLS log ASCII Standard -VERSION 2.0
WRAP.       NO : One line per depth step
CREA. 12/14/17 : LAS Creation Date
~Well ------------------------------------------------------
STRT.FT                         1000.0 : START DEPTH
STOP.FT                         9400.0 : STOP DEPTH
STEP.FT                       50.00000 : STEP LENGTH
NULL.                          -999.25 : NULL VALUE
COMP.          QUINTANA EXPLORATION CO : COMPANY
WELL. QUINTANA ET AL STURLS 3-21-69-21 : WELL
FLD .                                  : FIELD
LOC .                                  : LOCATION
CTRY.                           CANADA : COUNTRY
SRVC.                    Dresser Atlas : SERVICE COMPANY
DATE.                      14-Jul-1971 : LOGDATE
PROV.                          Alberta : PROVINCE
UWI .                 100032106921W500 : UNIQUE WELL ID
SLAT.WGS84                    54.98342 : SURFACE LATITUDE
SLON.WGS84                   -117.1428 : SURFACE LONGITUDE
~Curve Information -----------------------------------------
DEPT  .FT    : Depth Curve
ASNED .OHMM  : AMPLIFIED SHORT NORMAL FROM RESISTIVITY LOG
CONDWS.MMHO  : CONDUCTIVITY [1000/DRESWS]
DRESWS.OHMM  : DEEP RESISTIVITY [LNED]
GRNED .GAPI  : GAMMA RAY FROM GRN LOG
GRWS  .GAPI  : GAMMA RAY [GRNED]
LATED .OHMM  : LATERAL FROM RESISTIVITY LOG
LNED  .OHMM  : LONG NORMAL FROM RESISTIVITY LOG
NEUTED.NAPI  : NEUTRON FROM GRN LOG
NEUTWS.NAPI  : NEUTRON [NEUTED]
SPRED .MV    : SPONTANEOUS POTENTIAL FROM RESISTIVITY LOG
SPWS  .MV    : SPONTANEOUS POTENTIAL [BASELINE 0 MV,SPRED]
SRESWS.OHMM  : SHALLOW RESISTIVITY [ASNED]
~Params ----------------------------------------------------
PD  .                     GL : PERMANENT DATUM
EPD .FT                 2131 : ELEVATION PERMANENT DATUM
LMF .                     KB : LOG MEASURED FROM
DAPD.FT                   15 : FEET ABOVE PERMANENT DATUM
DMF .                     KB : DRILLING MEASURED FROM
EKB .FT                 2146 : KELLY BUSHING
EGL .FT                 2131 : GROUND LEVEL
DATE.               07/14/71 : RUN DATE
RUN .                      1 : RUN NUMBER
DD  .FT                 9420 : DEPTH DRILLER
DL  .FT                 9421 : DEPTH LOGGER
BLI .FT                 9421 : BOTTOM LOG INTERVAL
TLI .FT                 2355 : TOP LOG INTERVAL
CS  .IN                8.625 : CASING SIZE
CBD .FT                  988 : CASING BOTTOM DRILLER
BS  .IN                7.875 : BIT SIZE
BSD .FT                 9420 : BIT SIZE AT DEPTH
DFT .                MUD GEL : DRILLING FLUID TYPE
DFD .                    9.2 : DRILLING FLUID DENSITY
DFV .                    300 : DRILLING FLUID VISCOSITY
DFPH.                    9.5 : DRILLING FLUID PH
DFL .                    8.2 : DRILLING FLUID LOSS
MSS .                   CIRC : MUD SAMPLE SOURCE
RMS .OHMM                2.5 : RESISTIVITY MUD SAMPLE
MST .DEGF                 65 : MUD SAMPLE TEMPERATURE
RMF .OHMM                1.9 : RESISTIVITY MUD FILTRATE SAMPLE
MFST.DEGF                 70 : MUD FILTRATE SAMPLE TEMPERATURE
RMC .OHMM                2.7 : RESISTIVITY MUD CAKE
MCST.DEGF                 70 : MUD CAKE SAMPLE TEMPERATURE
MFSS.                   MEAS : MUD FILTRATE SAMPLE SOURCE
MCSS.                   MEAS : MUD CAKE SAMPLE SOURCE
RMB .OHMM               0.97 : RESISTIVITY MUD AT BHT
TCS .HRS                  21 : TIME CIRCULATED STOPPED
LUN .                   6091 : LOGGING UNIT NUMBER
LUL .                    V.V : LOGGING UNIT LOCATION
ENGI.                 MILLER : RECORDING ENGINEER
WITN.                  KENNY : WITNESSED BY
CLNT.                A2DTECH : CLIENT CODE
ORIG.            2" 5" PRINT : ORIGIN OF DATA
UWI .       100032106921W500 : UNIQUE WELL ID
DICO. A2D Technologies, Inc. : DIGITIZING COMPANY
~Other -----------------------------------------------------
EL-GRN LOG RUN
ALL DATA FROM TOP TO 2998' FROM 2"SCALE SECTION
~ASCII -----------------------------------------------------
 1000.00000    -999.25    -999.25    -999.25   24.60780   24.60780    -999.25    -999.25  185.31010  185.31010    -999.25    -999.25    -999.25
 1050.00000    -999.25    -999.25    -999.25   24.54070   24.54070    -999.25    -999.25  234.78250  234.78250    -999.25    -999.25    -999.25
 1100.00000    -999.25    -999.25    -999.25   27.41690   27.41690    -999.25    -999.25  157.23610  157.23610    -999.25    -999.25    -999.25
 1150.00000    -999.25    -999.25    -999.25   38.61820   38.61820    -999.25    -999.25  139.62840  139.62840    -999.25    -999.25    -999.25
 1200.00000    -999.25    -999.25    -999.25   36.96540   36.96540    -999.25    -999.25  144.10400  144.10400    -999.25    -999.25    -999.25
 1250.00000    -999.25    -999.25    -999.25   16.74370   16.74370    -999.25    -999.25  185.82280  185.82280    -999.25    -999.25    -999.25
 1300.00000    -999.25    -999.25    -999.25   40.89510   40.89510    -999.25    -999.25  283.70560  283.70560    -999.25    -999.25    -999.25
 1350.00000    -999.25    -999.25    -999.25   31.74470   31.74470    -999.25    -999.25  228.72170  228.72170    -999.25    -999.25    -999.25
 1400.00000    -999.25    -999.25    -999.25   45.12890   45.12890    -999.25    -999.25  183.09420  183.09420    -999.25    -999.25    -999.25
 1450.00000    -999.25    -999.25    -999.25   44.65430   44.65430    -999.25    -999.25  128.21610  128.21610    -999.25    -999.25    -999.25
 1500.00000    -999.25    -999.25    -999.25   35.17140   35.17140    -999.25    -999.25  100.97510  100.97510    -999.25    -999.25    -999.25
 1550.00000    -999.25    -999.25    -999.25   51.44150   51.44150    -999.25    -999.25  110.52170  110.52170    -999.25    -999.25    -999.25
 1600.00000    -999.25    -999.25    -999.25   36.97140   36.97140    -999.25    -999.25  107.98020  107.98020    -999.25    -999.25    -999.25
 1650.00000    -999.25    -999.25    -999.25   71.56140   71.56140    -999.25    -999.25  137.87770  137.87770    -999.25    -999.25    -999.25
 1700.00000    -999.25    -999.25    -999.25   81.12140   81.12140    -999.25    -999.25  143.60790  143.60790    -999.25    -999.25    -999.25
 1750.00000    -999.25    -999.25    -999.25   63.01180   63.01180    -999.25    -999.25  156.94970  156.94970    -999.25    -999.25    -999.25
 1800.00000    -999.25    -999.25    -999.25   44.83880   44.83880    -999.25    -999.25  146.90140  146.90140    -999.25    -999.25    -999.25
 1850.00000    -999.25    -999.25    -999.25   47.30590   47.30590    -999.25    -999.25  143.86990  143.86990    -999.25    -999.25    -999.25
 1900.00000    -999.25    -999.25    -999.25   46.48360   46.48360    -999.25    -999.25  118.83940  118.83940    -999.25    -999.25    -999.25
 1950.00000    -999.25    -999.25    -999.25   63.66700   63.66700    -999.25    -999.25  135.71460  135.71460    -999.25    -999.25    -999.25
 2000.00000    -999.25    -999.25    -999.25   50.74510   50.74510    -999.25    -999.25  138.23510  138.23510    -999.25    -999.25    -999.25
 2050.00000    -999.25    -999.25    -999.25   42.16980   42.16980    -999.25    -999.25  118.29300  118.29300    -999.25    -999.25    -999.25
 2100.00000    -999.25    -999.25    -999.25   40.03590   40.03590    -999.25    -999.25  130.21020  130.21020    -999.25    -999.25    -999.25
 2150.00000    -999.25    -999.25    -999.25   49.03610   49.03610    -999.25    -999.25  135.59570  135.59570    -999.25    -999.25    -999.25
 2200.00000    -999.25    -999.25    -999.25   42.00490   42.00490    -999.25    -999.25  116.08010  116.08010    -999.25    -999.25    -999.25
 2250.00000    -999.25    -999.25    -999.25   57.18890   57.18890    -999.25    -999.25  104.01710  104.01710    -999.25    -999.25    -999.25
 2300.00000    -999.25    -999.25    -999.25   51.84740   51.84740    -999.25    -999.25  102.68290  102.68290    -999.25    -999.25    -999.25
 2350.00000    -999.25    -999.25    -999.25   59.84000   59.84000    -999.25    -999.25  161.45170  161.45170    -999.25    -999.25    -999.25
 2400.00000    8.93380  113.43010    8.81600   95.60290   95.60290   16.35270    8.81600  343.38160  343.38160  -65.36310   -6.67320    8.93380
 2450.00000    8.75220  113.67250    8.79720   98.10470   98.10470    9.41460    8.79720  357.48000  357.48000  -65.96500   -7.27510    8.75220
 2500.00000   10.77990   95.32520   10.49040   99.69160   99.69160   11.46680   10.49040  369.91820  369.91820  -64.65790   -5.96800   10.77990
 2550.00000   14.08520   73.09730   13.68040  126.90370  126.90370   18.15810   13.68040  402.19730  402.19730  -67.64840   -8.95850   14.08520
 2600.00000   11.12280   94.61720   10.56890   76.66630   76.66630    8.54310   10.56890  416.22900  416.22900  -70.69870  -12.00880   11.12280
 2650.00000    6.19010  159.87980    6.25470   98.80920   98.80920    9.42860    6.25470  273.45530  273.45530  -67.65380   -8.96390    6.19010
 2700.00000    7.34350  140.62520    7.11110   82.66220   82.66220    9.17340    7.11110  311.41060  311.41060  -74.84880  -16.15890    7.34350
 2750.00000    5.33560  179.46560    5.57210  102.38200  102.38200    6.18940    5.57210  363.32100  363.32100  -65.95240   -7.26250    5.33560
 2800.00000    4.99700  198.35370    5.04150   87.37150   87.37150    6.90180    5.04150  337.71560  337.71560  -65.65710   -6.96720    4.99700
 2850.00000    5.88810  169.59500    5.89640   93.72350   93.72350    8.54660    5.89640  366.63430  366.63430  -65.93980   -7.24990    5.88810
 2900.00000    9.13660  110.61210    9.04060   83.58570   83.58570    7.15710    9.04060  434.03200  434.03200  -69.36650  -10.67660    9.13660
 2950.00000    7.36150  134.80180    7.41830   97.03420   97.03420    8.92340    7.41830  444.57060  444.57060  -66.16920   -7.47930    7.36150
 3000.00000    6.12790  153.49900    6.51470   86.69780   86.69780    5.16680    6.51470  460.86970  460.86970  -63.30560   -4.61570    6.12790
 3050.00000    5.33750  157.02040    6.36860  112.82110  112.82110    6.19270    6.36860  346.23460  346.23460  -62.93750   -4.24060    5.33750
 3100.00000    3.47040  304.15480    3.28780  125.67660  125.67660    3.47160    3.28780  427.91180  427.91180  -62.30400   -3.48880    3.47040
 3150.00000    3.02410  350.88950    2.84990   95.98250   95.98250    3.47290    2.84990  396.38250  396.38250  -61.95200   -3.01920    3.02410
 3200.00000    4.09360  236.78170    4.22330   97.82520   97.82520    3.34590    4.22330  418.27740  418.27740  -65.26500   -6.21380    4.09360
 3250.00000    4.23380  207.44310    4.82060   89.44560   89.44560    5.92350    4.82060  390.73400  390.73400  -65.09810   -5.92930    4.23380
 3300.00000    4.97370  219.28380    4.56030   87.16350   87.16350    5.95980    4.56030  354.03320  354.03320  -65.78280   -6.49640    4.97370
 3350.00000   21.21320   61.83220   16.17280   59.87920   59.87920    6.20730   16.17280  712.96350  712.96350 -113.89260  -54.48780   21.21320
 3400.00000    9.92590  180.42070    5.54260  230.97340  230.97340    5.11520    5.54260  426.72120  426.72120 -101.28640  -41.76400    9.92590
 3450.00000    6.46260  138.93910    7.19740   88.00480   88.00480    4.11530    7.19740  403.27260  403.27260  -63.60110   -3.96030    6.46260
 3500.00000    6.02970  134.30930    7.44550   77.13730   77.13730    6.84930    7.44550  376.41590  376.41590  -61.18320   -1.42480    6.02970
 3550.00000    9.77390  108.00190    9.25910   54.88160   54.88160    9.69640    9.25910  470.69160  470.69160  -78.67040  -18.79440    9.77390
 3600.00000    8.29880  134.31110    7.44540   52.15420   52.15420    7.88800    7.44540  563.38910  563.38910  -69.68620   -9.69190    8.29880
 3650.00000   30.93200   85.12230   11.74780   33.23560   33.23560    9.87160   11.74780  543.46250  543.46250  -88.55050  -28.43860   30.93200
 3700.00000    6.35850  136.09700    7.34770   67.14410   67.14410    6.62300    7.34770  370.69700  370.69700  -62.37700   -2.14670    6.35850
 3750.00000    8.84570  158.73270    6.29990   69.13500   69.13500    2.71010    6.29990  549.84080  549.84080  -63.80870   -3.46080    8.84570
