~Version ---------------------------------------------------
VERS.      2.0 : CWLS log ASCII Standard -VERSION 2.0
WRAP.       NO : One line per depth step
CREA. 08/01/17 : LAS Creation Date
~Well ------------------------------------------------------
STRT.FT                          1050.0 : START DEPTH
STOP.FT                         10150.0 : STOP DEPTH
STEP.FT                        50.00000 : STEP LENGTH
NULL.                           -999.25 : NULL VALUE
COMP.        WESTCOAST PETROLEUM CO LTD : COMPANY
WELL. WESTCOAST FINA HSOUND 10-19-61-16 : WELL
FLD .                                WC : FIELD
LOC .                                   : LOCATION
CTRY.                            CANADA : COUNTRY
SRVC.                      Schlumberger : SERVICE COMPANY
DATE.                       26-Jun-1972 : LOGDATE
PROV.                           Alberta : PROVINCE
UWI .                  100101906116W500 : UNIQUE WELL ID
SLAT.WGS84                     54.29359 : SURFACE LATITUDE
SLON.WGS84                    -116.3826 : SURFACE LONGITUDE
~Curve Information -----------------------------------------
DEPT  .FT    : Depth Curve
CALSED.IN    : CALIPER FROM BCS LOG
CALWS .IN    : CALIPER [CALSED]
CILDED.MMHO  : DEEP INDUCTION CONDUCTIVITY FROM DILL LOG
CONDWS.MMHO  : CONDUCTIVITY [1000/DRESWS]
DRESWS.OHMM  : DEEP RESISTIVITY [1000/CILDED IF ILDED<1, ILDED]
DTED  .US/F  : DELTA T FROM BCS LOG [ADJ. TO ILDED]
DTWS  .US/F  : COMPRESSIONAL SONIC [DTED]
GRSED .GAPI  : GAMMA RAY FROM BCS LOG [ADJ. TO ILDED]
GRWS  .GAPI  : GAMMA RAY [GRSED]
ILDED .OHMM  : DEEP INDUCTION RESISTIVITY FROM DILL LOG
ILMED .OHMM  : MEDIUM INDUCTION RESISTIVITY FROM DILL LOG
LL8ED .OHMM  : LATEROLOG 8 FROM DILL LOG
MCALED.IN    : MLT (MICROLOG) CALIPER FROM MCL LOG
MRESWS.OHMM  : MEDIUM RESISTIVITY [ILMED]
SPRED .MV    : SPONTANEOUS POTENTIAL FROM DILL LOG
SPWS  .MV    : SPONTANEOUS POTENTIAL [BASELINED 0 MV, SPRED]
SRESWS.OHMM  : SHALLOW RESISTIVITY [LL8ED]
~Params ----------------------------------------------------
PD  .                     GL : PERMANENT DATUM
EPD .FT                 2935 : ELEVATION PERMANENT DATUM
LMF .                     KB : LOG MEASURED FROM
DAPD.FT                   18 : FEET ABOVE PERMANENT DATUM
EKB .FT                 2953 : KELLY BUSHING
EGL .FT                 2935 : GROUND LEVEL
DATE.               06/26/72 : RUN DATE
RUN .                      1 : RUN NUMBER
DD  .FT                10200 : DEPTH DRILLER
DL  .FT                10200 : DEPTH LOGGER
BLI .FT                10194 : BOTTOM LOG INTERVAL
TLI .FT                 1040 : TOP LOG INTERVAL
CBD .FT                 1040 : CASING BOTTOM DRILLER
CBL .FT                 1040 : CASING BOTTOM LOGGER
BS  .IN                 8.75 : BIT SIZE
BSD .FT                10200 : BIT SIZE AT DEPTH
DFT .               CHEM GEL : DRILLING FLUID TYPE
DFD .                    8.9 : DRILLING FLUID DENSITY
DFV .                     90 : DRILLING FLUID VISCOSITY
DFPH.                   10.5 : DRILLING FLUID PH
DFL .                    9.6 : DRILLING FLUID LOSS
MSS .               FLOWLINE : MUD SAMPLE SOURCE
RMS .OHMM               1.97 : RESISTIVITY MUD SAMPLE
MST .DEGF                 74 : MUD SAMPLE TEMPERATURE
RMF .OHMM               1.62 : RESISTIVITY MUD FILTRATE SAMPLE
MFST.DEGF                 75 : MUD FILTRATE SAMPLE TEMPERATURE
RMC .OHMM                  2 : RESISTIVITY MUD CAKE
MCST.DEGF                 73 : MUD CAKE SAMPLE TEMPERATURE
RMB .OHMM              0.667 : RESISTIVITY MUD AT BHT
TCS .HRS                 3.5 : TIME CIRCULATED STOPPED
LUN .                   5628 : LOGGING UNIT NUMBER
LUL .                    EDM : LOGGING UNIT LOCATION
ENGI.                  LEITH : RECORDING ENGINEER
WITN.    CHAUDHRY BERTHIAUME : WITNESSED BY
CLNT.                A2DTECH : CLIENT CODE
ORIG.            2" 5" PRINT : ORIGIN OF DATA
UWI .       100101906116W500 : UNIQUE WELL ID
DICO. A2D Technologies, Inc. : DIGITIZING COMPANY
~Other -----------------------------------------------------
~ASCII -----------------------------------------------------
# ...
 7200.00000    8.76390    8.76390    -999.25   20.35330   49.13200   54.81480   54.81480   30.51670   30.51670   49.13200   42.37020   69.12760    8.82650   42.37020  -62.39470   -5.75810   69.12760
 7250.00000    8.80480    8.80480    -999.25    6.77050  147.69860   51.18910   51.18910   14.98720   14.98720  147.69860  166.48980  282.52750    8.75400  166.48980  -99.43330  -43.51040  282.52750
 7300.00000    9.00350    9.00350    -999.25   36.43980   27.44250   58.60660   58.60660   49.48980   49.48980   27.44250   25.19600   42.03630    8.97660   25.19600  -55.54980   -0.34070   42.03630
 7350.00000    8.74280    8.74280    -999.25    5.16290  193.68840   53.30790   53.30790   27.39040   27.39040  193.68840  157.87870  269.39250    8.75580  157.87870  -75.85370  -21.35840  269.39250
 7400.00000    8.77540    8.77540    -999.25   22.91900   43.63200   57.11570   57.11570   62.51030   62.51030   43.63200   39.93510   59.13220    8.87320   39.93510  -56.33870   -2.54810   59.13220
 7450.00000    8.78260    8.78260    -999.25    9.32720  107.21280   55.95900   55.95900   48.57530   48.57530  107.21280   89.96680  145.51840    8.78090   89.96680  -62.56080   -7.92440  145.51840
 7500.00000    8.77810    8.77810    -999.25   15.46520   64.66140   50.36990   50.36990  285.92410  285.92410   64.66140   48.43470  530.68090    8.77510   48.43470  -72.22170  -16.52870  530.68090
 7550.00000    8.81650    8.81650    -999.25    2.52200  396.50700   48.98210   48.98210   10.46300   10.46300  396.50700  248.84170  571.35350    8.95260  248.84170 -122.60450  -65.85490  571.35350
 7600.00000    9.05730    9.05730    -999.25    1.89180  528.59440   48.85990   48.85990   16.06100   16.06100  528.59440  421.44560 1219.12210    9.49980  421.44560 -124.14600  -66.33980 1219.12210
 7650.00000    9.32890    9.32890    -999.25    1.65990  602.45500   48.81780   48.81780    8.50670    8.50670  602.45500  351.16520  519.93990   10.21200  351.16520 -146.97590  -88.11310  519.93990
 7700.00000    9.45170    9.45170    -999.25    3.36740  296.96200   48.83810   48.83810    7.24610    7.24610  296.96200  287.36780  307.06500   11.08000  287.36780 -152.25480  -92.33540  307.06500
 7750.00000    8.93660    8.93660    -999.25    4.96830  201.27720   47.88640   47.88640    8.06520    8.06520  201.27720  164.53350  211.29700    9.30790  164.53350 -146.65400  -85.67790  211.29700
 7800.00000    9.55630    9.55630    -999.25    4.67960  213.69510   48.52750   48.52750    8.86410    8.86410  213.69510  147.82470  314.39840   11.20170  147.82470 -158.99440  -96.96170  314.39840
 7850.00000    8.25850    8.25850    -999.25   14.87160   67.24220   50.96910   50.96910    6.79640    6.79640   67.24220   36.61530  185.14900    8.82720   36.61530 -199.11220 -136.02290  185.14900
 7900.00000    9.08320    9.08320    -999.25   12.45830   80.26800   49.67310   49.67310    9.35370    9.35370   80.26800   60.55120   95.49950   10.21510   60.55120 -182.84890 -118.70300   95.49950
 7950.00000    9.72550    9.72550    -999.25    1.24920  800.52980   48.61790   48.61790   12.86990   12.86990  800.52980  404.46340  471.75240   11.65470  404.46340 -192.73800 -127.53550  471.75240
 8000.00000    9.25580    9.25580    -999.25    3.04490  328.41340   48.84230   48.84230    8.87600    8.87600  328.41340  270.48930  341.00360   10.10760  270.48930 -181.99960 -115.74050  341.00360
 8050.00000    9.22320    9.22320    -999.25    3.37230  296.53170   48.20100   48.20100    8.27810    8.27810  296.53170  600.73630  280.09260   10.31270  600.73630 -182.42750 -115.11180  280.09260
 8100.00000    9.18780    9.18780    -999.25    0.70100 1426.62550   49.59150   49.59150   10.48530   10.48530 1426.62550 1544.80460  463.62850   10.08490 1544.80460 -199.40120 -131.02890  463.62850
 8150.00000    9.19430    9.19430    -999.25    0.69890 1430.85940   48.48130   48.48130    9.41570    9.41570 1430.85940 1249.45390  328.00730    9.97480 1249.45390 -190.39070 -120.96180  328.00730
 8200.00000    8.93740    8.93740    -999.25    8.88790  112.51260   48.00850   48.00850   23.23700   23.23700  112.51260   92.80480  106.13050   10.45610   92.80480 -184.80370 -114.31810  106.13050
 8250.00000    8.80820    8.80820    -999.25   97.26590   10.28110   58.87050   58.87050   63.23220   63.23220   10.28110   12.60240   20.05180    8.78560   12.60240 -150.18210  -78.63990   20.05180
 8300.00000    8.76030    8.76030    -999.25   15.23350   65.64460   54.84870   54.84870   28.40800   28.40800   65.64460   58.58420   94.12840    8.89800   58.58420 -165.70120  -93.10240   94.12840
 8350.00000    8.78900    8.78900    -999.25    4.02150  248.66400   49.23230   49.23230    9.06410    9.06410  248.66400  234.23690  420.60800    8.15180  234.23690 -187.44880 -113.79340  420.60800
 8400.00000    9.02700    9.02700    -999.25    2.16120  462.71570   48.11790   48.11790   15.68880   15.68880  462.71570  549.26580  217.26570   10.41360  549.26580 -158.77040  -84.05830  217.26570
 8450.00000    8.78110    8.78110    -999.25   31.35250   31.89540   51.29850   51.29850   26.97240   26.97240   31.89540   41.82870   36.09590    9.05570   41.82870 -127.48360  -51.71490   36.09590
 8500.00000    8.87850    8.87850    -999.25    2.31990  431.04480   51.45190   51.45190   27.09360   27.09360  431.04480  500.48540  250.10220    8.83140  500.48540  -81.06680   -4.24160  250.10220
 8550.00000    8.63910    8.63910    -999.25    0.69890 1430.74000   50.32270   50.32270   21.26230   21.26230 1430.74000 1579.76310 1172.75790    8.85860 1579.76310  -92.41830  -17.28340 1172.75790
 8600.00000    8.77770    8.77770    -999.25    0.76690 1303.87820   56.13590   56.13590   22.26860   22.26860 1303.87820 1538.50100  435.76100    8.68840 1538.50100  -99.21220  -27.06780  435.76100
 8650.00000    8.61960    8.61960    -999.25    1.67040  598.66780   51.89650   51.89650   19.90880   19.90880  598.66780 1028.84880  288.32610    8.63390 1028.84880  -88.83400  -19.68020  288.32610
 8700.00000    8.74740    8.74740    -999.25   27.04870   36.97040   55.64230   55.64230   33.61270   33.61270   36.97040   30.78560   38.65540    8.73760   30.78560  -71.44540   -5.28210   38.65540
 8750.00000    9.00340    9.00340    -999.25  115.68450    8.64420   63.72120   63.72120   57.02780   57.02780    8.64420    7.93830   11.66480    9.16590    7.93830  -70.53700   -7.01600   11.66480
 8800.00000    8.88890    8.88890    -999.25   57.62690   17.35300   59.58610   59.58610   43.73780   43.73780   17.35300   15.58510   19.59400    8.91660   15.58510  -73.75230  -12.80230   19.59400
 8850.00000    9.03820    9.03820    -999.25  116.52430    8.58190   70.00710   70.00710   64.10590   64.10590    8.58190    7.87020   11.23610    8.89630    7.87020  -75.97410  -17.59510   11.23610
 8900.00000    8.95010    8.95010    -999.25  114.92140    8.70160   68.37890   68.37890   58.31070   58.31070    8.70160    7.86220   11.20240    9.14800    7.86220  -60.21480   -4.40680   11.20240
 8950.00000    9.27700    9.27700    -999.25  103.55290    9.65690   74.38700   74.38700   87.04220   87.04220    9.65690    9.11170   13.18220    9.37200    9.11170  -65.50770  -12.27070   13.18220
 9000.00000    8.95180    8.95180    -999.25   40.81180   24.50270   66.98550   66.98550   69.81480   69.81480   24.50270   21.86150   26.94170    9.10710   21.86150  -58.53010   -7.86410   26.94170
 9050.00000    9.50920    9.50920    -999.25   86.74230   11.52840   64.23370   64.23370   57.61970   57.61970   11.52840   10.35920   13.74990    9.66410   10.35920  -60.95590  -11.80730   13.74990
 9100.00000   10.00610   10.00610    -999.25  154.80830    6.45960   73.65080   73.65080   76.69970   76.69970    6.45960    5.95290    9.69760   10.73970    5.95290  -71.54970  -23.62120    9.69760
 9150.00000    9.04930    9.04930    -999.25   53.29160   18.76470   57.77140   57.77140   54.19400   54.19400   18.76470   16.68940   20.52480    9.14560   16.68940  -58.20750  -11.49920   20.52480
 9200.00000    9.09220    9.09220    -999.25   92.93510   10.76020   67.04720   67.04720   77.58780   77.58780   10.76020    9.62480   14.44510    9.21020    9.62480  -57.25960  -11.77150   14.44510
