~Version ---------------------------------------------------
VERS.      2.0 : CWLS log ASCII Standard -VERSION 2.0
WRAP.       NO : One line per depth step
CREA. 11/10/17 : LAS Creation Date
~Well ------------------------------------------------------
STRT.FT                               1200.0 : START DEPTH
STOP.FT                              13150.0 : STOP DEPTH
STEP.FT                             50.00000 : STEP LENGTH
NULL.                                -999.25 : NULL VALUE
COMP.         VINTAGE PETROLEUM CANADA, INC. : COMPANY
WELL. GENESIS ET AL MARLBORO 14-17-55-19 #14 : WELL
FLD .                                        : FIELD
LOC .                                        : LOCATION
CTRY.                                 CANADA : COUNTRY
SRVC.                           Schlumberger : SERVICE COMPANY
DATE.                            01-Sep-1970 : LOGDATE
PROV.                                Alberta : PROVINCE
UWI .                       100141705519W500 : UNIQUE WELL ID
SLAT.WGS84                          53.75669 : SURFACE LATITUDE
SLON.WGS84                         -116.7889 : SURFACE LONGITUDE
~Curve Information -----------------------------------------
DEPT  .FT    : Depth Curve
CALSED.IN    : CALIPER FROM SONIC LOG [ADJ. TO RESISTIVITY LOG]
CALWS .IN    : CALIPER [CALSED]
CONDWS.MMHO  : CONDUCTIVITY [1000/DRESWS]
DRESWS.OHMM  : DEEP RESISTIVITY [ILDED]
DTED  .US/F  : DELTA T FROM SONIC LOG [ADJ. TO RESISTIVITY LOG]
DTWS  .US/F  : COMPRESSIONAL SONIC [DTED]
GRSED .GAPI  : GAMMA RAY FROM SONIC [ADJ. TO RESISTIVITY LOG]
GRWS  .GAPI  : GAMMA RAY [GRSED] CSG < 1306'
ILDED .OHMM  : DEEP INDUCTION FROM RESISTIVITY LOG
ILMED .OHMM  : MEDIUM INDUCTION FROM RESISTIVITY LOG
LL8ED .OHMM  : LATEROLOG 8' FROM RESISTIVITY LOG
MRESWS.OHMM  : MEDIUM RESISTIVITY [ILMED]
SPRED .MV    : SPONTANEOUS POTENTIAL FROM RESISTIVITY LOG
SPWS  .MV    : SPONTANEOUS POTENTIAL [BASELINE 0 MV, SPRED]
SRESWS.OHMM  : SHALLOW RESISTIVITY [LL8ED]
~Params ----------------------------------------------------
PD  .                     GL : PERMANENT DATUM
EPD .FT                 3735 : ELEVATION PERMANENT DATUM
LMF .                     KB : LOG MEASURED FROM
DAPD.FT                   17 : FEET ABOVE PERMANENT DATUM
EKB .FT                 3752 : KELLY BUSHING
EGL .FT                 3735 : GROUND LEVEL
DATE.               09/01/70 : RUN DATE
RUN .                      1 : RUN NUMBER
DD  .FT                13157 : DEPTH DRILLER
DL  .FT                13154 : DEPTH LOGGER
BLI .FT                13148 : BOTTOM LOG INTERVAL
TLI .FT                 1306 : TOP LOG INTERVAL
CBD .FT                 1308 : CASING BOTTOM DRILLER
CBL .FT                 1306 : CASING BOTTOM LOGGER
BS  .IN                 8.75 : BIT SIZE
BSD .FT                13157 : BIT SIZE AT DEPTH
DFT .                    FGM : DRILLING FLUID TYPE
DFD .                    9.2 : DRILLING FLUID DENSITY
DFV .                    183 : DRILLING FLUID VISCOSITY
DFPH.                     10 : DRILLING FLUID PH
DFL .                   11.2 : DRILLING FLUID LOSS
MSS .               FLOWLINE : MUD SAMPLE SOURCE
RMS .OHMM               0.93 : RESISTIVITY MUD SAMPLE
MST .DEGF                 82 : MUD SAMPLE TEMPERATURE
RMF .OHMM               0.72 : RESISTIVITY MUD FILTRATE SAMPLE
MFST.DEGF                 82 : MUD FILTRATE SAMPLE TEMPERATURE
RMC .OHMM               1.13 : RESISTIVITY MUD CAKE
MCST.DEGF                 82 : MUD CAKE SAMPLE TEMPERATURE
RMB .OHMM               0.35 : RESISTIVITY MUD AT BHT
TCS .HRS                 4.5 : TIME CIRCULATED STOPPED
LUN .                   7502 : LOGGING UNIT NUMBER
LUL .                    EDM : LOGGING UNIT LOCATION
ENGI.                  PLUME : RECORDING ENGINEER
WITN.                 LITTLE : WITNESSED BY
CLNT.                A2DTECH : CLIENT CODE
ORIG.            2" 5" PRINT : ORIGIN OF DATA
UWI .       100141705519W500 : UNIQUE WELL ID
DICO. A2D Technologies, Inc. : DIGITIZING COMPANY
~Other -----------------------------------------------------
~ASCII -----------------------------------------------------
# ...
 10400.00000    8.55060    8.55060    3.94020  253.81820   56.81880   56.81880   48.66060   48.66060  253.81820   83.17010  319.92080   83.17010  -70.25020   -8.10800  319.92080
 10450.00000    8.96110    8.96110    1.18430  844.34810   53.28840   53.28840    8.35830    8.35830  844.34810   84.11750  864.39690   84.11750  -83.35340  -21.07770  864.39690
 10500.00000    9.06230    9.06230    0.71900 1390.89110   49.64950   49.64950    9.34890    9.34890 1390.89110  368.05980  736.15840  368.05980 -106.78330  -44.37500  736.15840
 10550.00000    9.14920    9.14920    0.73780 1355.49970   48.47960   48.47960   11.75520   11.75520 1355.49970   90.58810  538.88900   90.58810 -136.22050  -73.67960  538.88900
 10600.00000    9.28850    9.28850    0.67450 1482.50760   47.25480   47.25480    5.24490    5.24490 1482.50760  291.92130  211.93060  291.92130 -155.05600  -92.38160  211.93060
 10650.00000    9.03150    9.03150    1.46890  683.98530   49.24960   49.24960    7.02650    7.02650  683.98530  205.98330  224.48770  205.98330 -157.05080  -94.24370  224.48770
 10700.00000    9.02020    9.02020    0.70590 1416.58370   48.74410   48.74410    8.99320    8.99320 1416.58370  147.36340  331.47320  147.36340 -158.79690  -95.85630  331.47320
 10750.00000    9.13110    9.13110    1.13170  883.59460   49.30150   49.30150    9.05420    9.05420  883.59460   55.83860  163.47290   55.83860 -164.79750 -101.72430  163.47290
 10800.00000    9.11250    9.11250   14.21650   70.67050   50.51450   50.51450    6.47730    6.47730   70.67050   42.07970  112.01680   42.07970 -170.61300 -107.40720  112.01680
 10850.00000    9.23360    9.23360    1.26190  792.43330   48.96910   48.96910    7.95940    7.95940  792.43330  586.17440  384.68030  586.17440 -170.55130 -107.21200  384.68030
 10900.00000    9.25700    9.25700    0.72920 1371.47050   50.89950   50.89950   10.83660   10.83660 1371.47050  501.12520  202.91150  501.12520 -163.94370 -100.47170  202.91150
 10950.00000    9.27290    9.27290    1.20490  829.91300   53.33640   53.33640   10.07680   10.07680  829.91300  290.95250  226.75740  290.95250 -159.90060  -96.29510  226.75740
 11000.00000    9.16080    9.16080    1.94560  513.99000   50.45900   50.45900    8.90450    8.90450  513.99000   74.21350  164.26240   74.21350 -160.80410  -97.06600  164.26240
 11050.00000    9.14700    9.14700    1.57790  633.76620   49.88150   49.88150    5.90090    5.90090  633.76620  444.50730  203.64260  444.50730 -161.32280  -97.45210  203.64260
 11100.00000    8.73710    8.73710    9.52370  105.00070   48.71360   48.71360    6.24450    6.24450  105.00070  280.71060  139.01750  280.71060 -155.54720  -91.54300  139.01750
 11150.00000    9.08870    9.08870    9.69440  103.20750   49.59210   49.59210    6.18390    6.18390  103.20750  123.08200  112.84160  123.08200 -156.72940  -92.59260  112.84160
 11200.00000    9.24640    9.24640    0.66490 1503.95590   50.25130   50.25130    8.30970    8.30970 1503.95590  517.67530  474.19160  517.67530 -141.66340  -77.39310  474.19160
 11250.00000    8.59960    8.59960   16.07380   62.21320   52.65320   52.65320   32.39570   32.39570   62.21320   44.61470   83.41940   44.61470 -103.99400  -39.59100   83.41940
 11300.00000    8.79280    8.79280    0.73260 1364.92790   49.31320   49.31320   34.64250   34.64250 1364.92790 1247.75430  215.14270 1247.75430 -123.86300  -59.32740  215.14270
 11350.00000    8.42490    8.42490    6.22430  160.66050   48.50590   48.50590    9.87620    9.87620  160.66050   14.29270   20.96270   14.29270 -178.26800 -113.59890   20.96270
 11400.00000    9.33120    9.33120   11.89000   84.10730   60.48860   60.48860   11.21890   11.21890   84.10730  184.67490   82.08120  184.67490 -151.74890  -86.94720   82.08120
 11450.00000    8.92780    8.92780   18.28020   54.70390   52.18830   52.18830   15.83190   15.83190   54.70390  211.04700   68.49060  211.04700 -145.58150  -80.64630   68.49060
 11500.00000    8.48920    8.48920    8.25960  121.07150   49.53370   49.53370   11.95440   11.95440  121.07150   86.18960  243.46910   86.18960 -183.35730 -118.28940  243.46910
 11550.00000    8.50540    8.50540    3.27190  309.97490   47.95450   47.95450    5.86380    5.86380  309.97490   99.72030  585.97520   99.72030 -188.81380 -123.61330  585.97520
 11600.00000    8.77010    8.77010    8.88430  112.55870   48.82050   48.82050    8.40180    8.40180  112.55870  141.16170  376.44620  141.16170 -162.03720  -96.70320  376.44620
 11650.00000    8.57240    8.57240   47.39990   21.29720   51.19590   51.19590   28.53030   28.53030   21.29720   24.53580   35.86420   24.53580 -126.45590  -60.98930   35.86420
 11700.00000    8.58550    8.58550   58.32300   17.14590   62.56120   62.56120   83.24050   83.24050   17.14590   16.19000   26.26840   16.19000  -68.62070   -2.78880   26.26840
 11750.00000    8.76140    8.76140   60.13010   16.63060   52.70560   52.70560   31.64810   31.64810   16.63060   15.65780   20.37370   15.65780 -132.96960  -66.30030   20.37370
 11800.00000    8.61170    8.61170    5.42680  186.96680   53.10540   53.10540    7.12910    7.12910  186.96680  773.90230  145.93500  773.90230 -192.30000 -124.79340  145.93500
 11850.00000    8.43670    8.43670    0.74300 1345.87720   47.57290   47.57290   19.76730   19.76730 1345.87720  244.86130  313.50810  244.86130 -182.96800 -114.61850  313.50810
 11900.00000    8.38820    8.38820    3.11290  323.98510   50.87030   50.87030    7.52530    7.52530  323.98510  264.45390  166.20710  264.45390 -184.04640 -114.85960  166.20710
 11950.00000    8.64580    8.64580    1.26320  791.64890   48.66400   48.66400   11.44500   11.44500  791.64890 1364.87980  680.71950 1364.87980 -187.28130 -117.25160  680.71950
 12000.00000    8.64010    8.64010    6.88380  145.26850   52.46750   52.46750    6.62450    6.62450  145.26850  757.91800  238.31390  757.91800 -182.57890 -111.71190  238.31390
 12050.00000    8.50190    8.50190    7.90310  126.59040   52.54910   52.54910    7.14710    7.14710  126.59040  755.93530  202.61930  755.93530 -170.91530  -99.21090  202.61930
 12100.00000    8.64450    8.64450    0.69760 1433.44920   48.75600   48.75600   11.65550   11.65550 1433.44920  386.06240  972.92110  386.06240 -169.14200  -96.59480  972.92110
 12150.00000    8.72970    8.72970    2.20190  454.98330   46.78780   46.78780    6.05790    6.05790  454.98330 1438.02690  293.17670 1438.02690 -167.10820  -93.72370  293.17670
 12200.00000    8.72230    8.72230   10.47290   95.48480   47.84190   47.84190    5.14060    5.14060   95.48480  103.08730  100.80030  103.08730 -180.90320 -106.67580  100.80030
 12250.00000    8.99240    8.99240    0.70650 1415.51560   46.42230   46.42230    4.01400    4.01400 1415.51560 1238.52500 1254.30650 1238.52500 -173.45720  -98.39250 1254.30650
 12300.00000    8.68050    8.68050    4.31240  233.20890   48.85830   48.85830    6.87350    6.87350  233.20890  135.01700  232.52580  135.01700 -163.40010  -87.49800  232.52580
 12350.00000    8.52710    8.52710   34.82850   28.71210   54.37040   54.37040   12.05190   12.05190   28.71210   23.33880   48.18330   23.33880 -157.03810  -80.29320   48.18330
 12400.00000    8.50320    8.50320    1.02510  990.78060   46.93050   46.93050    6.25070    6.25070  990.78060  832.28940 1345.19260  832.28940 -165.01680  -87.43450 1345.19260
 12450.00000    9.05120    9.05120    2.14810  465.51780   46.41970   46.41970   11.37300   11.37300  465.51780  338.74550 1504.77690  338.74550 -175.79110  -97.36600 1504.77690
 12500.00000    8.50940    8.50940    8.19100  122.08510   51.42160   51.42160    8.70960    8.70960  122.08510   76.09350  140.24270   76.09350 -196.89800 -117.63550  140.24270
 12550.00000    8.58780    8.58780    3.76510  269.51430   52.34890   52.34890    7.75440    7.75440  269.51430 1244.50360  627.63980 1244.50360 -188.52090 -108.42110  627.63980
 12600.00000    8.52600    8.52600    5.25950  190.13290   48.50590   48.50590    5.24190    5.24190  190.13290  190.16780  166.93830  190.16780 -181.71750 -100.77480  166.93830
