~Version ---------------------------------------------------
VERS.      2.0 : CWLS log ASCII Standard -VERSION 2.0
WRAP.       NO : One line per depth step
CREA. 10/27/17 : LAS Creation Date
~Well ------------------------------------------------------
STRT.FT                          950.0 : START DEPTH
STOP.FT                         9950.0 : STOP DEPTH
STEP.FT                       50.00000 : STEP LENGTH
NULL.                          -999.25 : NULL VALUE
COMP. AMOCO CANADA PETROLEUM CO., LTD. : COMPANY
WELL.  AMOCO HBOG WINDFALL 16-29-61-16 : WELL
FLD .                                  : FIELD
LOC .                                  : LOCATION
CTRY.                           CANADA : COUNTRY
SRVC.                     Schlumberger : SERVICE COMPANY
DATE.                      22-Dec-1976 : LOGDATE
PROV.                          Alberta : PROVINCE
UWI .                 100162906116W500 : UNIQUE WELL ID
SLAT.WGS84                    54.30881 : SURFACE LATITUDE
SLON.WGS84                   -116.3532 : SURFACE LONGITUDE
~Curve Information -----------------------------------------
DEPT    .FT    : Depth Curve
CALDED  .IN    : CALIPER FROM DENSITY LOG [ADJ. TO RESISTIVITY LOG]
CALSED  .IN    : CALIPER FROM SONIC LOG [ADJ. TO RESISTIVITY LOG]
CALWS   .IN    : CALIPER [CALDED]
CONDWS  .MMHO  : CONDUCTIVITY [1000/DRESWS]
DCORWS  .G/C3  : DENSITY CORRECTION [DRHOED]
DENWS   .G/C3  : FORMATION BULK DENSITY [RHOBED]
DPHILSED.V/V   : DENSITY POROSITY LIMESTONE [M=2.71, F=1.00] FROM DENSITY LOG [ADJ. TO RESISTIVITY LOG]
DPHISSED.V/V   : DENSITY POROSITY SANDSTONE [M=2.65, F=1.00] FROM DENSITY LOG [ADJ. TO RESISTIVITY LOG]
DPOLSWS .V/V   : DENSITY POROSITY LIMESTONE [CALC. FROM DENWS M=2.71, F=1.00]
DRESWS  .OHMM  : DEEP RESISTIVITY [ILDED]
DRHOED  .G/C3  : DENSITY CORRECTION FROM DENSITY LOG [ADJ. TO RESISTIVITY LOG/DPHISSED/DPHILSED]
DTED    .US/F  : DELTA TIME FROM SONIC LOG [ADJ. TO RESISTIVITY LOG]
DTWS    .US/F  : COMPRESSIONAL SONIC [DTED]
GRDED   .GAPI  : GAMMA RAY FROM DENSITY LOG [ADJ. TO RESISTIVITY LOG]
GRSED   .GAPI  : GAMMA RAY FROM SONIC LOG [ADJ. TO RESISTIVITY LOG]
GRWS    .GAPI  : GAMMA RAY [GRSED]
ILDED   .OHMM  : DEEP INDUCTION FROM RESISTIVITY LOG
ILMED   .OHMM  : MEDIUM INDUCTION FROM RESISTIVITY LOG
LL8ED   .OHMM  : 8 INCH LATEROLOG FROM RESISTIVITY LOG
MRESWS  .OHMM  : MEDIUM RESISTIVITY [ILMED]
NPHILSED.V/V   : NEUTRON POROSITY LIMESTONE FROM DENSITY LOG [ADJ. TO RESISTIVITY LOG]
NPHISSED.V/V   : NEUTRON POROSITY SANDSTONE FROM DENSITY LOG [ADJ. TO RESISTIVITY LOG]
NPOLSWS .V/V   : NEUTRON POROSITY LIMESTONE [NPHISSED MATRIX CONVERSION FOR LIMESTONE, SPL. TO NPHILSED @ 6250']
RHOBED  .G/C3  : BULK DENSITY FROM DENSITY LOG [ADJ. TO RESISTIVITY LOG/DPHISSED/DPHILSED]
SPRED   .MV    : SPONTANEOUS POTENTIAL FROM RESISTIVITY LOG
SPWS    .MV    : SPONTANEOUS POTENTIAL [BASELINE 0 MV, SPRED]
SRESWS  .OHMM  : SHALLOW RESISTIVITY [LL8ED]
~Params ----------------------------------------------------
PD  .                     GL : PERMANENT DATUM
EPD .FT                 2851 : ELEVATION PERMANENT DATUM
LMF .                     KB : LOG MEASURED FROM
DAPD.FT                   14 : FEET ABOVE PERMANENT DATUM
DMF .                     KB : DRILLING MEASURED FROM
EKB .FT                 2875 : KELLY BUSHING
EGL .FT                 2861 : GROUND LEVEL
DATE.               12/22/76 : RUN DATE
RUN .                      1 : RUN NUMBER
DD  .FT                 9966 : DEPTH DRILLER
DL  .FT                 9964 : DEPTH LOGGER
BLI .FT                 9958 : BOTTOM LOG INTERVAL
TLI .FT                 1029 : TOP LOG INTERVAL
CBD .FT                 1030 : CASING BOTTOM DRILLER
CBL .FT                 1029 : CASING BOTTOM LOGGER
BS  .IN                 8.75 : BIT SIZE
BSD .FT                 9966 : BIT SIZE AT DEPTH
DFT .               GEL CHEM : DRILLING FLUID TYPE
DFD .                    9.3 : DRILLING FLUID DENSITY
DFV .                     70 : DRILLING FLUID VISCOSITY
DFPH.                      9 : DRILLING FLUID PH
DFL .                      9 : DRILLING FLUID LOSS
MSS .             CIRCULATED : MUD SAMPLE SOURCE
RMF .OHMM               2.16 : RESISTIVITY MUD FILTRATE SAMPLE
MFST.DEGF                 74 : MUD FILTRATE SAMPLE TEMPERATURE
RMC .OHMM               2.83 : RESISTIVITY MUD CAKE
MCST.DEGF                 68 : MUD CAKE SAMPLE TEMPERATURE
LUN .                   7772 : LOGGING UNIT NUMBER
LUL .                    EDM : LOGGING UNIT LOCATION
ENGI.                   BIGG : RECORDING ENGINEER
WITN.                  LENTZ : WITNESSED BY
CLNT.                A2DTECH : CLIENT CODE
ORIG.            2" 5" PRINT : ORIGIN OF DATA
UWI .       100162906116W500 : UNIQUE WELL ID
DICO. A2D Technologies, Inc. : DIGITIZING COMPANY
~Other -----------------------------------------------------
DIL-LL-CNFD-BHC LOG RUN
~ASCII -----------------------------------------------------
# ...
 4850.00000   10.58890   12.84840   10.58890  150.50860    0.24610    2.47640    -999.25    0.06670    0.13660    6.64420    0.24610   83.11750   83.11750  139.83090   92.41380   92.41380    6.64420    6.94510    7.93420    6.94510    -999.25    0.33470    0.29090    2.47640  -39.90440   -4.65880    7.93420
 4900.00000   10.95640   13.20270   10.95640  201.23560    0.23320    2.44660    -999.25    0.12130    0.15400    4.96930    0.23320   89.45180   89.45180  134.72080   91.59390   91.59390    4.96930    5.18810    6.51860    5.18810    -999.25    0.30960    0.26570    2.44660  -39.11400   -4.22710    6.51860
 4950.00000   11.31720   12.92310   11.31720  187.10000    0.21610    2.47300    -999.25    0.10210    0.13860    5.34480    0.21610   87.54860   87.54860  152.17610  108.25060  108.25060    5.34480    5.58040    7.25170    5.58040    -999.25    0.36800    0.32450    2.47300  -37.15610   -2.63150    7.25170
 5000.00000   10.78240   13.18210   10.78240  202.23260    0.00470    2.40190    -999.25    0.14940    0.18020    4.94480    0.00470  100.46320  100.46320  225.41180  163.27170  163.27170    4.94480    5.52010    8.36220    5.52010    -999.25    0.36980    0.32640    2.40190  -37.08650   -2.92070    8.36220
 5050.00000   11.19140   12.18720   11.19140  335.75070    0.17420    2.30030    -999.25    0.21010    0.23960    2.97840    0.17420   96.34060   96.34060  123.63520   89.91060   89.91060    2.97840    3.10950    4.84140    3.10950    -999.25    0.42570    0.38340    2.30030  -35.89220   -2.08690    4.84140
 5100.00000   10.73610   12.37560   10.73610  244.59280    0.21980    2.39910    -999.25    0.15060    0.18180    4.08850    0.21980   87.43240   87.43240  129.44750   91.34720   91.34720    4.08850    4.26920    5.42410    4.26920    -999.25    0.35590    0.31230    2.39910  -35.60760   -2.17230    5.42410
 5150.00000   10.04890   12.07490   10.04890  157.04500    0.13100    2.45190    -999.25    0.10870    0.15090    6.36760    0.13100   82.59800   82.59800  128.52380   86.95210   86.95210    6.36760    7.34900   10.44580    7.34900    -999.25    0.23400    0.19020    2.45190  -35.88350   -4.33810   10.44580
 5200.00000   10.20590   12.68840   10.20590   99.64150    0.06690    2.56330    -999.25    0.04380    0.08580   10.03600    0.06690   70.92640   70.92640   75.71630   48.66760   48.66760   10.03600   11.79480   18.46990   11.79480    -999.25    0.15000    0.10740    2.56330  -67.88550  -38.24910   18.46990
 5250.00000   10.92810   13.31940   10.92810  208.57230    0.15630    2.39030    -999.25    0.15930    0.18700    4.79450    0.15630   82.55840   82.55840   95.29950   64.13020   64.13020    4.79450    4.73790    5.64790    4.73790    -999.25    0.35660    0.31300    2.39030  -33.97840   -6.23180    5.64790
 5300.00000   10.45010   12.67370   10.45010  101.74080    0.01670    2.60980    -999.25    0.02390    0.05860    9.82890    0.01670   71.23840   71.23840   67.79550   45.02090   45.02090    9.82890   10.66830   11.54880   10.66830    -999.25    0.22640    0.18270    2.60980  -38.60890  -12.76180   11.54880
 5350.00000   10.07940   12.62950   10.07940  111.59560    0.04960    2.59140    -999.25    0.03230    0.06940    8.97380    0.04960   71.04370   71.04370   85.40040   55.74970   55.74970    8.97380   10.03800   13.77400   10.03800    -999.25    0.22550    0.18180    2.59140  -37.76480  -13.82660   13.77400
 5400.00000   10.67280   12.79530   10.67280  111.35730    0.01580    2.50160    -999.25    0.08570    0.12190    8.98010    0.01580   76.82920   76.82920   83.06300   53.46970   53.46970    8.98010    9.23480   12.88800    9.23480    -999.25    0.24340    0.19950    2.50160  -51.34730  -29.29900   12.88800
 5450.00000   12.33460   13.57760   12.33460  133.98630    0.22460    2.49550    -999.25    0.09610    0.12540    7.46340    0.22460   73.49290   73.49290  105.53410   70.06020   70.06020    7.46340    7.87060    8.77430    7.87060    -999.25    0.29760    0.25370    2.49550  -33.13470  -12.99530    8.77430
 5500.00000   10.13410   14.12470   10.13410  144.79530    0.12360    2.64180    -999.25    0.01550    0.03990    6.90630    0.12360   76.08380   76.08380   99.26810   67.09940   67.09940    6.90630    7.25610    7.03150    7.25610    -999.25    0.33400    0.29020    2.64180  -32.34650  -14.09700    7.03150
 5550.00000   10.38350   12.31580   10.38350  127.82980    0.01820    2.51910    -999.25    0.07460    0.11160    7.82290    0.01820   78.91080   78.91080   95.05920   71.25790   71.25790    7.82290    8.67280   19.02970    8.67280    -999.25    0.28090    0.23690    2.51910  -42.93000  -26.57990   19.02970
 5600.00000    9.97530   12.11740    9.97530   80.65200    0.16010    2.22650    -999.25    0.25780    0.28280   12.39890    0.16010   93.33980   93.33980  117.15690   78.34830   78.34830   12.39890   14.10080   17.61760   14.10080    -999.25    0.42050    0.37810    2.22650  -20.66450   -6.22330   17.61760
 5650.00000   10.54490   13.06960   10.54490  102.13040    0.03710    2.57430    -999.25    0.04300    0.07940    9.79140    0.03710   70.91840   70.91840   79.33960   55.01070   55.01070    9.79140   10.71810   12.62320   10.71810    -999.25    0.19990    0.15650    2.57430  -28.87320  -16.19430   12.62320
 5700.00000   10.76570   13.53640   10.76570  121.88380    0.05020    2.46570    -999.25    0.11170    0.14290    8.20490    0.05020   87.93830   87.93830   99.56460   66.64810   66.64810    8.20490    9.74710   15.10360    9.74710    -999.25    0.35260    0.30900    2.46570  -19.95120   -8.86050   15.10360
 5750.00000   10.38010   12.51390   10.38010  154.53080    0.03140    2.53920    -999.25    0.06480    0.09990    6.47120    0.03140   75.15590   75.15590   91.18060   61.01260   61.01260    6.47120    7.51260    9.08770    7.51260    -999.25    0.26010    0.21610    2.53920  -29.96160  -20.44340    9.08770
 5800.00000   10.09750   12.38320   10.09750  102.60510    0.03290    2.57690    -999.25    0.03960    0.07780    9.74610    0.03290   74.75740   74.75740  109.97700   76.04980   76.04980    9.74610   10.51630   12.70090   10.51630    -999.25    0.24380    0.19990    2.57690  -12.89340   -4.95560   12.70090
 5850.00000   11.92220   13.30120   11.92220  271.14000    0.11500    2.37490    -999.25    0.16720    0.19600    3.68820    0.11500   87.30070   87.30070  114.96330   77.13430   77.13430    3.68820    3.44360    4.47370    3.44360    -999.25    0.40340    0.36060    2.37490  -13.24760   -5.60560    4.47370
 5900.00000   10.77650   12.88380   10.77650   85.72140    0.07370    2.64110    -999.25   -0.00590    0.04030   11.66570    0.07370   69.96530   69.96530   91.15150   62.40280   62.40280   11.66570   13.49090   22.79040   13.49090    -999.25    0.19610    0.15270    2.64110  -15.00270   -7.25220   22.79040
 5950.00000   10.84780   12.80640   10.84780   78.76670    0.04290    2.57390    -999.25    0.03830    0.07960   12.72290    0.04290   68.77160   68.77160   93.53150   61.93780   61.93780   12.72290   14.61680   25.41940   14.61680    -999.25    0.17540    0.13240    2.57390  -23.49130  -15.63120   25.41940
 6000.00000    9.29930   12.13370    9.29930   75.90250    0.06480    2.41260    -999.25    0.14150    0.17390   13.17480    0.06480   76.43690   76.43690   41.15890   22.80230   22.80230   13.17480   17.31850   32.55060   17.31850    -999.25    0.19460    0.15120    2.41260  -74.09000  -66.12140   32.55060
 6050.00000   11.15370   12.34650   11.15370  105.60110    0.20540    2.50560    -999.25    0.08850    0.11950    9.46960    0.20540   77.73170   77.73170   67.52570   43.95060   43.95060    9.46960   10.53810   21.62730   10.53810    -999.25    0.21500    0.17140    2.50560  -63.47930  -55.40160   21.62730
 6100.00000   13.02380   14.92560   13.02380  216.84450    0.22280    2.16370    -999.25    0.29180    0.31940    4.61160    0.22280   84.25070   84.25070  129.59910   89.27910   89.27910    4.61160    4.81480    6.15920    4.81480    -999.25    0.41270    0.37000    2.16370  -19.14360  -10.95630    6.15920
