~Version ---------------------------------------------------
VERS.      2.0 : CWLS log ASCII Standard -VERSION 2.0
WRAP.       NO : One line per depth step
CREA. 11/22/17 : LAS Creation Date
~Well ------------------------------------------------------
STRT.FT                         900.0 : START DEPTH
STOP.FT                        8350.0 : STOP DEPTH
STEP.FT                      50.00000 : STEP LENGTH
NULL.                         -999.25 : NULL VALUE
COMP.         QUINTANA EXPLORATION CO : COMPANY
WELL. QUINTANA ET AL SNIPE 6-23-72-18 : WELL
FLD .                                 : FIELD
LOC .                                 : LOCATION
CTRY.                          CANADA : COUNTRY
SRVC.          Schlumberger of Canada : SERVICE COMPANY
DATE.                     22-Mar-1977 : LOGDATE
PROV.                         Alberta : PROVINCE
UWI .                100062307218W500 : UNIQUE WELL ID
SLAT.WGS84                   55.24794 : SURFACE LATITUDE
SLON.WGS84                  -116.6597 : SURFACE LONGITUDE
~Curve Information -----------------------------------------
DEPT    .FT    : Depth Curve
CALDED  .IN    : CALIPER FROM DENSITY LOG
CALSED  .IN    : CALIPER FROM SONIC LOG
CALWS   .IN    : CALIPER [CALSED]
CONDWS  .MMHO  : CONDUCTIVITY [1000/DRESWS]
DCORWS  .G/C3  : DENSITY CORRECTION [DRHOED]
DENWS   .G/C3  : FORMATION BULK DENSITY [CALC FROM DPOLSWS, M=2.71, F=1.00]
DPHILSED.V/V   : DENSITY POROSITY LIMESTONE [M=2.71, F=1.00] FROM DENSITY LOG
DPHISSED.V/V   : DENSITY POROSITY SANDSTONE [M=2.65, F=1.00] FROM DENSITY LOG
DPOLSWS .V/V   : DENSITY POROSITY LIMESTONE [DPHISSED CONVERTED TO LS, SPL TO DPHILSED @1274M & SPL TO CALC FROM RHOBED, SEE the Other Information]
DRESWS  .OHMM  : DEEP RESISTIVITY [ILDED]
DRHOED  .G/C3  : DENSITY CORRECTION FROM DENSITY LOG
DTED    .US/F  : DELTA TIME FROM SONIC LOG
DTWS    .US/F  : COMPRESSIONAL SONIC [DTED]
GRDED   .GAPI  : GAMMA RAY FROM DENSITY LOG
GRSED   .GAPI  : GAMMA RAY FROM SONIC LOG
GRWS    .GAPI  : GAMMA RAY [GRSED SPL. TO GRDED @ 964'-8333']
ILDED   .OHMM  : DEEP INDUCTION FROM RESISTIVITY LOG
ILMED   .OHMM  : MEDIUM INDUCTION FROM RESISTIVITY LOG
LL8ED   .OHMM  : 8 INCH LATEROLOG RESISTIVITY FROM RESISTIVITY LOG
MRESWS  .OHMM  : MEDIUM RESISTIVITY [ILMED]
NPHILSED.V/V   : NEUTRON POROSITY LIMESTONE FROM DENSITY LOG
NPHISSED.V/V   : NEUTRON POROSITY SANDSTONE FROM DENSITY LOG
NPOLSWS .V/V   : NEUTRON POROSITY LIMESTONE [NPHISSED MATRIX CONVERSION FOR LIMESTONE & SPL. TO NPHILSED @ 4200']
RHOBED  .G/C3  : BULK DENSITY FROM DENSITY LOG
SPRED   .MV    : SPONTANEOUS POTENTIAL FROM RESISTIVITY LOG
SPWS    .MV    : SPONTANEOUS POTENTIAL [BASELINE 0 MV, SPRED]
SRESWS  .OHMM  : SHALLOW RESISTIVITY [LL8ED]
~Params ----------------------------------------------------
PD  .                     GL : PERMANENT DATUM
EPD .FT                 2330 : ELEVATION PERMANENT DATUM
LMF .                     KB : LOG MEASURED FROM
DAPD.FT                    7 : FEET ABOVE PERMANENT DATUM
EKB .FT                 2347 : KELLY BUSHING
EGL .FT                 2330 : GROUND LEVEL
DATE.               03/22/77 : RUN DATE
RUN .                      1 : RUN NUMBER
DD  .FT                 8390 : DEPTH DRILLER
DL  .FT                 8389 : DEPTH LOGGER
BLI .FT                 8383 : BOTTOM LOG INTERVAL
TLI .FT                  615 : TOP LOG INTERVAL
CBD .FT                  918 : CASING BOTTOM DRILLER
CBL .FT                  916 : CASING BOTTOM LOGGER
BS  .IN                 8.75 : BIT SIZE
BSD .FT                 8390 : BIT SIZE AT DEPTH
DFT .               GEL CHEM : DRILLING FLUID TYPE
DFD .                    9.3 : DRILLING FLUID DENSITY
DFV .                     76 : DRILLING FLUID VISCOSITY
DFPH.                    9.0 : DRILLING FLUID PH
DFL .                    6.0 : DRILLING FLUID LOSS
MSS .               FLOWLINE : MUD SAMPLE SOURCE
RMS .OHMM               3.18 : RESISTIVITY MUD SAMPLE
MST .DEGF                 68 : MUD SAMPLE TEMPERATURE
RMF .OHMM               2.96 : RESISTIVITY MUD FILTRATE SAMPLE
MFST.DEGF                 70 : MUD FILTRATE SAMPLE TEMPERATURE
RMB .OHMM               1.48 : RESISTIVITY MUD AT BHT
TCS .HRS                 1.5 : TIME CIRCULATED STOPPED
LUN .                   7802 : LOGGING UNIT NUMBER
LUL .                    EDM : LOGGING UNIT LOCATION
ENGI.              CERANTOLA : RECORDING ENGINEER
WITN.                  SKOKO : WITNESSED BY
CLNT.                A2DTECH : CLIENT CODE
ORIG.            2" 5" PRINT : ORIGIN OF DATA
UWI .       100062307218W500 : UNIQUE WELL ID
DICO. A2D Technologies, Inc. : DIGITIZING COMPANY
~Other -----------------------------------------------------
DPOLSWS.(@5685'-5705',7139'-7303', 7342'-7345',7375'-7378',7539'-7552' & 7884'-7890']
DIL-CNFD-BCS LOG RUN
RHOB & DRHO HAVE BEEN VERIFIED FROM 2" SECTION
NEUTRON CONVERSION [CNL (NPHI)] USING SCHLUMBERGER CHART
~ASCII -----------------------------------------------------
# ...
 4800.00000    9.99920    9.94400    9.94400  211.66710    0.06800    2.48740    0.13020    -999.25    0.13020    4.72440    0.06800   66.30530   66.30530   27.18890   25.18400   27.18890    4.72440    8.15480   46.35880    8.15480    0.11620    -999.25    0.11620    2.48740 -151.88040 -122.66960   46.35880
 4850.00000   10.11370   10.43690   10.43690  123.04060    0.03950    2.61830    0.05360    -999.25    0.05360    8.12740    0.03950   60.46750   60.46750   32.74560   29.98050   32.74560    8.12740   10.66970   27.43780   10.66970    0.07140    -999.25    0.07140    2.61830 -115.33200  -85.56040   27.43780
 4900.00000    9.91750   10.53860   10.53860  104.54130    0.10870    2.61170    0.05750    -999.25    0.05750    9.56560    0.10870   59.68490   59.68490   30.21750   21.63470   30.21750    9.56560   15.01990  132.28660   15.01990    0.06920    -999.25    0.06920    2.61170 -156.72230 -126.39000  132.28660
 4950.00000    9.79790    9.78320    9.78320  107.40100    0.10030    2.56620    0.08410    -999.25    0.08410    9.31090    0.10030   60.61440   60.61440   25.67850   28.82830   25.67850    9.31090   17.95670  117.91850   17.95670    0.08970    -999.25    0.08970    2.56620 -163.53370 -132.64060  117.91850
 5000.00000   11.62490   11.90080   11.90080  535.84820    0.04470    2.55540    0.09040    -999.25    0.09040    1.86620    0.04470   87.02270   87.02270  114.05540   93.93610  114.05540    1.86620    1.63860    2.60730    1.63860    0.28280    -999.25    0.28280    2.55540  -87.55980  -56.10600    2.60730
 5050.00000   11.81220   11.54480   11.54480  291.89410    0.06050    2.49250    0.12720    -999.25    0.12720    3.42590    0.06050   78.16700   78.16700   95.13420   86.13290   95.13420    3.42590    3.10630    7.81890    3.10630    0.21190    -999.25    0.21190    2.49250  -71.99420  -39.97960    7.81890
 5100.00000   10.34920   10.65630   10.65630  326.30690    0.06750    2.35010    0.21050    -999.25    0.21050    3.06460    0.06750   84.02390   84.02390  100.92310   84.69820  100.92310    3.06460    2.83260    5.98910    2.83260    0.26470    -999.25    0.26470    2.35010  -77.19470  -44.61930    5.98910
 5150.00000   10.03850   10.15040   10.15040  109.88290    0.01970    2.62830    0.04780    -999.25    0.04780    9.10060    0.01970   66.12460   66.12460   71.20630   63.47080   71.20630    9.10060    9.19790   12.60100    9.19790    0.09850    -999.25    0.09850    2.62830  -41.90420   -8.76810   12.60100
 5200.00000   12.06480   10.87010   10.87010   56.87410    0.03890    2.63070    0.04640    -999.25    0.04640   17.58270    0.03890   55.31190   55.31190   41.73550   32.27440   41.73550   17.58270   19.55810   60.24450   19.55810    0.03000    -999.25    0.03000    2.63070  -44.03750  -10.34060   60.24450
 5250.00000    9.81210   10.17850   10.17850   36.51930    0.02540    2.65020    0.03500    -999.25    0.03500   27.38280    0.02540   55.08120   55.08120   35.28040   28.95900   35.28040   27.38280   36.63610   70.74490   36.63610    0.02100    -999.25    0.02100    2.65020  -69.28160  -33.77870   70.74490
 5300.00000    9.88410   10.01930   10.01930   58.29950    0.02240    2.63130    0.04600    -999.25    0.04600   17.15280    0.02240   60.10440   60.10440   46.91470   39.39990   46.91470   17.15280   18.74230   27.42500   18.74230    0.04350    -999.25    0.04350    2.63130  -52.79560  -15.23630   27.42500
 5350.00000    9.78090    9.68910    9.68910   92.65780    0.06450    2.65460    0.03240    -999.25    0.03240   10.79240    0.06450   64.61140   64.61140   62.90520   49.51700   62.90520   10.79240   11.28230   14.42440   11.28230    0.07390    -999.25    0.07390    2.65460  -49.87890  -10.26310   14.42440
 5400.00000   10.16890   10.32020   10.32020  108.12210    0.09440    2.69100    0.01110    -999.25    0.01110    9.24880    0.09440   67.09140   67.09140   68.25410   57.55770   68.25410    9.24880    9.66060   12.02240    9.66060    0.10080    -999.25    0.10080    2.69100  -43.83790   -4.34890   12.02240
 5450.00000   10.18170   10.34780   10.34780  102.51570    0.01960    2.62950    0.04710    -999.25    0.04710    9.75460    0.01960   65.58310   65.58310   58.84460   54.07480   58.84460    9.75460   10.38920   14.66350   10.38920    0.07730    -999.25    0.07730    2.62950  -46.95390  -10.26030   14.66350
 5500.00000   10.03880   10.19750   10.19750  109.38650    0.00350    2.58910    0.07070    -999.25    0.07070    9.14190    0.00350   67.19310   67.19310   69.86120   59.23560   69.86120    9.14190    9.89380   12.26900    9.89380    0.09510    -999.25    0.09510    2.58910  -39.14740   -5.24920   12.26900
 5550.00000    9.87090    9.74520    9.74520   98.23180    0.04570    2.67840    0.01850    -999.25    0.01850   10.18000    0.04570   64.72100   64.72100   67.61770   53.04410   67.61770   10.18000   11.58600   14.86960   11.58600    0.08200    -999.25    0.08200    2.67840  -38.41290   -7.31010   14.86960
 5600.00000   15.37000   14.34460   14.34460  304.81300    0.22780    2.23050    0.28040    -999.25    0.28040    3.28070    0.22780   90.81940   90.81940  132.62580  115.55610  132.62580    3.28070    2.97960    4.41760    2.97960    0.35090    -999.25    0.35090    2.23050  -63.60700  -37.60740    4.41760
 5650.00000   12.22120   11.75850   11.75850   43.96400    0.04610    2.71630   -0.00370    -999.25   -0.00370   22.74590    0.04610   55.15740   55.15740   47.00420   37.66300   47.00420   22.74590   29.65330   48.11460   29.65330    0.02390    -999.25    0.02390    2.71630  -43.95320  -23.46400   48.11460
 5700.00000   15.37000   13.87860   13.87860  409.86970    0.19730    1.87350    0.45030    -999.25    0.48920    2.43980    0.19730   71.54530   71.54530  203.20330  142.91340  203.20330    2.43980    2.09330    4.31690    2.09330    0.45000    -999.25    0.45000    1.87350  -30.44850  -15.46980    4.31690
 5750.00000   10.05840   10.25290   10.25290   19.44550    0.03540    2.71210   -0.00120    -999.25   -0.00120   51.42580    0.03540   52.35570   52.35570   28.20780   20.14420   28.20780   51.42580   59.39010  106.04710   59.39010    0.01350    -999.25    0.01350    2.71210  -31.92440  -21.95500  106.04710
 5800.00000   10.49860   10.76950   10.76950   24.04580    0.00860    2.65660    0.03120    -999.25    0.03120   41.58730    0.00860   53.17960   53.17960   25.40560   20.95010   25.40560   41.58730   47.43220   73.11120   47.43220    0.03730    -999.25    0.03730    2.65660  -59.22290  -48.86380   73.11120
 5850.00000   10.68030   10.59870   10.59870   14.59570    0.05120    2.70350    0.00380    -999.25    0.00380   68.51310    0.05120   51.53470   51.53470   21.02110   17.20110   21.02110   68.51310   72.76370  131.11570   72.76370    0.02400    -999.25    0.02400    2.70350  -44.44440  -33.67990  131.11570
 5900.00000   10.93100   10.50910   10.50910   32.47940    0.07520    2.57970    0.07620    -999.25    0.07620   30.78870    0.07520   56.05640   56.05640   23.03850   19.64700   23.03850   30.78870   33.94560   54.00690   33.94560    0.05730    -999.25    0.05730    2.57970  -74.71620  -63.54630   54.00690
 5950.00000   10.36070   10.17200   10.17200   16.75850    0.05440    2.73150   -0.01260    -999.25   -0.01260   59.67110    0.05440   51.47560   51.47560   24.81640   19.06950   24.81640   59.67110   68.99880  116.73210   68.99880    0.01940    -999.25    0.01940    2.73150  -40.19640  -28.62120  116.73210
 6000.00000   10.77180   10.44450   10.44450   27.56570    0.03880    2.63680    0.04280    -999.25    0.04280   36.27700    0.03880   54.60560   54.60560   24.21120   16.61950   24.21120   36.27700   45.09350   87.55990   45.09350    0.03410    -999.25    0.03410    2.63680  -45.73340  -33.52870   87.55990
 6050.00000   10.88920   10.27010   10.27010   35.79460    0.09030    2.60620    0.06070    -999.25    0.06070   27.93720    0.09030   54.65060   54.65060   21.90280   15.08060   21.90280   27.93720   43.45200  207.35970   43.45200    0.05080    -999.25    0.05080    2.60620  -60.83280  -47.74600  207.35970
