~Version ---------------------------------------------------
VERS.      2.0 : CWLS log ASCII Standard -VERSION 2.0
WRAP.       NO : One line per depth step
CREA. 08/04/17 : LAS Creation Date
~Well ------------------------------------------------------
STRT.FT                      550.0 : START DEPTH
STOP.FT                    12450.0 : STOP DEPTH
STEP.FT                   50.00000 : STEP LENGTH
NULL.                      -999.25 : NULL VALUE
COMP.       CALIFORNIA STANDARD CO : COMPANY
WELL. STANDARD CYNTHIA 16-21-49-13 : WELL
FLD .                           WC : FIELD
LOC .                              : LOCATION
CTRY.                       CANADA : COUNTRY
SRVC.                 Schlumberger : SERVICE COMPANY
DATE.                  28-Dec-1957 : LOGDATE
PROV.                      Alberta : PROVINCE
UWI .             100162104913W500 : UNIQUE WELL ID
SLAT.WGS84                53.24881 : SURFACE LATITUDE
SLON.WGS84               -115.8321 : SURFACE LONGITUDE
~Curve Information -----------------------------------------
DEPT  .FT         : Depth Curve
CALMED.IN         : CALIPER FROM FROM MLL LOG
CALWS .IN         : CALIPER [MCALED]
CILDED.MMHO       : DEEP INDUCTION CONDUCTIVITY FROM IL LOG [ADJ. TO SPRED]
CONDWS.MMHO       : CONDUCTIVITY [1000/DRESWS]
DRESWS.OHMM       : DEEP RESISTIVITY [LNED]
GRNED .UgRa-Eq/T  : GAMMA RAY FROM GRN LOG
GRWS  .GAPI       : GAMMA RAY[GRNED*16.5]
ILDED .OHMM       : DEEP INDUCTION RESISTIVITY FROM IL LOG [ADJ. TO SPRED]
LL7ED .OHMM       : LATEROLOG 7 FROM LL LOG
LNED  .OHMM       : LONG NORMAL RESISTIVITY FROM EL LOG
LT18ED.OHMM       : LATERAL 18' FROM EL LOG
MCALED.IN         : MLT (MICROLOG) CALIPER FROM ML LOG
MLLED .OHMM       : MICRO FOCUSED LATEROLOG RESISTIVITY FROM MLL LOG
MRESWS.OHMM       : MEDIUM RESISTIVITY [LL7ED]
NEUTED.CPS        : NEUTRON FROM GRN LOG
NEUTWS.CPS        : NEUTRON [NEUTED]
SNED  .OHMM       : SHORT NORMAL RESISTIVITY FROM EL LOG
SPR1ED.MV         : SPONTANEOUS POTENTIAL FROM IL LOG [ADJ. TO SPRED]
SPR2ED.MV         : SPONTANEOUS POTENTIAL FROM LL LOG
SPRED .MV         : SPONTANEOUS POTENTIAL FROM EL LOG
SPWS  .MV         : SPONTANEOUS POTENTIAL [SPR1ED SPL. TO SPRED @644']
SRESWS.OHMM       : SHALLOW RESISTIVITY [SNED]
~Params ----------------------------------------------------
PD  .                        : PERMANENT DATUM
EPD .FT                    0 : ELEVATION PERMANENT DATUM
LMF .                     KB : LOG MEASURED FROM
DAPD.FT                    0 : FEET ABOVE PERMANENT DATUM
DMF .                     KB : DRILLING MEASURED FROM
EKB .FT                 3297 : KELLY BUSHING
EDF .FT                    0 : DRILLING FLOOR
EGL .FT                    0 : GROUND LEVEL
DATE.               12/28/57 : RUN DATE
RUN .                      4 : RUN NUMBER
DD  .FT                12492 : DEPTH DRILLER
DL  .FT                12492 : DEPTH LOGGER
BLI .FT                12491 : BOTTOM LOG INTERVAL
TLI .FT                 8904 : TOP LOG INTERVAL
CS  .IN                    0 : CASING SIZE
CBD .FT                  616 : CASING BOTTOM DRILLER
CBL .FT                  616 : CASING BOTTOM LOGGER
BS  .IN                    9 : BIT SIZE
BSD .FT                12492 : BIT SIZE AT DEPTH
DFT .               OIL EMUL : DRILLING FLUID TYPE
DFD .                   10.7 : DRILLING FLUID DENSITY
DFV .                    140 : DRILLING FLUID VISCOSITY
DFPH.                     13 : DRILLING FLUID PH
DFL .                    3.6 : DRILLING FLUID LOSS
MSS .                        : MUD SAMPLE SOURCE
RMS .OHMM                1.1 : RESISTIVITY MUD SAMPLE
MST .DEGF                 50 : MUD SAMPLE TEMPERATURE
RMF .OHMM                  0 : RESISTIVITY MUD FILTRATE SAMPLE
MFST.DEGF                  0 : MUD FILTRATE SAMPLE TEMPERATURE
RMC .OHMM                  0 : RESISTIVITY MUD CAKE
MCST.DEGF                  0 : MUD CAKE SAMPLE TEMPERATURE
MFSS.                        : MUD FILTRATE SAMPLE SOURCE
MCSS.                        : MUD CAKE SAMPLE SOURCE
RMB .OHMM               0.28 : RESISTIVITY MUD AT BHT
TCS .HRS                   3 : TIME CIRCULATED STOPPED
TLAB.HRS                   0 : TIME LOGGER AT BOTTOM
LUN .                   1749 : LOGGING UNIT NUMBER
LUL .                     DV : LOGGING UNIT LOCATION
ENGI.                  GOETZ : RECORDING ENGINEER
WITN.             CHARLESTON : WITNESSED BY
CLNT.                A2DTECH : CLIENT CODE
ORIG.            2" 5" PRINT : ORIGIN OF DATA
UWI .       100162104913W500 : UNIQUE WELL ID
DICO. A2D Technologies, Inc. : DIGITIZING COMPANY
OS  .                        : OTHER SERVICES
PWI .                        : PRIMARY WELL IDENTIFIER
R1  .                        : REMARKS 1
R2  .                        : REMARKS 2
LSRV.                        : LOG MNEMONIC
~Other -----------------------------------------------------
~ASCII -----------------------------------------------------
  550.00000    -999.25    -999.25    -999.25    -999.25    -999.25    3.96440   65.41260    -999.25    -999.25    -999.25    -999.25    -999.25    -999.25    -999.25  174.35740  174.35740    -999.25    -999.25    -999.25    -999.25    -999.25    -999.25
  600.00000    -999.25    -999.25    -999.25    -999.25    -999.25    3.76950   62.19670    -999.25    -999.25    -999.25    -999.25    -999.25    -999.25    -999.25  166.87140  166.87140    -999.25    -999.25    -999.25    -999.25    -999.25    -999.25
  650.00000    -999.25   12.19410   75.42400   26.91970   37.14770    3.29060   54.29570   54.11640    -999.25   37.14770   38.20760   12.19410    -999.25    -999.25  248.64880  248.64880   29.30880  -77.89970    -999.25  -74.97100   -5.30860   29.30880
  700.00000    -999.25   11.16120   82.71000   34.98960   28.57990    4.10440   67.72260   44.01290    -999.25   28.57990   30.78650   11.16120    -999.25    -999.25  238.54370  238.54370   24.62290  -84.45640    -999.25  -78.27040   -7.94090   24.62290
  750.00000    -999.25   11.25390  148.88130   80.74200   12.38640    5.82580   96.12650   20.12870    -999.25   12.38640   19.23300   11.25390    -999.25    -999.25  221.74530  221.74530    9.04260  -80.14390    -999.25  -75.00290   -4.95230    9.04260
  800.00000    -999.25   10.89930  144.09260   60.78250   16.45210    7.13000  117.64580   18.31130    -999.25   16.45210   17.67920   10.89930    -999.25    -999.25  213.03850  213.03850   10.47410  -80.98570    -999.25  -73.76390   -5.25710   10.47410
  850.00000    -999.25   10.35950  129.81480   66.80120   14.96980    5.72420   94.44930   23.58180    -999.25   14.96980   10.83490   10.35950    -999.25    -999.25  214.41700  214.41700   10.94120  -71.64840    -999.25  -72.33240   -2.64970   10.94120
  900.00000    -999.25   10.10850   84.31800   35.03790   28.54080    4.34610   71.71070   43.43450    -999.25   28.54080   35.55800   10.10850    -999.25    -999.25  230.70680  230.70680   23.19190  -78.43560    -999.25  -71.69070   -4.14620   23.19190
  950.00000    -999.25    9.89210   85.07140   51.67100   19.35320    4.26510   70.37420   43.79230    -999.25   19.35320   25.10720    9.89210    -999.25    -999.25  268.40460  268.40460   22.19030  -79.15400    -999.25  -71.12500   -2.14130   22.19030
 1000.00000    -999.25   11.66510  297.40080   55.97730   17.86470    5.74670   94.82010    9.21930    -999.25   17.86470    1.94570   11.66510    -999.25    -999.25  194.54860  194.54860    8.83790  -67.80280    -999.25  -68.04550    0.63900    8.83790
 1050.00000    -999.25   11.69500   93.31310   38.73150   25.81880    5.04400   83.22600   34.06200    -999.25   25.81880   19.68900   11.69500    -999.25    -999.25  244.93000  244.93000   19.22590  -80.47630    -999.25  -71.69320   -4.52810   19.22590
 1100.00000    -999.25   13.09990  140.22990   79.02080   12.65490    6.56110  108.25820   19.93830    -999.25   12.65490   16.73050   13.09990    -999.25    -999.25  217.46040  217.46040   10.31140  -79.59080    -999.25  -72.81900   -3.88650   10.31140
 1150.00000    -999.25   14.81880  192.93030  102.19480    9.78690    6.97960  115.16330   14.47690    -999.25    9.78690   12.58780   14.81880    -999.25    -999.25  194.74980  194.74980    8.59910  -75.66490    -999.25  -70.19080   -2.33160    8.59910
 1200.00000    -999.25   13.58110   84.30920   55.80140   17.92070    4.97460   82.08090   40.32580    -999.25   17.92070   35.99960   13.58110    -999.25    -999.25  231.39820  231.39820   17.88570  -82.81200    -999.25  -76.53300  -10.60680   17.88570
 1250.00000    -999.25   14.86400  123.65580   57.49240   17.40220    6.44190  106.29180   23.88270    -999.25   17.40220   11.22170   14.86400    -999.25    -999.25  241.12670  241.12670   15.45880  -79.55170    -999.25  -71.48050   -3.52800   15.45880
 1300.00000    -999.25   14.85060  136.49750   65.77780   15.20270    5.85690   96.63970   21.97820    -999.25   15.20270    8.18880   14.85060    -999.25    -999.25  235.19490  235.19490   12.11620  -76.90270    -999.25  -69.70600   -1.57260   12.11620
 1350.00000    -999.25   14.85440  141.13610   48.38050   20.66950    7.29370  120.34610   18.25750    -999.25   20.66950   16.91820   14.85440    -999.25    -999.25  209.19400  209.19400   10.91100  -68.19510    -999.25  -70.49510   -3.64960   10.91100
 1400.00000    -999.25   14.87550   98.84370   55.17960   18.12280    3.58530   59.15750   32.34640    -999.25   18.12280   26.52380   14.87550    -999.25    -999.25  247.68540  247.68540   16.96530  -80.90410    -999.25  -78.21870   -4.39160   16.96530
 1450.00000    -999.25   14.90190  124.37130   71.76480   13.93440    6.30330  104.00450   23.74690    -999.25   13.93440    8.01580   14.90190    -999.25    -999.25  203.50300  203.50300   10.78280  -79.86000    -999.25  -70.70390   -2.67220   10.78280
 1500.00000    -999.25   14.85730  247.72340   97.85040   10.21970    5.84920   96.51220   10.28710    -999.25   10.21970    9.47310   14.85730    -999.25    -999.25  193.47780  193.47780    5.85620  -74.85620    -999.25  -70.05490   -2.49620    5.85620
 1550.00000    -999.25   14.74470  117.90010   92.87900   10.76670    6.62030  109.23410   25.30840    -999.25   10.76670   12.25970   14.74470    -999.25    -999.25  204.86510  204.86510   13.24600  -79.20240    -999.25  -70.41650   -2.32030   13.24600
 1600.00000    -999.25   13.78810  101.04790   43.01300   23.24880    6.31910  104.26510   31.75660    -999.25   23.24880   12.77640   13.78810    -999.25    -999.25  214.97500  214.97500   20.18580  -79.42340    -999.25  -71.59030   -3.63700   20.18580
 1650.00000    -999.25   14.61930  108.18740   31.73110   31.52070    8.20130  135.32230   29.48890    -999.25   31.52070   11.99420   14.61930    -999.25    -999.25  185.18500  185.18500   21.50440  -82.21820    -999.25  -73.79940   -5.38460   21.50440
 1700.00000    -999.25   14.48250  120.89180   57.87740   17.27790    6.65930  109.87850   23.49740    -999.25   17.27790   18.23450   14.48250    -999.25    -999.25  195.17330  195.17330   13.62040  -78.36970    -999.25  -73.50350   -5.23410   13.62040
 1750.00000    -999.25   13.82850  118.26380   31.11940   32.14220    6.45470  106.50220   25.71240    -999.25   32.14220    7.76780   13.82850    -999.25    -999.25  234.96590  234.96590   23.75100  -66.39820    -999.25  -75.34850   -8.80190   23.75100
 1800.00000    -999.25   13.29290  154.01800   33.47340   29.87450    4.67440   77.12760   19.14090    -999.25   29.87450   22.91390   13.29290    -999.25    -999.25  176.00250  176.00250   34.77280  -69.03480    -999.25  -75.83490   -8.06760   34.77280
 1850.00000    -999.25   13.54870  149.17530   78.58110   12.72570    6.55200  108.10800   19.97770    -999.25   12.72570   34.93380   13.54870    -999.25    -999.25  188.55770  188.55770   17.10260  -82.35790    -999.25  -73.50940   -5.26870   17.10260
 1900.00000    -999.25   12.33530  157.71330   54.69930   18.28350    8.09600  133.58320   17.00940    -999.25   18.28350   26.03750   12.33530    -999.25    -999.25  198.35220  198.35220   11.47440  -73.24690    -999.25  -72.24980   -5.15340   11.47440
 1950.00000    -999.25   11.99890  101.68170   45.82640   21.82150    4.44040   73.26660   31.72800    -999.25   21.82150   24.27400   11.99890    -999.25    -999.25  248.17120  248.17120   16.31630  -86.64830    -999.25  -79.08090  -10.60230   16.31630
 2000.00000    -999.25   12.32080  111.60250   72.09430   13.88370    4.56650   75.34600   26.21400    -999.25   13.88370   26.76170   12.32080    -999.25    -999.25  249.54770  249.54770   13.89090  -82.16480    -999.25  -77.38480  -10.97750   13.89090
 2050.00000    -999.25   11.06000  112.11370   43.79590   22.83320    5.56120   91.75980   26.45200    -999.25   22.83320    4.61190   11.06000    -999.25    -999.25  223.52020  223.52020   17.43500  -71.63480    -999.25  -71.13510   -2.07710   17.43500
 2100.00000    -999.25    9.74580  103.06490   55.27210   18.09230    4.02250   66.37130   30.97860    -999.25   18.09230   15.55290    9.74580    -999.25    -999.25  229.11650  229.11650   16.62150  -88.54770    -999.25  -81.27830   -5.04180   16.62150
