~Version ---------------------------------------------------
VERS.      2.0 : CWLS log ASCII Standard -VERSION 2.0
WRAP.       NO : One line per depth step
CREA. 01/05/18 : LAS Creation Date
~Well ------------------------------------------------------
STRT.FT                      950.0 : START DEPTH
STOP.FT                    10300.0 : STOP DEPTH
STEP.FT                   50.00000 : STEP LENGTH
NULL.                      -999.25 : NULL VALUE
COMP.         PETROFINA CANADA LTD : COMPANY
WELL. FINA ET AL KAYBOB 10-7-60-17 : WELL
FLD .                              : FIELD
LOC .                              : LOCATION
CTRY.                       CANADA : COUNTRY
SRVC.                 Schlumberger : SERVICE COMPANY
DATE.                  18-Jan-1976 : LOGDATE
PROV.                      Alberta : PROVINCE
UWI .             100100706017W500 : UNIQUE WELL ID
SLAT.WGS84                54.17689 : SURFACE LATITUDE
SLON.WGS84               -116.5329 : SURFACE LONGITUDE
~Curve Information -----------------------------------------
DEPT    .FT    : Depth Curve
CALDED  .IN    : CALIPER FROM DENSITY LOG [ADJ. TO RESISTIVITY LOG]
CALSED  .IN    : CALIPER FROM SONIC LOG
CALWS   .IN    : CALIPER [CALDED SPL. TO CALSED @ 1046']
CILDED  .MMHO  : CONDUCTIVITY FROM RESISTIVITY LOG
CONDWS  .MMHO  : CONDUCTIVITY [1000/DRESWS]
DCORED  .G/C3  : DENSITY CORRECTION FROM DENSITY LOG [ADJ. TO RESISTIVITY LOG]
DCORWS  .G/C3  : DENSITY CORRECTION [DCORED]
DENWS   .G/C3  : FORMATION BULK DENSITY [CALC. FROM DPOLSWS, M=M=2.71 F=1.00]
DPHILSED.V/V   : DENSITY POROSITY LIMESTONE [M=M=2.71 F=1.00] FROM DENSITY LOG [ADJ. TO RESISTIVITY LOG]
DPHISSED.V/V   : DENSITY POROSITY SANDSTONE [M=2.65 F=1.00] FROM DENSITY LOG [ADJ. TO RESISTIVITY LOG]
DPOLSWS .V/V   : DENSITY POROSITY LIMESTONE [DPHISSED CONVERTED TO LIMESTONE (M=2.71 F=1.00), SPL. TO DPHILSED @ 6847']
DRESWS  .OHMM  : DEEP RESISTIVITY [1000/CILDED, IF ILDED < 2, ILDED & SPL. TO ILDED @ 1043'-3980']
DTED    .US/F  : DELTA TIME FROM SONIC LOG
DTWS    .US/F  : COMPRESSIONAL SONIC [DTED]
GRDED   .GAPI  : GAMMA RAY FROM DENSITY LOG [ADJ. TO RESISTIVITY LOG]
GRSED   .GAPI  : GAMMA RAY FROM SONIC LOG
GRWS    .GAPI  : GAMMA RAY [GRSED]
ILDED   .OHMM  : DEEP  INDUCTION LOG RESISTIVITY FROM RESISTIVITY LOG
ILMED   .OHMM  : MEDIUM INDUCTION LOG RESISTIVITY FROM RESISTIVITY LOG
LL8ED   .OHMM  : 8 INCH LATEROLOG RESISTIVITY FROM RESISTIVITY LOG
MRESWS  .OHMM  : MEDIUM RESISTIVITY [ILMED]
NPHILSED.V/V   : NEUTRON POROSITY LIMESTONE FROM DENSITY LOG [ADJ. TO RESISTIVITY LOG]
NPHISSED.V/V   : NEUTRON POROSITY SANDSTONE FROM DENSITY LOG [ADJ. TO RESISTIVITY LOG]
NPOLSWS .V/V   : NEUTRON POROSITY LIMESTONE [NPHISSED MATRIX CONVERSION FOR LIMESTONE, SPL. TO NPHILSED @ 6847']
RHOBED  .G/C3  : BULK DENSITY FROM DENSITY LOG [ADJ. TO RESISTIVITY LOG]
SPRED   .MV    : SPONTANEOUS POTENTIAL FROM RESISTIVITY LOG
SPWS    .MV    : SPONTANEOUS POTENTIAL [BASELINE 0 MV, SPRED]
SRESWS  .OHMM  : SHALLOW RESISTIVITY [LL8ED]
~Params ----------------------------------------------------
PD  .                     GL : PERMANENT DATUM
EPD .FT              2627.65 : ELEVATION PERMANENT DATUM
LMF .                     KB : LOG MEASURED FROM
DAPD.FT                 14.2 : FEET ABOVE PERMANENT DATUM
EKB .FT              2641.85 : KELLY BUSHING
EGL .FT              2627.65 : GROUND LEVEL
DATE.               01/18/76 : RUN DATE
RUN .                      1 : RUN NUMBER
DD  .FT                10330 : DEPTH DRILLER
DL  .FT                10336 : DEPTH LOGGER
BLI .FT                10330 : BOTTOM LOG INTERVAL
TLI .FT                 1038 : TOP LOG INTERVAL
CBD .FT                 1039 : CASING BOTTOM DRILLER
CBL .FT                 1038 : CASING BOTTOM LOGGER
BS  .IN                 8.75 : BIT SIZE
BSD .FT                10330 : BIT SIZE AT DEPTH
DFT .            GEL CAUSTIC : DRILLING FLUID TYPE
DFD .                    9.1 : DRILLING FLUID DENSITY
DFV .                    220 : DRILLING FLUID VISCOSITY
DFPH.                   10.5 : DRILLING FLUID PH
DFL .                    9.5 : DRILLING FLUID LOSS
MSS .             CIRCULATED : MUD SAMPLE SOURCE
RMS .OHMM               2.67 : RESISTIVITY MUD SAMPLE
MST .DEGF                 52 : MUD SAMPLE TEMPERATURE
RMF .OHMM               2.43 : RESISTIVITY MUD FILTRATE SAMPLE
MFST.DEGF                 73 : MUD FILTRATE SAMPLE TEMPERATURE
RMB .OHMM               0.88 : RESISTIVITY MUD AT BHT
TCS .HRS                   4 : TIME CIRCULATED STOPPED
LUN .                   7667 : LOGGING UNIT NUMBER
LUL .                    EDM : LOGGING UNIT LOCATION
ENGI.                 DENNIS : RECORDING ENGINEER
WITN.                JOHNSON : WITNESSED BY
CLNT.                A2DTECH : CLIENT CODE
ORIG.            2" 5" PRINT : ORIGIN OF DATA
UWI .       100100706017W500 : UNIQUE WELL ID
DICO. A2D Technologies, Inc. : DIGITIZING COMPANY
~Other -----------------------------------------------------
~ASCII -----------------------------------------------------
# ...
 2200.00000    -999.25   10.02430   10.02430  191.17540  178.82690    -999.25    -999.25    -999.25    -999.25    -999.25    -999.25    5.59200  112.23900  112.23900    -999.25   86.87520   86.87520    5.59200    -999.25    5.92110    -999.25    -999.25    -999.25    -999.25    -999.25  -59.95060   -3.68330    5.92110
 2250.00000    -999.25   10.04430   10.04430  242.68040  219.35600    -999.25    -999.25    -999.25    -999.25    -999.25    -999.25    4.55880  100.41130  100.41130    -999.25   81.21080   81.21080    4.55880    -999.25    4.87890    -999.25    -999.25    -999.25    -999.25    -999.25  -58.80770   -2.63350    4.87890
 2300.00000    -999.25   10.47670   10.47670  296.22850  272.66630    -999.25    -999.25    -999.25    -999.25    -999.25    -999.25    3.67730  106.92940  106.92940    -999.25   98.66490   98.66490    3.67730    -999.25    4.15740    -999.25    -999.25    -999.25    -999.25    -999.25  -59.14610   -3.06470    4.15740
 2350.00000    -999.25   10.99970   10.99970  301.48500  292.81720    -999.25    -999.25    -999.25    -999.25    -999.25    -999.25    3.41510  106.65670  106.65670    -999.25  107.10810  107.10810    3.41510    -999.25    3.87390    -999.25    -999.25    -999.25    -999.25    -999.25  -58.13950   -2.15160    3.87390
 2400.00000    -999.25   11.52160   11.52160  196.13240  201.52760    -999.25    -999.25    -999.25    -999.25    -999.25    -999.25    4.96210   96.71320   96.71320    -999.25   71.17760   71.17760    4.96210    -999.25    5.43410    -999.25    -999.25    -999.25    -999.25    -999.25  -60.24270   -4.34800    5.43410
 2450.00000    -999.25   10.24600   10.24600   78.95330   75.00810    -999.25    -999.25    -999.25    -999.25    -999.25    -999.25   13.33190   90.27250   90.27250    -999.25   64.39060   64.39060   13.33190    -999.25   10.83570    -999.25    -999.25    -999.25    -999.25    -999.25  -63.39960   -7.59800   10.83570
 2500.00000    -999.25    9.01820    9.01820   73.93160   66.81770    -999.25    -999.25    -999.25    -999.25    -999.25    -999.25   14.96610   89.54550   89.54550    -999.25   52.50540   52.50540   14.96610    -999.25   12.99240    -999.25    -999.25    -999.25    -999.25    -999.25  -65.68610   -9.97760   12.99240
 2550.00000    -999.25   11.06280   11.06280  235.51560  238.76610    -999.25    -999.25    -999.25    -999.25    -999.25    -999.25    4.18820  102.39450  102.39450    -999.25   79.44730   79.44730    4.18820    -999.25    4.84320    -999.25    -999.25    -999.25    -999.25    -999.25  -58.66400   -3.04820    4.84320
 2600.00000    -999.25   10.61760   10.61760  140.54340  146.44290    -999.25    -999.25    -999.25    -999.25    -999.25    -999.25    6.82860   96.09400   96.09400    -999.25   65.36750   65.36750    6.82860    -999.25    7.76610    -999.25    -999.25    -999.25    -999.25    -999.25  -57.55660   -2.03440    7.76610
 2650.00000    -999.25   10.20660   10.20660   38.56350   32.79820    -999.25    -999.25    -999.25    -999.25    -999.25    -999.25   30.48950   79.03730   79.03730    -999.25   42.71020   42.71020   30.48950    -999.25   27.97640    -999.25    -999.25    -999.25    -999.25    -999.25  -67.16700  -12.16570   27.97640
 2700.00000    -999.25   11.42640   11.42640  219.29910  198.73600    -999.25    -999.25    -999.25    -999.25    -999.25    -999.25    5.03180  103.89570  103.89570    -999.25   67.48120   67.48120    5.03180    -999.25    5.78220    -999.25    -999.25    -999.25    -999.25    -999.25  -57.57190   -3.25790    5.78220
 2750.00000    -999.25   11.21830   11.21830   72.32640   65.15250    -999.25    -999.25    -999.25    -999.25    -999.25    -999.25   15.34860   84.62630   84.62630    -999.25   41.72180   41.72180   15.34860    -999.25   14.04010    -999.25    -999.25    -999.25    -999.25    -999.25  -59.95680   -6.33010   14.04010
 2800.00000    -999.25   10.62640   10.62640   89.15940   77.40300    -999.25    -999.25    -999.25    -999.25    -999.25    -999.25   12.93790   90.43210   90.43210    -999.25   55.34780   55.34780   12.93790    -999.25   13.47250    -999.25    -999.25    -999.25    -999.25    -999.25  -59.64830   -6.70550   13.47250
 2850.00000    -999.25   10.66500   10.66500  139.37540  128.06880    -999.25    -999.25    -999.25    -999.25    -999.25    -999.25    7.80830   87.08950   87.08950    -999.25   54.48570   54.48570    7.80830    -999.25    9.57430    -999.25    -999.25    -999.25    -999.25    -999.25  -56.77580   -4.52360    9.57430
 2900.00000    -999.25   11.19720   11.19720  201.82800  197.60890    -999.25    -999.25    -999.25    -999.25    -999.25    -999.25    5.06050   89.06770   89.06770    -999.25   65.95150   65.95150    5.06050    -999.25    5.94760    -999.25    -999.25    -999.25    -999.25    -999.25  -56.12680   -4.56190    5.94760
 2950.00000    -999.25   10.89880   10.89880  148.89000  134.85630    -999.25    -999.25    -999.25    -999.25    -999.25    -999.25    7.41530   87.88510   87.88510    -999.25   62.25000   62.25000    7.41530    -999.25    8.51560    -999.25    -999.25    -999.25    -999.25    -999.25  -53.72170   -2.84410    8.51560
 3000.00000    -999.25   11.35770   11.35770   45.48720   38.71740    -999.25    -999.25    -999.25    -999.25    -999.25    -999.25   25.82820   88.46290   88.46290    -999.25   39.22250   39.22250   25.82820    -999.25   20.56470    -999.25    -999.25    -999.25    -999.25    -999.25  -62.62130  -12.43100   20.56470
 3050.00000    -999.25   11.67800   11.67800  223.91780  190.44280    -999.25    -999.25    -999.25    -999.25    -999.25    -999.25    5.25160   96.24150   96.24150    -999.25   61.04300   61.04300    5.25160    -999.25    5.70760    -999.25    -999.25    -999.25    -999.25    -999.25  -55.22310   -5.71660    5.70760
 3100.00000    -999.25   11.19470   11.19470  190.43710  168.28500    -999.25    -999.25    -999.25    -999.25    -999.25    -999.25    5.94230   95.43130   95.43130    -999.25   64.03090   64.03090    5.94230    -999.25    6.26250    -999.25    -999.25    -999.25    -999.25    -999.25  -52.60240   -3.78660    6.26250
 3150.00000    -999.25   12.43750   12.43750  136.83000  134.41940    -999.25    -999.25    -999.25    -999.25    -999.25    -999.25    7.43940   94.28350   94.28350    -999.25   57.55530   57.55530    7.43940    -999.25    8.28820    -999.25    -999.25    -999.25    -999.25    -999.25  -52.97810   -4.84960    8.28820
 3200.00000    -999.25   10.24110   10.24110   85.68810   79.39600    -999.25    -999.25    -999.25    -999.25    -999.25    -999.25   12.59510   80.53630   80.53630    -999.25   60.17360   60.17360   12.59510    -999.25   15.46080    -999.25    -999.25    -999.25    -999.25    -999.25  -51.99470   -4.16860   15.46080
 3250.00000    -999.25    9.51710    9.51710   62.15810   56.39550    -999.25    -999.25    -999.25    -999.25    -999.25    -999.25   17.73190   81.00020   81.00020    -999.25   45.28470   45.28470   17.73190    -999.25   21.30230    -999.25    -999.25    -999.25    -999.25    -999.25  -61.22260  -13.39650   21.30230
 3300.00000    -999.25   10.69220   10.69220  116.89350  114.26050    -999.25    -999.25    -999.25    -999.25    -999.25    -999.25    8.75470   91.35210   91.35210    -999.25   55.41190   55.41190    8.75470    -999.25    8.72980    -999.25    -999.25    -999.25    -999.25    -999.25  -52.80130   -4.97520    8.72980
 3350.00000    -999.25   10.38780   10.38780  439.09380  429.16610    -999.25    -999.25    -999.25    -999.25    -999.25    -999.25    2.33010   89.25500   89.25500    -999.25   60.85860   60.85860    2.33010    -999.25    3.52780    -999.25    -999.25    -999.25    -999.25    -999.25  -48.49660   -0.67050    3.52780
 3400.00000    -999.25   10.36910   10.36910  119.77040  113.23100    -999.25    -999.25    -999.25    -999.25    -999.25    -999.25    8.83150   87.25170   87.25170    -999.25   66.52570   66.52570    8.83150    -999.25    9.79270    -999.25    -999.25    -999.25    -999.25    -999.25  -50.37570   -2.54960    9.79270
