~Version ---------------------------------------------------
VERS.      2.0 : CWLS log ASCII Standard -VERSION 2.0
WRAP.       NO : One line per depth step
CREA. 09/23/14 : LAS Creation Date
~Well ------------------------------------------------------
STRT.M                          300.0 : START DEPTH
STOP.M                         1400.0 : STOP DEPTH
STEP.M                       50.00000 : STEP LENGTH
NULL.                         -999.25 : NULL VALUE
COMP.         VOYAGER PETROLEUMS LTD. : COMPANY
WELL. VOYAGER ET AL KILLAM 9-23-42-14 : WELL
FLD .                                 : FIELD
LOC .                                 : LOCATION
CTRY.                          CANADA : COUNTRY
SRVC.                    Schlumberger : SERVICE COMPANY
DATE.                     05-Jun-1983 : LOGDATE
PROV.                         Alberta : PROVINCE
UWI .                100092304214W400 : UNIQUE WELL ID
SLAT.WGS84                   52.63391 : SURFACE LATITUDE
SLON.WGS84                  -111.9051 : SURFACE LONGITUDE
~Curve Information -----------------------------------------
DEPT     .M      : Depth Curve
CALDED   .MM     : CALIPER FROM DENSITY LOG [ADJ. TO RESISTIVITY LOG]
CALSED   .MM     : CALIPER FROM SONIC LOG
CALWS    .MM     : CALIPER [CALSED SPL. TO CALDED @ 1001M]
CONDWS   .MMHO   : CONDUCTIVITY [1000/DRESWS]
DCORWS   .KG/M3  : DENSITY CORRECTION [DRHOED]
DENWS    .KG/M3  : FORMATION BULK DENSITY [RHOBED]
DPHILSED .V/V    : DENSITY POROSITY LIMESTONE [M=2710, F=1000] FROM DENSITY LOG [ADJ. TO RESISTIVITY LOG]
DPOLSWS  .V/V    : DENSITY POROSITY LIMESTONE [DPHILSED]
DRESWS   .OHMM   : DEEP RESISTIVITY [ILDED]
DRHOED   .KG/M3  : DENSITY CORRECTION FROM DENSITY LOG [ADJ. TO RESISTIVITY LOG]
DTED     .US/M   : DELTA-TIME FROM SONIC LOG
DTWS     .US/M   : COMPRESSIONAL SONIC [DTED]
GRSED    .GAPI   : GAMMA RAY FROM SONIC LOG
GRWS     .GAPI   : GAMMA RAY [GRSED]
ILDED    .OHMM   : DEEP INDUCTION RESISTIVITY FROM RESISTIVITY LOG
ILMED    .OHMM   : MEDIUM INDUCTION RESISTIVITY FROM RESISTIVITY LOG
MRESWS   .OHMM   : MEDIUM RESISTIVITY [ILMED]
NPHILSED .V/V    : NEUTRON POROSITY LIMESTONE FROM DENSITY LOG [ADJ. TO RESISTIVITY LOG]
NPHILSRED.V/V    : NEUTRON POROSITY LIMESTONE FROM REPEAT FROM SONIC LOG
NPHISS1ED.V/V    : NEUTRON POROSITY SANDSTONE FROM SONIC LOG
NPHISSED .V/V    : NEUTRON POROSITY SANDSTONE FROM DENSITY LOG [ADJ. TO RESISTIVITY LOG]
NPOLSWS  .V/V    : NEUTRON POROSITY LIMESTONE [NPHISS1ED MATIX CONVERSION FOR LIMESTONE, SPL. TO NPHILSED @ 979M]
RHOBED   .KG/M3  : BULK DENSITY FROM DENSITY LOG [ADJ. TO RESISTIVITY LOG]
SFLUED   .OHMM   : SHALLOW FOCUSED RESISTIVITY (UNAVERAGED) FROM RESISTIVITY LOG
SGRDED   .GAPI   : SPECTROSCOPY GAMMA RAY FROM DENSITY LOG [ADJ. TO RESISTIVITY LOG]
SPRED    .MV     : SPONTANEOUS POTENTIAL FROM RESISTIVITY LOG
SPWS     .MV     : SPONTANEOUS POTENTIAL [BASELINE 0 MV, SPRED]
SRESWS   .OHMM   : SHALLOW RESISTIVITY [SFLUED]
~Params ----------------------------------------------------
PD  .                         GL : PERMANENT DATUM
EPD .M                     700.8 : ELEVATION PERMANENT DATUM
LMF .                         KB : LOG MEASURED FROM
DAPD.M                       3.8 : FEET ABOVE PERMANENT DATUM
DMF .                         KB : DRILLING MEASURED FROM
EKB .M                     704.6 : KELLY BUSHING
EGL .M                     700.8 : GROUND LEVEL
DATE.                   06/05/83 : RUN DATE
RUN .                          2 : RUN NUMBER
DD  .M                      1421 : DEPTH DRILLER
DL  .M                      1421 : DEPTH LOGGER
BLI .M                    1420.2 : BOTTOM LOG INTERVAL
TLI .M                      1001 : TOP LOG INTERVAL
CS  .MM                    177.8 : CASING SIZE
CBD .M                      1001 : CASING BOTTOM DRILLER
CBL .M                      1001 : CASING BOTTOM LOGGER
BS  .MM                      159 : BIT SIZE
BSD .M                      1421 : BIT SIZE AT DEPTH
DFT .                   GEL CHEM : DRILLING FLUID TYPE
DFD .                       1080 : DRILLING FLUID DENSITY
DFV .                         55 : DRILLING FLUID VISCOSITY
DFPH.                         11 : DRILLING FLUID PH
DFL .                          7 : DRILLING FLUID LOSS
MSS .                   FLOWLINE : MUD SAMPLE SOURCE
RMS .OHMM                   1.58 : RESISTIVITY MUD SAMPLE
MST .DEGC                   18.3 : MUD SAMPLE TEMPERATURE
RMF .OHMM                   1.14 : RESISTIVITY MUD FILTRATE SAMPLE
MFST.DEGC                     20 : MUD FILTRATE SAMPLE TEMPERATURE
MFSS.                      PRESS : MUD FILTRATE SAMPLE SOURCE
RMB .OHMM                  1.015 : RESISTIVITY MUD AT BHT
TCS .HRS                    1700 : TIME CIRCULATED STOPPED
TLAB.HRS                    2100 : TIME LOGGER AT BOTTOM
LUN .                       8098 : LOGGING UNIT NUMBER
LUL .                 WAINWRIGHT : LOGGING UNIT LOCATION
ENGI.                      TIVEY : RECORDING ENGINEER
WITN.                       HECK : WITNESSED BY
CLNT.                    A2DTECH : CLIENT CODE
ORIG. 6.5"/100M 16.5"/100M PRINT : ORIGIN OF DATA
UWI .           100092304214W400 : UNIQUE WELL ID
DICO.     A2D Technologies, Inc. : DIGITIZING COMPANY
~Other -----------------------------------------------------
DISFL-CNL-FDC-BHC-NEUTRON LOG RUN
RHOB & DRHO DATA FROM SMALL SECTION
~ASCII -----------------------------------------------------
  300.00000    -999.25  219.02770  219.02770  312.41210    -999.25    -999.25    -999.25    -999.25    3.20090    -999.25  398.28200  398.28200   46.49050   46.49050    3.20090    3.52260    3.52260    -999.25    -999.25    0.49110    0.41870    0.45090    -999.25    4.99190   44.65320  -58.97960  -60.44250    4.99190
  350.00000    -999.25  263.07070  263.07070  294.95910    -999.25    -999.25    -999.25    -999.25    3.39030    -999.25  406.93870  406.93870   59.75730   59.75730    3.39030    3.26170    3.26170    -999.25    -999.25    0.55210    0.50750    0.51510    -999.25    3.73080   50.73660  -20.62330  -22.08620    3.73080
  400.00000    -999.25  223.45300  223.45300  237.26480    -999.25    -999.25    -999.25    -999.25    4.21470    -999.25  391.34020  391.34020   96.26830   96.26830    4.21470    4.07010    4.07010    -999.25    -999.25    0.49860    0.46690    0.45870    -999.25    4.48310   80.47140  -25.25200  -26.71490    4.48310
  450.00000    -999.25  254.27010  254.27010  155.53550    -999.25    -999.25    -999.25    -999.25    6.42940    -999.25  347.48090  347.48090  101.81870  101.81870    6.42940    6.33030    6.33030    -999.25    -999.25    0.45070    0.39300    0.40900    -999.25    6.64150   79.76410  -34.45410  -35.91700    6.64150
  500.00000    -999.25  247.04110  247.04110  146.74160    -999.25    -999.25    -999.25    -999.25    6.81470    -999.25  345.53830  345.53830  108.31740  108.31740    6.81470    6.62850    6.62850    -999.25    -999.25    0.48610    0.45460    0.44570    -999.25    7.34510   95.77800  -26.13020  -27.59310    7.34510
  550.00000    -999.25  245.40310  245.40310  193.79840    -999.25    -999.25    -999.25    -999.25    5.16000    -999.25  372.59270  372.59270  101.62620  101.62620    5.16000    5.28500    5.28500    -999.25    -999.25    0.49840    0.52780    0.45850    -999.25    6.27490   85.18010  -24.42610  -25.88900    6.27490
  600.00000    -999.25  310.01100  310.01100  131.20430    -999.25    -999.25    -999.25    -999.25    7.62170    -999.25  299.96980  299.96980   72.68330   72.68330    7.62170    7.80910    7.80910    -999.25    -999.25    0.49600    0.42880    0.45600    -999.25    7.94240   70.64390  -33.22760  -34.69050    7.94240
  650.00000    -999.25  246.68330  246.68330  180.82860    -999.25    -999.25    -999.25    -999.25    5.53010    -999.25  352.90430  352.90430  105.75750  105.75750    5.53010    5.72450    5.72450    -999.25    -999.25    0.48710    0.58600    0.44670    -999.25    6.49930   83.29800  -20.75320  -22.21610    6.49930
  700.00000    -999.25  221.28370  221.28370  164.86960    -999.25    -999.25    -999.25    -999.25    6.06540    -999.25  339.50950  339.50950  129.16370  129.16370    6.06540    6.25910    6.25910    -999.25    -999.25    0.43930    0.41640    0.39730    -999.25    8.11450  102.64080   -9.82210  -11.10020    8.11450
  750.00000    -999.25  302.57410  302.57410  393.56130    -999.25    -999.25    -999.25    -999.25    2.54090    -999.25  367.41150  367.41150   94.04610   94.04610    2.54090    2.60410    2.60410    -999.25    -999.25    0.60220    0.53240    0.56830    -999.25    3.13240   81.00340   -9.28410  -10.18970    3.13240
  800.00000    -999.25  241.19540  241.19540  314.49510    -999.25    -999.25    -999.25    -999.25    3.17970    -999.25  341.10790  341.10790   88.23160   88.23160    3.17970    3.31140    3.31140    -999.25    -999.25    0.41220    0.36520    0.36960    -999.25    3.61070   79.37280   -3.36300   -3.89610    3.61070
  850.00000    -999.25  217.27640  217.27640  278.31900    -999.25    -999.25    -999.25    -999.25    3.59300    -999.25  288.93360  288.93360   71.54050   71.54050    3.59300    3.75070    3.75070    -999.25    -999.25    0.34420    0.29860    0.30050    -999.25    5.22970   62.33190  -29.47630  -29.63690    5.22970
  900.00000    -999.25  217.04740  217.04740  235.96590    -999.25    -999.25    -999.25    -999.25    4.23790    -999.25  271.78640  271.78640   50.61120   50.61120    4.23790    4.63260    4.63260    -999.25    -999.25    0.30200    0.26810    0.25800    -999.25   17.30580   51.16440  -64.44520  -64.23320   17.30580
  950.00000    -999.25  216.89890  216.89890  141.80370    -999.25    -999.25    -999.25    -999.25    7.05200    -999.25  252.15910  252.15910   89.83750   89.83750    7.05200    7.45510    7.45510    -999.25    -999.25    0.28360    0.23000    0.23960    -999.25    7.80060   82.60700    0.16380    0.74830    7.80060
 1000.00000    -999.25    -999.25    -999.25    -999.25    -999.25    -999.25    -999.25    -999.25    -999.25    -999.25    -999.25    -999.25   37.89060   37.89060    -999.25    -999.25    -999.25    0.13840    -999.25    -999.25    -999.25    0.13840    -999.25    -999.25   35.15990  -33.77770  -41.89210    -999.25
 1050.00000  172.85360  171.85490  172.85360  101.00810   -4.32820 2686.74400    0.01360    0.01360    9.90020   -4.32820  222.15410  222.15410  103.51800  103.51800    9.90020   10.20290   10.20290    0.16930    -999.25    -999.25    -999.25    0.16930 2689.29660   11.25200   93.25200    3.12710  -14.39000   11.25200
 1100.00000  161.32590  162.73210  161.32590  118.54380   16.20330 2662.63300    0.02770    0.02770    8.43570   16.20330  199.11640  199.11640   11.24690   11.24690    8.43570   12.12840   12.12840    0.17790    -999.25    -999.25    -999.25    0.17790 2657.19560   60.27300    8.33540  -68.18360  -86.83490   60.27300
 1150.00000  160.78800  165.15620  160.78800  141.98700    9.41490 2619.54100    0.05290    0.05290    7.04290    9.41490  212.11650  212.11650    9.58070    9.58070    7.04290    8.75880    8.75880    0.17130    -999.25    -999.25    -999.25    0.17130 2620.85620   20.21430    7.92790  -64.49590  -81.09750   20.21430
 1200.00000  160.56830  164.48790  160.56830   77.98610   29.06310 2672.03800    0.02220    0.02220   12.82280   29.06310  173.49420  173.49420   22.09900   22.09900   12.82280   15.13420   15.13420    0.13870    -999.25    -999.25    -999.25    0.13870 2671.72290   44.85790   18.40700  -71.69020  -86.24220   44.85790
 1250.00000  167.80610  166.30440  167.80610   86.52020  -17.70720 2646.73000    0.03700    0.03700   11.55800  -17.70720  219.49940  219.49940   85.36410   85.36410   11.55800   11.95990   11.95990    0.15320    -999.25    -999.25    -999.25    0.15320 2651.89480   17.91100   73.39690  -12.58810  -25.09040   17.91100
 1300.00000  170.48910  167.70190  170.48910   47.65880   -0.91130 2634.07600    0.04440    0.04440   20.98250   -0.91130  176.35690  176.35690   16.16650   16.16650   20.98250   25.12950   25.12950    0.06590    -999.25    -999.25    -999.25    0.06590 2636.81880  116.35590   11.53390  -69.13180  -79.92880  116.35590
 1350.00000  165.66650  165.02880  165.66650  210.15910   16.20970 2542.76200    0.09780    0.09780    4.75830   16.20970  194.27950  194.27950    5.28740    5.28740    4.75830    5.22510    5.22510    0.11930    -999.25    -999.25    -999.25    0.11930 2543.92070   19.35290    9.01810  -64.79780  -75.59480   19.35290
 1400.00000  163.01950  162.29430  163.01950   68.74080    6.42360 2672.20900    0.02210    0.02210   14.54740    6.42360  202.46240  202.46240   60.70820   60.70820   14.54740   15.75000   15.75000    0.13060    -999.25    -999.25    -999.25    0.13060 2675.96580   17.61680   53.43680   -4.49060  -15.28760   17.61680
