~Version ---------------------------------------------------
VERS.      2.0 : CWLS log ASCII Standard -VERSION 2.0
WRAP.       NO : One line per depth step
CREA. 11/14/17 : LAS Creation Date
~Well ------------------------------------------------------
STRT.FT                           1100.0 : START DEPTH
STOP.FT                          10400.0 : STOP DEPTH
STEP.FT                         50.00000 : STEP LENGTH
NULL.                            -999.25 : NULL VALUE
COMP.               CHEVRON STANDARD LTD : COMPANY
WELL. CHEVRON GULF PASS CREEK 7-36-61-18 : WELL
FLD .                                    : FIELD
LOC .                                    : LOCATION
CTRY.                             CANADA : COUNTRY
SRVC.                       Schlumberger : SERVICE COMPANY
DATE.                        11-Jan-1976 : LOGDATE
PROV.                            Alberta : PROVINCE
UWI .                   100073606118W500 : UNIQUE WELL ID
SLAT.WGS84                      54.31663 : SURFACE LATITUDE
SLON.WGS84                      -116.558 : SURFACE LONGITUDE
~Curve Information -----------------------------------------
DEPT    .FT    : Depth Curve
CALDED  .IN    : CALIPER FROM DENSITY LOG
CALSED  .IN    : CALIPER FROM SONIC LOG [ADJ.TO GRDED]
CALWS   .IN    : CALIPER [CALSED]
CONDWS  .MMHO  : CONDUCTIVITY [1000/DRESWS]
DCORED  .G/C3  : DENSITY CORRECTION FROM DENSITY LOG
DCORWS  .G/C3  : DENSITY CORRECTION [DCORED]
DENWS   .G/C3  : FORMATION BULK DENSITY [RHOBED]
DPHILSED.V/V   : DENSITY POROSITY LIME [M=2.71, F=1.00,ADJ.TO RHOBED] FROM DENSITY LOG
DPHISSED.V/V   : DENSITY POROSITY SAND [M=2.65, F=1.00,ADJ.TO RHOBED] FROM DENSITY LOG
DPOLSWS .V/V   : DENSITY POROSITY LIME [CALC FROM DENWS, M=2.71, F=1.00]
DRESWS  .OHMM  : DEEP RESISTIVITY [ILDED]
DTED    .US/F  : DELTA-T FROM SONIC LOG [ADJ.TO GRDED]
DTWS    .US/F  : COMPRESSIONAL SONIC [DTED]
GRDED   .GAPI  : GAMMA RAY FROM DENSITY LOG
GRSED   .GAPI  : GAMMA RAY FROM SONIC LOG [ADJ.TO GRDED]
GRWS    .GAPI  : GAMMA RAY [GRSED SPL.TO GRDED @ 10379']
ILDED   .OHMM  : DEEP INDUCTION FROM RESISTIVITY LOG
ILMED   .OHMM  : MEDIUM INDUCTION FROM RESISTIVITY LOG
LL8ED   .OHMM  : LATEROLOG 8 FROM RESISTIVITY LOG
MRESWS  .OHMM  : MEDIUM RESISTIVITY [ILMED]
NPHILSED.V/V   : NEUTRON POROSITY LIME FROM DENSITY LOG [ADJ.TO RHOBED]
NPHISSED.V/V   : NEUTRON POROSITY SAND FROM DENSITY LOG [ADJ.TO RHOBED]
NPOLSWS .V/V   : NEUTRON POROSITY LIME [NPHISSED MATRIX CONVERTED TO LIME SPL.TO NPHILSED @ 6655']
RHOBED  .G/C3  : BULK DENSITY FROM DENSITY LOG
SPRED   .MV    : SPONTANEOUS POTENTIAL FROM RESISTIVITY LOG
SPWS    .MV    : SPONTANEOUS POTENTIAL [BASELINE 0 MV, SPRED]
SRESWS  .OHMM  : SHALLOW RESISTIVITY [LL8ED]
~Params ----------------------------------------------------
PD  .                     GL : PERMANENT DATUM
EPD .FT                 2874 : ELEVATION PERMANENT DATUM
LMF .                     KB : LOG MEASURED FROM
DAPD.FT                   15 : FEET ABOVE PERMANENT DATUM
EKB .FT                 2889 : KELLY BUSHING
EGL .FT                 2874 : GROUND LEVEL
DATE.               01/11/76 : RUN DATE
RUN .                      1 : RUN NUMBER
DD  .FT                10410 : DEPTH DRILLER
DL  .FT                10421 : DEPTH LOGGER
BLI .FT                10415 : BOTTOM LOG INTERVAL
TLI .FT                 1118 : TOP LOG INTERVAL
CBD .FT                 1118 : CASING BOTTOM DRILLER
CBL .FT                 1121 : CASING BOTTOM LOGGER
BS  .IN                 8.75 : BIT SIZE
BSD .FT                10410 : BIT SIZE AT DEPTH
DFT .               GEL CHEM : DRILLING FLUID TYPE
DFD .                    9.5 : DRILLING FLUID DENSITY
DFV .                    137 : DRILLING FLUID VISCOSITY
DFPH.                    9.5 : DRILLING FLUID PH
DFL .                      9 : DRILLING FLUID LOSS
MSS .               FLOWLINE : MUD SAMPLE SOURCE
RMS .OHMM               2.38 : RESISTIVITY MUD SAMPLE
MST .DEGF                 54 : MUD SAMPLE TEMPERATURE
RMF .OHMM               2.06 : RESISTIVITY MUD FILTRATE SAMPLE
MFST.DEGF                 60 : MUD FILTRATE SAMPLE TEMPERATURE
RMC .OHMM               1.88 : RESISTIVITY MUD CAKE
MCST.DEGF                 42 : MUD CAKE SAMPLE TEMPERATURE
RMB .OHMM               0.66 : RESISTIVITY MUD AT BHT
TCS .HRS                 5.5 : TIME CIRCULATED STOPPED
LUN .                   7657 : LOGGING UNIT NUMBER
ENGI.                STANDEN : RECORDING ENGINEER
WITN.                   WONG : WITNESSED BY
CLNT.                A2DTECH : CLIENT CODE
ORIG.            2" 5" PRINT : ORIGIN OF DATA
UWI .       100073606118W500 : UNIQUE WELL ID
DICO. A2D Technologies, Inc. : DIGITIZING COMPANY
~Other -----------------------------------------------------
~ASCII -----------------------------------------------------
# ...
 7600.00000    9.01210    9.16830    9.16830    4.53560    0.00900    0.00900    2.73150   -0.01540    -999.25   -0.01260  220.47980   51.52540   51.52540   25.84310   23.75670   23.75670  220.47980  252.41540  418.76640  252.41540    0.01020    -999.25    0.01020    2.73150 -118.87640  -71.02990  418.76640
 7650.00000    9.15120    9.24740    9.24740   17.21570    0.00670    0.00670    2.67590    0.01410    -999.25    0.01990   58.12130   59.20980   59.20980   75.99280   73.67720   73.67720   58.12130   62.78730   80.72190   62.78730    0.05990    -999.25    0.05990    2.67590  -56.96330  -10.53560   80.72190
 7700.00000    9.33280    9.37550    9.37550   55.55030    0.00060    0.00060    2.68720    0.00990    -999.25    0.01330   18.00170   57.42770   57.42770   79.38680   73.05160   73.05160   18.00170   20.04110   28.14550   20.04110    0.07810    -999.25    0.07810    2.68720  -74.54770  -28.96960   28.14550
 7750.00000    9.47900    9.27270    9.27270    4.45360   -0.01050   -0.01050    2.70320   -0.00380    -999.25    0.00400  224.53980   50.07050   50.07050   31.11930   29.17550   29.17550  224.53980  288.74770  444.66690  288.74770    0.00220    -999.25    0.00220    2.70320 -122.49570  -76.38210  444.66690
 7800.00000   10.63080    9.60240    9.60240    1.95520    0.14520    0.14520    2.71020   -0.00710    -999.25   -0.00010  512.11920   50.29960   50.29960   16.18700   15.57420   15.57420  512.11920  360.50680  713.67740  360.50680    0.00050    -999.25    0.00050    2.71020 -195.46940 -148.82030  713.67740
 7850.00000    9.71590    9.18110    9.18110    3.26620    0.01700    0.01700    2.72690   -0.00980    -999.25   -0.00990  306.16950   50.08470   50.08470   14.06950   13.79510   13.79510  306.16950  356.55670  453.33880  356.55670    0.00020    -999.25    0.00020    2.72690 -179.21490 -132.02680  453.33880
 7900.00000   10.97660    9.44700    9.44700    3.29890    0.27040    0.27040    2.59530    0.05920    -999.25    0.06700  303.66840   50.26700   50.26700   15.44160   14.48830   14.48830  303.66840  274.81190  421.25590  274.81190   -0.00200    -999.25   -0.00200    2.59530 -187.84920 -140.12570  421.25590
 7950.00000    9.05010    9.00970    9.00970    6.43100    0.01110    0.01110    2.71980   -0.00490    -999.25   -0.00570  155.49620   48.35350   48.35350   12.88390   12.80390   12.80390  155.49620  132.23700  153.67010  132.23700   -0.00030    -999.25   -0.00030    2.71980 -178.44400 -130.18150  153.67010
 8000.00000   10.67040    9.12560    9.12560    3.19440    0.24990    0.24990    2.60050    0.05970    -999.25    0.06400  313.04350   50.54040   50.54040   12.22240   12.85680   12.85680  313.04350  199.07830  261.77070  199.07830   -0.00080    -999.25   -0.00080    2.60050 -204.58120 -155.78320  261.77070
 8050.00000   10.93820    9.28910    9.28910   14.52510    0.23100    0.23100    2.41390    0.18080    -999.25    0.17320   69.03210   50.78390   50.78390   12.55350   12.09230   12.09230   69.03210   99.24890  184.29670   99.24890    0.02540    -999.25    0.02540    2.41390 -221.32070 -171.98720  184.29670
 8100.00000   10.74870    9.34590    9.34590    5.14110    0.26600    0.26600    2.64010    0.03170    -999.25    0.04090  194.50980   50.15570   50.15570   16.72580   15.38340   15.38340  194.50980  136.23370  261.66900  136.23370    0.00170    -999.25    0.00170    2.64010 -184.02990 -134.15740  261.66900
 8150.00000   12.14660   10.14900   10.14900    3.86180    0.23040    0.23040    2.27340    0.24210    -999.25    0.25530  259.04620   49.92600   49.92600   13.27100   12.06200   12.06200  259.04620  444.01630  264.45970  444.01630    0.00470    -999.25    0.00470    2.27340 -190.26860 -139.86070  264.45970
 8200.00000   11.98880    9.42680    9.42680    2.87440    0.22220    0.22220    2.50870    0.12890    -999.25    0.11770  347.89530   50.79690   50.79690   15.97990   14.79040   14.79040  347.89530  189.91600  308.08150  189.91600    0.00530    -999.25    0.00530    2.50870 -187.58920 -136.64230  308.08150
 8250.00000   13.58480    9.42500    9.42500    2.52850    0.17910    0.17910    2.13550    0.31550    -999.25    0.33600  395.49050   50.98150   50.98150   16.52480   15.03870   15.03870  395.49050  219.09260  466.64210  219.09260    0.00610    -999.25    0.00610    2.13550 -218.05780 -166.57540  466.64210
 8300.00000   11.40730    9.27280    9.27280    8.08220    0.24440    0.24440    2.46920    0.13390    -999.25    0.14080  124.20290   50.07850   50.07850   12.29410   13.53220   13.53220  124.20290   96.62810  165.05900   96.62810    0.00570    -999.25    0.00570    2.46920 -196.58970 -144.57180  165.05900
 8350.00000    8.66320    8.58130    8.58130   32.71180    0.16730    0.16730    2.65050    0.03130    -999.25    0.03480   30.57000   52.23820   52.23820   11.88400    8.46480    8.46480   30.57000   44.58430  274.40990   44.58430    0.02830    -999.25    0.02830    2.65050 -195.82650 -143.26960  274.40990
 8400.00000    8.50330    8.38990    8.38990   23.05310    0.09920    0.09920    2.66580    0.01610    -999.25    0.02580   43.40490   53.30360   53.30360   13.91100   10.94880   10.94880   43.40490   58.85840  142.47150   58.85840    0.02840    -999.25    0.02840    2.66580 -208.78010 -155.68770  142.47150
 8450.00000    8.97980    9.16880    9.16880    1.99330    0.05140    0.05140    2.93860   -0.13560    -999.25   -0.13370  501.69080   48.28170   48.28170   17.72030   16.83810   16.83810  501.69080  690.12010 1470.13170  690.12010    0.00620    -999.25    0.00620    2.93860 -211.75600 -158.12470 1470.13170
 8500.00000    8.81300    8.86640    8.86640   54.30590    0.04190    0.04190    2.71380   -0.00320    -999.25   -0.00220   18.41420   53.74080   53.74080   18.36950   19.05940   19.05940   18.41420   27.16890  141.14400   27.16890    0.09310    -999.25    0.09310    2.71380 -178.50350 -124.33670  141.14400
 8550.00000    8.64490    8.29350    8.29350   15.18630    0.25100    0.25100    2.56700    0.07910    -999.25    0.08360   65.85920   50.06930   50.06930   26.10800   24.67240   24.67240   65.85920   85.34940  138.01170   85.34940    0.09400    -999.25    0.09400    2.56700 -204.62670 -149.92440  138.01170
 8600.00000   11.80190    9.34410    9.34410    8.94900    0.24620    0.24620    2.18790    0.29890    -999.25    0.30530  111.74470   51.10190   51.10190   26.55360   27.05240   27.05240  111.74470   65.67800  130.49090   65.67800    0.06430    -999.25    0.06430    2.18790 -165.90050 -110.65920  130.49090
 8650.00000    9.46010    8.97790    8.97790    4.47420    0.23260    0.23260    2.76560   -0.03580    -999.25   -0.03250  223.51460   50.16680   50.16680   27.79130   27.42670   27.42670  223.51460  313.02970  509.42500  313.02970    0.01430    -999.25    0.01430    2.76560 -120.49360  -64.71680  509.42500
 8700.00000    8.95370    9.08290    9.08290   13.15220    0.00310    0.00310    2.71120   -0.00230    -999.25   -0.00070   76.03270   52.70040   52.70040   34.69790   35.76270   35.76270   76.03270   85.49060  107.80340   85.49060    0.02770    -999.25    0.02770    2.71120  -80.71260  -24.39680  107.80340
 8750.00000    9.00790    9.10330    9.10330    5.40410    0.01660    0.01660    2.73650   -0.02090    -999.25   -0.01550  185.04580   50.98510   50.98510   27.66690   28.63980   28.63980  185.04580  196.40640  339.34450  196.40640    0.00960    -999.25    0.00960    2.73650 -108.82330  -51.97210  339.34450
 8800.00000    9.01040    9.04690    9.04690    3.54630    0.00250    0.00250    2.71690   -0.01560    -999.25   -0.00400  282.00100   50.41960   50.41960   25.90980   26.23040   26.23040  282.00100  314.21240  612.27410  314.21240    0.00750    -999.25    0.00750    2.71690 -132.35140  -74.96470  612.27410
 8850.00000    9.05010    9.13050    9.13050    7.34630    0.01730    0.01730    2.72910   -0.01210    -999.25   -0.01120  136.12280   51.43960   51.43960   23.35050   22.68880   22.68880  136.12280  148.29990  200.98890  148.29990    0.01110    -999.25    0.01110    2.72910  -98.53160  -40.60590  200.98890
