~Version ---------------------------------------------------
VERS.      2.0 : CWLS log ASCII Standard -VERSION 2.0
WRAP.       NO : One line per depth step
CREA. 11/10/17 : LAS Creation Date
~Well ------------------------------------------------------
STRT.FT                            300.0 : START DEPTH
STOP.FT                          12850.0 : STOP DEPTH
STEP.FT                         50.00000 : STEP LENGTH
NULL.                            -999.25 : NULL VALUE
COMP.            TRIAD OIL COMPANY, LTD. : COMPANY
WELL. TRIAD H.B. MOOSE CREEK 10-27-51-17 : WELL
FLD .                                    : FIELD
LOC .                                    : LOCATION
CTRY.                             CANADA : COUNTRY
SRVC.                       Schlumberger : SERVICE COMPANY
DATE.                        21-May-1958 : LOGDATE
PROV.                            Alberta : PROVINCE
UWI .                   100102705117W500 : UNIQUE WELL ID
SLAT.WGS84                      53.43327 : SURFACE LATITUDE
SLON.WGS84                     -116.4188 : SURFACE LONGITUDE
~Curve Information -----------------------------------------
DEPT  .FT         : Depth Curve
CALSED.IN         : CALIPER FROM SONIC LOG
CALWS .IN         : CALIPER [MCALED SPL. CALSED @ 8179'-9461']
CONDWS.MMHO       : CONDUCTIVITY [1000/DRESWS]
DRESWS.OHMM       : DEEP RESISTIVITY [LNED]
DTED  .US/F       : DELTA-TIME FROM SONIC LOG
DTWS  .US/F       : COMPRESSIONAL SONIC [DTED]
GRNED .UgRa-Eq/T  : GAMMA RAY [GRNED*16.5] FROM GRN LOG
GRSED .GAPI       : GAMMA RAY FROM SONIC LOG
GRWS  .GAPI       : GAMMA RAY [GRNED SPL. TO GRSED @ 8179'-9461']
LATED .OHMM       : LATERAL 18' 8" RESISTIVITY FROM RESISTIVITY LOG
LNED  .OHMM       : LONG NORMAL 64" RESISTIVITY FROM RESISTIVITY LOG
MCALED.IN         : MICRO CALIPER FROM MICROLOG
NEUTED.CPS        : NEUTRON FROM GRN LOG
NEUTWS.CPS        : NEUTRON [NEUTED]
SNED  .OHMM       : SHORT NORMAL 16" RESISTIVITY FROM RESISTIVITY LOG
SPRED .MV         : SPONTANEOUS POTENTIAL FROM RESISTIVITY LOG
SPWS  .MV         : SPONTANEOUS POTENTIAL [BASELINE 0 MV, SPRED]
SRESWS.OHMM       : SHALLOW RESISTIVITY [SNED]
~Params ----------------------------------------------------
LMF .                     KB : LOG MEASURED FROM
DMF .                     KB : DRILLING MEASURED FROM
EKB .FT                 3293 : KELLY BUSHING
DATE.               05/21/58 : RUN DATE
RUN .                      2 : RUN NUMBER
DD  .FT                12881 : DEPTH DRILLER
DL  .FT                12871 : DEPTH LOGGER
BLI .FT                12870 : BOTTOM LOG INTERVAL
TLI .FT                 8178 : TOP LOG INTERVAL
CBD .FT                 8182 : CASING BOTTOM DRILLER
CBL .FT                 8178 : CASING BOTTOM LOGGER
BS  .IN                8.625 : BIT SIZE
BSD .FT                12861 : BIT SIZE AT DEPTH
DFT .                   LIME : DRILLING FLUID TYPE
DFD .                   10.2 : DRILLING FLUID DENSITY
DFV .                     72 : DRILLING FLUID VISCOSITY
MSS .               FLOWLINE : MUD SAMPLE SOURCE
RMS .OHMM               0.52 : RESISTIVITY MUD SAMPLE
MST .DEGF                 65 : MUD SAMPLE TEMPERATURE
RMF .OHMM               0.25 : RESISTIVITY MUD FILTRATE SAMPLE
MFST.DEGF                 85 : MUD FILTRATE SAMPLE TEMPERATURE
RMC .OHMM               0.68 : RESISTIVITY MUD CAKE
MCST.DEGF                 85 : MUD CAKE SAMPLE TEMPERATURE
TCS .HRS                 300 : TIME CIRCULATED STOPPED
LUN .                   1571 : LOGGING UNIT NUMBER
LUL .                    EDM : LOGGING UNIT LOCATION
ENGI.                  JAMES : RECORDING ENGINEER
WITN.                 AITKEN : WITNESSED BY
CLNT.                A2DTECH : CLIENT CODE
ORIG.            2" 5" PRINT : ORIGIN OF DATA
UWI .       100102705117W500 : UNIQUE WELL ID
DICO. A2D Technologies, Inc. : DIGITIZING COMPANY
~Other -----------------------------------------------------
~ASCII -----------------------------------------------------
# ...
 6150.00000    -999.25   13.74870   60.30110   16.58470    -999.25    -999.25    -999.25    -999.25    -999.25   14.23020   16.58470   13.74870    -999.25    -999.25   13.91810  -84.22410   -2.48170   13.91810
 6200.00000    -999.25   14.00280   68.16630   14.67000    -999.25    -999.25    -999.25    -999.25    -999.25   12.16280   14.67000   14.00280    -999.25    -999.25   12.35430  -85.07070   -4.35430   12.35430
 6250.00000    -999.25   13.96930  108.91590    9.18140    -999.25    -999.25    -999.25    -999.25    -999.25   10.28540    9.18140   13.96930    -999.25    -999.25    8.60870  -83.34470   -3.64930    8.60870
 6300.00000    -999.25   13.97680   95.77240   10.44220    -999.25    -999.25    -999.25    -999.25    -999.25   11.10950   10.44220   13.97680    -999.25    -999.25    9.53310  -85.43090   -6.75120    9.53310
 6350.00000    -999.25   13.56960   97.97100   10.20710    -999.25    -999.25    -999.25    -999.25    -999.25   11.37280   10.20710   13.56960    -999.25    -999.25    9.33830  -83.87940   -6.22590    9.33830
 6400.00000    -999.25   13.93970   89.40380   11.18650    -999.25    -999.25    -999.25    -999.25    -999.25    9.99870   11.18650   13.93970    -999.25    -999.25   10.32730  -83.24510   -6.60740   10.32730
 6450.00000    -999.25   12.87730   70.94160   14.09610    -999.25    -999.25    -999.25    -999.25    -999.25   15.62910   14.09610   12.87730    -999.25    -999.25   12.53120  -82.80860   -7.19700   12.53120
 6500.00000    -999.25   12.88520  111.26440    8.98760    -999.25    -999.25    -999.25    -999.25    -999.25   12.39210    8.98760   12.88520    -999.25    -999.25   10.44870  -76.75050   -2.15980   10.44870
 6550.00000    -999.25   13.93140   92.45500   10.81680    -999.25    -999.25    -999.25    -999.25    -999.25   11.27350   10.81680   13.93140    -999.25    -999.25    9.97010  -80.08660   -6.51170    9.97010
 6600.00000    -999.25   13.93740   96.65290   10.34630    -999.25    -999.25    -999.25    -999.25    -999.25   12.09870   10.34630   13.93740    -999.25    -999.25   11.12590  -76.84480   -4.29600   11.12590
 6650.00000    -999.25   13.95500  120.52250    8.29740    -999.25    -999.25    -999.25    -999.25    -999.25    8.58000    8.29740   13.95500    -999.25    -999.25    8.64260  -74.60240   -3.06940    8.64260
 6700.00000    -999.25   13.91500  101.89630    9.81390    -999.25    -999.25    -999.25    -999.25    -999.25   10.36190    9.81390   13.91500    -999.25    -999.25    9.03910  -75.61220   -5.10530    9.03910
 6750.00000    -999.25   13.61830   60.52210   16.52290    -999.25    -999.25    -999.25    -999.25    -999.25   13.07260   16.52290   13.61830    -999.25    -999.25   11.86240  -72.63750   -3.15150   11.86240
 6800.00000    -999.25   12.45290   45.88610   21.79450    -999.25    -999.25    -999.25    -999.25    -999.25   21.73390   21.79450   12.45290    -999.25    -999.25   17.14150  -71.21620   -2.74610   17.14150
 6850.00000    -999.25   11.48680   40.94330   24.42400    -999.25    -999.25    -999.25    -999.25    -999.25   30.38850   24.42400   11.48680    -999.25    -999.25   18.63820  -75.08260   -6.31030   18.63820
 6900.00000    -999.25   12.07250   54.02460   18.51020    -999.25    -999.25    -999.25    -999.25    -999.25   18.93180   18.51020   12.07250    -999.25    -999.25   15.10010  -73.08040   -3.29060   15.10010
 6950.00000    -999.25   12.27640   66.97740   14.93040    -999.25    -999.25    -999.25    -999.25    -999.25   14.49030   14.93040   12.27640    -999.25    -999.25   12.93990  -75.25890   -4.44150   12.93990
 7000.00000    -999.25   11.98370   67.29520   14.85990    -999.25    -999.25    -999.25    -999.25    -999.25   11.97200   14.85990   11.98370    -999.25    -999.25   12.32280  -78.12140   -6.28140   12.32280
 7050.00000    -999.25   12.09220   69.98480   14.28900    -999.25    -999.25    -999.25    -999.25    -999.25   12.30670   14.28900   12.09220    -999.25    -999.25   13.05160  -76.97910   -4.12170   13.05160
 7100.00000    -999.25   11.97260   57.92940   17.26240    -999.25    -999.25    -999.25    -999.25    -999.25   15.44090   17.26240   11.97260    -999.25    -999.25   15.01270  -83.05220  -10.77570   15.01270
 7150.00000    -999.25   12.26900   73.49020   13.60730    -999.25    -999.25    -999.25    -999.25    -999.25   11.82250   13.60730   12.26900    -999.25    -999.25   12.06000  -83.18900  -11.49560   12.06000
 7200.00000    -999.25   11.39130   54.66480   18.29330    -999.25    -999.25    -999.25    -999.25    -999.25   16.87650   18.29330   11.39130    -999.25    -999.25   15.24510  -84.30280  -13.19830   15.24510
 7250.00000    -999.25   11.60470   59.03470   16.93920    -999.25    -999.25    -999.25    -999.25    -999.25   14.47760   16.93920   11.60470    -999.25    -999.25   15.53520  -78.86170   -8.34320   15.53520
 7300.00000    -999.25   11.66740   42.52550   23.51540    -999.25    -999.25    -999.25    -999.25    -999.25   14.65570   23.51540   11.66740    -999.25    -999.25   18.37690  -76.30420   -6.63590   18.37690
 7350.00000    -999.25   12.30200   37.13690   26.92740    -999.25    -999.25    -999.25    -999.25    -999.25   23.01200   26.92740   12.30200    -999.25    -999.25   19.70170  -76.04550   -8.21510   19.70170
 7400.00000    -999.25   12.42820   36.78670   27.18790    -999.25    -999.25    -999.25    -999.25    -999.25   27.56680   27.18790   12.42820    -999.25    -999.25   19.53300  -70.66750   -4.65660   19.53300
 7450.00000    -999.25   11.47820   28.53030   35.05040    -999.25    -999.25    -999.25    -999.25    -999.25   37.05840   35.05040   11.47820    -999.25    -999.25   32.31450  -66.59830   -2.22290   32.31450
 7500.00000    -999.25   12.45170   58.42760   17.11520    -999.25    -999.25    -999.25    -999.25    -999.25   14.24140   17.11520   12.45170    -999.25    -999.25   15.36440  -73.66720   -8.22830   15.36440
 7550.00000    -999.25   11.85810   66.88680   14.95070    -999.25    -999.25    -999.25    -999.25    -999.25   13.20070   14.95070   11.85810    -999.25    -999.25   13.44910  -71.11580   -4.74660   13.44910
 7600.00000    -999.25   12.33440   40.62840   24.61330    -999.25    -999.25    -999.25    -999.25    -999.25   19.95490   24.61330   12.33440    -999.25    -999.25   20.61810  -71.98780   -5.50130   20.61810
 7650.00000    -999.25   12.05290  100.10410    9.98960    -999.25    -999.25    -999.25    -999.25    -999.25   12.89150    9.98960   12.05290    -999.25    -999.25    9.48390  -71.66580   -5.06330    9.48390
 7700.00000    -999.25   12.01800   90.98270   10.99110    -999.25    -999.25    -999.25    -999.25    -999.25   11.55200   10.99110   12.01800    -999.25    -999.25    9.97770  -73.71920   -6.99940    9.97770
 7750.00000    -999.25   11.97600  107.84580    9.27250    -999.25    -999.25    -999.25    -999.25    -999.25   10.43260    9.27250   11.97600    -999.25    -999.25    9.81040  -71.60860   -4.77220    9.81040
 7800.00000    -999.25   11.58300  101.85590    9.81780    -999.25    -999.25    -999.25    -999.25    -999.25    7.08500    9.81780   11.58300    -999.25    -999.25   10.39960  -70.90660   -3.61490   10.39960
 7850.00000    -999.25   11.93140  103.82490    9.63160    -999.25    -999.25    -999.25    -999.25    -999.25   10.03240    9.63160   11.93140    -999.25    -999.25   10.14740  -71.68640   -3.41410   10.14740
 7900.00000    -999.25   12.36920  131.11750    7.62680    -999.25    -999.25    -999.25    -999.25    -999.25    6.70300    7.62680   12.36920    -999.25    -999.25    8.24090  -75.82910   -6.58610    8.24090
 7950.00000    -999.25   11.49990   85.83180   11.65070    -999.25    -999.25    -999.25    -999.25    -999.25   15.64040   11.65070   11.49990    -999.25    -999.25   14.91040  -72.74540   -2.52180   14.91040
 8000.00000    -999.25   11.88400  188.28140    5.31120    -999.25    -999.25    -999.25    -999.25    -999.25    4.53540    5.31120   11.88400    -999.25    -999.25    5.97140  -74.82110   -9.39870    5.97140
 8050.00000    -999.25   12.09730   71.47450   14.04530    -999.25    -999.25    -999.25    -999.25    -999.25    9.82060   14.04530   12.09730    -999.25    -999.25   12.98450  -75.84840  -15.59620   12.98450
