~Version ---------------------------------------------------
VERS. 2.0 : CWLS log ASCII Standard -VERSION 2.0
WRAP.  NO : ONE LINE PER DEPTH STEP
~Well ------------------------------------------------------
STRT.F                             1200.0 : START DEPTH
STOP.F                            11400.0 : STOP DEPTH
STEP.F                           50.00000 : STEP LENGTH
NULL.                             -999.25 : NULL VALUE
COMP.       AMOCO CANADA PETROLEUM CO LTD : COMPANY
WELL. AMOCO MOBIL L-2 WAHIGAN 10-16-64-23 : WELL
FLD .                                     : FIELD
LOC .                                     : LOCATION
CTRY.                              CANADA : COUNTRY
SRVC.                             Unknown : SERVICE COMPANY
DATE.                         06-Feb-1976 : LOGDATE
PROV.                             Alberta : PROVINCE
UWI .                    100101606423W500 : UNIQUE WELL ID
SLAT.WGS84                       54.53986 : SURFACE LATITUDE
SLON.WGS84                      -117.4124 : SURFACE LONGITUDE
~Curve Information -----------------------------------------
DEPT   .F    0   1   0  0 : 1 MEASURED DEPTH
GRS    .GAPI 60 310 01 00 : GAMMA RAY FROM SONIC LOG
AC     .US/F 60 500 41 00 : ACOUSTIC
CALS   .IN   60 280 50 00 : CALIPER FROM SONIC LOG
SPR    .MV   07 010 01 00 : SPONTANEOUS POTENTIAL FROM RESISTIVITY LOG
ILM    .OHMM 07 120 44 00 : INDUCTION MEDIUM RESISTIVITY
SFL    .OHMM 07 220 06 00 : SPHERICALLY FOCUSED LOG
ILD    .OHMM 07 120 46 00 : INDUCTION DEEP RESISTIVITY
GRD    .GAPI 45 310 01 00 : GAMMA RAY FROM DENSITY LOG
CORR   .G/C3 45 356 01 00 : DENSITY CORRECTION
RHOB   .G/C3 45 350 01 00 : BULK DENSITY
CALD   .IN   45 280 60 00 : CALIPER FROM DENSITY LOG
NPHI_SS.DEC  42 890 03 00 : NEUTRON POROSITY SANDSTONE
DPHI_SS.DEC  45 890 12 00 : DENSITY POROSITY SANDSTONE
NPHI_LS.DEC  42 890 01 00 : NEUTRON POROSITY LIMESTONE
DPHI_LS.DEC  45 890 10 00 : DENSITY POROSITY LIMESTONE
~Params ----------------------------------------------------
PD  .                     GL : PERMANENT DATUM
EPD .FT               2628.5 : ELEVATION PERMANENT DATUM
LMF .                     KB : LOG MEASURED FROM
DAPD.FT                 13.5 : FEET ABOVE PERMANENT DATUM
DMF .                     KB : DRILLING MEASURED FROM
EKB .FT                 2642 : KELLY BUSHING
EGL .FT               2628.5 : GROUND LEVEL
DATE.               02/06/76 : RUN DATE
RUN .                      1 : RUN NUMBER
DD  .FT                11378 : DEPTH DRILLER
DL  .FT                11410 : DEPTH LOGGER
BLI .FT                11408 : BOTTOM LOG INTERVAL
TLI .FT                 1219 : TOP LOG INTERVAL
CS  .IN                9.625 : CASING SIZE
CBD .FT                 1208 : CASING BOTTOM DRILLER
CBL .FT                 1219 : CASING BOTTOM LOGGER
BS  .IN                 8.75 : BIT SIZE
BSD .FT                11378 : BIT SIZE AT DEPTH
DFT .           MUD GEL CHEM : DRILLING FLUID TYPE
DFD .                    9.3 : DRILLING FLUID DENSITY
DFV .                    135 : DRILLING FLUID VISCOSITY
DFPH.                     10 : DRILLING FLUID PH
DFL .                    8.1 : DRILLING FLUID LOSS
MSS .                   CIRC : MUD SAMPLE SOURCE
RMS .OHMM                3.5 : RESISTIVITY MUD SAMPLE
MST .DEGF                 67 : MUD SAMPLE TEMPERATURE
RMF .OHMM                3.5 : RESISTIVITY MUD FILTRATE SAMPLE
MFST.DEGF                 62 : MUD FILTRATE SAMPLE TEMPERATURE
RMC .OHMM                2.8 : RESISTIVITY MUD CAKE
MCST.DEGF                 67 : MUD CAKE SAMPLE TEMPERATURE
MFSS.                   MEAS : MUD FILTRATE SAMPLE SOURCE
MCSS.                   MEAS : MUD CAKE SAMPLE SOURCE
RMB .OHMM               1.21 : RESISTIVITY MUD AT BHT
TCS .HRS                   7 : TIME CIRCULATED STOPPED
LUN .                   6155 : LOGGING UNIT NUMBER
LUL .                    EDM : LOGGING UNIT LOCATION
ENGI.                    GAU : RECORDING ENGINEER
WITN.                  KAREL : WITNESSED BY
CLNT.                A2DTECH : CLIENT CODE
ORIG.            2" 5" PRINT : ORIGIN OF DATA
UWI .       100101606423W500 : UNIQUE WELL ID
DICO. A2D Technologies, Inc. : DIGITIZING COMPANY
~Other -----------------------------------------------------
~ASCII -----------------------------------------------------
# ...
 3500.00000  100.84830   94.15300   11.44850  -55.43160    7.54880   11.00660    6.51170  142.12510    0.21240    2.19370   12.85060    0.46530    0.22930    -999.25    -999.25
 3550.00000  109.74190   94.20810   11.25060  -55.30430    6.36500    8.68470    5.69670  147.41400    0.24450    2.41490   13.27080    0.46940    0.17940    -999.25    -999.25
 3600.00000   99.84370  100.88620   11.28100  -55.55710    4.92600    6.78430    4.44430  135.40110    0.14560    2.10110   12.29890    0.52410    0.47400    -999.25    -999.25
 3650.00000  114.72880   95.06270   11.03500  -56.45200    5.41780    7.10610    5.10900  149.06390    0.17240    2.08770   13.35810    0.46570    0.27050    -999.25    -999.25
 3700.00000   96.56800   92.38220   11.17780  -56.10540    7.27340    8.50140    6.65350  132.38790    0.19180    2.07720   12.76790    0.45660    0.31970    -999.25    -999.25
 3750.00000  104.83350   94.51500   11.55540  -56.73320    6.71650    9.11830    6.15980  132.38000    0.22320    2.18460   11.89160    0.45960    0.28000    -999.25    -999.25
 3800.00000  111.06880   95.04310   10.89770  -54.87660    5.97150    7.61110    5.31760  148.16780    0.18010    2.03290   12.48850    0.41330    0.49470    -999.25    -999.25
 3850.00000   93.41560   87.23360   11.46290  -56.32690    5.78000    7.79180    5.54100  146.07650    0.14910    1.71790   12.21180    0.44320    0.50570    -999.25    -999.25
 3900.00000  101.95560   93.74290   10.06000  -55.34830    5.06350    6.39860    4.92060  134.95720    0.19600    2.07990   11.16990    0.39760    0.23910    -999.25    -999.25
 3950.00000  101.10400   85.50210   10.87620  -57.27490    5.34720    7.64210    4.93040  144.24630    0.15210    2.28750   13.41290    0.37070    0.32410    -999.25    -999.25
 4000.00000  100.85190   80.19070    9.89700  -57.30270    9.79510   16.43350    8.50720  126.76890    0.24230    2.08690   10.83620    0.32690    0.33080    -999.25    -999.25
 4050.00000  112.76060   86.44650   10.57780  -53.10100    8.95460   12.44340    7.61820  140.63850    0.20530    1.96160   11.21120    0.35980    0.38430    -999.25    -999.25
 4100.00000  103.46140   88.41750   10.78040  -51.83810    7.57440   11.87110    7.07940  142.17300    0.19410    2.00900   11.50240    0.34740    0.42280    -999.25    -999.25
 4150.00000  112.49770   89.39690   10.19110  -51.46910    7.29800    9.84780    6.45350  142.13750    0.19150    1.98640   11.42560    0.42450    0.39970    -999.25    -999.25
 4200.00000   98.39660   84.91550   11.28490  -51.05200    7.04340    8.95460    6.55080  136.15020    0.15340    1.76710   13.20710    0.48560    0.54110    -999.25    -999.25
 4250.00000   92.92580   87.12520   11.30290  -50.46280    6.29740    7.93200    5.90600  130.82090    0.13260    1.72420   13.03650    0.41470    0.59930    -999.25    -999.25
 4300.00000   99.05320   95.76330   11.94470  -49.08050    5.79750    7.86310    5.33150  149.11570    0.12940    1.63320   13.19410    0.51850    -999.25    -999.25    -999.25
 4350.00000  112.89140   93.75440   11.02640  -48.59910    5.76100    7.76580    5.24580  151.48830    0.17750    1.83220   13.37180    0.48370    0.55590    -999.25    -999.25
 4400.00000  114.69490   92.60730   10.41960  -47.79580    6.21830    9.15340    5.79190  149.42490    0.15830    1.75480   13.34440    0.43770    0.55040    -999.25    -999.25
 4450.00000  110.56950   98.29750   11.77570  -47.93990    6.69900    9.55170    5.87760  150.02320    0.12890    1.67930   13.15160    0.47970    0.52920    -999.25    -999.25
 4500.00000   99.75000   91.70580   11.25370  -47.30580   10.24660   17.05710    8.73740  140.52160    0.16170    1.77390   13.42040    0.49000    0.51280    -999.25    -999.25
 4550.00000  103.31460   91.71690   11.39330  -46.98140    6.20330    9.60060    5.67290  145.02150    0.17740    1.84030   13.30590    0.50300    0.42410    -999.25    -999.25
 4600.00000  135.53350  103.01930    9.57130  -44.01020   11.25260   23.82080    8.88950  186.93830    0.26050    2.15840   11.70160    0.50180    0.34680    -999.25    -999.25
 4650.00000  103.36530   94.17520   11.35230  -45.08000    7.01070   13.51540    6.29060  147.38650    0.21250    1.97080   13.26050    0.51880    0.48990    -999.25    -999.25
 4700.00000  188.56210  101.69060    9.33260  -41.71560   11.06120   20.87540    9.11030  209.33270    0.13880    1.88980   10.92910    0.45860    0.27620    -999.25    -999.25
 4750.00000   94.84280   73.91720    9.94090  -46.75660    6.85110    9.84290    5.91860  130.14300    0.29210    2.20080   11.66290    0.35810    0.22580    -999.25    -999.25
 4800.00000  110.11740   90.11690   11.14130  -47.56070    9.26410   12.18640    8.06150  129.18680    0.19410    1.88980   13.21600    0.50390    0.43520    -999.25    -999.25
 4850.00000  115.03550   82.38700   10.81730  -45.11430    6.25700    8.16460    5.55340  144.10430    0.26860    2.26510   12.37440    0.43090    0.35860    -999.25    -999.25
 4900.00000   98.20060   81.89470   11.16220  -48.20860   11.89860   18.67270   11.60120  150.38210    0.18870    2.01550   11.69610    0.34410    0.39550    -999.25    -999.25
 4950.00000  108.63630   83.71130   11.04910  -43.66540    7.79140    9.26290    7.03630  149.90860    0.21280    2.08670   11.89070    0.40500    0.23690    -999.25    -999.25
 5000.00000  104.11320  108.64420   11.49180  -43.45520    4.71660    6.46180    4.37450  140.08250    0.24390    2.04260   13.63150    0.45050    0.38380    -999.25    -999.25
 5050.00000  109.94940   80.92540   10.81520  -43.23080    8.19650    8.82450    7.99470  137.75190    0.26800    2.24120   11.48250    0.33800    0.27600    -999.25    -999.25
 5100.00000   87.12360   88.38470   11.74200  -42.89770    6.08080    8.12760    5.81080  143.81720    0.15100    1.78380   13.29310    0.44640    0.51050    -999.25    -999.25
 5150.00000   93.61140   87.94910   11.98720  -43.79640    6.35370    6.95440    5.96570  149.81590    0.09070    2.58470   14.40880    0.40740    0.03710    -999.25    -999.25
 5200.00000  123.39480  100.01230   11.60190  -42.42740    4.36980    5.61070    4.18440  252.56500    0.20750    2.56960   14.56810    0.43260    0.02690    -999.25    -999.25
 5250.00000  105.05090  110.76340   10.51600  -41.72040    3.05730    3.98630    2.90480  155.12630    0.21780    2.60490   14.51730    0.45300    0.05160    -999.25    -999.25
 5300.00000  101.80740   91.50170   11.40510  -42.28690    4.26480    5.06890    4.10210  147.75350    0.20800    2.62740   14.41620    0.35190   -0.00020    -999.25    -999.25
 5350.00000  111.18290   86.72600   11.55490  -43.78240    7.01670    7.47350    6.66920  147.81110    0.15520    2.59020   13.03870    0.33790    0.03890    -999.25    -999.25
 5400.00000  118.32250   84.61530    9.76320  -43.18330    9.29090    9.87620    8.96000  148.77780    0.10970    2.56070   10.11780    0.33210    0.06810    -999.25    -999.25
 5450.00000   89.94640   74.49460    9.55050  -50.66630   10.10690   13.60370    9.73210  120.31610    0.08750    2.49540   10.17890    0.24670    0.08320    -999.25    -999.25
 5500.00000   91.65880   80.26220   10.54800  -44.02360    3.71650    9.69740    3.37830  116.15080    0.08050    2.60180   10.81330    0.29600    0.08640    -999.25    -999.25
 5550.00000   75.64870   79.42600    9.23920  -64.77390   14.05860   15.08140   12.18660  105.31030    0.17970    2.57420   10.48140    0.28920    0.05880    -999.25    -999.25
 5600.00000   56.92030   75.24110    9.56510  -84.94510   16.63920   20.08170   14.48220   82.30430    0.07670    2.64310   10.65880    0.24930    0.05460    -999.25    -999.25
 5650.00000   55.05020   76.56600    9.33490  -71.62470   17.06390   21.21230   14.41060   86.73750    0.11910    2.51160   10.79950    0.23460    0.08200    -999.25    -999.25
 5700.00000   85.52120   82.16400   11.31030  -39.23340   12.27920   13.04980   11.76670  128.05260    0.10170    2.61910   11.96800    0.33550    0.01180    -999.25    -999.25
 5750.00000   80.38290  110.93420   11.29040  -32.74550   20.32400   31.10430   18.42210  122.49590    0.19580    2.44950   11.68610    0.44910    0.31320    -999.25    -999.25
