~Version ---------------------------------------------------
VERS.      2.0 : CWLS log ASCII Standard -VERSION 2.0
WRAP.       NO : One line per depth step
CREA. 08/31/13 : LAS Creation Date
~Well ------------------------------------------------------
STRT.M                    500.0 : START DEPTH
STOP.M                   3850.0 : STOP DEPTH
STEP.M                 50.00000 : STEP LENGTH
NULL.                   -999.25 : NULL VALUE
COMP. BP EXPLORATION CANADA LLC : COMPANY
WELL.   BP BASELINE 10-25-65-27 : WELL
FLD .                           : FIELD
LOC .                           : LOCATION
CTRY.                    CANADA : COUNTRY
SRVC.             Dresser Atlas : SERVICE COMPANY
DATE.               16-Apr-1981 : LOGDATE
PROV.                   Alberta : PROVINCE
UWI .          100102506527W500 : UNIQUE WELL ID
SLAT.WGS84             54.65773 : SURFACE LATITUDE
SLON.WGS84            -117.9393 : SURFACE LONGITUDE
~Curve Information -----------------------------------------
DEPT    .M      : DEPTH METER
ACED    .US/M   : ACOUSTIC FROM SONIC LOG [ADJ. TO RESISTIVITY LOG]
CALDED  .MM     : CALIPER FROM DENSITY LOG [ADJ. TO RESISTIVITY LOG]
CALSED  .MM     : CALIPER FROM SONIC LOG [ADJ. TO RESISTIVITY LOG]
CALWS   .MM     : CALIPER [CALSED SPL. TO CALDED @ 1876.5M]
CONDWS  .MMHO   : CONDUCTIVITY [1000/DRESWS]
CORRED  .KG/M3  : DENSITY CORRECTION FROM DENSITY LOG [ADJ. TO RESISTIVITY LOG]
DCORWS  .KG/M3  : DENSITY CORRECTION [DRHOED]
DENWS   .KG/M3  : FORMATION BULK DENSITY [RHOBED]
DPHILSED.V/V    : DENSITY POROSITY LIMESTONE [M=2710,F=1000] FROM DENSITY LOG [ADJ. TO RESISTIVITY LOG]
DPHISSED.V/V    : DENSITY POROSITY SANDSTONE [M=2650,F=1000] FROM DENSITY LOG [ADJ. TO RESISTIVITY LOG]
DPOLSWS .V/V    : DENSITY POROSITY LIMESTONE [CALC FROM DENWS,M=2710,F=1000]
DRESWS  .OHMM   : DEEP RESISTIVITY [ILDED]
DTWS    .US/M   : COMPRESSIONAL SONIC [ACED]
GRDED   .GAPI   : GAMMA RAY FROM DENSITY LOG [ADJ. TO RESISTIVITY LOG]
GRSED   .GAPI   : GAMMA RAY FROM SONIC LOG [ADJ. TO RESISTIVITY LOG]
GRWS    .GAPI   : GAMMA RAY [GRSED]
ILDED   .OHMM   : DEEP INDUCTION FROM RESISTIVITY LOG
ILMED   .OHMM   : MEDIUM INDUCTIONFROM RESISTIVITY LOG
MRESWS  .OHMM   : MEDIUM RESISTIVITY [ILMED]
NPHILSED.V/V    : NEUTRON POROSITY SANDSTONE FROM DENSITY LOG [ADJ. TO RESISTIVITY LOG]
NPHISSED.V/V    : NEUTRON POROSITY LIMESTONE FROM DENSITY LOG [ADJ. TO RESISTIVITY LOG]
NPOLSWS .V/V    : NEUTRON POROSITY LIMESTONE [NPHISSED MATRIX (BAKER) CONVERSION FOR LIMESTONE, SPL. TO NPHILSED @ 2592.89M]
RHOBED  .KG/M3  : BULK DENSITY FROM DENSITY LOG [ADJ. TO RESISTIVITY LOG]
SFLED   .OHMM   : SPHERICALLY FOCUSED LOG FROM RESISTIVITY LOG
SPRED   .MV     : SPONTANEOUS POTENTIAL FROM RESISTIVITY LOG
SPWS    .MV     : SPONTANEOUS POTENTIAL [BASELINE 0 MV, SPRED]
SRESWS  .OHMM   : SHALLOW RESISTIVITY [SFLED]
~Params ----------------------------------------------------
PD  .                     GL : PERMANENT DATUM
EPD .M                 924.3 : ELEVATION PERMANENT DATUM
LMF .                     KB : LOG MEASURED FROM
DAPD.M                  8.98 : FEET ABOVE PERMANENT DATUM
DMF .                     KB : DRILLING MEASURED FROM
EKB .M                933.28 : KELLY BUSHING
EGL .M                 924.3 : GROUND LEVEL
DATE.               04/16/81 : RUN DATE
RUN .                      1 : RUN NUMBER
DD  .M                  3875 : DEPTH DRILLER
DL  .M                3871.9 : DEPTH LOGGER
BLI .M                3871.1 : BOTTOM LOG INTERVAL
TLI .M                  1800 : TOP LOG INTERVAL
CS  .MM                244.5 : CASING SIZE
CBD .M                 477.5 : CASING BOTTOM DRILLER
BS  .MM                  222 : BIT SIZE
BSD .M                  3875 : BIT SIZE AT DEPTH
DFT .               GEL CHEM : DRILLING FLUID TYPE
DFD .                   1100 : DRILLING FLUID DENSITY
DFV .                     89 : DRILLING FLUID VISCOSITY
DFPH.                    9.5 : DRILLING FLUID PH
DFL .                      9 : DRILLING FLUID LOSS
MSS .               FLOWLINE : MUD SAMPLE SOURCE
RMS .OHMM                1.5 : RESISTIVITY MUD SAMPLE
MST .DEGC                 18 : MUD SAMPLE TEMPERATURE
RMF .OHMM                1.2 : RESISTIVITY MUD FILTRATE SAMPLE
MFST.DEGC                 18 : MUD FILTRATE SAMPLE TEMPERATURE
RMC .OHMM                2.1 : RESISTIVITY MUD CAKE
MCST.DEGC                 18 : MUD CAKE SAMPLE TEMPERATURE
MFSS.                   MEAS : MUD FILTRATE SAMPLE SOURCE
MCSS.                   MEAS : MUD CAKE SAMPLE SOURCE
RMB .OHMM               0.49 : RESISTIVITY MUD AT BHT
TCS .HRS                  45 : TIME CIRCULATED STOPPED
LUN .                HL 6091 : LOGGING UNIT NUMBER
LUL .                  GR PR : LOGGING UNIT LOCATION
ENGI.         HOWARD LAMBORN : RECORDING ENGINEER
WITN.                  LEWIS : WITNESSED BY
CLNT.                A2DTECH : CLIENT CODE
ORIG.        6.5"/100M PRINT : ORIGIN OF DATA
UWI .       100102506527W500 : UNIQUE WELL ID
DICO. A2D Technologies, Inc. : DIGITIZING COMPANY
~Other -----------------------------------------------------
DIFL-CNT-FDT-BHC LOG RAN
~ASCII -----------------------------------------------------
  500.00000  407.37450    -999.25  232.17380  232.17380   79.83330    -999.25    -999.25    -999.25    -999.25    -999.25    -999.25   12.52610  407.37450    -999.25   98.27740   98.27740   12.52610   11.40260   11.40260    -999.25    -999.25    -999.25    -999.25   16.10990  -62.57260   -4.06180   16.10990
  550.00000  340.06770    -999.25  223.40270  223.40270  274.86880    -999.25    -999.25    -999.25    -999.25    -999.25    -999.25    3.63810  340.06770    -999.25   97.48260   97.48260    3.63810    3.82930    3.82930    -999.25    -999.25    -999.25    -999.25    5.17720  -64.57620   -4.12440    5.17720
  600.00000  379.80530    -999.25  239.95850  239.95850  205.90540    -999.25    -999.25    -999.25    -999.25    -999.25    -999.25    4.85660  379.80530    -999.25  111.76440  111.76440    4.85660    5.14720    5.14720    -999.25    -999.25    -999.25    -999.25    6.12320  -62.48310   -4.00850    6.12320
  650.00000  414.75530    -999.25  239.18910  239.18910  685.77700    -999.25    -999.25    -999.25    -999.25    -999.25    -999.25    1.45820  414.75530    -999.25  140.11020  140.11020    1.45820    1.69590    1.69590    -999.25    -999.25    -999.25    -999.25    4.34340  -59.72490   -2.70330    4.34340
  700.00000  348.03080    -999.25  226.73100  226.73100  290.59630    -999.25    -999.25    -999.25    -999.25    -999.25    -999.25    3.44120  348.03080    -999.25  111.14890  111.14890    3.44120    3.98020    3.98020    -999.25    -999.25    -999.25    -999.25    4.45410  -62.59900   -4.98730    4.45410
  750.00000  334.04810    -999.25  229.11850  229.11850  338.48970    -999.25    -999.25    -999.25    -999.25    -999.25    -999.25    2.95430  334.04810    -999.25  144.90110  144.90110    2.95430    3.15310    3.15310    -999.25    -999.25    -999.25    -999.25    4.82870  -61.55540   -3.35360    4.82870
  800.00000  323.57340    -999.25  232.94690  232.94690  265.71010    -999.25    -999.25    -999.25    -999.25    -999.25    -999.25    3.76350  323.57340    -999.25   81.87160   81.87160    3.76350    4.07810    4.07810    -999.25    -999.25    -999.25    -999.25    4.27030  -62.31500   -3.57960    4.27030
  850.00000  374.27710    -999.25  243.22260  243.22260  216.46430    -999.25    -999.25    -999.25    -999.25    -999.25    -999.25    4.61970  374.27710    -999.25   80.79250   80.79250    4.61970    4.89600    4.89600    -999.25    -999.25    -999.25    -999.25    5.10470  -62.66610   -3.63150    5.10470
  900.00000  288.96550    -999.25  232.54430  232.54430   75.64240    -999.25    -999.25    -999.25    -999.25    -999.25    -999.25   13.22010  288.96550    -999.25   65.63570   65.63570   13.22010   14.32020   14.32020    -999.25    -999.25    -999.25    -999.25   11.13400  -62.01790   -2.68400   11.13400
  950.00000  254.70960    -999.25  211.33960  211.33960   38.94610    -999.25    -999.25    -999.25    -999.25    -999.25    -999.25   25.67650  254.70960    -999.25   56.59080   56.59080   25.67650   18.47470   18.47470    -999.25    -999.25    -999.25    -999.25   24.46330  -64.83140   -5.19830   24.46330
 1000.00000  354.16960    -999.25  228.24820  228.24820  200.12810    -999.25    -999.25    -999.25    -999.25    -999.25    -999.25    4.99680  354.16960    -999.25   80.09170   80.09170    4.99680    4.38170    4.38170    -999.25    -999.25    -999.25    -999.25    6.45720  -61.72650   -1.79420    6.45720
 1050.00000  324.86940    -999.25  242.82120  242.82120  161.98000    -999.25    -999.25    -999.25    -999.25    -999.25    -999.25    6.17360  324.86940    -999.25   80.89260   80.89260    6.17360    5.71750    5.71750    -999.25    -999.25    -999.25    -999.25    5.52550  -62.86930   -2.63780    5.52550
 1100.00000  312.62560    -999.25  244.53290  244.53290  186.56020    -999.25    -999.25    -999.25    -999.25    -999.25    -999.25    5.36020  312.62560    -999.25   79.75230   79.75230    5.36020    5.20170    5.20170    -999.25    -999.25    -999.25    -999.25    4.68190  -62.15490   -1.62420    4.68190
 1150.00000  314.87410    -999.25  224.72900  224.72900  146.81700    -999.25    -999.25    -999.25    -999.25    -999.25    -999.25    6.81120  314.87410    -999.25  127.54440  127.54440    6.81120    7.40160    7.40160    -999.25    -999.25    -999.25    -999.25    7.95880  -63.57490   -2.74490    7.95880
 1200.00000  289.55420    -999.25  209.71930  209.71930  117.84120    -999.25    -999.25    -999.25    -999.25    -999.25    -999.25    8.48600  289.55420    -999.25  113.63950  113.63950    8.48600    9.92850    9.92850    -999.25    -999.25    -999.25    -999.25    9.62150  -66.26090   -5.07220    9.62150
 1250.00000  283.00380    -999.25  217.46540  217.46540  115.12510    -999.25    -999.25    -999.25    -999.25    -999.25    -999.25    8.68620  283.00380    -999.25  114.60290  114.60290    8.68620    8.01710    8.01710    -999.25    -999.25    -999.25    -999.25    7.51030  -66.41220   -4.79380    7.51030
 1300.00000  303.27010    -999.25  220.97060  220.97060  126.81500    -999.25    -999.25    -999.25    -999.25    -999.25    -999.25    7.88550  303.27010    -999.25  118.13690  118.13690    7.88550    7.17090    7.17090    -999.25    -999.25    -999.25    -999.25    6.66920  -68.46710   -6.41890    6.66920
 1350.00000  275.05490    -999.25  241.85120  241.85120   73.50510    -999.25    -999.25    -999.25    -999.25    -999.25    -999.25   13.60450  275.05490    -999.25  118.33020  118.33020   13.60450   12.81000   12.81000    -999.25    -999.25    -999.25    -999.25   11.94580  -66.87760   -4.39970   11.94580
 1400.00000  288.19950    -999.25  248.00850  248.00850  107.38260    -999.25    -999.25    -999.25    -999.25    -999.25    -999.25    9.31250  288.19950    -999.25  122.99850  122.99850    9.31250    8.91970    8.91970    -999.25    -999.25    -999.25    -999.25    8.58950  -65.36700   -3.63410    8.58950
 1450.00000  305.39910    -999.25  256.91680  256.91680  116.34130    -999.25    -999.25    -999.25    -999.25    -999.25    -999.25    8.59540  305.39910    -999.25  130.34830  130.34830    8.59540    9.13440    9.13440    -999.25    -999.25    -999.25    -999.25    9.96930  -63.92940   -3.44630    9.96930
 1500.00000  298.86220    -999.25  238.84170  238.84170  121.88580    -999.25    -999.25    -999.25    -999.25    -999.25    -999.25    8.20440  298.86220    -999.25  119.87300  119.87300    8.20440    9.16170    9.16170    -999.25    -999.25    -999.25    -999.25    9.71740  -64.45180   -4.59540    9.71740
 1550.00000  307.93730    -999.25  242.14970  242.14970  104.73620    -999.25    -999.25    -999.25    -999.25    -999.25    -999.25    9.54780  307.93730    -999.25  130.63150  130.63150    9.54780   10.61140   10.61140    -999.25    -999.25    -999.25    -999.25   11.33600  -62.55350   -3.32380   11.33600
 1600.00000  248.76610    -999.25  273.68410  273.68410   70.93860    -999.25    -999.25    -999.25    -999.25    -999.25    -999.25   14.09670  248.76610    -999.25  100.55290  100.55290   14.09670   12.20260   12.20260    -999.25    -999.25    -999.25    -999.25   13.63720  -65.74770   -7.14470   13.63720
 1650.00000  277.52200    -999.25  231.92910  231.92910  136.63820    -999.25    -999.25    -999.25    -999.25    -999.25    -999.25    7.31860  277.52200    -999.25  122.75200  122.75200    7.31860    7.64010    7.64010    -999.25    -999.25    -999.25    -999.25    9.18830  -61.49100   -3.51470    9.18830
 1700.00000  275.82280    -999.25  247.23460  247.23460  145.52440    -999.25    -999.25    -999.25    -999.25    -999.25    -999.25    6.87170  275.82280    -999.25  123.77450  123.77450    6.87170    7.24670    7.24670    -999.25    -999.25    -999.25    -999.25    7.42220  -61.21170   -3.86200    7.42220
 1750.00000  311.74640    -999.25  253.52250  253.52250  203.07040    -999.25    -999.25    -999.25    -999.25    -999.25    -999.25    4.92440  311.74640    -999.25  160.63910  160.63910    4.92440    5.15730    5.15730    -999.25    -999.25    -999.25    -999.25    7.77510  -59.49980   -2.77680    7.77510
