~Version ---------------------------------------------------
VERS.      2.0 : CWLS log ASCII Standard -VERSION 2.0
WRAP.       NO : One line per depth step
CREA. 11/14/17 : LAS Creation Date
~Well ------------------------------------------------------
STRT.FT                             950.0 : START DEPTH
STOP.FT                           10850.0 : STOP DEPTH
STEP.FT                          50.00000 : STEP LENGTH
NULL.                             -999.25 : NULL VALUE
COMP.        CANADIAN HOMESTEAD OILS LTD. : COMPANY
WELL. HOMESTEAD ET AL ROSEVEAR 11-5-55-15 : WELL
FLD .                                     : FIELD
LOC .                                     : LOCATION
CTRY.                              CANADA : COUNTRY
SRVC.              Schlumberger of Canada : SERVICE COMPANY
DATE.                         05-Oct-1975 : LOGDATE
PROV.                             Alberta : PROVINCE
UWI .                    100110505515W500 : UNIQUE WELL ID
SLAT.WGS84                       53.72589 : SURFACE LATITUDE
SLON.WGS84                      -116.1973 : SURFACE LONGITUDE
~Curve Information -----------------------------------------
DEPT    .FT    : Depth Curve
CALDED  .IN    : CALIPER FROM DENSITY LOG
CALSED  .IN    : CALIPER FROM SONIC LOG
CALWS   .IN    : CALIPER [CALDED]
CONDWS  .MMHO  : CONDUCTIVITY [1000/DRESWS]
DCORWS  .G/C3  : DENSITY CORRECTION [DRHOED]
DENWS   .G/C3  : FORMATION BULK DENSITY [RHOBED]
DPHILSED.V/V   : DENSITY POROSITY LIME [M=2.71, F=1.00] FROM DENSITY LOG [ADJ. TO RHOBED]
DPHISSED.V/V   : DENSITY POROSITY SAND [M=2.65, F=1.00] FROM DENSITY LOG [ADJ. TO RHOBED]
DPOLSWS .V/V   : DENSITY POROSITY LIME [CALC FROM DENWS, M=2.71, F=1.00]
DRESWS  .OHMM  : DEEP RESISTIVITY [ILDED]
DRHOED  .G/C3  : DENSITY CORRECTION FROM DENSITY LOG
DTED    .US/F  : DELTA-T FROM SONIC LOG [ADJ. TO DENSITY LOG]
DTWS    .US/F  : COMPRESSIONAL SONIC [DTED]
GRDED   .GAPI  : GAMMA RAY FROM DENSITY LOG
GRSED   .GAPI  : GAMMA RAY FROM SONIC LOG
GRWS    .GAPI  : GAMMA RAY [GRSED SPL. TO GRDED @ 1083']
ILDED   .OHMM  : DEEP INDUCTION RESISTIVITY FROM RESISTIVITY LOG
ILMED   .OHMM  : INDUCTION MEDIUM RESISTIVITY FROM RESISTIVITY LOG
LL8ED   .OHMM  : LATEROLOG-8 RESISTIVITY FROM RESISTIVITY LOG
MRESWS  .OHMM  : MEDIUM RESISTIVITY [ILMED]
NPHILSED.V/V   : NEUTRON POROSITY LIME FROM DENSITY LOG
NPHISSED.V/V   : NEUTRON POROSITY SAND FROM DENSITY LOG
NPOLSWS .V/V   : NEUTRON POROSITY LIME [SS MATRIX CONVERT TO LS & SPL. TO LS @ 7306']
RHOBED  .G/C3  : BULK DENSITY FROM DENSITY LOG
SPRED   .MV    : SPONTANEOUS POTENTIAL FROM RESISTIVITY LOG
SPWS    .MV    : SPONTANEOUS POTENTIAL [BASELINE 0 MV, SPRED]
SRESWS  .OHMM  : SHALLOW RESISTIVITY [LL8ED]
~Params ----------------------------------------------------
PD  .                     GL : PERMANENT DATUM
EPD .FT               2836.1 : ELEVATION PERMANENT DATUM
LMF .                     KB : LOG MEASURED FROM
DAPD.FT                15.85 : FEET ABOVE PERMANENT DATUM
EKB .FT              2851.95 : KELLY BUSHING
EGL .FT               2836.1 : GROUND LEVEL
DATE.               10/05/75 : RUN DATE
RUN .                      1 : RUN NUMBER
DD  .FT                10878 : DEPTH DRILLER
DL  .FT                10878 : DEPTH LOGGER
BLI .FT                10872 : BOTTOM LOG INTERVAL
TLI .FT                 1099 : TOP LOG INTERVAL
CBD .FT                 1096 : CASING BOTTOM DRILLER
CBL .FT                 1099 : CASING BOTTOM LOGGER
BS  .IN                 8.75 : BIT SIZE
BSD .FT                10878 : BIT SIZE AT DEPTH
DFT .               GEL CHEM : DRILLING FLUID TYPE
DFD .                    9.7 : DRILLING FLUID DENSITY
DFV .                    487 : DRILLING FLUID VISCOSITY
DFPH.                   10.5 : DRILLING FLUID PH
MSS .             CIRCULATED : MUD SAMPLE SOURCE
RMS .OHMM               1.34 : RESISTIVITY MUD SAMPLE
MST .DEGF                 64 : MUD SAMPLE TEMPERATURE
RMF .OHMM               0.91 : RESISTIVITY MUD FILTRATE SAMPLE
MFST.DEGF                 74 : MUD FILTRATE SAMPLE TEMPERATURE
RMB .OHMM               0.34 : RESISTIVITY MUD AT BHT
TCS .HRS                   4 : TIME CIRCULATED STOPPED
LUN .                   7690 : LOGGING UNIT NUMBER
LUL .                    EDM : LOGGING UNIT LOCATION
ENGI.     WILLIGER WILTSHIRE : RECORDING ENGINEER
WITN.                  SLOAN : WITNESSED BY
CLNT.                A2DTECH : CLIENT CODE
ORIG.            2" 5" PRINT : ORIGIN OF DATA
UWI .       100110505515W500 : UNIQUE WELL ID
DICO. A2D Technologies, Inc. : DIGITIZING COMPANY
~Other -----------------------------------------------------
~ASCII -----------------------------------------------------
# ...
 3550.00000   11.58360   13.29570   11.58360  199.21800    0.24070    2.05340    -999.25    0.37180    0.38400    5.02060    0.24070   96.61470   96.61470   68.89320   19.90210   68.89320    5.02060    4.72380    5.84470    4.72380    -999.25    0.41430    0.37170    2.05340 -135.26680   -4.95160    5.84470
 3600.00000   12.00590   12.78470   12.00590  179.91760    0.10870    2.26580    -999.25    0.23620    0.25980    5.55810    0.10870   88.66550   88.66550   68.80980   19.72160   68.80980    5.55810    5.17330    5.35650    5.17330    -999.25    0.34040    0.29670    2.26580 -135.48180   -5.02160    5.35650
 3650.00000   12.72480   11.47380   12.72480  183.66480    0.04740    2.28970    -999.25    0.22550    0.24580    5.44470    0.04740   96.80030   96.80030   73.54160   20.75470   73.54160    5.44470    5.02800    5.15890    5.02800    -999.25    0.40580    0.36300    2.28970 -134.06140   -3.45720    5.15890
 3700.00000   12.28490   12.31380   12.28490  214.18320    0.10070    2.54290    -999.25    0.06260    0.09770    4.66890    0.10070   78.50970   78.50970   54.04330   19.14740   54.04330    4.66890    4.40800    4.09990    4.40800    -999.25    0.27320    0.22920    2.54290 -134.12970   -3.38050    4.09990
 3750.00000   11.13230   11.81500   11.13230   59.38350    0.15020    2.53010    -999.25    0.07960    0.10520   16.83970    0.15020   78.61130   78.61130   46.29560   13.93490   46.29560   16.83970   16.07460   15.70410   16.07460    -999.25    0.22990    0.18610    2.53010 -138.11340   -7.22010   15.70410
 3800.00000   12.55390   11.59070   12.55390  133.44130    0.19120    2.30040    -999.25    0.21750    0.23950    7.49810    0.19120   57.27350   57.27350   76.68150   22.28400   76.68150    7.49810    7.08080    7.60680    7.08080    -999.25    0.34400    0.30030    2.30040 -134.27750   -3.24020    7.60680
 3850.00000   11.14800   10.75540   11.14800  144.50870    0.04630    2.38560    -999.25    0.16100    0.18970    6.92000    0.04630   87.21040   87.21040   61.51110   18.39500   61.51110    6.92000    6.01010    4.89290    6.01010    -999.25    0.33230    0.28850    2.38560 -133.20200   -2.01970    4.89290
 3900.00000    9.77080   11.38620    9.77080  168.75640    0.05470    2.55270    -999.25    0.06070    0.09200    5.92570    0.05470   87.24560   87.24560   65.81400   19.39520   65.81400    5.92570    5.76130    5.59310    5.76130    -999.25    0.33240    0.28860    2.55270 -134.05930   -2.73300    5.59310
 3950.00000   10.24410   12.19210   10.24410  115.04960    0.11930    2.59940    -999.25    0.03430    0.06470    8.69190    0.11930   89.52710   89.52710   74.48800   20.41200   74.48800    8.69190    7.67200    6.22450    7.67200    -999.25    0.36440    0.32090    2.59940 -137.59120   -6.11990    6.22450
 4000.00000    9.81360   10.54580    9.81360  184.87710    0.04140    2.63220    -999.25    0.00690    0.04550    5.40900    0.04140   73.93480   73.93480   59.97780   17.39410   59.97780    5.40900    5.03130    4.99190    5.03130    -999.25    0.26690    0.22290    2.63220 -133.94050   -2.32520    4.99190
 4050.00000   11.39370   13.50270   11.39370  265.29990    0.12240    2.28220    -999.25    0.23020    0.25020    3.76990    0.12240   94.06180   94.06180   71.74350   18.76610   71.74350    3.76990    4.39390    4.78970    4.39390    -999.25    0.45930    0.41750    2.28220 -134.95230   -3.19290    4.78970
 4100.00000    9.40510   10.37310    9.40510   61.08700    0.15240    2.56040    -999.25    0.05080    0.08750   16.37010    0.15240   75.21400   75.21400   43.50110   12.79000   43.50110   16.37010   18.52260   23.97990   18.52260    -999.25    0.25210    0.20820    2.56040 -151.11890  -19.21460   23.97990
 4150.00000   10.89660   10.37720   10.89660   71.88660    0.08430    2.56670    -999.25    0.05960    0.08380   13.91080    0.08430   77.04900   77.04900   52.99840   16.37530   52.99840   13.91080   12.84980   11.47840   12.84980    -999.25    0.25770    0.21380    2.56670 -143.45060  -11.40220   11.47840
 4200.00000   12.32340   12.24510   12.32340  157.08940    0.13200    2.51550    -999.25    0.08410    0.11370    6.36580    0.13200   87.20710   87.20710   72.47630   19.32900   72.47630    6.36580    5.97940    6.59460    5.97940    -999.25    0.34760    0.30390    2.51550 -135.13690   -2.94350    6.59460
 4250.00000   10.53570   11.77480   10.53570  154.82510    0.23060    2.37130    -999.25    0.17200    0.19810    6.45890    0.23060   88.02720   88.02720   83.94060   23.91530   83.94060    6.45890    6.72100    7.02200    6.72100    -999.25    0.35000    0.30640    2.37130 -134.91310   -3.08070    7.02200
 4300.00000   10.78880   10.21410   10.78880  115.44480    0.08680    2.63280    -999.25    0.01810    0.04510    8.66210    0.08680   82.48060   82.48060  101.88990   23.47190  101.88990    8.66210    8.61220    9.33520    8.61220    -999.25    0.30560    0.26160    2.63280 -136.74410   -5.28280    9.33520
 4350.00000   12.08050   11.72640   12.08050  110.99030    0.08400    2.67810    -999.25   -0.01600    0.01870    9.00980    0.08400   83.31760   83.31760  103.83410   25.86490  103.83410    9.00980    8.70350    9.40630    8.70350    -999.25    0.30790    0.26390    2.67810 -137.05880   -5.97110    9.40630
 4400.00000   12.94340   12.79770   12.94340  100.63910    0.07190    2.68850    -999.25   -0.02710    0.01260    9.93650    0.07190   80.50470   80.50470  104.56600   28.63180  104.56600    9.93650    9.53770   10.44090    9.53770    -999.25    0.25300    0.20910    2.68850 -137.55740   -6.84080   10.44090
 4450.00000   14.12880   13.31530   14.12880   97.51820    0.04940    2.65150    -999.25   -0.00120    0.03420   10.25450    0.04940   83.33910   83.33910  106.50540   26.38590  106.50540   10.25450    9.50800   10.78290    9.50800    -999.25    0.27960    0.23560    2.65150 -136.51040   -6.16740   10.78290
 4500.00000   13.70860   13.79730   13.70860   93.44140    0.04340    2.62560    -999.25    0.01930    0.04940   10.70190    0.04340   85.03830   85.03830  113.52190   32.66620  113.52190   10.70190   10.18020   11.64560   10.18020    -999.25    0.33190    0.28810    2.62560 -136.37180   -6.39990   11.64560
 4550.00000   14.08860   14.97560   14.08860  105.69970    0.07730    2.66200    -999.25   -0.00950    0.02810    9.46120    0.07730   89.88720   89.88720  121.61570   32.30700  121.61570    9.46120    8.38390   11.11500    8.38390    -999.25    0.35000    0.30640    2.66200 -135.65760   -6.05690   11.11500
 4600.00000   14.99520   14.17370   14.99520   69.98980    0.04410    2.58740    -999.25    0.04340    0.07170   14.28780    0.04410   83.74420   83.74420  106.47050   34.40720  106.47050   14.28780   13.45480   15.48570   13.45480    -999.25    0.35190    0.30830    2.58740 -135.50130   -6.27410   15.48570
 4650.00000    -999.25   15.01410    -999.25  100.63500    0.03940    2.04930    -999.25    0.36080    0.38640    9.93690    0.03940   87.77390   87.77390   92.85240   24.86910   92.85240    9.93690    8.08140   10.87290    8.08140    -999.25    0.41040    0.36770    2.04930 -136.31900   -7.46300   10.87290
 4700.00000    -999.25   14.49290    -999.25  109.34100    0.10090    2.58700    -999.25    0.04390    0.07190    9.14570    0.10090   82.94650   82.94650   93.94060   23.56200   93.94060    9.14570    7.13970    7.86990    7.13970    -999.25    0.37090    0.32750    2.58700 -137.52500   -9.04250    7.86990
 4750.00000    -999.25   15.40730    -999.25  129.36280    0.13410    1.75470    -999.25    0.44990    0.55870    7.73020    0.13410   84.47990   84.47990   81.76150   22.31020   81.76150    7.73020    6.46790    8.66560    6.46790    -999.25    0.39120    0.34820    1.75470 -137.72200   -9.61070    8.66560
 4800.00000   13.01600   12.78810   13.01600  112.73280    0.13900    1.66680    -999.25    0.44880    0.61010    8.87140    0.13900   78.84300   78.84300   85.58260   25.94130   85.58260    8.87140    8.31040    9.69500    8.31040    -999.25    0.35070    0.30710    1.66680 -137.62460   -9.88440    9.69500
