~Version ---------------------------------------------------
VERS.      2.0 : CWLS log ASCII Standard -VERSION 2.0
WRAP.       NO : One line per depth step
CREA. 11/20/17 : LAS Creation Date
~Well ------------------------------------------------------
STRT.FT                300.0 : START DEPTH
STOP.FT               8300.0 : STOP DEPTH
STEP.FT             50.00000 : STEP LENGTH
NULL.                -999.25 : NULL VALUE
COMP.   IMPERIAL OIL LIMITED : COMPANY
WELL. IMP FREEMAN 10-31-63-7 : WELL
FLD .                        : FIELD
LOC .                        : LOCATION
CTRY.                 CANADA : COUNTRY
SRVC. Schlumberger of Canada : SERVICE COMPANY
DATE.            16-Oct-1958 : LOGDATE
PROV.                Alberta : PROVINCE
UWI .       100103106307W500 : UNIQUE WELL ID
SLAT.WGS84          54.49585 : SURFACE LATITUDE
SLON.WGS84         -115.0433 : SURFACE LONGITUDE
~Curve Information -----------------------------------------
DEPT  .FT     : Depth Curve
CALWS .IN     : CALIPER [MCALED]
CILDED.MMHO   : CONDUCTIVITY FROM RESISTIVITY LOG
CONDWS.MMHO   : CONDUCTIVITY [1000/DRESWS]
DRESWS.OHMM   : DEEP RESISTIVITY [1000/CILDED IF ILDED <=6.5, ILDED]
GRNED .UR/HR  : GAMMA RAY FROM GRN LOG [ADJ.TO RESISTIVITY LOG]
GRWS  .GAPI   : GAMMA RAY [GRNED*15]
ILDED .OHMM   : DEEP INDUCTION FROM RESISTIVITY LOG
MCALED.IN     : MICRO CALIPER FROM MICRO LOG [ADJ.TO RESISTIVITY LOG]
NEUTED.SNU    : NEUTRON FROM GRN LOG [ADJ.TO RESISTIVITY LOG]
NEUTWS.SNU    : NEUTRON [NEUTED]
SNED  .OHMM   : SHORT NORMAL 16" FROM RESISTIVITY LOG
SPRED .MV     : SPONTANEOUS POTENTIAL FROM RESISTIVITY LOG
SPWS  .MV     : SPONTANEOUS POTENTIAL [BASELINE 0 MV, SPRED]
SRESWS.OHMM   : SHALLOW RESISTIVITY [SNED]
~Params ----------------------------------------------------
LMF .                     KB : LOG MEASURED FROM
DMF .                     KB : DRILLING MEASURED FROM
EKB .FT                 2612 : KELLY BUSHING
DATE.               10/16/58 : RUN DATE
RUN .                      1 : RUN NUMBER
TCS .HRS                   4 : TIME CIRCULATED STOPPED
ENGI.                  GOETZ : RECORDING ENGINEER
WITN.                 WILSON : WITNESSED BY
CLNT.                A2DTECH : CLIENT CODE
ORIG.            2" 5" PRINT : ORIGIN OF DATA
UWI .       100103106307W500 : UNIQUE WELL ID
DICO. A2D Technologies, Inc. : DIGITIZING COMPANY
~Other -----------------------------------------------------
IEL-GRN-ML LOG RUN.
STUCK IN HOLE ON FIRST ATTEMPT, SURFACE SP DISTURBANCE.
GRNED, NEUTED DIG IN 2" SCALE @ TOP TO 6700'
GRNED MULTIPLED WITH 15 AS PER SPEC. (TYPE T (SCINTILLATION)
NEUTRON UNITS KEEPT AS 100 STU AS MENTIONED IN PRINT
~ASCII -----------------------------------------------------
# ...
 2750.00000    -999.25  183.41900  183.41900    5.45200    1.89890   28.48350    5.88840    -999.25    8.80050    8.80050    6.65130  -35.32460   -3.73000    6.65130
 2800.00000    -999.25  178.77730  178.77730    5.59370    1.93960   29.09400    6.10390    -999.25    8.40740    8.40740    6.93140  -34.86290   -3.67460    6.93140
 2850.00000    -999.25  162.73070  149.71850    6.67920    2.07520   31.12800    6.67920    -999.25    8.67460    8.67460    8.63120  -38.61570   -7.83770    8.63120
 2900.00000    -999.25  188.95940  188.95940    5.29210    1.99830   29.97450    5.76840    -999.25    8.11640    8.11640    6.76040  -36.70920   -6.33960    6.76040
 2950.00000    -999.25  194.57580  194.57580    5.13940    1.72060   25.80900    5.49520    -999.25   10.83710   10.83710    5.90580  -35.80790   -5.84660    5.90580
 3000.00000    -999.25  148.94850  140.33320    7.12590    1.67460   25.11900    7.12590    -999.25   14.69550   14.69550    7.59030  -36.23230   -6.67930    7.59030
 3050.00000    -999.25   91.75940   95.23060   10.50090    1.45440   21.81600   10.50090    -999.25   25.40300   25.40300   11.28290  -36.60750   -7.46070   11.28290
 3100.00000    -999.25  212.64490  212.64490    4.70270    1.67530   25.12950    5.24780    -999.25   12.24180   12.24180    5.62330  -33.61120   -4.87480    5.62330
 3150.00000    -999.25  244.78800  244.78800    4.08520    1.89690   28.45350    4.61400    -999.25    9.22190    9.22190    5.18420  -31.68930   -3.36120    5.18420
 3200.00000   13.84540  215.01520  215.01520    4.65080    2.22250   33.33750    5.19620   13.84540   12.32280   12.32280    5.77670  -32.76640   -4.84670    5.77670
 3250.00000   14.68830  408.39480  408.39480    2.44860    1.82620   27.39300    3.12760   14.68830   10.81320   10.81320    3.58370  -23.02700   -7.79370    3.58370
 3300.00000   14.99290  334.40140  334.40140    2.99160    1.76490   26.47350    3.64140   14.99290   10.64690   10.64690    3.85290  -24.36000   -4.62780    3.85290
 3350.00000   13.50450  347.99150  347.99150    2.87360    1.73790   26.06850    3.56150   13.50450    8.72870    8.72870    3.89770  -24.52170   -5.43250    3.89770
 3400.00000   11.59660  268.70200  268.70200    3.72160    1.73560   26.03400    4.49470   11.59660    7.14550    7.14550    4.90820  -28.49460   -9.65250    4.90820
 3450.00000   12.14270  180.48170  180.48170    5.54070    1.50990   22.64850    6.12320   12.14270    9.19790    9.19790    6.54630  -32.37080  -13.77590    6.54630
 3500.00000   13.06880  343.01530  343.01530    2.91530    1.39990   20.99850    3.98570   13.06880    7.79100    7.79100    5.04470  -28.31830   -9.65870    5.04470
 3550.00000    9.79370  146.34150  135.40640    7.38560    1.42360   21.35400    7.38560    9.79370   13.26050   13.26050    8.72200  -54.79960  -35.19230    8.72200
 3600.00000   10.35260  173.89670  173.89670    5.75050    1.19940   17.99100    6.27480   10.35260    8.92640    8.92640    8.51530  -33.91730  -13.35280    8.51530
 3650.00000    9.27220  102.09780  106.00740    9.43330    1.37730   20.65950    9.43330    9.27220    4.33920    4.33920   11.18670  -46.50950  -24.99260   11.18670
 3700.00000    8.00980  135.39370  125.41540    7.97350    1.40380   21.05700    7.97350    8.00980    2.74190    2.74190    8.70380  -57.17800  -34.70880    8.70380
 3750.00000    9.11940  126.44360  118.26760    8.45540    1.42100   21.31500    8.45540    9.11940    2.54690    2.54690    9.83320  -45.42950  -22.00790    9.83320
 3800.00000    8.68630  125.62050  117.31180    8.52570    1.49430   22.41450    8.52570    8.68630    3.12100    3.12100    9.90430  -56.62640  -32.25710    9.90430
 3850.00000    8.40510  151.33710  136.63440    7.31880    1.13370   17.00550    7.31880    8.40510    2.96100    2.96100    8.64970  -62.06580  -36.73930    8.64970
 3900.00000    9.31620  181.23040  181.23040    5.51780    1.74010   26.10150    6.24670    9.31620    3.52110    3.52110    7.25010  -29.35750   -3.07860    7.25010
 3950.00000    9.22290  151.89800  136.72780    7.31380    1.55960   23.39400    7.31380    9.22290    3.06220    3.06220    8.52850  -29.88930   -6.64940    8.52850
 4000.00000    9.29920  165.51490  147.18870    6.79400    1.60260   24.03900    6.79400    9.29920    2.55280    2.55280    7.51210  -24.80590   -8.07400    7.51210
 4050.00000    9.25260  175.26030  150.61850    6.64060    1.39260   20.88900    6.64060    9.25260    2.77820    2.77820    8.02250  -31.76770  -16.91840    8.02250
 4100.00000   10.81030  160.26190  144.05490    6.94180    1.82690   27.40350    6.94180   10.81030    2.69610    2.69610    9.07230  -19.40260   -6.13690    9.07230
 4150.00000    9.26630  107.71190  101.75110    9.82790    1.54180   23.12700    9.82790    9.26630    3.88120    3.88120   12.19800  -28.35830  -15.39490   12.19800
 4200.00000    9.45560   79.21310   81.71070   12.23830    1.57380   23.60700   12.23830    9.45560    5.16130    5.16130   13.28120  -25.18790  -12.52690   13.28120
 4250.00000    9.89720  117.41010  110.08610    9.08380    1.79250   26.88750    9.08380    9.89720    3.65570    3.65570   10.48200  -22.15950   -9.80100   10.48200
 4300.00000    9.02000  129.01710  116.73210    8.56790    1.36080   20.41200    8.56790    9.02000    4.66120    4.66120   10.57250  -34.63320  -22.57550   10.57250
 4350.00000    9.11770  103.94090   99.71680   10.02840    1.28620   19.29300   10.02840    9.11770    4.33580    4.33580   10.81430  -26.35820  -14.60430   10.81430
 4400.00000    9.98670  112.25910  104.66930    9.55390    1.41820   21.27300    9.55390    9.98670    3.89100    3.89100   10.18820  -24.12420  -12.67270   10.18820
 4450.00000   10.60820  103.64470  100.10810    9.98920    1.66140   24.92100    9.98920   10.60820    4.04240    4.04240   10.78760  -22.11470  -10.96560   10.78760
 4500.00000   12.29330  216.00810  216.00810    4.62950    1.93290   28.99350    5.57170   12.29330    2.31860    2.31860    5.95420  -13.79330   -2.94650    5.95420
 4550.00000   10.30130   41.98960   42.22420   23.75440    1.89810   28.47150   23.75440   10.30130    4.98710    4.98710   19.43020  -25.70430  -17.06750   19.43020
 4600.00000   10.41840   64.32140   64.48120   15.50840    1.46660   21.99900   15.50840   10.41840    4.84670    4.84670   16.51230  -20.39370  -14.50480   16.51230
 4650.00000    9.68660    1.42650    1.99750  500.62630    0.72060   10.80900  500.62630    9.68660   10.19900   10.19900   67.65880  -24.78970  -20.55000   67.65880
 4700.00000    9.60460   16.53300   16.64390   60.08190    0.69610   10.44150   60.08190    9.60460    6.08990    6.08990   55.34050  -54.42370  -49.41780   55.34050
 4750.00000    9.49540   69.32920   72.65010   13.76460    0.81670   12.25050   13.76460    9.49540    3.32570    3.32570   22.90620  -44.45490  -38.68260   22.90620
 4800.00000    9.73790    8.20720    7.91990  126.33950    0.66440    9.96600  126.33950    9.73790    7.19660    7.19660   55.03990  -50.76490  -44.23020   55.03990
 4850.00000    9.36190   13.95230   12.27040   81.49690    0.68840   10.32600   81.49690    9.36190    8.83480    8.83480   57.13290  -54.73920  -47.43430   57.13290
 4900.00000    9.13590   35.83420   35.86450   27.88270    0.66340    9.95100   27.88270    9.13590    5.56210    5.56210   38.78810  -56.98550  -48.91430   38.78810
 4950.00000    8.32600   27.81430   28.40980   35.19910    0.67030   10.05450   35.19910    8.32600    6.20860    6.20860   37.05030  -79.22250  -70.38510   37.05030
 5000.00000    9.11840  211.50960  211.50960    4.72790    0.64740    9.71100    5.97540    9.11840    5.23020    5.23020   16.78960  -70.04170  -60.43800   16.78960
 5050.00000    8.68440   25.16060   25.81260   38.87240    0.58210    8.73150   38.87240    8.68440    5.68890    5.68890   34.59910  -73.09430  -62.72810   34.59910
 5100.00000    8.63560   59.02040   58.83670   16.99620    0.64410    9.66150   16.99620    8.63560    5.38110    5.38110   27.76460  -81.72020  -70.58380   27.76460
 5150.00000    9.00790   32.09280   32.93250   30.36510    0.65780    9.86700   30.36510    9.00790    5.31630    5.31630   38.63360  -71.97480  -60.07220   38.63360
