~Version ---------------------------------------------------
VERS. 2.0 : CWLS log ASCII Standard -VERSION 2.0
WRAP.  NO : ONE LINE PER DEPTH STEP
~Well ------------------------------------------------------
STRT.M                       400.0 : START DEPTH
STOP.M                      3100.0 : STOP DEPTH
STEP.M                    50.00000 : STEP LENGTH
NULL.                      -999.25 : NULL VALUE
COMP.    GULF CANADA RESOURCES INC : COMPANY
WELL. GULF ET AL KAYBOB 15-1-63-18 : WELL
FLD .                              : FIELD
LOC .                              : LOCATION
CTRY.                       CANADA : COUNTRY
SRVC.                      Unknown : SERVICE COMPANY
DATE.                  12-Feb-1985 : LOGDATE
PROV.                      Alberta : PROVINCE
UWI .             100150106318W500 : UNIQUE WELL ID
SLAT.WGS84                54.42611 : SURFACE LATITUDE
SLON.WGS84               -116.5821 : SURFACE LONGITUDE
~Curve Information -----------------------------------------
DEPT   .M    0   1   0  0 : 1 MEASURED DEPTH
SPR    .MV   07 010 01 00 : SPONTANEOUS POTENTIAL FROM RESISTIVITY LOG
ILD    .OHMM 07 120 46 00 : INDUCTION DEEP RESISTIVITY
ILM    .OHMM 07 120 44 00 : INDUCTION MEDIUM RESISTIVITY
SFLU   .OHMM 07 220 01 00 : SHALLOW FOCUSED RESISTIVITY (UNAVERAGED)
GRS    .GAPI 60 310 01 00 : GAMMA RAY FROM SONIC LOG
DT     .US/M 60 500 00 00 : DELTA-T (INTERVAL TRANSIT TIME)
CALS   .MM   60 280 50 00 : CALIPER FROM SONIC LOG
CALD   .MM   45 280 60 00 : CALIPER FROM DENSITY LOG
LA     .MM   45 280 00 00 : LARGE ARM CALIPER
SGRDD  .GAPI 45 310 01 00 : SPECTROSCOPY GAMMA RAY FROM DENSITY LOG
DPHI_SS.DEC  45 890 12 00 : DENSITY POROSITY SANDSTONE
NPHI_SS.DEC  42 890 03 00 : NEUTRON POROSITY SANDSTONE
NPHI_LS.DEC  42 890 01 00 : NEUTRON POROSITY LIMESTONE
DPHI_LS.DEC  45 890 10 00 : DENSITY POROSITY LIMESTONE
DRHO   .K/M3 45 356 01 00 : BULK DENSITY CORRECTION
RHOB   .K/M3 45 350 01 00 : BULK DENSITY
~Params ----------------------------------------------------
PD  .                         GL : PERMANENT DATUM
EPD .M                     886.4 : ELEVATION PERMANENT DATUM
LMF .                         KB : LOG MEASURED FROM
DAPD.M                       7.1 : FEET ABOVE PERMANENT DATUM
DMF .                         KB : DRILLING MEASURED FROM
EKB .M                     893.5 : KELLY BUSHING
EGL .M                     886.4 : GROUND LEVEL
DATE.                   02/12/85 : RUN DATE
RUN .                          1 : RUN NUMBER
DD  .M                      3130 : DEPTH DRILLER
DL  .M                      3130 : DEPTH LOGGER
BLI .M                      3129 : BOTTOM LOG INTERVAL
TLI .M                       426 : TOP LOG INTERVAL
CS  .MM                      244 : CASING SIZE
CBD .M                       426 : CASING BOTTOM DRILLER
CBL .M                       426 : CASING BOTTOM LOGGER
BS  .MM                      222 : BIT SIZE
BSD .M                      3130 : BIT SIZE AT DEPTH
DFT .                        GEL : DRILLING FLUID TYPE
DFD .                       1120 : DRILLING FLUID DENSITY
DFV .                         95 : DRILLING FLUID VISCOSITY
DFPH.                       10.5 : DRILLING FLUID PH
DFL .                       10.5 : DRILLING FLUID LOSS
MSS .                   FLOWLINE : MUD SAMPLE SOURCE
RMS .OHMM                    2.2 : RESISTIVITY MUD SAMPLE
MST .DEGC                   17.7 : MUD SAMPLE TEMPERATURE
RMF .OHMM                   1.83 : RESISTIVITY MUD FILTRATE SAMPLE
MFST.DEGC                   17.7 : MUD FILTRATE SAMPLE TEMPERATURE
MFSS.                       MEAS : MUD FILTRATE SAMPLE SOURCE
RMB .OHMM                  0.843 : RESISTIVITY MUD AT BHT
TCS .HRS                    2200 : TIME CIRCULATED STOPPED
TLAB.HRS                     350 : TIME LOGGER AT BOTTOM
LUN .                       8110 : LOGGING UNIT NUMBER
LUL .                        EDM : LOGGING UNIT LOCATION
ENGI.                     OSIKOS : RECORDING ENGINEER
WITN.                MOLDENHAUER : WITNESSED BY
CLNT.                    A2DTECH : CLIENT CODE
ORIG. 6.5"/100M 16.5"/100M PRINT : ORIGIN OF DATA
UWI .           100150106318W500 : UNIQUE WELL ID
DICO.     A2D Technologies, Inc. : DIGITIZING COMPANY
~Other -----------------------------------------------------
~ASCII -----------------------------------------------------
  400.00000    -999.25    -999.25    -999.25    -999.25   35.45080    -999.25    -999.25    -999.25    -999.25    -999.25    -999.25    -999.25    -999.25    -999.25    -999.25    -999.25
  450.00000  -56.39050    4.00620    3.65460    3.60060   61.65160  352.24260  276.48960    -999.25    -999.25    -999.25    -999.25    -999.25    -999.25    -999.25    -999.25    -999.25
  500.00000  -56.02520    4.94980    4.42590    5.97780   97.34210  338.67130  276.63420    -999.25    -999.25    -999.25    -999.25    -999.25    -999.25    -999.25    -999.25    -999.25
  550.00000  -55.77870    3.99380    3.76970    3.69460   70.47510  347.45630  247.88470    -999.25    -999.25    -999.25    -999.25    -999.25    -999.25    -999.25    -999.25    -999.25
  600.00000  -56.01140    3.73530    3.43410    3.85510   85.46370  348.28760  291.33750    -999.25    -999.25    -999.25    -999.25    -999.25    -999.25    -999.25    -999.25    -999.25
  650.00000  -58.34010    4.94880    4.28970    5.39860   66.31750  361.40790  264.07760    -999.25    -999.25    -999.25    -999.25    -999.25    -999.25    -999.25    -999.25    -999.25
  700.00000  -55.60190    3.84950    3.46710    3.12020   61.19580  402.43360  265.86020    -999.25    -999.25    -999.25    -999.25    -999.25    -999.25    -999.25    -999.25    -999.25
  750.00000  -52.83220    6.20340    6.50080    7.29590   57.86190  300.83150  244.39140    -999.25    -999.25    -999.25    -999.25    -999.25    -999.25    -999.25    -999.25    -999.25
  800.00000  -53.99610    4.68080    4.27250    3.84660   59.26770  309.87950  261.11010    -999.25    -999.25    -999.25    -999.25    -999.25    -999.25    -999.25    -999.25    -999.25
  850.00000  -54.99780    4.77610    4.31150    4.47250   61.69910  350.51730  287.07420    -999.25    -999.25    -999.25    -999.25    -999.25    -999.25    -999.25    -999.25    -999.25
  900.00000  -53.37500    4.57960    4.18660    4.27490   68.44160  331.46530  267.20920    -999.25    -999.25    -999.25    -999.25    -999.25    -999.25    -999.25    -999.25    -999.25
  950.00000  -58.68130    3.85360    3.92670    4.05400   67.07260  332.43390  253.04420    -999.25    -999.25    -999.25    -999.25    -999.25    -999.25    -999.25    -999.25    -999.25
 1000.00000  -59.96380    7.62860    6.97740    6.93260   71.45630  304.03490  274.80340    -999.25    -999.25    -999.25    -999.25    -999.25    -999.25    -999.25    -999.25    -999.25
 1050.00000  -62.20820    6.68440    5.97640    6.41540   99.47280  311.92730  301.77550    -999.25    -999.25    -999.25    -999.25    -999.25    -999.25    -999.25    -999.25    -999.25
 1100.00000  -85.36960    7.45710    7.03370    6.10240   99.73950  291.84380  265.97500    -999.25    -999.25    -999.25    -999.25    -999.25    -999.25    -999.25    -999.25    -999.25
 1150.00000 -121.32930    8.40560    8.00720    8.03190   99.78440  292.28890  272.94700    -999.25    -999.25    -999.25    -999.25    -999.25    -999.25    -999.25    -999.25    -999.25
 1200.00000 -122.14950    9.07400    8.88200    8.60140   92.37760  278.28930  266.69170    -999.25    -999.25    -999.25    -999.25    -999.25    -999.25    -999.25    -999.25    -999.25
 1250.00000 -120.26300    8.27700    7.83990    7.38320   98.71730  289.64120  258.17160    -999.25    -999.25    -999.25    -999.25    -999.25    -999.25    -999.25    -999.25    -999.25
 1300.00000 -117.23190    6.55260    6.31790    6.97600  109.76170  300.86100  262.85170    -999.25    -999.25    -999.25    -999.25    -999.25    -999.25    -999.25    -999.25    -999.25
 1350.00000 -112.21810   11.95390   13.39300   23.24520  102.77630  275.85590  238.18450    -999.25    -999.25    -999.25    -999.25    -999.25    -999.25    -999.25    -999.25    -999.25
 1400.00000 -105.71820    8.32440    8.86370   10.64480  100.81450  268.00070  238.92510    -999.25    -999.25    -999.25    -999.25    -999.25    -999.25    -999.25    -999.25    -999.25
 1450.00000 -106.78400    5.63120    5.81990    6.09900  111.28060  284.35250  261.43410    -999.25    -999.25    -999.25    -999.25    -999.25    -999.25    -999.25    -999.25    -999.25
 1500.00000 -103.88130    4.89470    4.76620    5.37410  110.83770  299.92430  311.10060    -999.25    -999.25    -999.25    -999.25    -999.25    -999.25    -999.25    -999.25    -999.25
 1550.00000 -100.97240    3.93530    3.79320    4.30390   90.35440  286.18920  300.02760  254.31010  356.24070   79.61350    0.42160    0.42500    -999.25    -999.25  107.39270 1903.68330
 1600.00000  -97.60390    1.53010    1.41350    1.91280   94.22710  411.59550  269.33040  324.79750  293.67000   85.59070    0.27520    0.51030    -999.25    -999.25   61.12310 2194.12820
 1650.00000 -104.96710    6.86210    6.85450    7.96460   91.76450  259.48500  318.94320  297.87750  360.98200   68.58220    0.18450    0.47160    -999.25    -999.25   68.13790 2351.31490
 1700.00000 -111.15810   10.46820   11.78090   12.45250   57.25860  244.41320  308.27030  286.10490  306.64050   57.03400    0.08660    0.29140    -999.25    -999.25  -10.38850 2505.84720
 1750.00000  -99.76260    8.40770    8.92340   10.40940   67.91860  241.85040  291.04780  283.81580  296.92090   60.49310    0.07570    0.26070    -999.25    -999.25    3.50440 2517.06960
 1800.00000  -94.35690   10.27510   10.87640   12.20620   84.17730  244.95990  292.70510  264.85910  303.08940   76.21550    0.02210    0.30590    0.26400    0.05660   -0.13450 2617.87820
 1850.00000 -132.96760    8.92960   11.71520   18.73010   26.72450  243.33990  221.50710  221.76350  212.10110   25.68770    0.13890    0.17920    0.13910    0.16890   57.22330 2422.76660
 1900.00000  -41.53490    3.67080    3.41740    4.13650   79.47150  328.10020  378.95950  373.41240  390.68050   68.57380    0.26540    0.54630    0.45130    0.29710  124.90680 2244.08110
 1950.00000  -56.42660  268.21640  976.04380 1452.80360  334.60120  243.65330  248.19530  243.27990  250.94350  317.43770    0.11190    0.27060    0.22510    0.14170  -14.12020 2465.80490
 2000.00000  -75.05340    4.44930    4.71800    5.73570   31.91680  203.52160  253.54530  274.36720  301.57810   21.63070    -999.25    -999.25    0.15300    0.02440   84.78210 2703.80910
 2050.00000  -44.79480   37.02550   39.37010  100.20710   72.52550  190.20040  251.19350  228.88030  279.52820   43.02610    -999.25    -999.25    0.10340   -0.00710  -12.65710 2720.30440
 2100.00000 -113.23370   19.77280   32.75860  120.21710   14.76710  171.81400  254.77520  238.99820  258.03610   14.48760    -999.25    -999.25    0.09850    0.01940   -1.83580 2668.70120
 2150.00000  -35.78360    9.45370   10.14180   10.19000   91.12860  198.70230  251.17920  245.79000  243.37610   58.41640    -999.25    -999.25    0.12280   -0.01310    3.36370 2736.10300
 2200.00000  -10.65750  175.40560  524.68390  744.27700   29.84670  180.72940  266.07140  237.71590  296.64440   34.83340    -999.25    -999.25    0.03240   -0.00630   -6.60540 2723.37180
 2250.00000   -4.80770  194.45940  272.36400  305.67100   27.31470  173.71880  233.43040  227.31210  231.57460   30.10930    -999.25    -999.25    0.01700   -0.00710   -8.84780 2720.77730
 2300.00000    6.09220   90.88720   94.67020  115.99550   56.76880  184.72670  240.11110  235.51610    -999.25   52.25030    -999.25    -999.25    0.03150    0.00410   -3.89290 2703.86250
 2350.00000  -43.72740  407.16440  349.32280  377.83190   16.25480  161.17190  246.08860  243.83980    -999.25   17.15600    -999.25    -999.25    0.00050   -0.01570   -9.64630 2736.16990
 2400.00000  -71.99710  725.24480 1268.44870 1415.51880   16.68470  161.63760  247.02050  289.71790    -999.25   17.84500    -999.25    -999.25   -0.00120    0.02570  249.65420 2658.02540
 2450.00000  -60.98250  143.26230  129.02280  141.90370   11.52340  163.99510  248.50270  266.72410  168.40670   12.14190    -999.25    -999.25    0.00080    0.03570   73.81340 2630.90260
 2500.00000  -64.73790  197.05450  120.74660  299.66970   12.19620  165.33860  256.14690  221.00730  353.66250   16.51880    -999.25    -999.25    0.00880    0.03930   -7.74590 2643.00000
