~Version ---------------------------------------------------
VERS. 2.0 : CWLS log ASCII Standard -VERSION 2.0
WRAP.  NO : ONE LINE PER DEPTH STEP
~Well ------------------------------------------------------
STRT.F                                300.0 : START DEPTH
STOP.F                              11400.0 : STOP DEPTH
STEP.F                             50.00000 : STEP LENGTH
NULL.                               -999.25 : NULL VALUE
COMP.                  CHEVRON STANDARD LTD : COMPANY
WELL. CHEVRON CLARK 14-34-58-18 10-34-58-18 : WELL
FLD .                          KAYBOB SOUTH : FIELD
LOC .                                       : LOCATION
CTRY.                                CANADA : COUNTRY
SRVC.                          Schlumberger : SERVICE COMPANY
DATE.                           26-Oct-1968 : LOGDATE
PROV.                               Alberta : PROVINCE
UWI .                      100103405818W500 : UNIQUE WELL ID
SLAT.WGS84                         54.05952 : SURFACE LATITUDE
SLON.WGS84                        -116.5853 : SURFACE LONGITUDE
~Curve Information -----------------------------------------
DEPT  .F                 : 
GR    .GAPI 01 310 01 00 : GAMMA RAY
GR_1  .GAPI 00 000 00 01 : GAMMA RAY
CALN  .IN   42 280 60 00 : CALIPER
ILD   .OHMM 07 120 46 00 : INDUCTION LOG DEEP
ILM   .OHMM 07 120 44 00 : INDUCTION LOG MEDIUM
LL8   .OHMM 07 220 08 00 : LATEROLOG-8 RES.
SPR   .MV   07 010 01 00 : SPONTANEOUS POTENTIAL
CALS  .IN   60 280 50 00 : CALIPER FROM SONIC LOG
DT    .US/F 60 520 00 00 : INTERVAL TRANSIT TIME
GRS   .GAPI 60 310 01 00 : GAMMA RAY FROM SONIC LOG
SNP_DM.                  : 
~Params ----------------------------------------------------
PD  .                     GL : PERMANENT DATUM
EPD .FT               3407.1 : ELEVATION PERMANENT DATUM
LMF .                     KB : LOG MEASURED FROM
DAPD.FT                 13.9 : FEET ABOVE PERMANENT DATUM
DMF .                     KB : DRILLING MEASURED FROM
EKB .FT                 3421 : KELLY BUSHING
EDF .FT                 3407 : DRILLING FLOOR
EGL .FT               3407.1 : GROUND LEVEL
DATE.               10/26/68 : RUN DATE
RUN .                      1 : RUN NUMBER
DD  .FT                11418 : DEPTH DRILLER
DL  .FT                11421 : DEPTH LOGGER
BLI .FT                11420 : BOTTOM LOG INTERVAL
TLI .FT                10900 : TOP LOG INTERVAL
CBD .FT                 2021 : CASING BOTTOM DRILLER
CBL .FT                 2021 : CASING BOTTOM LOGGER
BS  .IN                 8.75 : BIT SIZE
BSD .FT                11418 : BIT SIZE AT DEPTH
DFT .                    GEL : DRILLING FLUID TYPE
DFD .                    9.4 : DRILLING FLUID DENSITY
DFV .                    148 : DRILLING FLUID VISCOSITY
DFPH.                   11.5 : DRILLING FLUID PH
DFL .                    6.4 : DRILLING FLUID LOSS
RMS .OHMM                1.0 : RESISTIVITY MUD SAMPLE
MST .DEGF                 62 : MUD SAMPLE TEMPERATURE
RMF .OHMM               0.84 : RESISTIVITY MUD FILTRATE SAMPLE
MFST.DEGF                 70 : MUD FILTRATE SAMPLE TEMPERATURE
RMC .OHMM               1.22 : RESISTIVITY MUD CAKE
MCST.DEGF                 70 : MUD CAKE SAMPLE TEMPERATURE
TCS .HRS                 300 : TIME CIRCULATED STOPPED
LUN .                   7501 : LOGGING UNIT NUMBER
LUL .                    EDM : LOGGING UNIT LOCATION
ENGI.               STUEHMER : RECORDING ENGINEER
WITN.                HOVDEBO : WITNESSED BY
CLNT.                A2DTECH : CLIENT CODE
ORIG.        2" 5" 10" PRINT : ORIGIN OF DATA
UWI .       100103405818W500 : UNIQUE WELL ID
DICO. A2D Technologies, Inc. : DIGITIZING COMPANY
~Other -----------------------------------------------------
~ASCII -----------------------------------------------------
# ...
 6400.00000   62.68050  136.92170    -999.25    5.41400    5.00070    4.72030  -98.81230   14.99300   97.76130   87.14760    -999.25
 6450.00000   44.64730   69.30680    -999.25    3.00830    2.57250    2.83980 -114.26340   15.16050  103.51140   84.11930    -999.25
 6500.00000   45.97010   82.22980    -999.25    5.09340    4.12580    4.26630  -97.85750   15.14280   93.67630   69.50880    -999.25
 6550.00000   41.93880   66.38490    -999.25    4.15960    3.44180    3.92470  -99.14490   13.32070   88.63630   61.87890    -999.25
 6600.00000   44.37260   71.25080    -999.25   26.53580   22.59160   25.44580 -114.20170   10.18790   68.13520   52.03470    -999.25
 6650.00000   45.28560   73.16900    -999.25   10.80330    9.93580    9.33790 -101.20810   12.13060   78.31740   68.52470    -999.25
 6700.00000   39.96130   84.16360    -999.25   13.62980   10.54730   10.55170 -104.32850   11.13410   76.02450   62.62150    -999.25
 6750.00000   19.97280   36.87720    -999.25   16.84860   14.13340   13.58550 -119.23630   11.38130   75.06100   37.95270    -999.25
 6800.00000   38.00630   60.92750    -999.25   12.10350    8.93580    8.08790 -112.86150   10.89300   91.45170   72.15350    -999.25
 6850.00000   43.75400  109.07670    -999.25   15.12560   10.00140   11.60630 -105.96240   11.43640   74.04040   72.34060    -999.25
 6900.00000   31.43550   69.32770    -999.25   11.79380   12.41970    9.84320 -106.92020   11.68280   72.48660   62.96270    -999.25
 6950.00000   45.24390   78.76010    -999.25   11.29400   10.61580   10.01380 -105.64330   12.28690   71.66680   71.39140    -999.25
 7000.00000   45.66610   80.61610    -999.25   12.16880    9.25830   10.10170 -106.19370   12.72600   78.60450   68.14510    -999.25
 7050.00000   45.24590   78.66930    -999.25   13.95210   11.13010   12.93570 -104.86300   12.32900   86.95590   70.78540    -999.25
 7100.00000   43.62340   73.83140    -999.25   14.35070   13.40670   12.97650 -106.82920   11.15700   71.28060   58.37350    -999.25
 7150.00000   53.08140   75.18270    -999.25    8.54280    8.97420   11.53770 -123.06630   10.94850   72.99160   51.69810    -999.25
 7200.00000   50.39310   86.24870    -999.25   12.12550   11.06720   14.34930 -102.98960   10.22640   65.92700   67.46360    -999.25
 7250.00000   38.83730   60.23920    -999.25    9.09400    8.59770    9.38900 -116.34330   10.51270   77.44280   52.78020    -999.25
 7300.00000   45.08320   81.71420    -999.25   10.72570   13.89750    9.92320 -101.12480   14.01420   76.70060   51.89900    -999.25
 7350.00000   61.90170   95.05280    -999.25   13.23930   11.37630   13.31710 -107.49000   10.77100   73.76360   76.07910    -999.25
 7400.00000   26.35970   48.79370    -999.25   27.99320   27.28190   29.32140 -109.70050    9.99810   64.58890   49.31550    -999.25
 7450.00000   46.28840   56.42240    -999.25   28.08410   22.50590   41.32360  -96.01790    9.72700   68.69760   72.89000    -999.25
 7500.00000   20.53920   50.95010    -999.25   27.24330   22.72110   29.62090 -112.69770    9.87000   68.77490   65.41080    -999.25
 7550.00000   60.10850  102.03910    -999.25   23.67860   20.43470   24.96230  -97.33190   10.42740   70.06890   70.00560    -999.25
 7600.00000   61.41740   93.89920    -999.25   19.94830   17.83440   23.57430  -97.09240   10.59430   71.79400   62.90670    -999.25
 7650.00000   51.05930   77.90580    -999.25    9.50210    6.47220    6.83190  -88.62750   13.21470   83.56250   64.52640    -999.25
 7700.00000   48.45580   87.48660    -999.25    3.76510    3.47660    4.12070  -90.75350   14.90280   94.48420   70.40140    -999.25
 7750.00000   48.19020   61.57520    -999.25   78.69630   51.01760   18.31280  -95.01260   10.85230  104.38360   65.34910    -999.25
 7800.00000   17.54760   30.60600    -999.25 1707.56580  610.80930  311.24080 -104.57980    8.96300   57.94100   35.52670    -999.25
 7850.00000  194.38440  246.75730    -999.25 1707.25930  794.17070  379.67680 -113.80960    9.23560   65.21740  112.22910    -999.25
 7900.00000   48.12460   80.16660    -999.25   40.14990   34.88280   38.56380 -116.07470    9.58200   60.21170   74.29440    -999.25
 7950.00000   68.76800  128.12750    -999.25    1.83460    3.67920   12.57460 -203.11600    8.98070   73.81450   28.89160    -999.25
 8000.00000   47.72440   84.86270    -999.25   38.29810   34.54980   69.98320 -123.07400    9.46820   53.22190   32.56090    -999.25
 8050.00000   30.89090   26.82840    -999.25    9.66310    9.32960    7.74370 -139.65440   11.25550   64.26670   26.61700    -999.25
 8100.00000   27.54850   19.60070    -999.25 1314.91280   96.39560  198.24270 -129.55200   10.24080   54.86940   27.28590    -999.25
 8150.00000   30.20480   91.78260    -999.25  163.51210  118.24000  106.42870 -100.68300    8.92920   53.45260   55.78800    -999.25
 8200.00000    7.91300   12.50300    -999.25   57.51890   51.37110   41.12310 -166.50420   10.98890   52.65250   24.28190    -999.25
 8250.00000    7.68460   14.24970    -999.25  160.35980   70.87430   77.80040 -155.57870   10.03370   51.71470   24.28150    -999.25
 8300.00000   38.51360   62.31300    -999.25    4.06310    3.98430    5.15440 -109.93400    9.57360   63.39650   55.66250    -999.25
 8350.00000   53.20340   57.21380    -999.25   12.27770   12.93600   20.58070 -110.79230    9.13480   55.91330   60.02090    -999.25
 8400.00000   39.56670   66.80510    -999.25   16.95010   15.79620   19.61940  -93.75990    9.47730   60.40490   65.17190    -999.25
 8450.00000   39.25260   58.49900    -999.25   34.38100   31.44020   36.32300  -73.94860    9.43530   58.50420   55.15360    -999.25
 8500.00000   10.85080   10.76990    -999.25 1698.58250  116.92020  268.58010  -92.50210   10.20290   50.96530   20.80220    -999.25
 8550.00000   15.59520   22.63330    -999.25   65.17740   51.32960   63.21410  -76.48450    9.43710   54.89830   47.44430    -999.25
 8600.00000    9.93640   23.39660    -999.25 1088.34050  276.93770  178.19840  -89.33730    9.21310   52.60320   37.64460    -999.25
 8650.00000   13.17700   31.27830    -999.25 1614.57840  234.13090  146.00670  -82.86990    9.04090   52.76850   41.61790    -999.25
 8700.00000   22.69010   40.06470    -999.25   92.43820   72.98260   58.96820  -68.11150    9.30690   55.08220   49.09980    -999.25
 8750.00000   28.11330   48.99520    -999.25   61.27390   48.66170   52.96950  -66.36030    9.17040   56.30380   56.59340    -999.25
 8800.00000   24.57050   51.38090    -999.25  656.67190  145.61570  175.93080  -66.43860    8.95040   57.90240   59.78890    -999.25
 8850.00000   11.18720   18.98400    -999.25  134.40400   84.94080   71.13830  -88.17810    8.74750   56.64010   45.27220    -999.25
 8900.00000   13.75540   30.01060    -999.25 1690.91980  192.53390  150.79640  -92.89830    9.10910   51.96730   32.74840    -999.25
 8950.00000    7.33200   13.11770    -999.25 1870.21670  685.96650  256.23020 -126.56940    9.68700   49.81170   17.52440    -999.25
 9000.00000    8.44640   13.90850    -999.25 1845.75380  308.44790  207.93630 -140.09560   10.37370   50.60090   14.52230    -999.25
 9050.00000    8.45190    9.63490    -999.25 1683.09030  131.16950   97.94130 -147.12130    9.65950   50.93390    8.55890    -999.25
 9100.00000    7.00010   15.35450    -999.25  121.42190   87.88790   47.66720 -144.18790   12.01600   65.80330   14.10350    -999.25
 9150.00000    6.83880    9.50780    -999.25  642.68400  125.47050  136.12750 -151.40380   10.77260   52.78950   14.80410    -999.25
 9200.00000    6.31190   11.83280    -999.25   88.48010   59.02570   62.68560 -152.44170   10.43880   51.75240   16.88220    -999.25
 9250.00000    6.45060   12.42440    -999.25 1711.45120  113.50090   52.62870 -151.15380   10.00600   54.64940    9.79380    -999.25
 9300.00000    7.43110   12.84620    -999.25 1695.92960  140.46960   28.52110 -145.85100   10.28800   53.76260   10.27480    -999.25
 9350.00000    4.40410    6.75560    -999.25 1373.66260   78.70170   30.51710 -143.89840   11.75630   50.58300   13.55490    -999.25
 9400.00000    8.33880   13.80570    -999.25 1772.57150   99.74730   29.45840 -142.72120   10.61410   52.90250   12.55120    -999.25
