~Version ---------------------------------------------------
VERS.      2.0 : CWLS log ASCII Standard -VERSION 2.0
WRAP.       NO : One line per depth step
CREA. 08/31/13 : LAS Creation Date
~Well ------------------------------------------------------
STRT.M                    500.0 : START DEPTH
STOP.M                   3850.0 : STOP DEPTH
STEP.M                 50.00000 : STEP LENGTH
NULL.                   -999.25 : NULL VALUE
COMP. BP EXPLORATION CANADA LLC : COMPANY
WELL.   BP BASELINE 10-25-65-27 : WELL
FLD .                           : FIELD
LOC .                           : LOCATION
CTRY.                    CANADA : COUNTRY
SRVC.             Dresser Atlas : SERVICE COMPANY
DATE.               16-Apr-1981 : LOGDATE
PROV.                   Alberta : PROVINCE
UWI .          100102506527W500 : UNIQUE WELL ID
SLAT.WGS84             54.65773 : SURFACE LATITUDE
SLON.WGS84            -117.9393 : SURFACE LONGITUDE
~Curve Information -----------------------------------------
DEPT    .M      : DEPTH METER
ACED    .US/M   : ACOUSTIC FROM SONIC LOG [ADJ. TO RESISTIVITY LOG]
CALDED  .MM     : CALIPER FROM DENSITY LOG [ADJ. TO RESISTIVITY LOG]
CALSED  .MM     : CALIPER FROM SONIC LOG [ADJ. TO RESISTIVITY LOG]
CALWS   .MM     : CALIPER [CALSED SPL. TO CALDED @ 1876.5M]
CONDWS  .MMHO   : CONDUCTIVITY [1000/DRESWS]
CORRED  .KG/M3  : DENSITY CORRECTION FROM DENSITY LOG [ADJ. TO RESISTIVITY LOG]
DCORWS  .KG/M3  : DENSITY CORRECTION [DRHOED]
DENWS   .KG/M3  : FORMATION BULK DENSITY [RHOBED]
DPHILSED.V/V    : DENSITY POROSITY LIMESTONE [M=2710,F=1000] FROM DENSITY LOG [ADJ. TO RESISTIVITY LOG]
DPHISSED.V/V    : DENSITY POROSITY SANDSTONE [M=2650,F=1000] FROM DENSITY LOG [ADJ. TO RESISTIVITY LOG]
DPOLSWS .V/V    : DENSITY POROSITY LIMESTONE [CALC FROM DENWS,M=2710,F=1000]
DRESWS  .OHMM   : DEEP RESISTIVITY [ILDED]
DTWS    .US/M   : COMPRESSIONAL SONIC [ACED]
GRDED   .GAPI   : GAMMA RAY FROM DENSITY LOG [ADJ. TO RESISTIVITY LOG]
GRSED   .GAPI   : GAMMA RAY FROM SONIC LOG [ADJ. TO RESISTIVITY LOG]
GRWS    .GAPI   : GAMMA RAY [GRSED]
ILDED   .OHMM   : DEEP INDUCTION FROM RESISTIVITY LOG
ILMED   .OHMM   : MEDIUM INDUCTIONFROM RESISTIVITY LOG
MRESWS  .OHMM   : MEDIUM RESISTIVITY [ILMED]
NPHILSED.V/V    : NEUTRON POROSITY SANDSTONE FROM DENSITY LOG [ADJ. TO RESISTIVITY LOG]
NPHISSED.V/V    : NEUTRON POROSITY LIMESTONE FROM DENSITY LOG [ADJ. TO RESISTIVITY LOG]
NPOLSWS .V/V    : NEUTRON POROSITY LIMESTONE [NPHISSED MATRIX (BAKER) CONVERSION FOR LIMESTONE, SPL. TO NPHILSED @ 2592.89M]
RHOBED  .KG/M3  : BULK DENSITY FROM DENSITY LOG [ADJ. TO RESISTIVITY LOG]
SFLED   .OHMM   : SPHERICALLY FOCUSED LOG FROM RESISTIVITY LOG
SPRED   .MV     : SPONTANEOUS POTENTIAL FROM RESISTIVITY LOG
SPWS    .MV     : SPONTANEOUS POTENTIAL [BASELINE 0 MV, SPRED]
SRESWS  .OHMM   : SHALLOW RESISTIVITY [SFLED]
~Params ----------------------------------------------------
PD  .                     GL : PERMANENT DATUM
EPD .M                 924.3 : ELEVATION PERMANENT DATUM
LMF .                     KB : LOG MEASURED FROM
DAPD.M                  8.98 : FEET ABOVE PERMANENT DATUM
DMF .                     KB : DRILLING MEASURED FROM
EKB .M                933.28 : KELLY BUSHING
EGL .M                 924.3 : GROUND LEVEL
DATE.               04/16/81 : RUN DATE
RUN .                      1 : RUN NUMBER
DD  .M                  3875 : DEPTH DRILLER
DL  .M                3871.9 : DEPTH LOGGER
BLI .M                3871.1 : BOTTOM LOG INTERVAL
TLI .M                  1800 : TOP LOG INTERVAL
CS  .MM                244.5 : CASING SIZE
CBD .M                 477.5 : CASING BOTTOM DRILLER
BS  .MM                  222 : BIT SIZE
BSD .M                  3875 : BIT SIZE AT DEPTH
DFT .               GEL CHEM : DRILLING FLUID TYPE
DFD .                   1100 : DRILLING FLUID DENSITY
DFV .                     89 : DRILLING FLUID VISCOSITY
DFPH.                    9.5 : DRILLING FLUID PH
DFL .                      9 : DRILLING FLUID LOSS
MSS .               FLOWLINE : MUD SAMPLE SOURCE
RMS .OHMM                1.5 : RESISTIVITY MUD SAMPLE
MST .DEGC                 18 : MUD SAMPLE TEMPERATURE
RMF .OHMM                1.2 : RESISTIVITY MUD FILTRATE SAMPLE
MFST.DEGC                 18 : MUD FILTRATE SAMPLE TEMPERATURE
RMC .OHMM                2.1 : RESISTIVITY MUD CAKE
MCST.DEGC                 18 : MUD CAKE SAMPLE TEMPERATURE
MFSS.                   MEAS : MUD FILTRATE SAMPLE SOURCE
MCSS.                   MEAS : MUD CAKE SAMPLE SOURCE
RMB .OHMM               0.49 : RESISTIVITY MUD AT BHT
TCS .HRS                  45 : TIME CIRCULATED STOPPED
LUN .                HL 6091 : LOGGING UNIT NUMBER
LUL .                  GR PR : LOGGING UNIT LOCATION
ENGI.         HOWARD LAMBORN : RECORDING ENGINEER
WITN.                  LEWIS : WITNESSED BY
CLNT.                A2DTECH : CLIENT CODE
ORIG.        6.5"/100M PRINT : ORIGIN OF DATA
UWI .       100102506527W500 : UNIQUE WELL ID
DICO. A2D Technologies, Inc. : DIGITIZING COMPANY
~Other -----------------------------------------------------
DIFL-CNT-FDT-BHC LOG RAN
~ASCII -----------------------------------------------------
# ...
 1800.00000  311.57350  366.33000  240.00290  240.00290  304.52520   80.84830   80.84830 2452.87430    -999.25    0.11510    0.15040    3.28380  311.57350  155.39540  120.94230  120.94230    3.28380    3.47830    3.47830    -999.25    0.43000    0.39000 2452.87430    4.84310  -59.46570   -3.12310    4.84310
 1850.00000  233.31020  271.16740  244.21640  244.21640   56.38540   64.87380   64.87380 2586.77050    -999.25    0.03800    0.07210   17.73510  233.31020   93.44340   75.03460   75.03460   17.73510   19.57390   19.57390    -999.25    0.19270    0.15270 2586.77050   20.59400  -69.09000  -14.04430   20.59400
 1900.00000  236.01300  295.77690  280.95130  295.77690  159.52270   35.30740   35.30740 2414.60820    -999.25    0.14190    0.17270    6.26870  236.01300  121.32290   91.83730   91.83730    6.26870    7.36890    7.36890    -999.25    0.39920    0.35920 2414.60820    7.61100  -59.54830   -6.50720    7.61100
 1950.00000  325.68320  293.41470  297.08340  293.41470  139.49530   77.08940   77.08940 2308.19970    -999.25    0.21240    0.23500    7.16870  325.68320  116.13400   92.30910   92.30910    7.16870    7.77250    7.77250    -999.25    0.38340    0.34340 2308.19970   16.02400  -54.38560   -3.30100   16.02400
 2000.00000  273.99740  280.68180  267.26580  280.68180  112.13650   28.27860   28.27860 2211.56590    -999.25    0.26150    0.29150    8.91770  273.99740  128.51570  101.13780  101.13780    8.91770   11.10130   11.10130    -999.25    0.33390    0.29390 2211.56590   10.37670  -56.92440   -7.55150   10.37670
 2050.00000  383.29110  312.28590  301.34230  312.28590   66.95680  -72.06050  -72.06050 1496.49410    -999.25    0.69860    0.70970   14.93500  383.29110  107.34670   74.26780   74.26780   14.93500   16.89740   16.89740    -999.25    0.37860    0.33860 1496.49410   24.79300  -71.31180  -24.18990   24.79300
 2100.00000  233.97430  280.36830  291.53350  280.36830   72.70980   35.70290   35.70290 2567.74020    -999.25    0.04530    0.08320   13.75330  233.97430  103.25340   82.96030   82.96030   13.75330   15.41070   15.41070    -999.25    0.26030    0.22030 2567.74020   16.50000  -61.63860  -17.18130   16.50000
 2150.00000  241.29760  276.44040  268.16370  276.44040   91.94220  116.65790  116.65790 2257.75320    -999.25    0.23460    0.26450   10.87640  241.29760  125.87470   99.23880   99.23880   10.87640   11.55880   11.55880    -999.25    0.30440    0.26440 2257.75320   18.96740  -45.82290   -4.03020   18.96740
 2200.00000  245.50320  252.96510  250.94610  252.96510   41.01520   23.36160   23.36160 2129.11280    -999.25    0.32050    0.33970   24.38120  245.50320  131.87240  108.42900  108.42900   24.38120   22.18310   22.18310    -999.25    0.26540    0.22540 2129.11280   26.53710  -48.79510   -7.43220   26.53710
 2250.00000  218.75030  245.12840  253.17510  245.12840   35.26040   35.34240   35.34240 2560.69090    -999.25    0.05170    0.08730   28.36040  218.75030   81.98070   66.86230   66.86230   28.36040   33.05150   33.05150    -999.25    0.17990    0.13990 2560.69090   35.52450  -64.95720  -23.62970   35.52450
 2300.00000  248.57800  208.13090  189.65980  208.13090  182.56170   15.05340   15.05340 2404.57540    -999.25    0.14480    0.17860    5.47760  248.57800   62.89270   55.90590   55.90590    5.47760    8.44770    8.44770    -999.25    0.24020    0.20020 2404.57540   12.84670  -82.27090  -47.15460   12.84670
 2350.00000  450.44800  316.31190  204.50170  316.31190  370.96120  -27.09460  -27.09460 1398.58500    -999.25    0.75670    0.76690    2.69570  450.44800  146.66610  116.09380  116.09380    2.69570    2.40610    2.40610    -999.25    0.45000    0.41000 1398.58500    4.12790  -42.43660   -5.66720    4.12790
 2400.00000  202.12110  252.56530  239.44970  252.56530  108.36350   17.52820   17.52820 2567.51710    -999.25    0.04790    0.08330    9.22820  202.12110  135.87830  102.31320  102.31320    9.22820   12.12660   12.12660    -999.25    0.17010    0.13010 2567.51710   20.89080  -96.70680  -59.47390   20.89080
 2450.00000  207.67380  236.74190  235.11690  236.74190   45.30340   43.33440   43.33440 2661.07620    -999.25   -0.01220    0.02860   22.07340  207.67380  146.59330  108.35380  108.35380   22.07340   26.46370   26.46370    -999.25    0.16190    0.12190 2661.07620   29.06000  -71.48620  -35.51530   29.06000
 2500.00000  200.84400  236.86960  231.62390  236.86960   30.02840   21.48020   21.48020 2647.21530    -999.25    0.00040    0.03670   33.30180  200.84400  144.57990  114.94540  114.94540   33.30180   38.34750   38.34750    -999.25    0.13300    0.09300 2647.21530   42.59610  -93.32500  -58.61610   42.59610
 2550.00000  205.78100  267.21340  239.41060  267.21340   24.34460   20.92070   20.92070 2691.23490    -999.25   -0.03040    0.01100   41.07680  205.78100  170.31730  127.45390  127.45390   41.07680   46.34510   46.34510    -999.25    0.16880    0.12880 2691.23490   55.68040  -40.88780   -3.85000   55.68040
 2600.00000  170.40590  279.92970  239.12340  279.92970   26.13550   70.28940   70.28940 1957.14580    0.46740    0.40960    0.44030   38.26220  170.40590   75.97480   56.01990   56.01990   38.26220  101.34480  101.34480    0.17660    0.20170    0.17660 1957.14580  143.17100  -88.22750  -41.56080  143.17100
 2650.00000  169.63590  246.23130  220.78500  246.23130    9.94620   66.16580   66.16580 2803.37920   -0.06700    -999.25   -0.05460  100.54140  169.63590   50.95980   53.48060   53.48060  100.54140   87.62440   87.62440    0.08030    -999.25    0.08030 2803.37920  349.22220  -70.52170  -15.17980  349.22220
 2700.00000  180.47460  199.56270  202.79010  199.56270   58.39140  110.02230  110.02230 2517.66240    0.10480    -999.25    0.11250   17.12580  180.47460   26.86970   25.55900   25.55900   17.12580   26.91920   26.91920    0.11930    -999.25    0.11930 2517.66240   79.58970 -168.21980 -110.58420   79.58970
 2750.00000  187.78690  229.40660  212.48220  229.40660   46.61010   85.65200   85.65200 2694.19680   -0.02320    -999.25    0.00920   21.45460  187.78690   78.86920   74.81020   74.81020   21.45460   27.10840   27.10840    0.10600    -999.25    0.10600 2694.19680   40.81240  -77.48580  -17.55660   40.81240
 2800.00000  173.76920  224.19210  219.31070  224.19210   26.05780   50.26460   50.26460 2568.62210    0.06490    -999.25    0.08270   38.37620  173.76920   49.54600   47.78010   47.78010   38.37620   47.69410   47.69410    0.07990    -999.25    0.07990 2568.62210  153.95240 -125.63470  -67.53970  153.95240
 2850.00000  170.57580  261.23100  230.21370  261.23100   39.52580   85.03040   85.03040 2688.96580    0.00880    -999.25    0.01230   25.29990  170.57580   40.25900   37.63030   37.63030   25.29990   45.81720   45.81720    0.13740    -999.25    0.13740 2688.96580  129.53330  -96.33030  -41.95890  129.53330
 2900.00000  164.05120  269.10240  238.49490  269.10240   10.54330   61.50260   61.50260 2746.45700   -0.03030    -999.25   -0.02130   94.84710  164.05120   16.07390   18.63140   18.63140   94.84710  107.24630  107.24630    0.05990    -999.25    0.05990 2746.45700  368.81570 -135.86960  -85.79030  368.81570
 2950.00000  179.24490  250.06660  230.65370  250.06660   62.74350   34.17450   34.17450 2717.70730   -0.01600    -999.25   -0.00450   15.93790  179.24490   74.93760   62.83350   62.83350   15.93790   25.40090   25.40090    0.07440    -999.25    0.07440 2717.70730   27.74150  -90.67200  -39.78880   27.74150
 3000.00000  171.12630  243.53760  227.51430  243.53760    6.70020   28.38720   28.38720 2716.56050   -0.01550    -999.25   -0.00380  149.25000  171.12630   31.46470   30.77020   30.77020  149.25000  785.54820  785.54820    0.04070    -999.25    0.04070 2716.56050  506.44200  -71.29920  -14.26530  506.44200
 3050.00000  176.47430  174.41750  234.46600  174.41750   16.75160   30.28500   30.28500 2698.06640   -0.00500    -999.25    0.00700   59.69580  176.47430   37.73250   41.43250   41.43250   59.69580   99.51270   99.51270    0.04690    -999.25    0.04690 2698.06640  124.49510  -97.24960  -37.28490  124.49510
