~Version ---------------------------------------------------
VERS.      2.0 : CWLS log ASCII Standard -VERSION 2.0
WRAP.       NO : One line per depth step
CREA. 08/16/13 : LAS Creation Date
~Well ------------------------------------------------------
STRT.M                      350.0 : START DEPTH
STOP.M                     2000.0 : STOP DEPTH
STEP.M                   50.00000 : STEP LENGTH
NULL.                     -999.25 : NULL VALUE
COMP.         MARK RESOURCES INC. : COMPANY
WELL. MARK RED WILLOW 14-11-39-17 : WELL
FLD .                             : FIELD
LOC .                             : LOCATION
CTRY.                      CANADA : COUNTRY
SRVC.                     Unknown : SERVICE COMPANY
DATE.                 06-Nov-1987 : LOGDATE
PROV.                     Alberta : PROVINCE
UWI .            100141103917W400 : UNIQUE WELL ID
SLAT.WGS84                52.3462 : SURFACE LATITUDE
SLON.WGS84              -112.3454 : SURFACE LONGITUDE
~Curve Information -----------------------------------------
DEPT    .M      : DEPTH METER
C2DED   .MM     : CALIPER 2 FROM DENSITY LOG [ADJ. TO RESISTIVITY LOG]
CALDED  .MM     : CALIPER FROM DENSITY LOG [ADJ. TO RESISTIVITY LOG]
CALSED  .MM     : CALIPER FROM SONIC LOG [ADJ. TO RESISTIVITY LOG]
CALWS   .MM     : CALIPER [CALDED]
CONDWS  .MMHO   : CONDUCTIVITY [1000/DRESWS]
DCORWS  .KG/M3  : DENSITY CORRECTION [DRHOED]
DENWS   .KG/M3  : FORMATION BULK DENSITY [CALC FROM DPOLSWS, M=2710,F=1000]
DPHILSED.V/V    : DENSITY POROSITY LIMESTONE [M=2710,F=1000] FROM DENSITY LOG [ADJ. TO RESISTIVITY LOG]
DPHISSED.V/V    : DENSITY POROSITY SANDSTONE [M=2650,F=1000] FROM DENSITY LOG [ADJ. TO RESISTIVITY LOG]
DPOLSWS .V/V    : DENSITY POROSITY LIMESTONE [DPHISSED CONVERTED TO LIMESTONE MATRIX, M=2710,F=1000, SPL. TO DPHILSED @ 1291M]
DRESWS  .OHMM   : DEEP RESISTIVITY [ILDED]
DRHOED  .KG/M3  : DENSITY CORRECTION FROM DENSITY LOG [ADJ. TO RESISTIVITY LOG]
DTED    .US/M   : DELTA TIME FROM SONIC LOG [ADJ. TO RESISTIVITY LOG]
DTWS    .US/M   : COMPRESSIONAL SONIC [DTED]
GRDED   .GAPI   : GAMMA RAY FROM DENSITY LOG [ADJ. TO RESISTIVITY LOG]
GRSED   .GAPI   : GAMMA RAY FROM SONIC LOG [ADJ. TO RESISTIVITY LOG]
GRWS    .GAPI   : GAMMA RAY [GRDED]
ILDED   .OHMM   : DEEP INDUCTION RESISTIVITY FROM RESISTIVITY LOG
ILMED   .OHMM   : MEDIUM INDUCTION RESISTIVITY FROM RESISTIVITY LOG
MRESWS  .OHMM   : MEDIUM RESISTIVITY [ILMED]
NPHILSED.V/V    : NEUTRON POROSITY LIMESTONE FROM DENSITY LOG [ADJ. TO RESISTIVITY LOG]
NPHISSED.V/V    : NEUTRON POROSITY SANDSTONE FROM DENSITY LOG [ADJ. TO RESISTIVITY LOG]
NPOLSWS .V/V    : NEUTRON POROSITY LIMESTONE [SCHL. NPHISSED MATRIX CONVERSION FOR LIMESTONE, SPL. TO NPHILSED @ 1290M]
PEFED   .B/E    : PHOTOELECTRIC FACTOR FROM DENSITY LOG [ADJ. TO RESISTIVITY LOG]
PEFWS   .B/E    : PHOTOELECTRIC FACTOR [PEFED]
RHOBED  .KG/M3  : BULK DENSITY FROM DENSITY LOG [ADJ. TO RESISTIVITY LOG]
SFLUED  .OHMM   : SHALLOW FOCUS LOG FROM RESISTIVITY LOG
SPRED   .MV     : SPONTANEOUS POTENTIAL FROM RESISTIVITY LOG
SPWS    .MV     : SPONTANEOUS POTENTIAL [BASELINE 0 MV, SPRED]
SRESWS  .OHMM   : SHALLOW RESISTIVITY [SFLUED]
TENDED  .N      : TENSION FROM DENSITY LOG [ADJ. TO RESISTIVITY LOG]
TENRED  .N      : TENSION FROM RESISTIVITY LOG
TENSED  .N      : TENSION FROM SONIC LOG [ADJ. TO RESISTIVITY LOG]
~Params ----------------------------------------------------
PD  .                         GL : PERMANENT DATUM
EPD .M                     792.2 : ELEVATION PERMANENT DATUM
LMF .                         KB : LOG MEASURED FROM
DAPD.M                       4.1 : FEET ABOVE PERMANENT DATUM
DMF .                         KB : DRILLING MEASURED FROM
EKB .M                     796.3 : KELLY BUSHING
EGL .M                     792.2 : GROUND LEVEL
DATE.                   11/06/87 : RUN DATE
RUN .                          2 : RUN NUMBER
DD  .M                      2025 : DEPTH DRILLER
DL  .M                    2023.1 : DEPTH LOGGER
BLI .M                      2021 : BOTTOM LOG INTERVAL
TLI .M                      1275 : TOP LOG INTERVAL
CS  .MM                      244 : CASING SIZE
CBD .M                       364 : CASING BOTTOM DRILLER
CBL .M                       364 : CASING BOTTOM LOGGER
BS  .MM                      222 : BIT SIZE
BSD .M                      2025 : BIT SIZE AT DEPTH
DFT .                   GEL CHEM : DRILLING FLUID TYPE
DFD .                       1075 : DRILLING FLUID DENSITY
DFV .                         50 : DRILLING FLUID VISCOSITY
DFPH.                       11.5 : DRILLING FLUID PH
DFL .                       19.6 : DRILLING FLUID LOSS
MSS .                   FLOWLINE : MUD SAMPLE SOURCE
RMS .OHMM                    0.2 : RESISTIVITY MUD SAMPLE
MST .DEGC                     32 : MUD SAMPLE TEMPERATURE
RMF .OHMM                   0.14 : RESISTIVITY MUD FILTRATE SAMPLE
MFST.DEGC                     27 : MUD FILTRATE SAMPLE TEMPERATURE
RMC .OHMM                  0.082 : RESISTIVITY MUD CAKE
MCST.DEGC                     61 : MUD CAKE SAMPLE TEMPERATURE
MFSS.                      PRESS : MUD FILTRATE SAMPLE SOURCE
RMB .OHMM                   0.13 : RESISTIVITY MUD AT BHT
TCS .HRS                     700 : TIME CIRCULATED STOPPED
TLAB.HRS                    1630 : TIME LOGGER AT BOTTOM
LUN .                       8063 : LOGGING UNIT NUMBER
LUL .                         RD : LOGGING UNIT LOCATION
ENGI.                     BRKICH : RECORDING ENGINEER
WITN.                     CHIZEN : WITNESSED BY
CLNT.                    A2DTECH : CLIENT CODE
ORIG. 6.5"/100M 16.5"/100M PRINT : ORIGIN OF DATA
UWI .           100141103917W400 : UNIQUE WELL ID
DICO.     A2D Technologies, Inc. : DIGITIZING COMPANY
~Other -----------------------------------------------------
DIL-SFL-CNL-LDT-BHC SONIC-GR TOOL RUN
RHOB FROM SMALL SCALE LOG
~ASCII -----------------------------------------------------
  350.00000    -999.25    -999.25    -999.25    -999.25    -999.25    -999.25    -999.25    -999.25    -999.25    -999.25    -999.25    -999.25    -999.25    -999.25   35.07790    -999.25   35.07790    -999.25    -999.25    -999.25    -999.25    0.54290    0.50120    -999.25    -999.25    -999.25    -999.25    -999.25    -999.25    -999.25    -999.25    -999.25    -999.25
  400.00000  235.04090  227.81910  241.67740  227.81910  192.99800   57.30580 2280.77930    -999.25    0.20660    0.25100    5.18140   57.30580  342.88960  342.88960   64.84760   64.89670   64.84760    5.18140    4.99170    4.99170    -999.25    0.43650    0.39450    -999.25    -999.25 2280.77930    5.62660 -147.17480   -3.63860    5.62660 7020.50050 6425.63330 6320.46480
  450.00000  219.77710  223.92050  227.03170  223.92050  182.84880   13.79810 2355.23100    -999.25    0.17900    0.20750    5.46900   13.79810  338.72850  338.72850   55.31880   54.17600   55.31880    5.46900    5.70100    5.70100    -999.25    0.42090    0.37850    -999.25    -999.25 2355.23100    5.88810 -145.41500  -10.42510    5.88810 7073.91260 6770.27780 6594.76560
  500.00000  212.70210  221.87650  226.99710  221.87650  149.47010    8.35150 2386.71920    -999.25    0.15680    0.18910    6.69030    8.35150  308.09670  308.09670   47.32470   47.78850   47.32470    6.69030    6.48410    6.48410    -999.25    0.35720    0.31360    -999.25    -999.25 2386.71920    5.66730 -142.48680   -8.22100    5.66730 7028.49800 6822.22750 6589.67770
  550.00000  221.35260  223.24310  229.30760  223.24310  207.07790   42.72960 2378.21610    -999.25    0.15900    0.19400    4.82910   42.72960  334.98890  334.98890   53.65890   58.26620   53.65890    4.82910    4.63440    4.63440    -999.25    0.44910    0.40740    -999.25    -999.25 2378.21610    4.08210 -138.74190   -5.69350    4.08210 7518.42190 7080.92480 7063.32180
  600.00000  237.59090  223.53070  239.03930  223.53070  193.70460   76.92320 2402.04250    -999.25    0.14790    0.18010    5.16250   76.92320  336.79780  336.79780  104.51440  101.30870  104.51440    5.16250    4.96040    4.96040    -999.25    0.42710    0.38480    -999.25    -999.25 2402.04250    5.41680 -132.57390   -2.39030    5.41680 7295.37110 7202.05270 7148.75000
  650.00000  254.04870  223.85660  244.40610  223.85660  122.03460  154.79160 2315.83540    -999.25    0.19800    0.23050    8.19440  154.79160  313.74670  313.74670   92.61480   94.12340   92.61480    8.19440    8.03730    8.03730    -999.25    0.35780    0.31430    -999.25    -999.25 2315.83540    8.48060 -133.83950   -4.37350    8.48060 7443.74320 7403.23970 7347.21190
  700.00000  248.94250  223.60140  244.67270  223.60140  138.51760  145.99660 2338.97390    -999.25    0.18770    0.21700    7.21930  145.99660  340.82210  340.82210  106.72090  104.46570  106.72090    7.21930    7.08700    7.08700    -999.25    0.45950    0.41780    -999.25    -999.25 2338.97390    7.95670 -131.34950   -5.85540    7.95670 7704.19780 7594.60060 7460.75200
  750.00000  244.60510  226.45560  238.84050  226.45560  138.60210   76.49890 2460.41890    -999.25    0.11420    0.14600    7.21490   76.49890  345.14090  345.14090  117.34440  129.62310  117.34440    7.21490    7.12680    7.12680    -999.25    0.42060    0.37820    -999.25    -999.25 2460.41890    8.43080 -127.47020   -5.94800    8.43080 8055.52250 7818.22410 7691.59570
  800.00000  229.67740  215.02500  231.47660  215.02500   99.16110   93.69610 2506.76170    -999.25    0.08720    0.11890   10.08460   93.69610  297.15600  297.15600  101.84850   97.92450  101.84850   10.08460   10.26110   10.26110    -999.25    0.35090    0.30730    -999.25    -999.25 2506.76170   12.90780 -122.82870   -5.74800   12.90780 8532.80660 8031.59280 8037.68900
  850.00000  233.83950  218.25940  232.74570  218.25940  124.30540   65.34030 2358.02690    -999.25    0.17460    0.20580    8.04470   65.34030  307.69890  307.69890   99.71580   97.93170   99.71580    8.04470    7.88060    7.88060    -999.25    0.37580    0.33250    -999.25    -999.25 2358.02690    8.39310 -118.70910   -7.12490    8.39310 8643.62790 8162.66500 8223.93850
  900.00000  242.27900  231.06870  238.23310  231.06870  171.71800  139.73970 2367.68750    -999.25    0.16910    0.20020    5.82350  139.73970  337.97150  337.97150  111.10400  113.11060  111.10400    5.82350    5.99040    5.99040    -999.25    0.43630    0.39420    -999.25    -999.25 2367.68750    6.94970 -111.55450   -5.46680    6.94970 8746.79490 8618.14750 8559.10450
  950.00000  239.46700  229.58290  231.17120  229.58290  165.49440  160.06580 2452.14600    -999.25    0.12080    0.15080    6.04250  160.06580  338.07680  338.07680  121.55970  137.52700  121.55970    6.04250    5.58800    5.58800    -999.25    0.48570    0.44400    -999.25    -999.25 2452.14600    7.52900 -107.76780   -5.09590    7.52900 9175.78810 8914.32420 8780.79300
 1000.00000  224.10330  219.14670  225.20590  219.14670  276.05240   10.42720 2402.87570    -999.25    0.14830    0.17960    3.62250   10.42720  345.58070  345.58070  150.41420  154.33270  150.41420    3.62250    3.69740    3.69740    -999.25    0.40470    0.36190    -999.25    -999.25 2402.87570    4.53120 -102.20280   -5.26630    4.53120 8919.70610 9040.07710 8994.46090
 1050.00000  232.93850  242.80480  249.40480  242.80480  339.58160   96.34500 2484.02860    -999.25    0.09920    0.13210    2.94480   96.34500  336.74470  336.74470  106.81370  109.41290  106.81370    2.94480    3.06620    3.06620    -999.25    0.41360    0.37100    -999.25    -999.25 2484.02860    3.39700  -94.07160   -3.57290    3.39700 9460.51070 9272.19340 9277.88480
 1100.00000  253.30360  274.26180  269.86390  274.26180  515.03910  168.87580 2230.70480    -999.25    0.25200    0.28030    1.94160  168.87580  351.65580  351.65580   84.25180   93.62880   84.25180    1.94160    2.03830    2.03830    -999.25    0.48810    0.44640    -999.25    -999.25 2230.70480    2.32850  -86.18960   -3.12840    2.32850 9607.14160 9580.28710 9294.24320
 1150.00000  229.35300  234.48390  238.90920  234.48390  142.28390   21.99700 2545.87720    -999.25    0.06810    0.09600    7.02820   21.99700  257.29800  257.29800   76.43390   85.39240   76.43390    7.02820    7.34640    7.34640    -999.25    0.30600    0.26200    -999.25    -999.25 2545.87720    8.88840  -91.63940  -13.73980    8.88840 9989.68850 10233.59770 10020.98540
 1200.00000  239.50750  258.61000  250.08690  258.61000  306.57920  164.34960 2232.37430    -999.25    0.27920    0.27930    3.26180  164.34960  323.19420  323.19420   95.74300   98.77250   95.74300    3.26180    3.44390    3.44390    -999.25    0.46380    0.42210    -999.25    -999.25 2232.37430    3.60550  -74.52600   -5.12560    3.60550 10864.91310 10135.33590 10103.50590
 1250.00000  221.27570  217.19040  223.07280  217.19040  750.18750    6.12840 2426.27830    -999.25    0.13760    0.16590    1.33300    6.12840  250.95690  250.95690   27.27740   32.91020   27.27740    1.33300    1.61290    1.61290    -999.25    0.22010    0.17640    2.32320    2.32320 2426.27830    5.53050 -146.56020  -76.09050    5.53050 10201.83980 10480.87010 10181.11820
 1300.00000  288.35690  247.17970  265.39220  247.17970   13.95680   50.60290 2846.45800   -0.07980    -999.25   -0.07980   71.64990   50.60290  178.38770  178.38770   23.74560   21.62960   23.74560   71.64990   69.51770   69.51770    0.03060    -999.25    0.03060    3.90940    3.90940 2847.40550   54.89540  -79.87610   -5.60080   54.89540 10500.15820 9123.88380 9446.59380
 1350.00000  265.69820  249.37470  261.17250  249.37470    6.03170   -0.87880 2917.25200   -0.12120    -999.25   -0.12120  165.78950   -0.87880  181.21600  181.21600   29.15650   31.18630   29.15650  165.78950  673.10750  673.10750    0.07810    -999.25    0.07810    3.87320    3.87320 2907.62700  130.79340  -98.29340  -29.83930  130.79340 10496.59670 9546.00200 9687.57520
 1400.00000  257.85590  232.70840  243.33650  232.70840    5.49910    0.98930 2862.01900   -0.08890    -999.25   -0.08890  181.84720    0.98930  157.75940  157.75940   15.23170   14.87030   15.23170  181.84720 1697.11510 1697.11510    0.06320    -999.25    0.06320    3.04530    3.04530 2864.87870  124.93060  -86.32270  -23.68980  124.93060 10881.59570 9952.36230 9941.79200
