~Version ---------------------------------------------------
VERS.      2.0 : CWLS log ASCII Standard -VERSION 2.0
WRAP.       NO : One line per depth step
CREA. 09/22/17 : LAS Creation Date
~Well ------------------------------------------------------
STRT.FT                            1200.0 : START DEPTH
STOP.FT                           11700.0 : STOP DEPTH
STEP.FT                          50.00000 : STEP LENGTH
NULL.                             -999.25 : NULL VALUE
COMP.        PAN AMERICAN PETROLEUM CORP. : COMPANY
WELL. PAN AM FINA G-1 KAYBOBS 10-19-58-18 : WELL
FLD .                                  WC : FIELD
LOC .                                     : LOCATION
CTRY.                              CANADA : COUNTRY
SRVC.                        Schlumberger : SERVICE COMPANY
DATE.                         16-Apr-1969 : LOGDATE
PROV.                             Alberta : PROVINCE
UWI .                    100101905818W500 : UNIQUE WELL ID
SLAT.WGS84                       54.03118 : SURFACE LATITUDE
SLON.WGS84                      -116.6587 : SURFACE LONGITUDE
~Curve Information -----------------------------------------
DEPT    .FT    : Depth Curve
CALDED  .IN    : CALIPER FROM DENSITY LOG [DEP. ADJ. TO RESIS. LOG]
CALNED  .IN    : CALIPER FROM SNP LOG [DEP. ADJ. TO RESIS. LOG]
CALSED  .IN    : CALIPER FROM SONIC LOG
CALWS   .IN    : CALIPER [1200' CALSED 10727' CALDED]
CONDWS  .MMHO  : CONDUCTIVITY [1000/DRESWS]
DCORED  .G/C3  : DENSITY CORRECTION FROM DENSITY LOG [DEP. ADJ. TO RESIS. LOG]
DCORWS  .G/C3  : DENSITY CORRECTION [DCORED]
DENWS   .G/C3  : BULK DENSITY [M=2.71, F=1.00] [RHOBED]
DPHILSED.V/V   : DENSITY POROSITY [M=2.71, F=1.00] FROM DENSITY LOG [DEP. ADJ. TO RESIS. LOG]
DPOLSWS .V/V   : DENSITY POROSITY [M=2.71, F=1.00] [DPHILSED]
DRESWS  .OHMM  : DEEP RESISTIVITY [ILDED]
DTED    .US/F  : DELTA TIME FROM SONIC LOG
DTWS    .US/F  : DELTA TIME [DTED]
GRNED   .GAPI  : GAMMA RAY FROM SNP LOG [DEP. ADJ. TO RESIS. LOG]
GRSED   .GAPI  : GAMMA RAY FROM SONIC LOG
GRWS    .GAPI  : GAMMA RAY [1178' GRSED 11700' GRNED]
ILDED   .OHMM  : INDUCTION LOG DEEP RESISTIVITY
ILMED   .OHMM  : INDUCTION LOG MEDIUM RESISTIVITY
LL8ED   .OHMM  : 8 INCH LATEROLOG RESISTIVITY
MRESWS  .OHMM  : MEDIUM RESISTIVITY [ILMED]
NPOLSWS .V/V   : NEUTRON POROSITY LIMESTONE [SNPLSED]
RHOBED  .G/C3  : BULK DENSITY FROM DENSITY LOG [DEP. ADJ. TO RESIS. LOG]
SNPLSED .V/V   : SIDEWALL NEUTRON POROSITY [LIMESTONE] [DEP. ADJ. TO RESIS. LOG]
SPRED   .MV    : SPONTANEOUS POTENTIAL FROM RESISTIVITY LOG
SPWS    .MV    : SPONTANEOUS POTENTIAL [BASELINE 0 MV] [SPRED]
SRESWS  .OHMM  : SHALLOW RESISTIVITY [LL8ED]
~Params ----------------------------------------------------
PD  .                     GL : PERMANENT DATUM
EPD .FT                 3475 : ELEVATION PERMANENT DATUM
LMF .                     KB : LOG MEASURED FROM
DAPD.FT                   12 : FEET ABOVE PERMANENT DATUM
EKB .FT                 3487 : KELLY BUSHING
EGL .FT                 3475 : GROUND LEVEL
DATE.               04/16/69 : RUN DATE
RUN .                      1 : RUN NUMBER
DD  .FT                11735 : DEPTH DRILLER
DL  .FT                11734 : DEPTH LOGGER
BLI .FT                11729 : BOTTOM LOG INTERVAL
TLI .FT                 1202 : TOP LOG INTERVAL
CBD .FT                 1202 : CASING BOTTOM DRILLER
CBL .FT                 1202 : CASING BOTTOM LOGGER
BS  .IN                 8.75 : BIT SIZE
BSD .FT                11735 : BIT SIZE AT DEPTH
DFT .              GEL BENEX : DRILLING FLUID TYPE
DFD .                    9.3 : DRILLING FLUID DENSITY
DFV .                     90 : DRILLING FLUID VISCOSITY
DFPH.                    8.0 : DRILLING FLUID PH
DFL .                   11.2 : DRILLING FLUID LOSS
RMS .OHMM               2.37 : RESISTIVITY MUD SAMPLE
MST .DEGF                 67 : MUD SAMPLE TEMPERATURE
RMF .OHMM               1.81 : RESISTIVITY MUD FILTRATE SAMPLE
MFST.DEGF                 66 : MUD FILTRATE SAMPLE TEMPERATURE
RMC .OHMM               2.83 : RESISTIVITY MUD CAKE
MCST.DEGF                 68 : MUD CAKE SAMPLE TEMPERATURE
RMB .OHMM               0.62 : RESISTIVITY MUD AT BHT
TCS .HRS                   2 : TIME CIRCULATED STOPPED
LUN .                   7502 : LOGGING UNIT NUMBER
LUL .                    EDM : LOGGING UNIT LOCATION
ENGI.               ARMENTAN : RECORDING ENGINEER
WITN.                   CHUK : WITNESSED BY
CLNT.                A2DTECH : CLIENT CODE
ORIG.            2" 5" PRINT : ORIGIN OF DATA
UWI .       100101905818W500 : UNIQUE WELL ID
DICO. A2D Technologies, Inc. : DIGITIZING COMPANY
~Other -----------------------------------------------------
~ASCII -----------------------------------------------------
# ...
 7950.00000    -999.25    -999.25   13.02530   13.02530  212.44950    -999.25    -999.25    -999.25    -999.25    -999.25    4.70700   79.95230   79.95230    -999.25   76.69270   76.69270    4.70700    4.47110    7.01420    4.47110    -999.25    -999.25    -999.25   24.85530 -122.49520    7.01420
 8000.00000    -999.25    -999.25   15.00000   15.00000   82.33160    -999.25    -999.25    -999.25    -999.25    -999.25   12.14600   52.07820   52.07820    -999.25   70.36420   70.36420   12.14600    9.66580   14.65560    9.66580    -999.25    -999.25    -999.25   49.86730  -98.10250   14.65560
 8050.00000    -999.25    -999.25    9.57560    9.57560    4.89030    -999.25    -999.25    -999.25    -999.25    -999.25  204.48750   53.93910   53.93910    -999.25   27.67240   27.67240  204.48750  199.60020  353.39180  199.60020    -999.25    -999.25    -999.25   13.20360 -135.38550  353.39180
 8100.00000    -999.25    -999.25    9.90100    9.90100    8.64430    -999.25    -999.25    -999.25    -999.25    -999.25  115.68300   59.23480   59.23480    -999.25  120.01370  120.01370  115.68300  107.04530  374.19310  107.04530    -999.25    -999.25    -999.25   26.25280 -122.95970  374.19310
 8150.00000    -999.25    -999.25    9.64950    9.64950   46.15430    -999.25    -999.25    -999.25    -999.25    -999.25   21.66730   57.95210   57.95210    -999.25   70.33810   70.33810   21.66730   19.85760   22.81960   19.85760    -999.25    -999.25    -999.25   86.29470  -63.53720   22.81960
 8200.00000    -999.25    -999.25   10.12990   10.12990   37.88290    -999.25    -999.25    -999.25    -999.25    -999.25   26.39710   61.63870   61.63870    -999.25   86.44540   86.44540   26.39710   27.38350   39.26170   27.38350    -999.25    -999.25    -999.25  148.49250   -2.09620   39.26170
 8250.00000    -999.25    -999.25   11.11130   11.11130   39.61930    -999.25    -999.25    -999.25    -999.25    -999.25   25.24020   54.40230   54.40230    -999.25   22.50290   22.50290   25.24020   23.21720   24.69890   23.21720    -999.25    -999.25    -999.25   84.44920  -68.44930   24.69890
 8300.00000    -999.25    -999.25   10.77980   10.77980   31.03080    -999.25    -999.25    -999.25    -999.25    -999.25   32.25830   57.15050   57.15050    -999.25   46.51680   46.51680   32.25830   24.56610   45.93890   24.56610    -999.25    -999.25    -999.25   73.79140  -81.41680   45.93890
 8350.00000    -999.25    -999.25   10.16710   10.16710  142.24140    -999.25    -999.25    -999.25    -999.25    -999.25    7.03030   61.15270   61.15270    -999.25   36.38380   36.38380    7.03030    6.14730   13.04030    6.14730    -999.25    -999.25    -999.25   49.12010 -108.41310   13.04030
 8400.00000    -999.25    -999.25    9.70960    9.70960   56.21490    -999.25    -999.25    -999.25    -999.25    -999.25   17.91300   54.30410   54.30410    -999.25   42.77720   42.77720   17.91300   19.06580   39.59130   19.06580    -999.25    -999.25    -999.25   32.88760 -126.95530   39.59130
 8450.00000    -999.25    -999.25    9.91650    9.91650   38.29080    -999.25    -999.25    -999.25    -999.25    -999.25   26.11590   56.13670   56.13670    -999.25   46.39730   46.39730   26.11590   22.33690   28.17240   22.33690    -999.25    -999.25    -999.25   70.32960  -91.83830   28.17240
 8500.00000    -999.25    -999.25    9.95850    9.95850    8.99520    -999.25    -999.25    -999.25    -999.25    -999.25  111.16980   51.18880   51.18880    -999.25   11.60450   11.60450  111.16980  111.46230  195.72140  111.46230    -999.25    -999.25    -999.25   85.64690  -78.83070  195.72140
 8550.00000    -999.25    -999.25   10.62360   10.62360   13.70150    -999.25    -999.25    -999.25    -999.25    -999.25   72.99420   51.03760   51.03760    -999.25    9.19170    9.19170   72.99420   98.20530  151.03750   98.20530    -999.25    -999.25    -999.25   41.51460 -125.27280  151.03750
 8600.00000    -999.25    -999.25    9.94870    9.94870  254.00700    -999.25    -999.25    -999.25    -999.25    -999.25    3.93690   62.09130   62.09130    -999.25   40.73650   40.73650    3.93690    4.41370   10.93350    4.41370    -999.25    -999.25    -999.25   52.61790 -116.49440   10.93350
 8650.00000    -999.25    -999.25    9.51090    9.51090  137.50220    -999.25    -999.25    -999.25    -999.25    -999.25    7.27980   59.23110   59.23110    -999.25   54.88510   54.88510    7.27980    7.38020   10.97930    7.38020    -999.25    -999.25    -999.25   67.80310 -103.61900   10.97930
 8700.00000    -999.25    -999.25    9.71630    9.71630   42.77950    -999.25    -999.25    -999.25    -999.25    -999.25   23.37570   54.25690   54.25690    -999.25   37.74470   37.74470   23.37570   30.02690   88.94650   30.02690    -999.25    -999.25    -999.25   96.43300  -77.31400   88.94650
 8750.00000    -999.25    -999.25    9.70900    9.70900   70.45530    -999.25    -999.25    -999.25    -999.25    -999.25   14.19340   57.91670   57.91670    -999.25   43.11800   43.11800   14.19340   13.89980   34.56130   13.89980    -999.25    -999.25    -999.25  131.06450  -44.99220   34.56130
 8800.00000    -999.25    -999.25    9.91350    9.91350   18.68710    -999.25    -999.25    -999.25    -999.25    -999.25   53.52940   54.21420   54.21420    -999.25   39.54530   39.54530   53.52940   63.72800   83.18860   63.72800    -999.25    -999.25    -999.25  148.84030  -29.52620   83.18860
 8850.00000    -999.25    -999.25   10.02270   10.02270   63.28390    -999.25    -999.25    -999.25    -999.25    -999.25   15.80180   59.09300   59.09300    -999.25   36.18720   36.18720   15.80180   14.73890   22.40970   14.73890    -999.25    -999.25    -999.25  165.09900  -15.59240   22.40970
 8900.00000    -999.25    -999.25    9.56890    9.56890   17.27080    -999.25    -999.25    -999.25    -999.25    -999.25   58.09080   52.97010   52.97010    -999.25   26.83490   26.83490   58.09080   62.77540   97.45390   62.77540    -999.25    -999.25    -999.25  122.17530  -55.65420   97.45390
 8950.00000    -999.25    -999.25    9.55450    9.55450    5.22300    -999.25    -999.25    -999.25    -999.25    -999.25  191.46120   52.42070   52.42070    -999.25   19.75510   19.75510  191.46120  185.76490  278.92330  185.76490    -999.25    -999.25    -999.25   -7.25560 -181.13020  278.92330
 9000.00000    -999.25    -999.25    9.48480    9.48480    8.36060    -999.25    -999.25    -999.25    -999.25    -999.25  119.60860   52.67540   52.67540    -999.25   26.50820   26.50820  119.60860  112.54920  145.64460  112.54920    -999.25    -999.25    -999.25   -5.32540 -175.27100  145.64460
 9050.00000    -999.25    -999.25    9.64270    9.64270   15.82810    -999.25    -999.25    -999.25    -999.25    -999.25   63.20720   54.39180   54.39180    -999.25   36.31220   36.31220   63.20720   67.84160   76.70870   67.84160    -999.25    -999.25    -999.25    2.42130 -163.59520   76.70870
 9100.00000    -999.25    -999.25    9.60950    9.60950   24.79800    -999.25    -999.25    -999.25    -999.25    -999.25   40.32580   55.87180   55.87180    -999.25   47.22600   47.22600   40.32580   45.69940   56.32990   45.69940    -999.25    -999.25    -999.25  -85.78480 -247.84640   56.32990
 9150.00000    -999.25    -999.25    8.88820    8.88820   15.91420    -999.25    -999.25    -999.25    -999.25    -999.25   62.88870   65.12870   65.12870    -999.25   82.44470   82.44470   62.88870   69.82990   86.50530   69.82990    -999.25    -999.25    -999.25  -60.37890 -218.51150   86.50530
 9200.00000    -999.25    -999.25    9.73820    9.73820    7.13710    -999.25    -999.25    -999.25    -999.25    -999.25  140.11300   49.46420   49.46420    -999.25   27.31560   27.31560  140.11300  322.00300  895.82870  322.00300    -999.25    -999.25    -999.25 -106.24800 -260.42570  895.82870
 9250.00000    -999.25    -999.25   10.39880   10.39880    2.03010    -999.25    -999.25    -999.25    -999.25    -999.25  492.59540   50.87240   50.87240    -999.25   12.90120   12.90120  492.59540  367.51310  647.30340  367.51310    -999.25    -999.25    -999.25 -172.52340 -322.77200  647.30340
