~Version ---------------------------------------------------
VERS.      2.0 : CWLS log ASCII Standard -VERSION 2.0
WRAP.       NO : One line per depth step
CREA. 01/05/18 : LAS Creation Date
~Well ------------------------------------------------------
STRT.FT                            650.0 : START DEPTH
STOP.FT                           9200.0 : STOP DEPTH
STEP.FT                         50.00000 : STEP LENGTH
NULL.                            -999.25 : NULL VALUE
COMP.                 DENISON MINES LTD. : COMPANY
WELL. DENISON ET AL VIRG HILLS 4-7-65-12 : WELL
FLD .                                    : FIELD
LOC .                                    : LOCATION
CTRY.                             CANADA : COUNTRY
SRVC.                       Schlumberger : SERVICE COMPANY
DATE.                        14-Sep-1974 : LOGDATE
PROV.                            Alberta : PROVINCE
UWI .                   100040706512W500 : UNIQUE WELL ID
SLAT.WGS84                      54.60475 : SURFACE LATITUDE
SLON.WGS84                     -115.8121 : SURFACE LONGITUDE
~Curve Information -----------------------------------------
DEPT  .FT    : Depth Curve
CALSED.IN    : CALIPER FROM SONIC LOG [ADJ TO SPRED]
CALWS .IN    : CALIPER [CALSED]
CILDED.MMHO  : CONDUCTIVITY FROM RESISTIVITY LOG
CONDWS.MMHO  : CONDUCTIVITY [1000/DRESWS]
DRESWS.OHMM  : DEEP RESISTIVITY [ILDED]
DTED  .US/F  : DELTA TIME FROM SONIC LOG [ADJ TO SPRED]
DTWS  .US/F  : DELTA TIME [DTED]
GRSED .GAPI  : GAMMA RAY FROM SONIC LOG [ADJ TO SPRED]
GRWS  .GAPI  : GAMMA RAY [GRSED]
ILDED .OHMM  : INDUCTION LOG DEEP RESISTIVITY
ILMED .OHMM  : INDUCTION LOG MEDIUM RESISTIVITY
LL8ED .OHMM  : 8 INCH LATEROLOG RESISTIVITY
MRESWS.OHMM  : MEDIUM RESISTIVITY [ILMED]
SPRED .MV    : SPONTANEOUS POTENTIAL FROM RESISTIVITY LOG
SPWS  .MV    : SPONTANEOUS POTENTIAL [BASELINE 0 MV] [SPRED]
SRESWS.OHMM  : SHALLOW RESISTIVITY [LL8ED]
~Params ----------------------------------------------------
PD  .                     GL : PERMANENT DATUM
EPD .FT                 3432 : ELEVATION PERMANENT DATUM
LMF .                     KB : LOG MEASURED FROM
DAPD.FT                   14 : FEET ABOVE PERMANENT DATUM
EKB .FT                 3446 : KELLY BUSHING
EGL .FT                 3432 : GROUND LEVEL
DATE.               09/14/74 : RUN DATE
RUN .                      1 : RUN NUMBER
DD  .FT                 9235 : DEPTH DRILLER
DL  .FT                 9236 : DEPTH LOGGER
BLI .FT                 9230 : BOTTOM LOG INTERVAL
TLI .FT                  657 : TOP LOG INTERVAL
CBD .FT                  657 : CASING BOTTOM DRILLER
CBL .FT                  657 : CASING BOTTOM LOGGER
BS  .IN                7.875 : BIT SIZE
BSD .FT                 9235 : BIT SIZE AT DEPTH
DFT .               GEL CHEM : DRILLING FLUID TYPE
DFD .                    9.5 : DRILLING FLUID DENSITY
DFV .                     85 : DRILLING FLUID VISCOSITY
DFPH.                   10.4 : DRILLING FLUID PH
DFL .                    7.8 : DRILLING FLUID LOSS
MSS .               FLOWLINE : MUD SAMPLE SOURCE
RMS .OHMM                3.1 : RESISTIVITY MUD SAMPLE
MST .DEGF                 61 : MUD SAMPLE TEMPERATURE
RMF .OHMM               1.95 : RESISTIVITY MUD FILTRATE SAMPLE
MFST.DEGF                 69 : MUD FILTRATE SAMPLE TEMPERATURE
RMB .OHMM               0.75 : RESISTIVITY MUD AT BHT
TCS .HRS                 2.5 : TIME CIRCULATED STOPPED
LUN .                   7690 : LOGGING UNIT NUMBER
LUL .                    EDM : LOGGING UNIT LOCATION
ENGI.                SIMPSON : RECORDING ENGINEER
WITN.                BISSETT : WITNESSED BY
CLNT.                A2DTECH : CLIENT CODE
ORIG.            2" 5" PRINT : ORIGIN OF DATA
UWI .       100040706512W500 : UNIQUE WELL ID
DICO. A2D Technologies, Inc. : DIGITIZING COMPANY
~Other -----------------------------------------------------
IE-SONIC LOGS RUN
IE LOG DATA ALL CURVES TOP-8480' FROM 2" SCALE
SONIC LOG DATA ALL CURVES TOP-8490 FROM 2" SCALE
~ASCII -----------------------------------------------------
# ...
 2800.00000    7.92510    7.92510   95.50750   96.76060   10.35220  108.43710  108.43710   50.42490   50.42490   10.35220    -999.25    8.68960    -999.25 -117.44280  -28.97770    8.68960
 2850.00000    8.07650    8.07650  213.38110  211.54170    4.72720   82.10160   82.10160   57.64220   57.64220    4.72720    -999.25    4.18590    -999.25  -91.72180   -3.25670    4.18590
 2900.00000   11.12580   11.12580  257.33990  243.76800    4.10350  107.63220  107.63220   65.58130   65.58130    4.10350    -999.25    3.44720    -999.25  -94.74350   -6.27840    3.44720
 2950.00000    9.63950    9.63950  260.20420  245.00800    4.08150  101.90530  101.90530   65.56080   65.56080    4.08150    -999.25    3.61290    -999.25  -90.14590   -1.68080    3.61290
 3000.00000    9.84170    9.84170  239.67480  220.30310    4.53920   94.47270   94.47270   63.44660   63.44660    4.53920    -999.25    3.88500    -999.25  -90.08110   -1.91230    3.88500
 3050.00000   12.32140   12.32140  172.95110  172.84290    5.78590  118.81090  118.81090   71.75770   71.75770    5.78590    -999.25    4.45850    -999.25  -96.27580   -8.50010    4.45850
 3100.00000   12.12370   12.12370  177.75110  174.30410    5.73710  106.25910  106.25910   79.64760   79.64760    5.73710    -999.25    4.58190    -999.25  -97.85440  -10.47570    4.58190
 3150.00000   14.15300   14.15300  217.59990  215.07770    4.64950  116.62990  116.62990   88.04520   88.04520    4.64950    -999.25    4.07380    -999.25  -96.68780   -9.70210    4.07380
 3200.00000   12.56860   12.56860  154.91700  156.78900    6.37800  103.37920  103.37920  119.39070  119.39070    6.37800    -999.25    6.81580    -999.25  -91.80800   -5.21940    6.81580
 3250.00000   12.37080   12.37080  164.53950  170.50300    5.86500  104.10440  104.10440   99.51480   99.51480    5.86500    -999.25    5.55060    -999.25  -94.03710   -7.84350    5.55060
 3300.00000   10.90390   10.90390  161.18290  161.41010    6.19540   95.08920   95.08920   94.22900   94.22900    6.19540    -999.25    5.02780    -999.25  -95.25340   -9.45290    5.02780
 3350.00000   11.62140   11.62140  175.87050  176.27980    5.67280  104.74450  104.74450   89.76130   89.76130    5.67280    -999.25    4.56590    -999.25  -96.06030  -10.65680    4.56590
 3400.00000   14.50730   14.50730  219.34860  209.58930    4.77130  127.34390  127.34390   80.10930   80.10930    4.77130    -999.25    4.05090    -999.25  -95.15210  -10.14160    4.05090
 3450.00000   10.85560   10.85560  129.18320  129.41800    7.72690   96.45420   96.45420   92.91750   92.91750    7.72690    -999.25    6.49300    -999.25  -93.81500   -9.20160    6.49300
 3500.00000   14.17470   14.17470  165.95630  160.97360    6.21220  100.29370  100.29370   85.47860   85.47860    6.21220    -999.25    4.66390    -999.25  -97.42000  -13.20160    4.66390
 3550.00000   12.14570   12.14570  145.70810  143.31360    6.97850   95.97040   95.97040   85.67080   85.67080    6.97850    -999.25    5.30260    -999.25  -96.03340  -12.20810    5.30260
 3600.00000   12.49280   12.49280  199.02880  195.32390    5.11970  112.74030  112.74030  101.91250  101.91250    5.11970    -999.25    4.18890    -999.25  -95.53890  -12.11060    4.18890
 3650.00000    9.90240    9.90240  168.03170  162.49880    6.15820  102.44250  102.44250   73.40750   73.40750    6.15820    -999.25    4.69040    -999.25  -94.23790  -11.20270    4.69040
 3700.00000   11.84510   11.84510  173.05880  169.32510    5.90580  104.79410  104.79410   84.98900   84.98900    5.90580    -999.25    4.79940    -999.25  -94.36930  -11.73110    4.79940
 3750.00000   10.42880   10.42880  151.98500  155.56940    6.42800   96.68850   96.68850   86.54120   86.54120    6.42800    -999.25    4.92390    -999.25  -93.82330  -11.58010    4.92390
 3800.00000    9.54700    9.54700  161.04260  159.63940    6.26430   95.69950   95.69950   90.90920   90.90920    6.26430    -999.25    5.26420    -999.25  -90.72450   -8.87430    5.26420
 3850.00000    9.05240    9.05240  202.53750  189.81460    5.26830  107.72020  107.72020  100.44810  100.44810    5.26830    -999.25    4.87550    -999.25  -87.42450   -5.97140    4.87550
 3900.00000    8.62120    8.62120  177.97190  182.41360    5.48210  105.65990  105.65990  106.93200  106.93200    5.48210    -999.25    5.91920    -999.25  -86.94120   -5.88120    5.91920
 3950.00000    8.65940    8.65940  179.14960  188.48360    5.30550  101.19850  101.19850  105.63180  105.63180    5.30550    -999.25    5.68140    -999.25  -86.34260   -5.67960    5.68140
 4000.00000    8.04940    8.04940  147.62040  150.52760    6.64330  106.46400  106.46400  153.67800  153.67800    6.64330    -999.25    7.81140    -999.25  -87.66340   -7.39540    7.81140
 4050.00000    9.18000    9.18000  205.30860  199.23220    5.02640  101.60190  101.60190   95.15770   95.15770    5.02640    -999.25    4.30870    -999.25  -89.91210  -10.03720    4.30870
 4100.00000    8.87250    8.87250  178.16940  196.02080    5.10150   88.10440   88.10440   94.77530   94.77530    5.10150    -999.25    5.87230    -999.25  -86.30320   -6.82530    5.87230
 4150.00000    8.97620    8.97620  174.41230  174.40730    5.73370   87.25560   87.25560  104.27450  104.27450    5.73370    -999.25    6.21420    -999.25  -88.80710   -9.72230    6.21420
 4200.00000    9.05050    9.05050  187.27280  190.85790    5.23950   91.02120   91.02120  102.31040  102.31040    5.23950    -999.25    5.51510    -999.25  -85.27360   -6.58580    5.51510
 4250.00000    9.57020    9.57020  200.94200  218.76090    4.57120   95.32040   95.32040  121.56080  121.56080    4.57120    -999.25    5.03380    -999.25  -84.60270   -6.30990    5.03380
 4300.00000    9.68020    9.68020  254.03410  265.32240    3.76900   95.57540   95.57540  105.15070  105.15070    3.76900    -999.25    4.05470    -999.25  -82.54820   -4.64860    4.05470
 4350.00000   11.36060   11.36060  301.07200  304.75730    3.28130  100.52120  100.52120  105.63180  105.63180    3.28130    -999.25    3.75580    -999.25  -82.15530   -4.65260    3.75580
 4400.00000    9.40110    9.40110  219.56660  242.64410    4.12230   97.71520   97.71520  124.32430  124.32430    4.12230    -999.25    4.45360    -999.25  -81.54390   -4.43430    4.45360
 4450.00000    8.74540    8.74540  500.59870  500.59870    1.99760  107.76170  107.76170   95.34630   95.34630    1.67190    -999.25    2.04630    -999.25  -79.41850   -2.70370    2.04630
 4500.00000   10.66460   10.66460  406.14970  433.50100    2.30680  101.02740  101.02740   93.38810   93.38810    2.30680    -999.25    2.87760    -999.25  -78.11770   -1.77090    2.87760
 4550.00000    9.22210    9.22210  344.18470  344.38800    2.90390   90.11820   90.11820   99.18580   99.18580    2.90390    -999.25    2.96880    -999.25  -79.56070   -3.58010    2.96880
 4600.00000    9.85050    9.85050  326.68050  337.75800    2.96070   96.70260   96.70260  101.98720  101.98720    2.96070    -999.25    3.39500    -999.25  -79.76540   -4.15470    3.39500
 4650.00000   11.52660   11.52660  209.64460  199.51730    5.01360   87.15700   87.15700   69.55850   69.55850    5.01360    -999.25    4.35940    -999.25  -80.72900   -5.48440    4.35940
 4700.00000    9.57020    9.57020  134.08720  138.46770    7.22190   83.66600   83.66600   84.72570   84.72570    7.22190    -999.25    8.55790    -999.25  -84.28080   -9.40610    8.55790
 4750.00000    9.19480    9.19480  148.80680  151.55190    6.59840   84.74420   84.74420   66.25510   66.25510    6.59840    -999.25    7.60690    -999.25 -120.78160  -46.27490    7.60690
 4800.00000    9.66680    9.66680  125.65570  126.40530    7.91110   99.00700   99.00700   59.58090   59.58090    7.91110    -999.25   10.82160    -999.25 -123.56850  -49.42800   10.82160
 4850.00000    9.35470    9.35470  112.72830  112.25230    8.90850   85.30880   85.30880   50.41410   50.41410    8.90850    -999.25   14.01690    -999.25 -128.70230  -54.93160   14.01690
 4900.00000    9.43690    9.43690  130.37960  132.42670    7.55780   81.97750   81.97750   63.65540   63.65540    7.55780    -999.25   11.56420    -999.25 -118.00800  -44.60340   11.56420
