~Version ---------------------------------------------------
VERS.      2.0 : CWLS log ASCII Standard -VERSION 2.0
WRAP.       NO : One line per depth step
CREA. 08/01/17 : LAS Creation Date
~Well ------------------------------------------------------
STRT.FT                      1100.0 : START DEPTH
STOP.FT                     10300.0 : STOP DEPTH
STEP.FT                    50.00000 : STEP LENGTH
NULL.                       -999.25 : NULL VALUE
COMP.        DOME PETROLEUM LIMITED : COMPANY
WELL. DOME ET AL EAGLE T10-18-63-16 : WELL
FLD .                            WC : FIELD
LOC .                               : LOCATION
CTRY.                        CANADA : COUNTRY
SRVC.                  Schlumberger : SERVICE COMPANY
DATE.                   02-Apr-1968 : LOGDATE
PROV.                       Alberta : PROVINCE
UWI .              100101806316W500 : UNIQUE WELL ID
SLAT.WGS84                 54.45347 : SURFACE LATITUDE
SLON.WGS84                -116.4023 : SURFACE LONGITUDE
~Curve Information -----------------------------------------
DEPT  .FT    : Depth Curve
CALSED.IN    : CALIPER FROM BCS LOG [ADJ. TO ILDED]
CALWS .IN    : CALIPER [CALSED]
CILDED.MMHO  : DEEP INDUCTION CONDUCTIVITY FROM IEL LOG
CONDWS.MMHO  : CONDUCTIVITY [CILDED]
DRESWS.OHMM  : DEEP RESISTIVITY [1000/CILDED IF ILDED <1, ILDED]
DTED  .US/F  : ACOUSTIC TRANSIT TIME SLOWNESS, DELTA T FROM BCS LOG [ADJ. TO ILDED]
DTWS  .US/F  : COMPRESSIONAL SONIC [DTED]
GRSED .GAPI  : GAMMA RAY FROM BCS LOG [ADJ. TO ILDED]
GRWS  .GAPI  : GAMMA RAY [GRSED]
ILDED .OHMM  : DEEP INDUCTION RESISTIVITY FROM IEL LOG
SNED  .OHMM  : SHORT NORMAL FROM IEL LOG
SPRED .MV    : SPONTANEOUS POTENTIAL FROM IEL LOG
SPWS  .MV    : SPONTANEOUS POTENTIAL [BASELINED 0 MV, SPRED]
SRESWS.OHMM  : SHALLOW RESISTIVITY [SNED]
~Params ----------------------------------------------------
PD  .                     GL : PERMANENT DATUM
EPD .FT                 3417 : ELEVATION PERMANENT DATUM
LMF .                     KB : LOG MEASURED FROM
DAPD.FT                   13 : FEET ABOVE PERMANENT DATUM
DMF .                     KB : DRILLING MEASURED FROM
EKB .FT                 3430 : KELLY BUSHING
EGL .FT                 3417 : GROUND LEVEL
DATE.               04/02/68 : RUN DATE
RUN .                      1 : RUN NUMBER
DD  .FT                10343 : DEPTH DRILLER
DL  .FT                10341 : DEPTH LOGGER
BLI .FT                10340 : BOTTOM LOG INTERVAL
TLI .FT                 1104 : TOP LOG INTERVAL
CBD .FT                 1103 : CASING BOTTOM DRILLER
CBL .FT                 1104 : CASING BOTTOM LOGGER
BS  .IN                7.875 : BIT SIZE
BSD .FT                10343 : BIT SIZE AT DEPTH
DFT .               GEL CHEM : DRILLING FLUID TYPE
DFD .                   10.8 : DRILLING FLUID DENSITY
DFV .                    110 : DRILLING FLUID VISCOSITY
DFPH.                   10.5 : DRILLING FLUID PH
DFL .                    6.6 : DRILLING FLUID LOSS
RMS .OHMM               3.34 : RESISTIVITY MUD SAMPLE
MST .DEGF                 60 : MUD SAMPLE TEMPERATURE
RMF .OHMM                2.7 : RESISTIVITY MUD FILTRATE SAMPLE
MFST.DEGF                 61 : MUD FILTRATE SAMPLE TEMPERATURE
RMB .OHMM               1.07 : RESISTIVITY MUD AT BHT
TCS .HRS                 4.5 : TIME CIRCULATED STOPPED
LUN .                   3816 : LOGGING UNIT NUMBER
LUL .                    S L : LOGGING UNIT LOCATION
ENGI.                  MOORE : RECORDING ENGINEER
WITN.                  FOOTE : WITNESSED BY
CLNT.                A2DTECH : CLIENT CODE
ORIG.            2" 5" PRINT : ORIGIN OF DATA
UWI .       100101806316W500 : UNIQUE WELL ID
DICO. A2D Technologies, Inc. : DIGITIZING COMPANY
~Other -----------------------------------------------------
~ASCII -----------------------------------------------------
# ...
 6000.00000    8.03460    8.03460   96.85520   96.85520    8.67300   76.44420   76.44420   42.57070   42.57070    8.67300   24.09720 -149.55050  -92.25000   24.09720
 6050.00000    9.28270    9.28270  126.01090  126.01090    6.76010   76.23550   76.23550   69.77710   69.77710    6.76010    9.72050  -83.53080  -26.54050    9.72050
 6100.00000    9.22840    9.22840   95.80690   95.80690    8.90670   73.17620   73.17620   68.10240   68.10240    8.90670   12.54060  -88.62150  -31.94340   12.54060
 6150.00000   10.94940   10.94940  135.01910  135.01910    6.03050   77.67060   77.67060   66.20330   66.20330    6.03050    8.35360  -70.96110  -14.59320    8.35360
 6200.00000    9.02540    9.02540   84.29510   84.29510    9.70970   72.26750   72.26750   42.28290   42.28290    9.70970   22.41970 -116.72010  -60.66450   22.41970
 6250.00000    9.48820    9.48820  140.58030  140.58030    5.82430   85.62580   85.62580   74.95340   74.95340    5.82430   10.29570  -61.48170   -5.73630   10.29570
 6300.00000    8.81070    8.81070  187.14790  187.14790    4.33900   84.63610   84.63610   26.47250   26.47250    4.33900   18.59880 -167.30280 -111.86760   18.59880
 6350.00000    9.21690    9.21690  107.36370  107.36370    7.28450   89.40670   89.40670   76.87980   76.87980    7.28450   11.14010  -86.06360  -30.94060   11.14010
 6400.00000    8.88050    8.88050  105.11400  105.11400    8.53830   76.27420   76.27420   73.91300   73.91300    8.53830   12.53460  -83.49870  -28.68590   12.53460
 6450.00000    8.46460    8.46460   37.82050   37.82050   20.11440   64.97760   64.97760   58.34960   58.34960   20.11440   27.60650  -63.86520   -9.39680   27.60650
 6500.00000    8.75850    8.75850   73.41240   73.41240   10.45310   69.67720   69.67720   60.40290   60.40290   10.45310   15.55160  -71.83900  -17.95250   15.55160
 6550.00000    8.12380    8.12380    2.68630    2.68630  161.12870   67.43570   67.43570   94.37760   94.37760  161.12870  186.06070  -74.95360  -21.64900  186.06070
 6600.00000    8.02870    8.02870    2.28120    2.28120  190.77500   59.99120   59.99120   59.07360   59.07360  190.77500  249.29030 -117.55450  -64.83560  249.29030
 6650.00000    8.01130    8.01130  152.35130  152.35130    5.11990   67.12660   67.12660   16.54480   16.54480    5.11990   38.75920 -179.20660 -127.06960   38.75920
 6700.00000    8.03580    8.03580   79.51030   79.51030    9.93270   64.05780   64.05780   19.42290   19.42290    9.93270   45.54620 -141.87380  -90.32250   45.54620
 6750.00000    9.02100    9.02100   39.40160   39.40160   20.47030   56.06870   56.06870   52.32990   52.32990   20.47030   44.75150  -80.50670  -29.53730   44.75150
 6800.00000    8.66690    8.66690  256.60620  256.60620    2.94980   62.29220   62.29220   38.04720   38.04720    2.94980   10.99440 -116.70840  -66.32090   10.99440
 6850.00000    9.16220    9.16220   77.06370   77.06370   10.74840   52.70200   52.70200   16.71780   16.71780   10.74840   46.27240 -135.94680  -86.14500   46.27240
 6900.00000    8.51170    8.51170   14.24480   14.24480   44.60180   55.63620   55.63620   34.83610   34.83610   44.60180   70.61160  -84.38790  -35.16800   70.61160
 6950.00000    8.88220    8.88220   25.51240   25.51240   29.49220   53.30210   53.30210   16.00700   16.00700   29.49220  117.90510 -175.37490 -126.74070  117.90510
 7000.00000    8.44160    8.44160   40.75600   40.75600   20.06040   52.37490   52.37490   12.42370   12.42370   20.06040   89.42300 -276.18590 -228.13360   89.42300
 7050.00000    8.65520    8.65520   36.27300   36.27300   21.78980   53.54300   53.54300   14.80130   14.80130   21.78980   92.90300 -295.45110 -247.98070   92.90300
 7100.00000    8.45360    8.45360  354.20920  354.20920    2.34930   67.00700   67.00700   65.76400   65.76400    2.34930    5.19430 -180.87100 -133.98630    5.19430
 7150.00000    8.76660    8.76660  153.93720  153.93720    5.17160   63.13330   63.13330   70.83930   70.83930    5.17160    9.67720 -150.23020 -103.92740    9.67720
 7200.00000    8.67650    8.67650  188.74350  188.74350    4.31750   61.49090   61.49090   55.63040   55.63040    4.31750    9.29170 -175.45490 -129.73780    9.29170
 7250.00000    8.59450    8.59450    7.56190    7.56190   54.89550   55.05320   55.05320   33.04830   33.04830   54.89550   49.14910 -144.04450  -98.90930   49.14910
 7300.00000    8.54770    8.54770    2.09600    2.09600  127.43030   51.21520   51.21520   12.29550   12.29550  127.43030  132.23760 -145.10250 -100.54910  132.23760
 7350.00000    8.68360    8.68360   18.37240   18.37240   39.16010   54.16090   54.16090   31.43360   31.43360   39.16010   59.85010 -129.98690  -86.01930   59.85010
 7400.00000    8.18990    8.18990   17.73630   17.73630   37.78080   56.30980   56.30980   34.39790   34.39790   37.78080   51.24690 -120.22260  -76.83680   51.24690
 7450.00000    8.04610    8.04610   12.43320   12.43320   48.99540   54.88920   54.88920   33.63440   33.63440   48.99540   68.83710 -138.74930  -95.94930   68.83710
 7500.00000    8.04680    8.04680    5.71350    5.71350  101.71160   52.02600   52.02600   30.84040   30.84040  101.71160  104.37970 -160.11470 -117.89650  104.37970
 7550.00000    8.05170    8.05170    7.15150    7.15150   78.02220   52.53170   52.53170   21.44060   21.44060   78.02220   93.35810 -192.44650 -150.81020   93.35810
 7600.00000    8.08680    8.08680    2.04880    2.04880  272.64400   52.53580   52.53580   25.95700   25.95700  272.64400  229.67820 -158.15140 -117.10080  229.67820
 7650.00000    8.35020    8.35020    6.68070    6.68070   78.09220   56.51410   56.51410   50.43450   50.43450   78.09220   82.45170 -158.28910 -117.82040   82.45170
 7700.00000    8.56000    8.56000   66.55800   66.55800   13.10180   86.86400   86.86400  240.13570  240.13570   13.10180   26.71690 -149.71640 -109.83340   26.71690
 7750.00000    8.62050    8.62050    4.37660    4.37660  117.03120   51.74090   51.74090   14.54320   14.54320  117.03120  126.43220 -224.84590 -185.54480  126.43220
 7800.00000    8.35910    8.35910    2.72060    2.72060  158.70280   49.42640   49.42640   17.22060   17.22060  158.70280  144.99510 -216.00710 -177.28790  144.99510
 7850.00000    8.37400    8.37400    1.51770    1.51770  171.05770   49.17560   49.17560   13.27980   13.27980  171.05770  144.66170 -226.03560 -187.90210  144.66170
 7900.00000    8.46560    8.46560   14.36990   14.36990   43.04940   51.16570   51.16570   11.62140   11.62140   43.04940  133.45300 -288.62480 -251.07320  133.45300
 7950.00000    8.26090    8.26090    4.26670    4.26670  112.26620   49.06590   49.06590   11.02830   11.02830  112.26620  111.31000 -217.11630 -180.15040  111.31000
 8000.00000    8.56880    8.56880    7.64620    7.64620   69.78950   50.08620   50.08620    8.29810    8.29810   69.78950  106.80650 -239.43820 -203.05420  106.80650
 8050.00000    7.58010    7.58010   26.82360   26.82360   28.10190   53.37740   53.37740    8.16260    8.16260   28.10190  130.06870 -305.84730 -270.04520  130.06870
 8100.00000    8.30180    8.30180    3.95340    3.95340   90.40930   49.95260   49.95260   11.83700   11.83700   90.40930  126.19360 -276.37400 -241.15760  126.19360
 8150.00000    8.36350    8.36350   11.53540   11.53540   56.90010   51.51840   51.51840    9.35080    9.35080   56.90010  116.03710 -261.82940 -227.19490  116.03710
 8200.00000    8.30530    8.30530    3.37610    3.37610  145.20260   50.04200   50.04200   12.59640   12.59640  145.20260  126.43480 -289.66810 -255.61930  126.43480
 8250.00000    8.30420    8.30420    2.20500    2.20500  224.26710   49.02100   49.02100   13.78900   13.78900  224.26710  146.05800 -277.85530 -244.38840  146.05800
 8300.00000    8.19950    8.19950   15.79730   15.79730   45.01580   50.51390   50.51390   10.94420   10.94420   45.01580  106.03250 -305.26470 -272.37970  106.03250
 8350.00000    7.86970    7.86970   21.46620   21.46620   35.00630   51.74130   51.74130   10.27720   10.27720   35.00630  133.36500 -305.26470 -272.96540  133.36500
 8400.00000    8.19150    8.19150    3.12280    3.12280  218.16830   48.95110   48.95110   10.39220   10.39220  218.16830  210.04790 -297.84070 -266.12330  210.04790
