~Version ---------------------------------------------------
VERS.      2.0 : CWLS log ASCII Standard -VERSION 2.0
WRAP.       NO : One line per depth step
CREA. 10/24/17 : LAS Creation Date
~Well ------------------------------------------------------
STRT.FT                         1250.0 : START DEPTH
STOP.FT                        11000.0 : STOP DEPTH
STEP.FT                       50.00000 : STEP LENGTH
NULL.                          -999.25 : NULL VALUE
COMP.             MOBIL OIL CANADA LTD : COMPANY
WELL. MOBIL ET AL ROSEVEAR 10-19-53-14 : WELL
FLD .                                  : FIELD
LOC .                                  : LOCATION
CTRY.                           CANADA : COUNTRY
SRVC.                     Schlumberger : SERVICE COMPANY
DATE.                      04-Mar-1978 : LOGDATE
PROV.                          Alberta : PROVINCE
UWI .                 100101905314W500 : UNIQUE WELL ID
SLAT.WGS84                    53.59265 : SURFACE LATITUDE
SLON.WGS84                   -116.0472 : SURFACE LONGITUDE
~Curve Information -----------------------------------------
DEPT    .FT    : Depth Curve
CALDED  .IN    : CALIPER FROM DENSITY LOG
CALWS   .IN    : CALIPER [CALDED]
CONDWS  .MMHO  : CONDUCTIVITY [1000/DRESWS]
DCORWS  .G/C3  : DENSITY CORRECTION [DRHOED]
DENWS   .G/C3  : BULK DENSITY [M=2.71, F=1.00] [RHOBED]
DPHILSED.V/V   : DENSITY POROSITY [M=2.71, F=1.00] FROM DENSITY LOG
DPHISSED.V/V   : DENSITY POROSITY [M=2650 F=1000] FROM DENSITY LOG
DPOLSWS .V/V   : DENSITY POROSITY [M=2.71, F=1.00] [CAL. FROM DENWS]
DRESWS  .OHMM  : DEEP RESISTIVITY [ILDED]
DRHOED  .G/C3  : DENSITY CORRECTION FROM DENSITY LOG
DTED    .US/F  : DELTA TIME FROM SONIC LOG
DTWS    .US/F  : DELTA TIME [DTED]
GRDED   .GAPI  : GAMMA RAY FROM DENSITY LOG
GRWS    .GAPI  : GAMMA RAY [GRDED]
ILDED   .OHMM  : INDUCTION LOG DEEP RESISTIVITY
ILMED   .OHMM  : INDUCTION LOG MEDIUM RESISTIVITY
LL8ED   .OHMM  : 8 INCH LATEROLOG RESISTIVITY
MRESWS  .OHMM  : MEDIUM RESISTIVITY [ILMED]
NPHILSED.V/V   : NEUTRON POROSITY LIMESTONE FROM DENSITY LOG
NPHISSED.V/V   : NEUTRON POROSITY SANDSTONE FROM DENSITY LOG
NPOLSWS .V/V   : NEUTRON POROSITY LIMESTONE [366 NPOLSCAL [COMP. FROM NPHISSED] 7500'2286 NPHILSED]
RHOBED  .G/C3  : BULK DENSITY FROM DENSITY LOG
SPRED   .MV    : SPONTANEOUS POTENTIAL FROM RESISTIVITY LOG [SHIFT IS REMOVED]
SPWS    .MV    : SPONTANEOUS POTENTIAL [BASELINE 0 MV] [SPRED]
SRESWS  .OHMM  : SHALLOW RESISTIVITY [LL8ED]
~Params ----------------------------------------------------
PD  .                     GL : PERMANENT DATUM
EPD .FT               2885.2 : ELEVATION PERMANENT DATUM
LMF .                     KB : LOG MEASURED FROM
DAPD.FT                 13.8 : FEET ABOVE PERMANENT DATUM
EKB .FT                 2899 : KELLY BUSHING
EGL .FT               2885.2 : GROUND LEVEL
DATE.               03/04/78 : RUN DATE
RUN .                      1 : RUN NUMBER
DD  .FT                11010 : DEPTH DRILLER
DL  .FT                11002 : DEPTH LOGGER
BLI .FT                10999 : BOTTOM LOG INTERVAL
TLI .FT                 1207 : TOP LOG INTERVAL
CBD .FT                 1205 : CASING BOTTOM DRILLER
CBL .FT                 1207 : CASING BOTTOM LOGGER
BS  .IN                 8.75 : BIT SIZE
BSD .FT                11010 : BIT SIZE AT DEPTH
DFT .               GEL CHEM : DRILLING FLUID TYPE
DFD .                    9.2 : DRILLING FLUID DENSITY
DFV .                    132 : DRILLING FLUID VISCOSITY
DFPH.                     10 : DRILLING FLUID PH
DFL .                    9.4 : DRILLING FLUID LOSS
MSS .               FLOWLINE : MUD SAMPLE SOURCE
RMS .OHMM               1.94 : RESISTIVITY MUD SAMPLE
MST .DEGF                 64 : MUD SAMPLE TEMPERATURE
RMF .OHMM               2.12 : RESISTIVITY MUD FILTRATE SAMPLE
MFST.DEGF                 59 : MUD FILTRATE SAMPLE TEMPERATURE
RMB .OHMM               0.65 : RESISTIVITY MUD AT BHT
TCS .HRS                   3 : TIME CIRCULATED STOPPED
LUN .                   7730 : LOGGING UNIT NUMBER
LUL .                    EDM : LOGGING UNIT LOCATION
ENGI.               CAMPBELL : RECORDING ENGINEER
WITN.              MATHEWSON : WITNESSED BY
CLNT.                A2DTECH : CLIENT CODE
ORIG.            2" 5" PRINT : ORIGIN OF DATA
UWI .       100101905314W500 : UNIQUE WELL ID
DICO. A2D Technologies, Inc. : DIGITIZING COMPANY
~Other -----------------------------------------------------
~ASCII -----------------------------------------------------
# ...
 4050.00000    9.26160    9.26160  122.12440    0.15590    2.25670    -999.25    0.24000    0.26510    8.18850    0.15590   78.04440   78.04440   76.61500   76.61500    8.18850    7.77610   10.34910    7.77610    -999.25    0.34240    0.29870    2.25670  -40.55800   -5.99720   10.34910
 4100.00000   10.00780   10.00780  111.09140    0.24190    2.34920    -999.25    0.18340    0.21100    9.00160    0.24190   76.86810   76.86810   85.33440   85.33440    9.00160    8.28560   10.13630    8.28560    -999.25    0.31750    0.27360    2.34920  -41.77050   -7.08280   10.13630
 4150.00000    9.77140    9.77140  144.27460    0.06290    2.44720    -999.25    0.13250    0.15370    6.93640    0.06290   76.66190   76.66190   84.39410   84.39410    6.93640    6.26480    8.46240    6.26480    -999.25    0.31000    0.26610    2.44720  -41.28770   -6.47440    8.46240
 4200.00000   10.24240   10.24240  114.31970    0.11370    2.36190    -999.25    0.16960    0.20360    8.74740    0.11370   95.25020   95.25020   68.90090   68.90090    8.74740    8.89600    9.18100    8.89600    -999.25    0.36990    0.32650    2.36190  -46.67440  -11.73410    9.18100
 4250.00000   10.10310   10.10310  171.58840    0.06500    2.19520    -999.25    0.24220    0.30110    5.82790    0.06500   95.36010   95.36010   87.49670   87.49670    5.82790    5.19510    6.42870    5.19510    -999.25    0.48330    0.44280    2.19520  -41.51760   -6.45100    6.42870
 4300.00000   10.03260   10.03260  107.45260    0.05900    2.57010    -999.25    0.04810    0.08180    9.31140    0.05900   77.36940   77.36940   80.34040   80.34040    9.31140    9.77500   12.09160    9.77500    -999.25    0.30100    0.25710    2.57010  -44.60480   -9.41250   12.09160
 4350.00000    9.13360    9.13360  111.09510    0.02270    2.54700    -999.25    0.05760    0.09530    9.00130    0.02270   80.41370   80.41370   74.55880   74.55880    9.00130    9.55490    9.55720    9.55490    -999.25    0.33870    0.29490    2.54700  -42.38450   -7.06530    9.55720
 4400.00000   11.15770   11.15770  173.24480    0.01380    2.49340    -999.25    0.09720    0.12670    5.77300    0.01380   87.56180   87.56180   92.47720   92.47720    5.77300    6.04950    6.30820    6.04950    -999.25    0.34610    0.30240    2.49340  -41.01980   -5.57500    6.30820
 4450.00000   10.81360   10.81360  125.05780    0.04580    2.54710    -999.25    0.06840    0.09530    7.99630    0.04580   82.52410   82.52410  109.41410  109.41410    7.99630    8.57150    8.49830    8.57150    -999.25    0.32080    0.27690    2.54710  -41.81700   -6.24520    8.49830
 4500.00000   11.30710   11.30710  121.35630    0.00480    2.56040    -999.25    0.05510    0.08750    8.24020    0.00480   80.44320   80.44320  113.94130  113.94130    8.24020    8.77500    9.31310    8.77500    -999.25    0.30030    0.25630    2.56040  -43.07050   -7.37240    9.31310
 4550.00000   10.44720   10.44720  117.48740    0.09300    2.55220    -999.25    0.05410    0.09230    8.51240    0.09300   81.03750   81.03750  118.18980  118.18980    8.51240    8.96600    9.42680    8.96600    -999.25    0.30410    0.26010    2.55220  -42.63800   -6.81420    9.42680
 4600.00000   10.36700   10.36700  105.94900    0.06120    2.58420    -999.25    0.04080    0.07360    9.43850    0.06120   76.37230   76.37230  117.59550  117.59550    9.43850    9.97630   10.64410    9.97630    -999.25    0.28420    0.24020    2.58420  -42.72350   -6.77280   10.64410
 4650.00000   10.09460   10.09460  100.17580    0.01370    2.49890    -999.25    0.09210    0.12350    9.98260    0.01370   78.75390   78.75390  118.27880  118.27880    9.98260   10.49730   11.37440   10.49730    -999.25    0.28090    0.23700    2.49890  -42.21040   -6.13400   11.37440
 4700.00000    9.98870    9.98870   93.93110    0.03490    2.49220    -999.25    0.08810    0.12740   10.64610    0.03490   82.91060   82.91060  131.18770  131.18770   10.64610   10.99550   12.74570   10.99550    -999.25    0.32020    0.27630    2.49220  -41.27600   -5.07270   12.74570
 4750.00000   10.06640   10.06640  107.27430    0.08940    2.33370    -999.25    0.18420    0.22010    9.32190    0.08940   86.36290   86.36290  146.24120  146.24120    9.32190    9.81190   12.24690    9.81190    -999.25    0.34910    0.30550    2.33370  -40.45460   -4.12500   12.24690
 4800.00000    9.98140    9.98140   84.23680    0.08490    2.46020    -999.25    0.11810    0.14610   11.87140    0.08490   84.94260   84.94260  142.61020  142.61020   11.87140   12.47950   15.58500   12.47950    -999.25    0.32230    0.27840    2.46020  -41.23070   -5.03810   15.58500
 4850.00000   10.60060   10.60060  110.11760    0.22880    2.46400    -999.25    0.10440    0.14390    9.08120    0.22880   82.37350   82.37350  125.09390  125.09390    9.08120    9.86680   11.72810    9.86680    -999.25    0.33140    0.28760    2.46400  -41.69570   -5.67450   11.72810
 4900.00000   10.29920   10.29920  120.70150    0.14040    2.45590    -999.25    0.13060    0.14860    8.28510    0.14040   80.26070   80.26070  119.00920  119.00920    8.28510    8.90770    9.68170    8.90770    -999.25    0.30660    0.26260    2.45590  -42.77700   -6.92550    9.68170
 4950.00000   10.21150   10.21150  143.91600    0.03650    2.44730    -999.25    0.10700    0.15360    6.94850    0.03650   84.02110   84.02110  121.80060  121.80060    6.94850    7.38490    7.79630    7.38490    -999.25    0.35040    0.30680    2.44730  -42.31840   -6.63830    7.79630
 5000.00000   10.81070   10.81070  136.33820    0.13160    1.89750    -999.25    0.44320    0.47510    7.33470    0.13160   81.79380   81.79380  102.04200  102.04200    7.33470    7.91330    8.99510    7.91330    -999.25    0.42590    0.38360    1.89750  -41.65900   -6.14940    8.99510
 5050.00000   11.33580   11.33580  145.34350    0.16950    1.96470    -999.25    0.39070    0.43590    6.88040    0.16950   81.59170   81.59170  113.12370  113.12370    6.88040    7.53440    7.65390    7.53440    -999.25    0.38020    0.33700    1.96470  -41.58810   -6.24820    7.65390
 5100.00000   10.75670   10.75670  114.45050    0.16960    1.98310    -999.25    0.43290    0.42510    8.73740    0.16960   77.08070   77.08070  103.94220  103.94220    8.73740    9.31890    9.96490    9.31890    -999.25    0.33590    0.29210    1.98310  -41.86020   -6.69170    9.96490
 5150.00000   12.02300   12.02300  135.03300    0.14290    1.86390    -999.25    0.47900    0.49480    7.40670    0.14290   77.60780   77.60780  114.29030  114.29030    7.40670    8.11510    9.00540    8.11510    -999.25    0.33000    0.28620    1.86390  -41.13980   -6.14100    9.00540
 5200.00000   11.38280   11.38280  112.36710    0.11630    1.91800    -999.25    0.44390    0.46320    8.89940    0.11630   85.92290   85.92290  122.52110  122.52110    8.89940    9.46880   10.51810    9.46880    -999.25    0.38370    0.34050    1.91800  -39.88950   -5.06210   10.51810
 5250.00000   10.89470   10.89470  159.63220    0.22800    2.03530    -999.25    0.36270    0.39460    6.26440    0.22800   82.67300   82.67300  124.07860  124.07860    6.26440    6.49220    7.42800    6.49220    -999.25    0.34530    0.30160    2.03530  -40.45300   -5.79610    7.42800
 5300.00000   13.95470   13.95470  130.73560    0.10320    1.71460    -999.25    0.56620    0.58210    7.64950    0.10320   82.79370   82.79370  100.36620  100.36620    7.64950    6.92710    8.27330    6.92710    -999.25    0.41190    0.36930    1.71460  -41.38680   -6.89960    8.27330
 5350.00000   11.20250   11.20250  115.91920    0.19750    2.20660    -999.25    0.27490    0.29440    8.62670    0.19750   77.64670   77.64670  123.36000  123.36000    8.62670    9.62820    9.91570    9.62820    -999.25    0.30520    0.26120    2.20660  -41.56970   -7.25390    9.91570
 5400.00000    9.28270    9.28270   67.52600    0.25910    2.44430    -999.25    0.12060    0.15540   14.81000    0.25910   70.56800   70.56800   91.40490   91.40490   14.81000   15.55510   19.21710   15.55510    -999.25    0.19260    0.14930    2.44430  -46.78780  -12.64170   19.21710
