~Version ---------------------------------------------------
VERS. 2.0 : CWLS log ASCII Standard -VERSION 2.0
WRAP.  NO : ONE LINE PER DEPTH STEP
~Well ------------------------------------------------------
STRT.M                          450.0 : START DEPTH
STOP.M                         3450.0 : STOP DEPTH
STEP.M                       50.00000 : STEP LENGTH
NULL.                         -999.25 : NULL VALUE
COMP.          CHEVRON CANADA LIMITED : COMPANY
WELL. CHEVRON ET AL STURLS 5-10-68-26 : WELL
FLD .                                 : FIELD
LOC .                                 : LOCATION
CTRY.                          CANADA : COUNTRY
SRVC.                    Schlumberger : SERVICE COMPANY
DATE.                     08-Mar-1981 : LOGDATE
PROV.                         Alberta : PROVINCE
UWI .                100051006826W500 : UNIQUE WELL ID
SLAT.WGS84                   54.87124 : SURFACE LATITUDE
SLON.WGS84                  -117.8893 : SURFACE LONGITUDE
~Curve Information -----------------------------------------
DEPT    .M      : DEPTH METERS
CALDED  .MM     : CALIPER FROM CNFD LOG, DEPTH ADJUSTED WITH [GRRED]
CALSED  .MM     : CALIPER FROM SONIC LOG, DEPTH ADJUSTED WITH [GRRED]
CALWS   .MM     : CALIPER [CALDED]
CILDED  .MMHO   : CONDUCTIVITY FROM RESISTIVITY LOG
CONDWS  .MMHO   : CONDUCTIVITY [1000/DRESWS]
CORRED  .KG/M3  : DENSITY CORRECTION FROM CNFD LOG, DEPTH ADJUSTED WITH [GRRED]
DCORWS  .KG/M3  : DENSITY CORRECTION [CORRED]
DENWS   .KG/M3  : BULK DENSITY [RHOBED]
DPHILSED.V/V    : DENSITY POROSITY [M=2710 F=1000] FROM CNFD LOG, DEPTH ADJUSTED WITH [GRRED]
DPHISSED.V/V    : DENSITY POROSITY [M=2650 F=1000] FROM CNFD LOG, DEPTH ADJUSTED WITH [GRRED]
DPOLSWS .V/V    : DENSITY POROSITY LIMESTONE [CALCULATED FROM DENWS]
DRESWS  .OHMM   : DEEP RESISTIVITY [ILDED]
DTED    .US/M   : DELTA TIME FROM SONIC LOG, DEPTH ADJUSTED WITH [GRRED]
DTWS    .US/M   : DELTA TIME [DTED]
GRDED   .GAPI   : GAMMA RAY FROM CNFD LOG, DEPTH ADJUSTED WITH [GRRED]
GRSED   .GAPI   : GAMMA RAY FROM SONIC LOG, DEPTH ADJUSTED WITH [GRRED]
GRWS    .GAPI   : GAMMA RAY [GRDED], SPLICED WITH [GRSED] FROM 429-452
ILDED   .OHMM   : INDUCTION LOG DEEP RESISTIVITY
ILMED   .OHMM   : INDUCTION LOG MEDIUM RESISTIVITY
MRESWS  .OHMM   : MEDIUM RESISTIVITY [ILMED]
NPHILSED.V/V    : NEUTRON POROSITY LIMESTONE FROM CNFD LOG, DEPTH ADJUSTED WITH [GRRED]
NPOLSWS .V/V    : NEUTRON POROSITY [M=2710 F=1000] FROM CNFD LOG, DEPTH ADJUSTED WITH [GRRED]
NPORSSED.V/V    : NEUTRON POROSITY [M=2650 F=1000] FROM CNFD LOG, DEPTH ADJUSTED WITH [GRRED]
RHOBED  .KG/M3  : BULK DENSITY FROM CNFD LOG, DEPTH ADJUSTED WITH [GRRED]
SFLED   .OHMM   : SPHERICALLY FOCUSED LOG RESISTIVITY
SPRED   .MV     : SPONTANEOUS POTENTIAL FROM RESISTIVITY LOG
SPWS    .MV     : SPONTANEOUS POTENTIAL [BASELINE 0 MV] [SPRED]
SRESWS  .OHMM   : SHALLOW RESISTIVITY [SFLED]
TENDED  .N      : TENSION FROM CNFD LOG, DEPTH ADJUSTED WITH [GRRED]
TENSED  .N      : TENSION FROM SONIC LOG, DEPTH ADJUSTED WITH [GRRED]
~Params ----------------------------------------------------
PD  .                     GL : PERMANENT DATUM
EPD .M                 679.3 : ELEVATION PERMANENT DATUM
LMF .                     KB : LOG MEASURED FROM
DAPD.M                   9.4 : FEET ABOVE PERMANENT DATUM
DMF .                     KB : DRILLING MEASURED FROM
EKB .M                 688.7 : KELLY BUSHING
EGL .M                 679.3 : GROUND LEVEL
DATE.               03/08/81 : RUN DATE
RUN .                      1 : RUN NUMBER
DD  .M                  3458 : DEPTH DRILLER
DL  .M                  3461 : DEPTH LOGGER
BLI .M                  3459 : BOTTOM LOG INTERVAL
TLI .M                   466 : TOP LOG INTERVAL
CS  .IN                226.6 : CASING SIZE
CBD .M                466.13 : CASING BOTTOM DRILLER
CBL .M                   466 : CASING BOTTOM LOGGER
BS  .IN                  222 : BIT SIZE
BSD .M                  3458 : BIT SIZE AT DEPTH
DFT .               CHEM GEL : DRILLING FLUID TYPE
DFD .                   1100 : DRILLING FLUID DENSITY
DFV .                    110 : DRILLING FLUID VISCOSITY
DFPH.                   10.5 : DRILLING FLUID PH
DFL .                    8.4 : DRILLING FLUID LOSS
MSS .               FLOWLINE : MUD SAMPLE SOURCE
RMS .OHMM               0.91 : RESISTIVITY MUD SAMPLE
RMF .OHMM               0.72 : RESISTIVITY MUD FILTRATE SAMPLE
MFST.DEGC               23.5 : MUD FILTRATE SAMPLE TEMPERATURE
RMC .OHMM                0.9 : RESISTIVITY MUD CAKE
MCST.DEGC               23.0 : MUD CAKE SAMPLE TEMPERATURE
MFSS.           FILTER PRESS : MUD FILTRATE SAMPLE SOURCE
RMB .OHMM                0.3 : RESISTIVITY MUD AT BHT
TCS .HRS                 100 : TIME CIRCULATED STOPPED
TLAB.HRS                1330 : TIME LOGGER AT BOTTOM
LUN .                   8155 : LOGGING UNIT NUMBER
LUL .                     GP : LOGGING UNIT LOCATION
ENGI.                 BRYDON : RECORDING ENGINEER
WITN.               ANDERSON : WITNESSED BY
CLNT.                A2DTECH : CLIENT CODE
ORIG.                      1 : 6" 1:240" PRINT:   ORIGIN OF DATA
UWI .       100051006826W500 : UNIQUE WELL ID
DICO. A2D Technologies, Inc. : DIGITIZING COMPANY
~Other -----------------------------------------------------
~ASCII -----------------------------------------------------
# ...
 2850.00000  235.99000  229.41540  235.99000   28.98760   30.49510  164.56180  164.56180 2680.51270    0.02000    -999.25    0.01720   32.79220  169.19490  169.19490    9.82320   10.42810    9.82320   32.79220   31.19100   31.19100    0.01750    0.01750    -999.25 2680.51270   54.68870 -189.51750 -139.50040   54.68870 18456.66800 18424.68160
 2900.00000  228.40280  231.18390  228.40280    0.00040    0.50000   -8.51220   -8.51220 2733.22970   -0.01450    -999.25   -0.01360 2000.00000  162.28020  162.28020   17.95640   16.54790   17.95640    -999.25    -999.25    -999.25    0.00220    0.00220    -999.25 2733.22970 1245.20560 -267.66450 -216.88490 1245.20560 18676.61520 18507.74610
 2950.00000  240.51080  243.40460  240.51080    0.00040    0.50000   -2.08720   -2.08720 2809.47140   -0.05480    -999.25   -0.05820 2000.00000  162.12400  162.12400   17.06130   17.29490   17.06130    -999.25  328.38780  328.38780   -0.00100   -0.00100    -999.25 2809.47140 1977.18790 -291.85500 -240.31300 1977.18790 18817.84180 18738.21090
 3000.00000  226.37180  237.85440  226.37180    0.00040    0.50000   -7.23700   -7.23700 2926.82980   -0.12660    -999.25   -0.12680 2000.00000  163.50650  163.50650   11.70310    6.90280   11.70310    -999.25 1949.74380 1949.74380    0.00020    0.00020    -999.25 2926.82980    -999.25 -221.28120 -168.97670    -999.25 19031.07230 19022.75590
 3050.00000  224.75810  226.17980  224.75810   21.14190   23.58110    3.32290    3.32290 2697.90160    0.00690    -999.25    0.00710   42.40690  186.37990  186.37990   42.19640   37.23030   42.19640   42.40690   44.57190   44.57190    0.09440    0.09440    -999.25 2697.90160   56.54160 -155.29700 -102.23000   56.54160 19730.88090 19485.80270
 3100.00000  355.48720  306.47920  355.48720  318.46210  311.58470  148.50190  148.50190 2339.51490    0.22210    -999.25    0.21670    3.20940  271.62230  271.62230   80.78470   81.92600   80.78470    3.20940    3.36850    3.36850    0.37760    0.37760    -999.25 2339.51490    4.10490 -184.53480 -130.70530    4.10490 20449.64840 19771.68160
 3150.00000  229.00360  226.69530  229.00360  135.81910  128.42410   44.87810   44.87810 2666.26030    0.02640    -999.25    0.02560    7.78670  203.22410  203.22410   64.19110   55.96110   64.19110    7.78670    8.75960    8.75960    0.13270    0.13270    -999.25 2666.26030   13.60540 -152.31070  -97.71880   13.60540 20169.50780 19951.70310
 3200.00000  221.75180  222.92670  221.75180  152.67880  152.19080  145.16990  145.16990 2783.57980   -0.04540    -999.25   -0.04300    6.57070  218.44380  218.44380   75.12090   69.10580   75.12090    6.57070    7.35670    7.35670    0.16100    0.16100    -999.25 2783.57980    9.71070  -99.04990  -43.69550    9.71070 21078.50200 20177.71290
 3250.00000  257.95930  243.88600  257.95930  208.17240  212.43600  169.97460  169.97460 2547.53150    0.10810    -999.25    0.09500    4.70730  247.73450  247.73450   94.42410   91.09530   94.42410    4.70730    4.89330    4.89330    0.24500    0.24500    -999.25 2547.53150    6.35620 -144.20200  -88.08510    6.35620 21894.31840 20529.13480
 3300.00000  222.80810  224.98410  222.80810   48.23690   49.04560   -2.28930   -2.28930 2684.52150    0.01350    -999.25    0.01490   20.38920  192.08860  192.08860   54.29780   51.13210   54.29780   20.38920   22.71450   22.71450    0.08610    0.08610    -999.25 2684.52150   33.06760 -109.46120  -53.20440   33.06760 21200.19530 20681.91600
 3350.00000  220.81850  226.57090  220.81850   18.77200   17.22800   -1.16980   -1.16980 2702.50680    0.00390    -999.25    0.00440   58.04520  176.58390  176.58390   35.18300   32.54450   35.18300   58.04520   55.77600   55.77600    0.04020    0.04020    -999.25 2702.50680   83.02960 -128.53070  -71.62060   83.02960 21168.45510 20984.14060
 3400.00000  223.90530  236.22930  223.90530   73.18350   72.84970   65.84130   65.84130 2608.40040    0.06020    -999.25    0.05940   13.72690  237.11140  237.11140  134.68370  122.25150  134.68370   13.72690   12.79600   12.79600    0.22660    0.22660    -999.25 2608.40040   23.52610 -144.49570  -86.93230   23.52610 20990.89840 21162.76560
 3450.00000  212.71370  215.92520  212.71370   16.78400   16.80050   15.36980   15.36980 2662.81400    0.02780    -999.25    0.02760   59.52190  184.25750  184.25750  130.84020   30.46870  130.84020   59.52190   63.31120   63.31120    0.05020    0.05020    -999.25 2662.81400   89.01150 -122.91230  -64.69560   89.01150 21433.39060 21423.63670
