~Version ---------------------------------------------------
VERS.      2.0 : CWLS log ASCII Standard -VERSION 2.0
WRAP.       NO : One line per depth step
CREA. 08/12/13 : LAS Creation Date
~Well ------------------------------------------------------
STRT.M                       450.0 : START DEPTH
STOP.M                      3550.0 : STOP DEPTH
STEP.M                    50.00000 : STEP LENGTH
NULL.                      -999.25 : NULL VALUE
COMP. HUSKY OIL OPERATIONS LIMITED : COMPANY
WELL.  HUSKY ANTE CREEK 7-27-66-26 : WELL
FLD .                              : FIELD
LOC .                              : LOCATION
CTRY.                       CANADA : COUNTRY
SRVC.                      Unknown : SERVICE COMPANY
DATE.                  24-Feb-1984 : LOGDATE
PROV.                      Alberta : PROVINCE
UWI .             100072706626W500 : UNIQUE WELL ID
SLAT.WGS84                54.74152 : SURFACE LATITUDE
SLON.WGS84               -117.8404 : SURFACE LONGITUDE
~Curve Information -----------------------------------------
DEPT    .M      : DEPTH METER
CALDED  .MM     : CALIPER FROM DENSITY LOG [ADJ. TO RESISTIVITY LOG]
CALRED  .MM     : CALIPER FROM RESISTIVITY LOG
CALSED  .MM     : CALIPER FROM SONIC LOG [ADJ. TO RESISTIVITY LOG]
CALWS   .MM     : CALIPER [CALRED]
CONDWS  .MMHO   : CONDUCTIVITY [1000/DRESWS]
DCORWS  .KG/M3  : DENSITY CORRECTION [DRHOED]
DENWS   .KG/M3  : FORMATION BULK DENSITY [RHOBED]
DPHILSED.V/V    : DENSITY POROSITY LIMESTONE [M=2710, F=1000] FROM DENSITY LOG [ADJ. TO RESISTIVITY LOG/RHOBED]
DPHISSED.V/V    : DENSITY POROSITY SANDSTONE [M=2650, F=1000] FROM DENSITY LOG  [ADJ. TO RESISTIVITY LOG/RHOBED]
DPOLSWS .V/V    : DENSITY POROSITY LIMESTONE [CALC. FROM DENWS, M=2710, F=1000]
DRESWS  .OHMM   : DEEP RESISTIVITY [LLDED]
DRHOED  .KG/M3  : BULK DENSITY CORRECTION FROM DENSITY LOG [ADJ. TO RESISTIVITY LOG]
DTED    .US/M   : DELTA TIME FROM SONIC LOG [ADJ. TO RESISTIVITY LOG]
DTWS    .US/M   : COMPRESSIONAL SONIC [DTED]
GRDED   .GAPI   : GAMMA RAY FROM DENSITY LOG [ADJ. TO RESISTIVITY LOG]
GRRED   .GAPI   : GAMMA RAY FROM RESISTIVITY LOG
GRSED   .GAPI   : GAMMA RAY FROM SONIC LOG [ADJ. TO RESISTIVITY LOG]
GRWS    .GAPI   : GAMMA RAY [GRSED SPL. TO GRRED @ 483 M]
LLDED   .OHMM   : DEEP LATEROLOG RESISTIVITY FROM RESISTIVITY LOG
LLSED   .OHMM   : SHALLOW LATEROLOG RESISTIVITY FROM RESISTIVITY LOG
MCALED  .MM     : MICRO CALIPER FROM ML LOG
MSFLED  .OHMM   : MICROSPHERICALLY FOCUSED FROM RESISTIVITY LOG
NPHILSED.V/V    : NEUTRON POROSITY LIMESTONE FROM DENSITY LOG [ADJ. TO RESISTIVITY LOG/RHOBED]
NPHISSED.V/V    : NEUTRON POROSITY SANDSTONE FROM DENSITY LOG [ADJ. TO RESISTIVITY LOG/RHOBED]
NPOLSWS .V/V    : NEUTRON POROSITY LIMESTONE [NPHISSED CONVERTED TO LIMESTONE MATRIX, SPL. TO NPHILSED @ 2268 M]
PROXED  .OHMM   : PROXIMITY RESISTIVITY FROM RESISTIVITY LOG
RHOBED  .KG/M3  : BULK DENSITY FROM DENSITY LOG [ADJ. TO RESISTIVITY LOG]
SPRED   .MV     : SPONTANEOUS POTENTIAL FROM RESISTIVITY LOG
SRESWS  .OHMM   : SHALLOW RESISTIVITY [LLSED]
TENDED  .N      : TENSION FROM DENSITY LOG [ADJ. TO RESISTIVITY LOG]
TENSED  .N      : TENSION FROM SONIC LOG [ADJ. TO RESISTIVITY LOG]
~Params ----------------------------------------------------
PD  .                         GL : PERMANENT DATUM
EPD .M                    785.37 : ELEVATION PERMANENT DATUM
LMF .                         KB : LOG MEASURED FROM
DAPD.M                      7.45 : FEET ABOVE PERMANENT DATUM
DMF .                         KB : DRILLING MEASURED FROM
EKB .M                    792.82 : KELLY BUSHING
EGL .M                    785.37 : GROUND LEVEL
DATE.                   02/24/84 : RUN DATE
RUN .                          1 : RUN NUMBER
DD  .M                      3597 : DEPTH DRILLER
DL  .M                      3595 : DEPTH LOGGER
BLI .M                      3595 : BOTTOM LOG INTERVAL
TLI .M                       486 : TOP LOG INTERVAL
CS  .MM                    244.5 : CASING SIZE
CBD .M                       486 : CASING BOTTOM DRILLER
CBL .M                       486 : CASING BOTTOM LOGGER
BS  .MM                      222 : BIT SIZE
BSD .M                      3597 : BIT SIZE AT DEPTH
DFT .                   GEL CHEM : DRILLING FLUID TYPE
DFD .                       1125 : DRILLING FLUID DENSITY
DFV .                         69 : DRILLING FLUID VISCOSITY
DFPH.                       10.5 : DRILLING FLUID PH
DFL .                          9 : DRILLING FLUID LOSS
MSS .                   FLOWLINE : MUD SAMPLE SOURCE
RMS .OHMM                   1.36 : RESISTIVITY MUD SAMPLE
MST .DEGC                   15.6 : MUD SAMPLE TEMPERATURE
RMF .OHMM                   1.08 : RESISTIVITY MUD FILTRATE SAMPLE
MFST.DEGC                   17.8 : MUD FILTRATE SAMPLE TEMPERATURE
RMC .OHMM                   1.62 : RESISTIVITY MUD CAKE
MCST.DEGC                   21.1 : MUD CAKE SAMPLE TEMPERATURE
MFSS.                   MEASURED : MUD FILTRATE SAMPLE SOURCE
MCSS.                   MEASURED : MUD CAKE SAMPLE SOURCE
RMB .OHMM                  0.506 : RESISTIVITY MUD AT BHT
TCS .HRS                     100 : TIME CIRCULATED STOPPED
TLAB.HRS                     915 : TIME LOGGER AT BOTTOM
LUN .                       8211 : LOGGING UNIT NUMBER
LUL .                        EDM : LOGGING UNIT LOCATION
ENGI.             PIERACCI PENNY : RECORDING ENGINEER
WITN.                      STIEL : WITNESSED BY
CLNT.                    A2DTECH : CLIENT CODE
ORIG. 6.5"/100M 16.5"/100M PRINT : ORIGIN OF DATA
UWI .           100072706626W500 : UNIQUE WELL ID
DICO.     A2D Technologies, Inc. : DIGITIZING COMPANY
~Other -----------------------------------------------------
CNFD-DLL-MSFL-ML-PL-BCS LOG RAN.
OCCASIONAL CYCLE SKIPPING ON DELTA T CURVE.
HOLE RUGOSITY AND ECCENTRICITY AFFECTING MSFL REPEATABILITY.
BOW SPRING ECCENTRALIZER USED ON CNT.
SPWS NOT GENERETED, AS SPR OFF-DEPTH.
~ASCII -----------------------------------------------------
# ...
 1600.00000  295.61450  236.09500  280.35730  236.09500   80.07240   80.33750 2494.13790    -999.25    0.09650    0.12620   12.48870   80.33750  253.32850  253.32850   91.29720   90.67750   83.45320   90.67750   12.48870   10.81130    -999.25    7.78520    -999.25    0.21460    0.17100    -999.25 2494.13790  -47.89900   10.81130 122005.70180 110206.65260
 1650.00000  292.16510  256.84480  301.78400  256.84480  121.61750   24.44050 2533.74290    -999.25    0.05950    0.10310    8.22250   24.44050  268.63830  268.63830   84.72880   82.02430   81.94360   82.02430    8.22250    6.25600    -999.25    1.78430    -999.25    0.35370    0.31010    -999.25 2533.74290    8.70470    6.25600 120663.04750 111134.92110
 1700.00000  281.76190  247.79290  280.36640  247.79290   53.56300    9.86870 2260.77030    -999.25    0.34680    0.26270   18.66960    9.86870  305.80020  305.80020   71.66470   72.08050   70.47900   72.08050   18.66960   13.35720    -999.25    3.63400    -999.25    0.42340    0.38100    -999.25 2260.77030  -43.09150   13.35720 124969.11470 113604.52320
 1750.00000  349.47150  250.89880  298.63480  250.89880   79.74160  169.65500 2308.55370    -999.25    0.21560    0.23480   12.54050  169.65500  268.52760  268.52760   82.48300   85.38460   89.75360   85.38460   12.54050    8.71270    -999.25   10.72700    -999.25    0.28760    0.24360    -999.25 2308.55370   41.29050    8.71270 129852.61170 117416.07900
 1800.00000  305.16920  259.06160  302.74500  259.06160   82.28960   14.33790 2578.52540    -999.25    0.03700    0.07690   12.15220   14.33790  235.06190  235.06190   74.55770   67.54650   73.58900   67.54650   12.15220   10.90000    -999.25   12.84680    -999.25    0.22210    0.17840    -999.25 2578.52540   32.73450   10.90000 128989.80330 119392.88510
 1850.00000  293.62720  263.53510  284.30330  263.53510   76.42100   84.63090 2578.47710    -999.25    0.03820    0.07690   13.08540   84.63090  245.32360  245.32360   86.25440   85.15020   83.23570   85.15020   13.08540   13.91170    -999.25   17.41600    -999.25    0.26640    0.22240    -999.25 2578.47710   47.56920   13.91170 133742.06590 121758.89510
 1900.00000  284.81440  254.41730  293.50410  254.41730   66.60410   -5.33390 2504.73190    -999.25    0.08850    0.12000   15.01410   -5.33390  240.43630  240.43630   48.16400   51.64280   54.03940   51.64280   15.01410   15.48320    -999.25   29.38930    -999.25    0.21550    0.17190    -999.25 2504.73190   72.00040   15.48320 133748.92710 123787.09750
 1950.00000  288.34090  262.57670  273.80480  262.57670   23.75200   73.82350 2210.33910    -999.25    0.25360    0.29220   42.10180   73.82350  240.54610  240.54610   78.79710   77.36550   83.57760   77.36550   42.10180   36.54330    -999.25   28.57230    -999.25    0.20580    0.16230    -999.25 2210.33910  -60.85220   36.54330 142524.70720 126127.26120
 2000.00000  285.00850  253.95560  284.87870  253.95560   65.49730   41.14110 2508.08300    -999.25    0.08520    0.11810   15.26780   41.14110  226.21070  226.21070   44.07790   43.11120   39.23640   43.11120   15.26780   16.03490    -999.25   25.17110    -999.25    0.16100    0.11820    -999.25 2508.08300   46.62570   16.03490 139232.90730 126501.92560
 2050.00000  360.86930  302.42800  342.34050  302.42800  208.02560   -1.97560 1739.89920    -999.25    0.56740    0.56730    4.80710   -1.97560  291.93480  291.93480   83.67630   81.25880   86.37400   81.25880    4.80710    4.41680    -999.25    2.27860    -999.25    0.49340    0.45170    -999.25 1739.89920  135.67080    4.41680 142089.91730 130435.48380
 2100.00000  266.01820  212.44650  259.69200  212.44650  109.35180   52.49270 2473.00630    -999.25    0.11690    0.13860    9.14480   52.49270  218.75460  218.75460   80.12510   73.68760   78.49700   73.68760    9.14480   11.05100    -999.25   19.16290    -999.25    0.20590    0.16240    -999.25 2473.00630   11.23910   11.05100 142362.85770 132342.24960
 2150.00000  258.40050  241.16310  261.52150  241.16310   59.41590   -1.67000 2596.96510    -999.25    0.03240    0.06610   16.83050   -1.67000  206.68850  206.68850   82.86900   80.83190   81.87110   80.83190   16.83050   18.39040    -999.25   29.13860    -999.25    0.12460    0.08230    -999.25 2596.96510  -37.81380   18.39040 146721.97370 136461.77050
 2200.00000  237.32060  234.82990  245.45640  234.82990   32.78010   -1.21770 2669.21410    -999.25   -0.01140    0.02390   30.50630   -1.21770  196.26070  196.26070   57.84170   55.98570   60.70820   55.98570   30.50630   33.82020    -999.25   39.38210    -999.25    0.07920    0.03990    -999.25 2669.21410  -25.57680   33.82020 147972.96230 139579.39040
 2250.00000  255.64780  242.60260  265.07700  242.60260   23.09360  -20.56660 2640.38920    0.01490    0.00040    0.04070   43.30210  -20.56660  209.66780  209.66780  104.88200  108.94400   93.52760  108.94400   43.30210   46.73490    -999.25   53.84500    0.11650    0.16010    0.11730    -999.25 2640.38920  -25.06010   46.73490 148844.32930 137760.85960
 2300.00000  259.29390  246.58820  250.92490  246.58820   16.29580   89.65290 2729.54470   -0.00820    -999.25   -0.01140   61.36540   89.65290  159.07130  159.07130   16.18220   23.80680   18.57460   23.80680   61.36540   52.42740    -999.25  149.03410    0.08650    -999.25    0.08650    -999.25 2729.54470   -4.06410   52.42740 156135.85700 126123.30080
 2350.00000  242.46190  245.91690  239.08310  245.91690    1.82080    7.20870 2786.30620   -0.04590    -999.25   -0.04460  549.22300    7.20870  155.88580  155.88580   34.24080   33.39280   40.11970   33.39280  549.22300  486.40810    -999.25  145.23900    0.02810    -999.25    0.02810    -999.25 2786.30620  -67.61950  486.40810 157547.89590 149333.51510
 2400.00000  235.23790  232.56250  225.30180  232.56250   39.17240   80.37120 2527.12300    0.09890    -999.25    0.10690   25.52820   80.37120  185.32720  185.32720   21.15450   23.11690   20.83390   23.11690   25.52820   30.45790    -999.25   33.68690    0.10840    -999.25    0.10840    -999.25 2527.12300  -96.05170   30.45790 159196.75500 149802.16210
 2450.00000  314.07030  234.79910  251.44790  234.79910   71.38420  250.39890 2564.66530    0.07170    -999.25    0.08500   14.00870  250.39890  192.31880  192.31880   34.43750   34.93180   34.54040   34.93180   14.00870   12.18930    -999.25    9.37930    0.10550    -999.25    0.10550    -999.25 2564.66530  -88.50210   12.18930 163360.93670 155928.73590
 2500.00000  248.29920  230.24420  235.45940  230.24420   21.29210   46.56950 2699.70460    0.00510    -999.25    0.00600   46.96580   46.56950  164.76920  164.76920   10.36970    9.62440   11.92550    9.62440   46.96580   65.28600    -999.25  130.26210    0.03020    -999.25    0.03020    -999.25 2699.70460  -71.33660   65.28600 163517.99050 153664.18040
 2550.00000  315.06150  273.40630  259.08000  273.40630   15.83750   82.39360 2539.13280    0.09920    -999.25    0.09990   63.14120   82.39360  177.48360  177.48360   54.33920   45.66930   44.12110   45.66930   63.14120   52.22580    -999.25   16.38850    0.06640    -999.25    0.06640    -999.25 2539.13280   -7.61520   52.22580 168368.54650 160097.52470
 2600.00000  337.06950  285.20150  265.58100  285.20150    1.28460  249.44220 2663.69040    0.02940    -999.25    0.02710  778.42880  249.44220  162.47870  162.47870   14.72830   14.16890   18.61610   14.16890  778.42880  671.97260    -999.25   11.03880    0.00260    -999.25    0.00260    -999.25 2663.69040  -21.05650  671.97260 170536.31740 159110.82800
 2650.00000  452.34420  271.41250  321.71990  271.41250   77.43890  184.16300 2181.48120    0.29850    -999.25    0.30910   12.91340  184.16300  216.80550  216.80550   62.47480   65.49660   73.79420   65.49660   12.91340   11.72030    -999.25    3.89510    0.23210    -999.25    0.23210    -999.25 2181.48120   20.44170   11.72030 174344.25400 163855.20550
 2700.00000  313.54580  252.97260  262.95340  252.97260    3.33980   18.51480 2718.02930   -0.00560    -999.25   -0.00470  299.41610   18.51480  167.58070  167.58070    7.72800    9.85990    9.88410    9.85990  299.41610  257.14870    -999.25  445.06330    0.00880    -999.25    0.00880    -999.25 2718.02930  -35.85560  257.14870 175481.13440 166602.45380
