~Version ---------------------------------------------------
VERS.      2.0 : CWLS log ASCII Standard -VERSION 2.0
WRAP.       NO : One line per depth step
CREA. 01/03/18 : LAS Creation Date
~Well ------------------------------------------------------
STRT.FT                         700.0 : START DEPTH
STOP.FT                        9000.0 : STOP DEPTH
STEP.FT                      50.00000 : STEP LENGTH
NULL.                         -999.25 : NULL VALUE
COMP.              IPEX OIL & GAS LTD : COMPANY
WELL. IPEX ET AL VIRGHILLS 15-4-65-12 : WELL
FLD .                                 : FIELD
LOC .                                 : LOCATION
CTRY.                          CANADA : COUNTRY
SRVC.                    Schlumberger : SERVICE COMPANY
DATE.                     08-Nov-1976 : LOGDATE
PROV.                         Alberta : PROVINCE
UWI .                100150406512W500 : UNIQUE WELL ID
SLAT.WGS84                   54.60052 : SURFACE LATITUDE
SLON.WGS84                  -115.7474 : SURFACE LONGITUDE
~Curve Information -----------------------------------------
DEPT  .FT    : Depth Curve
CALSED.IN    : CALIPER FROM SONIC LOG
CALWS .IN    : CALIPER [CALSED]
CILDED.MMHO  : CONDUCTIVITY FROM RESISTIVITY LOG
CONDWS.MMHO  : CONDUCTIVITY [1000/DRESWS]
DRESWS.OHMM  : DEEP RESISTIVITY [IF ILDED<1;THEN 1000/CILDED;ELSE ILDED]
DTED  .US/F  : DELTA TIME FROM SONIC LOG
DTWS  .US/F  : DELTA TIME [DTED]
GRSED .GAPI  : GAMMA RAY FROM SONIC LOG
GRWS  .GAPI  : GAMMA RAY [GRSED]
ILDED .OHMM  : INDUCTION LOG DEEP RESISTIVITY
ILMED .OHMM  : INDUCTION LOG MEDIUM RESISTIVITY
LL8ED .OHMM  : LATEROLOG 8 RESISTIVITY
MRESWS.OHMM  : MEDIUM RESISTIVITY [ILMED]
SPRED .MV    : SPONTANEOUS POTENTIAL FROM RESISTIVITY LOG
SPWS  .MV    : SPONTANEOUS POTENTIAL [BASELINE 0 MV] [SPRED]
SRESWS.OHMM  : SHALLOW RESISTIVITY [LL8ED]
~Params ----------------------------------------------------
PD  .                     GL : PERMANENT DATUM
EPD .FT               3262.9 : ELEVATION PERMANENT DATUM
LMF .                     KB : LOG MEASURED FROM
DAPD.FT                 14.2 : FEET ABOVE PERMANENT DATUM
EKB .FT               3277.1 : KELLY BUSHING
EGL .FT               3262.9 : GROUND LEVEL
DATE.               11/08/76 : RUN DATE
RUN .                      1 : RUN NUMBER
DD  .FT                 9050 : DEPTH DRILLER
DL  .FT                 9050 : DEPTH LOGGER
BLI .FT                 9044 : BOTTOM LOG INTERVAL
TLI .FT                  649 : TOP LOG INTERVAL
CBD .FT                  652 : CASING BOTTOM DRILLER
CBL .FT                  649 : CASING BOTTOM LOGGER
BS  .IN                7.875 : BIT SIZE
BSD .FT                 9050 : BIT SIZE AT DEPTH
DFD .                     90 : DRILLING FLUID DENSITY
DFV .                    150 : DRILLING FLUID VISCOSITY
DFPH.                    9.5 : DRILLING FLUID PH
DFL .                      9 : DRILLING FLUID LOSS
MSS .             CIRCULATED : MUD SAMPLE SOURCE
RMS .OHMM               2.31 : RESISTIVITY MUD SAMPLE
MST .DEGF                 57 : MUD SAMPLE TEMPERATURE
RMF .OHMM               1.54 : RESISTIVITY MUD FILTRATE SAMPLE
MFST.DEGF                 55 : MUD FILTRATE SAMPLE TEMPERATURE
RMC .OHMM               3.55 : RESISTIVITY MUD CAKE
MCST.DEGF                 57 : MUD CAKE SAMPLE TEMPERATURE
TCS .HRS                   2 : TIME CIRCULATED STOPPED
LUN .                   7691 : LOGGING UNIT NUMBER
LUL .                    WCT : LOGGING UNIT LOCATION
ENGI.               CROCFORD : RECORDING ENGINEER
WITN.                NEUFELD : WITNESSED BY
CLNT.                A2DTECH : CLIENT CODE
ORIG.            2" 5" PRINT : ORIGIN OF DATA
UWI .       100150406512W500 : UNIQUE WELL ID
DICO. A2D Technologies, Inc. : DIGITIZING COMPANY
~Other -----------------------------------------------------
~ASCII -----------------------------------------------------
# ...
 7150.00000    8.13960    8.13960    -999.25   63.48960   15.75060   53.01500   53.01500   27.87180   27.87180   15.75060   15.01820   22.63630   15.01820  -64.56040  -65.74090   22.63630
 7200.00000    8.21120    8.21120    -999.25   32.75390   30.53070   53.90770   53.90770   36.46580   36.46580   30.53070   28.48040   52.27750   28.48040  -18.19510  -19.63230   52.27750
 7250.00000    8.25010    8.25010    -999.25   59.73640   16.74020   58.80390   58.80390   46.75550   46.75550   16.74020   14.77280   20.18550   14.77280   -8.41810  -10.10950   20.18550
 7300.00000    8.41900    8.41900    -999.25   78.45350   12.74640   61.78040   61.78040   47.11730   47.11730   12.74640   12.18840   16.37100   12.18840  -12.11810  -14.06490   16.37100
 7350.00000   11.64590   11.64590    -999.25  187.36070    5.33730   79.85400   79.85400   85.01260   85.01260    5.33730    4.22140    6.60970    4.22140  -22.52520  -24.72740    6.60970
 7400.00000   11.08820   11.08820    -999.25  202.98390    4.92650   77.00910   77.00910   70.86270   70.86270    4.92650    4.64320    6.14820    4.64320   -9.16830  -11.62600    6.14820
 7450.00000   10.09730   10.09730    -999.25  188.59030    5.30250   73.73370   73.73370   73.07800   73.07800    5.30250    5.82790    6.87110    5.82790  -22.52390  -25.23830    6.87110
 7500.00000    8.12840    8.12840    -999.25  123.96030    8.06710   65.98370   65.98370   56.70950   56.70950    8.06710    8.33980   11.39200    8.33980    0.03750   -2.93100   11.39200
 7550.00000    8.12740    8.12740    -999.25  123.17550    8.11850   63.10650   63.10650   52.10740   52.10740    8.11850    8.41890   13.33430    8.41890   -6.90620  -10.13020   13.33430
 7600.00000    8.17570    8.17570    -999.25   86.57630   11.55050   63.70710   63.70710   40.12190   40.12190   11.55050   13.47530   22.66180   13.47530   -0.85760   -4.33700   22.66180
 7650.00000    8.42220    8.42220    -999.25  114.25310    8.75250   63.85080   63.85080   58.52320   58.52320    8.75250    8.28900   16.25010    8.28900   -5.21330   -8.94810   16.25010
 7700.00000   11.95040   11.95040    -999.25  306.06310    3.26730   82.81600   82.81600   94.75680   94.75680    3.26730    2.86000    4.33470    2.86000  -29.07060  -33.06210    4.33470
 7750.00000   10.95590   10.95590    -999.25  182.19250    5.48870   74.18180   74.18180   71.67050   71.67050    5.48870    5.17670    7.87810    5.17670  -17.74230  -21.98800    7.87810
 7800.00000   10.97850   10.97850    -999.25  225.91720    4.42640   80.36260   80.36260   84.43320   84.43320    4.42640    4.11420    5.71790    4.11420  -14.77360  -19.27470    5.71790
 7850.00000    8.12610    8.12610    -999.25  106.92560    9.35230   65.59780   65.59780   58.77500   58.77500    9.35230    9.69880   13.40220    9.69880    0.01750   -4.73910   13.40220
 7900.00000    8.72780    8.72780    -999.25  190.07430    5.26110   73.25430   73.25430   77.89000   77.89000    5.26110    5.44690    7.40660    5.44690  -13.93430  -18.46890    7.40660
 7950.00000    8.10660    8.10660    -999.25  149.38640    6.69410   70.95800   70.95800   74.85660   74.85660    6.69410    6.92540    9.07370    6.92540   -4.22370   -7.87260    9.07370
 8000.00000    8.10860    8.10860    -999.25  130.54150    7.66040   69.61410   69.61410   71.30560   71.30560    7.66040    8.06510   10.88390    8.06510   -1.67530   -4.44730   10.88390
 8050.00000   11.21210   11.21210    -999.25  228.01380    4.38570   78.80350   78.80350   92.68510   92.68510    4.38570    4.53680    6.12140    4.53680  -26.95930  -28.85000    6.12140
 8100.00000    8.23120    8.23120    -999.25  169.47140    5.90070   72.13790   72.13790   84.10970   84.10970    5.90070    6.10120    9.43720    6.10120  -17.66730  -18.67670    9.43720
 8150.00000    8.27840    8.27840    -999.25  167.71210    5.96260   70.17180   70.17180   78.56770   78.56770    5.96260    6.27400    9.05690    6.27400  -18.66470  -18.79280    9.05690
 8200.00000    9.94150    9.94150    -999.25  250.13440    3.99780   83.08760   83.08760  103.04770  103.04770    3.99780    4.13940    5.90020    4.13940  -38.28940  -37.53180    5.90020
 8250.00000   10.30750   10.30750    -999.25  314.02100    3.18450   86.86240   86.86240  111.62530  111.62530    3.18450    3.29330    4.60880    3.29330  -50.12450  -48.49000    4.60880
 8300.00000    8.85570    8.85570    -999.25  223.78370    4.46860   81.50440   81.50440  100.25330  100.25330    4.46860    4.76040    7.57480    4.76040  -37.14510  -34.62930    7.57480
 8350.00000    8.14690    8.14690    -999.25   68.40930   14.61790   59.99910   59.99910   46.13350   46.13350   14.61790   15.84670   28.79660   15.84670  -26.49850  -23.10140   28.79660
 8400.00000    9.34090    9.34090    -999.25  256.63400    3.89660   81.53580   81.53580   91.44330   91.44330    3.89660    4.02880    6.53870    4.02880  -42.97340  -38.69500    6.53870
 8450.00000    7.94270    7.94270    -999.25   84.28110   11.86510   78.57100   78.57100  103.78940  103.78940   11.86510   12.67660   19.89920   12.67660  -22.82960  -17.66550   19.89920
 8500.00000    7.93770    7.93770    -999.25   16.49470   60.62540   59.87080   59.87080   42.31440   42.31440   60.62540   63.82610  116.54340   63.82610  -18.62470  -12.65750  116.54340
 8550.00000    7.95910    7.95910    -999.25  159.44390    6.27180   62.94980   62.94980   57.66680   57.66680    6.27180    6.65820    7.64260    6.65820  -29.07480  -22.71840    7.64260
 8600.00000    7.86820    7.86820    -999.25   79.78170   12.53420   61.89470   61.89470   46.65550   46.65550   12.53420   12.99070   17.82330   12.99070  -22.46930  -15.72360   17.82330
 8650.00000    7.83870    7.83870    -999.25   43.90360   22.77720   57.00060   57.00060   34.98610   34.98610   22.77720   23.84800   30.59060   23.84800  -20.47470  -13.33980   30.59060
 8700.00000    7.83570    7.83570    -999.25   44.66280   22.39000   59.67310   59.67310   48.61440   48.61440   22.39000   23.16040   32.25060   23.16040  -22.19780  -14.67170   32.25060
 8750.00000    7.87230    7.87230    -999.25    4.13370  241.91430   51.39810   51.39810   20.37570   20.37570  241.91430  228.80600  321.73130  228.80600  -23.06700  -15.15360  321.73130
 8800.00000    7.83830    7.83830    -999.25    0.98180 1018.54140   50.48140   50.48140   15.09330   15.09330 1018.54140 1319.98650 1277.40600 1319.98650  -20.01100  -11.70830 1277.40600
 8850.00000    7.84250    7.84250    -999.25   13.49420   74.10590   51.99210   51.99210   23.27740   23.27740   74.10590   85.68070  219.56520   85.68070  -73.44580  -64.75390  219.56520
 8900.00000    7.85200    7.85200    -999.25    1.97740  505.70970   50.77260   50.77260   19.21430   19.21430  505.70970  660.50150 1465.48230  660.50150  -86.26210  -77.18100 1465.48230
 8950.00000    7.83050    7.83050    -999.25   64.51220   15.50100   63.75180   63.75180  103.58680  103.58680   15.50100   16.31360   28.22650   16.31360  -10.70710   -1.23480   28.22650
 9000.00000    7.85140    7.85140    -999.25  113.46360    8.81340   62.38780   62.38780  102.82060  102.82060    8.81340    7.78770   11.73540    7.78770  -23.06750  -13.55430   11.73540
