~Version ---------------------------------------------------
VERS. 2.0 : CWLS log ASCII Standard -VERSION 2.0
WRAP.  NO : ONE LINE PER DEPTH STEP
~Well ------------------------------------------------------
STRT.F                 300.0 : START DEPTH
STOP.F                8300.0 : STOP DEPTH
STEP.F              50.00000 : STEP LENGTH
NULL.                -999.25 : NULL VALUE
COMP.   IMPERIAL OIL LIMITED : COMPANY
WELL. IMP FREEMAN 10-31-63-7 : WELL
FLD .                        : FIELD
LOC .                        : LOCATION
CTRY.                 CANADA : COUNTRY
SRVC. Schlumberger of Canada : SERVICE COMPANY
DATE.            16-Oct-1958 : LOGDATE
PROV.                Alberta : PROVINCE
UWI .       100103106307W500 : UNIQUE WELL ID
SLAT.WGS84          54.49585 : SURFACE LATITUDE
SLON.WGS84         -115.0433 : SURFACE LONGITUDE
~Curve Information -----------------------------------------
DEPT.F    0   1   0  0 : 1 MEASURED DEPTH
GRN .GAPI 35 310 01 00 : GAMMA RAY FROM GRN LOG
NEUT.NAPI 35 330 01 00 : NEUTRON
MCAL.IN   15 280 01 00 : MLT (MICROLOG) CALIPER
CILD.MMHO 01 110 46 00 : INDUCTION DEEP CONDUCTIVITY
ILD .OHMM 01 120 46 00 : INDUCTION DEEP RESISTIVITY
SPR .MV   01 010 01 00 : SPONTANEOUS POTENTIAL FROM RESISTIVITY LOG
SN  .OHMM 01 040 16 00 : SHORT NORMAL RESISTIVITY
~Params ----------------------------------------------------
LMF .                     KB : LOG MEASURED FROM
DMF .                     KB : DRILLING MEASURED FROM
EKB .FT                 2612 : KELLY BUSHING
DATE.               10/16/58 : RUN DATE
RUN .                      1 : RUN NUMBER
TCS .HRS                   4 : TIME CIRCULATED STOPPED
ENGI.                  GOETZ : RECORDING ENGINEER
WITN.                 WILSON : WITNESSED BY
CLNT.                A2DTECH : CLIENT CODE
ORIG.            2" 5" PRINT : ORIGIN OF DATA
UWI .       100103106307W500 : UNIQUE WELL ID
DICO. A2D Technologies, Inc. : DIGITIZING COMPANY
~Other -----------------------------------------------------
~ASCII -----------------------------------------------------
  300.00000    0.91670    6.94580    -999.25    -999.25    -999.25    -999.25    -999.25
  350.00000    1.09820    8.00540    -999.25    -999.25    -999.25    -999.25    -999.25
  400.00000    0.98500    7.75930    -999.25    -999.25    -999.25    -999.25    -999.25
  450.00000    1.03220    7.38310    -999.25    -999.25    -999.25    -999.25    -999.25
  500.00000    1.11180    7.99680    -999.25    -999.25    -999.25    -999.25    -999.25
  550.00000    1.06480    8.21400    -999.25    -999.25    -999.25    -999.25    -999.25
  600.00000    1.38230   10.29280    -999.25    -999.25    -999.25    -999.25    -999.25
  650.00000    1.38150    9.37730    -999.25  300.83840    3.88900  -65.22330    4.15070
  700.00000    1.30720    8.90060    -999.25  354.16630    3.39470  -67.17380    3.88870
  750.00000    1.44310    8.60770    -999.25  207.61160    5.36950  -71.29280    5.30110
  800.00000    1.41490    9.50180    -999.25  181.86010    5.70190  -63.50910    6.05320
  850.00000    1.27390    9.96950    -999.25  164.15610    6.40680  -59.13220    7.17090
  900.00000    1.50730    9.61980    -999.25  210.47020    5.33030  -63.03820    4.98440
  950.00000    1.32970   12.76180    -999.25  299.04900    3.93210  -58.53150    4.12000
 1000.00000    1.26410   11.02110    -999.25  303.70190    3.82190  -60.38010    4.16090
 1050.00000    1.41260    7.61810    -999.25   94.21390   11.28900  -54.13530   11.69300
 1100.00000    1.38750    8.67600    -999.25  216.04790    5.18370  -68.54640    5.39860
 1150.00000    1.25350   10.07210    -999.25   43.10780   35.72010  -65.77320   17.15990
 1200.00000    1.21900    9.97090    -999.25  225.16440    5.09820  -69.58780    5.30410
 1250.00000    1.34940    8.07700    -999.25  229.58680    4.91770  -69.54500    5.46250
 1300.00000    1.29350    8.52440    -999.25  249.53100    4.54290  -65.46120    4.97180
 1350.00000    1.21590    8.98760    -999.25  245.02740    4.57210  -62.68930    4.80480
 1400.00000    1.23970    8.27660    -999.25  201.93340    5.21270  -68.94340    5.53540
 1450.00000    1.36200    8.91160    -999.25  287.99150    4.00390  -65.65170    4.31010
 1500.00000    1.17960   12.35810    -999.25  216.14220    5.00790  -76.11000    6.04240
 1550.00000    1.22210   10.34020    -999.25  278.83950    4.15090  -62.03950    4.49390
 1600.00000    1.37570    8.71390    -999.25  188.59680    5.84000  -77.58620    6.34110
 1650.00000    1.25210    8.48380    -999.25  276.45850    4.18330  -62.61710    4.67440
 1700.00000    1.32790    7.47360    -999.25  140.32070    7.69570  -79.71490    7.49940
 1750.00000    1.35210   12.87380    -999.25  262.21820    4.38430  -69.49650    5.13250
 1800.00000    1.43840   12.96540    -999.25  227.99630    4.58450  -67.39010    4.86750
 1850.00000    1.39200   11.28620    -999.25  200.77260    5.20720  -65.69160    5.67690
 1900.00000    1.56250   14.90530    -999.25  259.06940    4.39610  -60.54740    4.67310
 1950.00000    1.57110   10.78220    -999.25  301.53100    3.86020  -60.45390    4.37360
 2000.00000    1.71440   11.37330    -999.25  204.24290    5.57940  -60.66920    5.15080
 2050.00000    1.83890   11.88160    -999.25  255.34730    4.36660  -63.81990    5.00550
 2100.00000    2.45040    8.66700    -999.25  261.66660    4.36000  -63.40500    4.74810
 2150.00000    1.79910    8.59080    -999.25  145.83060    7.20170  -66.77110    7.60160
 2200.00000    1.77490    8.21110    -999.25  185.48620    5.93600  -65.25210    5.59740
 2250.00000    1.67420    7.88180    -999.25  208.11480    5.62900  -65.32720    5.32390
 2300.00000    1.41370   10.35810    -999.25  231.35420    4.66580  -68.68140    5.07200
 2350.00000    1.72370    8.60470    -999.25  173.55830    6.30180  -68.68080    6.02400
 2400.00000    1.64840    7.76640    -999.25  137.87580    7.43960  -70.67150    7.04490
 2450.00000    1.76030    8.19440    -999.25  181.78620    6.05610  -65.30680    5.81930
 2500.00000    1.73630    6.85640    -999.25  211.62960    5.10390  -67.12900    5.42990
 2550.00000    1.62670    8.60740    -999.25  173.04300    6.31420  -66.69070    6.14020
 2600.00000    1.84580    8.91960    -999.25  198.31650    5.78550  -67.26320    5.43770
 2650.00000    1.81340    9.73020    -999.25  214.89100    5.18340  -66.26980    5.33110
 2700.00000    1.90610    9.48040    -999.25  241.28830    4.63790  -62.87800    4.89960
 2750.00000    1.97020    7.74380    -999.25  183.41900    5.88840  -70.64910    6.65130
 2800.00000    1.86510   10.36810    -999.25  179.53440    6.11900  -69.78210    6.93510
 2850.00000    2.03360    8.89030    -999.25  162.73070    6.67920  -77.23130    8.63120
 2900.00000    1.67580   14.84340    -999.25  188.95940    5.76840  -73.41840    6.76040
 2950.00000    1.78600    8.54990    -999.25  194.57580    5.49520  -71.61590    5.90580
 3000.00000    1.87810   10.23160    -999.25  148.94850    7.12590  -72.46460    7.59030
 3050.00000    1.82760   11.39130    -999.25   91.88580   10.47380  -73.35770   10.97700
 3100.00000    1.81610   13.31550    -999.25  212.64490    5.24780  -67.22250    5.62330
 3150.00000    1.89960   11.30640    -999.25  244.78800    4.61400  -63.37850    5.18420
 3200.00000    2.14970   10.18320   13.44720  215.01520    5.19620  -65.53290    5.77670
 3250.00000    1.72620    9.35320   14.79610  408.39480    3.12760  -46.05410    3.58370
 3300.00000    1.79320    9.56440   14.93250  340.92520    3.63390  -48.58430    3.81210
 3350.00000    1.69920    7.84420   13.35450  347.99150    3.56150  -49.04330    3.89770
 3400.00000    1.45630   12.69500   12.10270  268.70200    4.49470  -56.98910    4.90820
 3450.00000    1.63130    7.16630   12.52160  180.48170    6.12320  -64.74150    6.54630
 3500.00000    1.36800   10.94050   13.66090  343.01530    3.98570  -56.63660    5.04470
 3550.00000    1.63030    9.46720   10.03840  147.41940    7.33300 -108.64270    8.69220
 3600.00000    1.52850    3.18860   10.35260  173.89670    6.27480  -67.83450    8.51530
 3650.00000    1.39590    3.06520    9.42110  102.09780    9.43330  -93.01890   11.18670
 3700.00000    1.65420    2.94570    8.68400  135.39370    7.97350 -114.35600    8.70380
 3750.00000    1.60600    3.52700    9.34650  126.44360    8.45540  -90.85900    9.83320
 3800.00000    1.42490    3.48890    8.58940  128.32430    8.41790 -114.63040    9.80990
 3850.00000    1.08520    3.42770    8.35800  151.33710    7.31880 -124.13160    8.64970
 3900.00000    1.67550    3.64670    9.21610  181.23040    6.24670  -58.71490    7.25010
 3950.00000    1.50010    1.95360    9.24760  151.89800    7.31380  -59.77850    8.52850
 4000.00000    1.60100    2.95620    9.29920  165.51490    6.79400  -49.61180    7.51210
 4050.00000    1.37710    3.50960    9.07630  174.26180    6.73380  -65.49760    8.14600
 4100.00000    1.42520    4.58130   10.81030  160.26190    6.94180  -38.80510    9.07230
 4150.00000    1.67910    4.86880    9.24850  107.71190    9.82790  -56.71650   12.19800
 4200.00000    1.49980    4.02790    9.37760   79.21310   12.23830  -50.37570   13.28120
 4250.00000    0.76860    5.74040    9.63150  117.41010    9.08380  -44.31910   10.48200
 4300.00000    1.26930    4.57960    8.99700  128.68640    8.67460  -69.23390   10.51700
 4350.00000    1.44450    4.11930    9.09460  103.94090   10.02840  -52.71640   10.81430
 4400.00000    1.67530    3.00710    9.98670  112.25910    9.55390  -48.24840   10.18820
 4450.00000    1.64660    2.67380   10.60820  103.64470    9.98920  -44.22940   10.78760
 4500.00000    1.97590    2.33810   12.29330  216.00810    5.57170  -27.58660    5.95420
 4550.00000    1.36020    3.38730   10.30100   44.40540   22.45250  -51.90390   19.28520
 4600.00000    2.00470    3.19610   10.41840   64.32140   15.50840  -40.78730   16.51230
 4650.00000    0.63230    5.78480    9.68660    1.42650  500.62630  -49.57930   67.65880
 4700.00000    0.60940    5.87530    9.60460   16.53300   60.08190 -108.84750   55.34050
 4750.00000    0.92770    4.47300    9.49540   69.32920   13.76460  -88.90970   22.90620
