~Version ---------------------------------------------------
VERS.      2.0 : CWLS log ASCII Standard -VERSION 2.0
WRAP.       NO : One line per depth step
CREA. 11/15/17 : LAS Creation Date
~Well ------------------------------------------------------
STRT.FT                                  300.0 : START DEPTH
STOP.FT                                 8650.0 : STOP DEPTH
STEP.FT                               50.00000 : STEP LENGTH
NULL.                                  -999.25 : NULL VALUE
COMP. CONOCOPHILLIPS CANADA ENERGY PARTNERSHIP : COMPANY
WELL.       ATLANTIS UNIT S THREECK 9-17-34-25 : WELL
FLD .                                          : FIELD
LOC .                                          : LOCATION
CTRY.                                   CANADA : COUNTRY
SRVC.                   Schlumberger of Canada : SERVICE COMPANY
DATE.                              23-Jul-1959 : LOGDATE
PROV.                                  Alberta : PROVINCE
UWI .                         100091703425W400 : UNIQUE WELL ID
SLAT.WGS84                            51.92011 : SURFACE LATITUDE
SLON.WGS84                            -113.503 : SURFACE LONGITUDE
~Curve Information -----------------------------------------
DEPT  .FT         : Depth Curve
CALMED.IN         : CALIPER FROM MICRO LATEROLOG
CALWS .IN         : CALIPER [MCALED SPL. TO CALMED @ 6192']
CILDED.MMHO       : CONDUCTIVITY INDUCTION LOG FROM INDUCTION ELERICAL LOG
CONDWS.MMHO       : CONDUCTIVITY [1000/DRESWS]
DRESWS.OHMM       : DEEP RESISTIVITY [1000/CILDED, IF <5 ILDED, ILDED]
GRNED .UgRa-Eq/T  : GAMMA RAY  FROM GAMMA RAY NEUTRON LOG
GRWS  .GAPI       : GAMMA RAY [GRNED*16.50]
ILDED .OHMM       : DEEP INDUCTION RESISTIVITY FROM INDUCTION ELERICAL LOG
MCALED.IN         : MICROLOG CALIPER FROM MICROLOG
MLLED .OHMM       : MICRO-LATEROLOG RESISTIVITY FROM MICRO LATEROLOG
NEUTED.CPS        : NEUTRON FROM  GAMMA RAY NEUTRON LOG
NEUTWS.CPS        : NEUTRON [NEUTED]
SNED  .OHMM       : SHORT NORMAL 16 'FROM INDUCTION ELERICAL LOG
SPRED .MV         : SPONTANEOUS POTENTIAL FROM RESISTIVITY LOG
SPWS  .MV         : SPONTANEOUS POTENTIAL [SPRED]
SRESWS.OHMM       : SHALLOW RESISTIVITY [SNED]
~Params ----------------------------------------------------
PD  .                     KB : PERMANENT DATUM
EKB .FT                 2985 : KELLY BUSHING
EGL .FT               2971.8 : GROUND LEVEL
DATE.               07/23/59 : RUN DATE
RUN .                      2 : RUN NUMBER
DD  .FT                 8668 : DEPTH DRILLER
DL  .FT                 8667 : DEPTH LOGGER
BLI .FT                 8662 : BOTTOM LOG INTERVAL
TLI .FT                 6271 : TOP LOG INTERVAL
CBD .FT                 1211 : CASING BOTTOM DRILLER
CBL .FT                 1211 : CASING BOTTOM LOGGER
BS  .IN                    9 : BIT SIZE
BSD .FT                 8668 : BIT SIZE AT DEPTH
DFT .                    GEL : DRILLING FLUID TYPE
DFD .                   10.2 : DRILLING FLUID DENSITY
DFV .                     78 : DRILLING FLUID VISCOSITY
DFPH.                    6.4 : DRILLING FLUID PH
DFL .                      7 : DRILLING FLUID LOSS
RMS .OHMM                1.4 : RESISTIVITY MUD SAMPLE
MST .DEGF                 70 : MUD SAMPLE TEMPERATURE
RMF .OHMM                  1 : RESISTIVITY MUD FILTRATE SAMPLE
MFST.DEGF                 70 : MUD FILTRATE SAMPLE TEMPERATURE
RMC .OHMM                1.4 : RESISTIVITY MUD CAKE
MCST.DEGF                 70 : MUD CAKE SAMPLE TEMPERATURE
RMB .OHMM               0.63 : RESISTIVITY MUD AT BHT
TCS .HRS                 1.5 : TIME CIRCULATED STOPPED
LUN .                   2548 : LOGGING UNIT NUMBER
LUL .                      C : LOGGING UNIT LOCATION
ENGI.                 YUNKER : RECORDING ENGINEER
WITN.                DOMENKO : WITNESSED BY
CLNT.                A2DTECH : CLIENT CODE
ORIG.            2" 5" PRINT : ORIGIN OF DATA
UWI .       100091703425W400 : UNIQUE WELL ID
DICO. A2D Technologies, Inc. : DIGITIZING COMPANY
~Other -----------------------------------------------------
~ASCII -----------------------------------------------------
# ...
 4600.00000    -999.25   10.90790   92.64740  100.53590    9.94670    7.23180  119.32470    9.94670   10.90790    -999.25  184.83640  184.83640   14.71100  -56.02250   -3.13810   14.71100
 4650.00000    -999.25   14.28670  141.32080  153.49190    6.51500    5.15590   85.07240    6.51500   14.28670    -999.25  163.13610  163.13610    9.19680  -57.10400   -4.55970    9.19680
 4700.00000    -999.25   10.80120   79.32170   85.77800   11.65800    7.65400  126.29100   11.65800   10.80120    -999.25  169.80790  169.80790   18.52620  -55.34280   -3.39940   18.52620
 4750.00000    -999.25   11.36540   97.09390  103.67640    9.64540    8.72780  144.00870    9.64540   11.36540    -999.25  169.13820  169.13820   15.46960  -53.74990   -2.48270   15.46960
 4800.00000    -999.25   11.07470  159.62480  170.25620    5.87350    7.39900  122.08350    5.87350   11.07470    -999.25  176.23530  176.23530    8.58220  -54.15300   -3.56190    8.58220
 4850.00000    -999.25   15.52220  232.15450  232.15450    4.30750    4.77130   78.72650    4.26430   15.52220    -999.25  167.03020  167.03020    5.16760  -55.28120   -5.37070    5.16760
 4900.00000    -999.25   15.70670  305.01470  305.01470    3.27850    5.15920   85.12680    3.75250   15.70670    -999.25  172.92920  172.92920    4.46340  -54.92000   -5.68560    4.46340
 4950.00000    -999.25   10.41320   66.23950   70.21830   14.24130    5.18730   85.59040   14.24130   10.41320    -999.25  196.22300  196.22300   19.33570  -59.77690  -10.63190   19.33570
 5000.00000    -999.25    8.76610   49.80070   54.19940   18.45040    2.68910   44.37010   18.45040    8.76610    -999.25  240.68500  240.68500   30.17730 -107.17610  -57.61140   30.17730
 5050.00000    -999.25   11.19010   90.94890   96.45620   10.36740    5.41120   89.28480   10.36740   11.19010    -999.25  213.97500  213.97500   13.00990  -55.03350   -5.04910   13.00990
 5100.00000    -999.25   15.68060  257.70880  257.70880    3.88030    5.20550   85.89070    3.68240   15.68060    -999.25  172.93570  172.93570    4.21210  -56.59590   -6.18910    4.21210
 5150.00000    -999.25   15.66130  473.89130  473.89130    2.11020    5.27840   87.09360    2.57320   15.66130    -999.25  163.50360  163.50360    3.14740  -57.44040   -6.61390    3.14740
 5200.00000    -999.25   11.49570   93.21340   94.93160   10.53390    4.36780   72.06870   10.53390   11.49570    -999.25  212.12530  212.12530   16.03160  -59.26770   -8.01870   16.03160
 5250.00000    -999.25   11.10930   43.09570   43.92010   22.76860    2.47590   40.85240   22.76860   11.10930    -999.25  267.64530  267.64530   38.80930  -54.92670   -5.25080   38.80930
 5300.00000    -999.25   11.83410   65.48460   68.47910   14.60300    5.53540   91.33410   14.60300   11.83410    -999.25  190.54090  190.54090   19.35180  -52.22580   -4.29380   19.35180
 5350.00000    -999.25   11.13420   50.19640   52.26790   19.13220    4.03990   66.65830   19.13220   11.13420    -999.25  213.93380  213.93380   25.42030  -60.60050  -14.42390   25.42030
 5400.00000    -999.25   11.72580   49.20120   51.78720   19.30980    4.87040   80.36160   19.30980   11.72580    -999.25  178.97970  178.97970   36.26360  -52.59430   -8.16160   36.26360
 5450.00000    -999.25   11.65060  141.97030  153.82960    6.50070    4.68380   77.28270    6.50070   11.65060    -999.25  160.12240  160.12240    8.80610  -52.17600   -8.81550    8.80610
 5500.00000    -999.25    9.66530   43.09000   47.36100   21.11440    4.20000   69.30000   21.11440    9.66530    -999.25  253.86520  253.86520   40.71910  -59.71440  -14.51690   40.71910
 5550.00000    -999.25    9.67250   68.71080   72.32120   13.82720    4.95320   81.72780   13.82720    9.67250    -999.25  195.57860  195.57860   21.81490  -61.56150  -14.52690   21.81490
 5600.00000    -999.25    8.84460    6.61520    8.44700  118.38470    0.64200   10.59300  118.38470    8.84460    -999.25  350.35790  350.35790  298.58060 -115.65370  -66.77000  298.58060
 5650.00000    -999.25    8.55840    7.92380   10.31620   96.93500    0.46440    7.66260   96.93500    8.55840    -999.25  336.12070  336.12070  446.58190 -154.64050 -103.91980  446.58190
 5700.00000    -999.25    9.29680    9.48590   12.07640   82.80590    0.89300   14.73450   82.80590    9.29680    -999.25  338.84740  338.84740  137.50190  -68.81270  -16.24280  137.50190
 5750.00000    -999.25    9.67600    9.16490   10.93430   91.45560    1.19500   19.71750   91.45560    9.67600    -999.25  324.60200  324.60200  182.99110  -63.31710  -11.11720  182.99110
 5800.00000    -999.25    9.56230   18.25850   20.31600   49.22220    2.85960   47.18340   49.22220    9.56230    -999.25  280.13120  280.13120   76.32420  -56.07860   -7.36650   76.32420
 5850.00000    -999.25    9.52940   20.42490   22.77610   43.90560    3.06580   50.58570   43.90560    9.52940    -999.25  286.24610  286.24610   69.61830  -49.28490   -4.08350   69.61830
 5900.00000    -999.25    9.55950   31.85110   34.26730   29.18230    3.33140   54.96810   29.18230    9.55950    -999.25  281.81450  281.81450   48.01510  -49.63210   -5.98420   48.01510
 5950.00000    -999.25    9.55600   54.03860   57.23310   17.47240    3.35470   55.35250   17.47240    9.55600    -999.25  248.32980  248.32980   26.38310  -62.07310  -19.19560   26.38310
 6000.00000    -999.25    9.43590   44.27970   47.38980   21.10160    3.51100   57.93150   21.10160    9.43590    -999.25  262.14860  262.14860   33.00600  -55.99270  -13.88070   33.00600
 6050.00000    -999.25    9.32240   50.01090   51.85750   19.28360    3.34040   55.11660   19.28360    9.32240    -999.25  249.61950  249.61950   30.08010  -51.21230   -9.86570   30.08010
 6100.00000    9.65930    9.25360   55.34280   58.26760   17.16220    3.54760   58.53540   17.16220    9.25360   64.58960  244.18660  244.18660   30.83150  -47.34000   -6.71970   30.83150
 6150.00000    9.65650    8.92370   63.01980   67.08800   14.90580    3.76370   62.10110   14.90580    8.92370   56.53560  235.64700  235.64700   30.60510  -64.78470  -24.44950   30.60510
 6200.00000    9.51140    9.51140   62.08880   65.97570   15.15710    5.05940   83.48010   15.15710    8.95310   26.89770  226.97770  226.97770   26.21720  -59.92730  -19.87910   26.21720
 6250.00000   10.15540   10.15540   95.42600   96.66880   10.34460    9.27940  153.11010   10.34460    8.98580   21.42930  180.20360  180.20360   22.13070  -48.39390   -8.63080   22.13070
 6300.00000    9.80180    9.80180   16.75400   15.73680   63.54530    1.03380   17.05770   63.54530    -999.25   61.29680  206.60030  206.60030   66.45840  -90.21430  -50.73630   66.45840
 6350.00000    9.21970    9.21970   14.40710   13.19650   75.77750    0.63140   10.41810   75.77750    -999.25  543.09690  333.48010  333.48010   85.75000  -65.24320  -26.05220   85.75000
 6400.00000    9.38290    9.38290   15.41100   12.98630   77.00450    0.70680   11.66220   77.00450    -999.25  170.27630  321.61780  321.61780   77.82350  -82.55590  -43.65000   77.82350
 6450.00000    9.22450    9.22450   24.44760   22.44230   44.55880    1.03490   17.07580   44.55880    -999.25  116.56880  270.50220  270.50220   62.46230  -91.77670  -53.15770   62.46230
 6500.00000    9.15870    9.15870   26.95120   24.77470   40.36370    1.37310   22.65620   40.36370    -999.25  246.23610  261.64690  261.64690   58.19950  -87.87080  -49.53700   58.19950
 6550.00000    9.48040    9.48040   18.31040   17.33230   57.69580    0.77840   12.84360   57.69580    -999.25  365.25310  275.04350  275.04350   63.80670  -70.98210  -32.93340   63.80670
 6600.00000    9.14070    9.14070   20.56060   18.86960   52.99520    0.83940   13.85010   52.99520    -999.25  186.94710  298.08160  298.08160   71.12740  -74.14380  -36.38200   71.12740
 6650.00000    9.18540    9.18540    8.04860    8.03890  124.39500    0.65140   10.74810  124.39500    -999.25  192.05940  314.64410  314.64410  101.27720  -67.89450  -30.41790  101.27720
 6700.00000    9.09630    9.09630    7.33060    5.52110  181.12420    0.60670   10.01060  181.12420    -999.25  632.47890  323.14860  323.14860  139.05920  -50.17920  -12.98950  139.05920
