~Version ---------------------------------------------------
VERS.      2.0 : CWLS log ASCII Standard -VERSION 2.0
WRAP.       NO : One line per depth step
CREA. 11/17/17 : LAS Creation Date
~Well ------------------------------------------------------
STRT.FT                       300.0 : START DEPTH
STOP.FT                      9300.0 : STOP DEPTH
STEP.FT                    50.00000 : STEP LENGTH
NULL.                       -999.25 : NULL VALUE
COMP. CANADIAN EXPORT OIL & GAS LTD : COMPANY
WELL. CEGO ET AL SUNSET 10-23-69-19 : WELL
FLD .                               : FIELD
LOC .                               : LOCATION
CTRY.                        CANADA : COUNTRY
SRVC.                       Unknown : SERVICE COMPANY
DATE.                   18-Jan-1973 : LOGDATE
PROV.                       Alberta : PROVINCE
UWI .              100102306919W500 : UNIQUE WELL ID
SLAT.WGS84                   54.992 : SURFACE LATITUDE
SLON.WGS84                -116.7783 : SURFACE LONGITUDE
~Curve Information -----------------------------------------
DEPT   .FT    : Depth Curve
ASFLED .OHMM  : AMPLIFIED SHALLOW FOCUSED RESISTIVITY FROM SFIL LOG
ASNED  .OHMM  : AMPLIFIED SHORT NORMAL RESISTIVITY 16" FROM IEL LOG
CALSED .IN    : CALIPER FROM SONIC LOG
CALWS  .IN    : CALIPER [CALSED]
CILD1ED.MMHO  : CONDUCTIVITY FROM IEL LOG
CILDED .MMHO  : CONDUCTIVITY FROM SFIL LOG
CONDWS .MMHO  : CONDUCTIVITY [1000/DRESWS]
DRESWS .OHMM  : DEEP RESISTIVITY [1000/CILDED, IF ILDED<5, ILDED SPL. TO 1000/CILD1ED, IF ILD1ED<5, ILD1ED @ 8996']
DTED   .US/F  : DELTA TIME FROM SONIC LOG
DTWS   .US/F  : COMPRESSIONAL SONIC [DTED]
GRED   .GAPI  : CASED HOLE GAMMA RAY FROM CBL LOG [ADJ. TO ISF LOG/GRSED]
GRSED  .GAPI  : GAMMA RAY FROM SONIC LOG
GRWS   .GAPI  : GAMMA RAY [GRED SPL. TO GRSED @ 922'-4973', 4978'-6674' AND 6682']
ILD1ED .OHMM  : DEEP INDUCTION LOG RESISTIVITY FROM IEL LOG
ILDED  .OHMM  : DEEP INDUCTION LOG RESISTIVITY FROM SFIL LOG
SPR1ED .MV    : SPONTANEOUS POTENTIAL FROM IEL LOG
SPRED  .MV    : SPONTANEOUS POTENTIAL FROM SFIL LOG
SPWS   .MV    : SPONTANEOUS POTENTIAL [BASELINE 0 MV(SPRED SPL. TO SPR1ED @ 8996')*-1}]
SRESWS .OHMM  : SHALLOW RESISTIVITY [ASFLED SPL. TO ASNED @ 8996']
~Params ----------------------------------------------------
PD  .                     GL : PERMANENT DATUM
EPD .FT                 2660 : ELEVATION PERMANENT DATUM
LMF .                     KB : LOG MEASURED FROM
DAPD.FT                 14.7 : FEET ABOVE PERMANENT DATUM
EKB .FT               2674.7 : KELLY BUSHING
EGL .FT                 2660 : GROUND LEVEL
DATE.               01/18/73 : RUN DATE
RUN .                      2 : RUN NUMBER
DD  .FT                 9336 : DEPTH DRILLER
DL  .FT                 9336 : DEPTH LOGGER
BLI .FT                 9325 : BOTTOM LOG INTERVAL
TLI .FT                 8800 : TOP LOG INTERVAL
CBD .FT                  944 : CASING BOTTOM DRILLER
CBL .FT                  941 : CASING BOTTOM LOGGER
BS  .IN                7.875 : BIT SIZE
BSD .FT                 9336 : BIT SIZE AT DEPTH
DFT .                    KCL : DRILLING FLUID TYPE
DFD .                    9.1 : DRILLING FLUID DENSITY
DFV .                     60 : DRILLING FLUID VISCOSITY
DFPH.                    9.0 : DRILLING FLUID PH
DFL .                    8.2 : DRILLING FLUID LOSS
RMS .OHMM               0.44 : RESISTIVITY MUD SAMPLE
MST .DEGF                 55 : MUD SAMPLE TEMPERATURE
RMF .OHMM                0.6 : RESISTIVITY MUD FILTRATE SAMPLE
MFST.DEGF                 60 : MUD FILTRATE SAMPLE TEMPERATURE
RMB .OHMM               0.14 : RESISTIVITY MUD AT BHT
TCS .HRS                   2 : TIME CIRCULATED STOPPED
LUN .                   7635 : LOGGING UNIT NUMBER
LUL .                    D C : LOGGING UNIT LOCATION
ENGI.                   HALL : RECORDING ENGINEER
WITN.         WIGGINS WILMER : WITNESSED BY
CLNT.                A2DTECH : CLIENT CODE
ORIG.            2" 5" PRINT : ORIGIN OF DATA
UWI .       100102306919W500 : UNIQUE WELL ID
DICO. A2D Technologies, Inc. : DIGITIZING COMPANY
~Other -----------------------------------------------------
SFIL-IEL-BCS-GR TOOL RUN
GAP IN GR AND SPR AS PER IMAGE
SPR INOPERATIVE SALT MUD
SFIL-SONIC LOG (TOP TO 960.1M) FROM SMALL SCALE LOG
~ASCII -----------------------------------------------------
  300.00000    -999.25    -999.25    -999.25    -999.25    -999.25    -999.25    -999.25    -999.25    -999.25    -999.25   61.69420    -999.25   61.69420    -999.25    -999.25    -999.25    -999.25    -999.25    -999.25
  350.00000    -999.25    -999.25    -999.25    -999.25    -999.25    -999.25    -999.25    -999.25    -999.25    -999.25   61.55600    -999.25   61.55600    -999.25    -999.25    -999.25    -999.25    -999.25    -999.25
  400.00000    -999.25    -999.25    -999.25    -999.25    -999.25    -999.25    -999.25    -999.25    -999.25    -999.25   53.72040    -999.25   53.72040    -999.25    -999.25    -999.25    -999.25    -999.25    -999.25
  450.00000    -999.25    -999.25    -999.25    -999.25    -999.25    -999.25    -999.25    -999.25    -999.25    -999.25   61.20270    -999.25   61.20270    -999.25    -999.25    -999.25    -999.25    -999.25    -999.25
  500.00000    -999.25    -999.25    -999.25    -999.25    -999.25    -999.25    -999.25    -999.25    -999.25    -999.25   58.92140    -999.25   58.92140    -999.25    -999.25    -999.25    -999.25    -999.25    -999.25
  550.00000    -999.25    -999.25    -999.25    -999.25    -999.25    -999.25    -999.25    -999.25    -999.25    -999.25   49.85770    -999.25   49.85770    -999.25    -999.25    -999.25    -999.25    -999.25    -999.25
  600.00000    -999.25    -999.25    -999.25    -999.25    -999.25    -999.25    -999.25    -999.25    -999.25    -999.25   50.27510    -999.25   50.27510    -999.25    -999.25    -999.25    -999.25    -999.25    -999.25
  650.00000    -999.25    -999.25    -999.25    -999.25    -999.25    -999.25    -999.25    -999.25    -999.25    -999.25   51.42260    -999.25   51.42260    -999.25    -999.25    -999.25    -999.25    -999.25    -999.25
  700.00000    -999.25    -999.25    -999.25    -999.25    -999.25    -999.25    -999.25    -999.25    -999.25    -999.25   50.58760    -999.25   50.58760    -999.25    -999.25    -999.25    -999.25    -999.25    -999.25
  750.00000    -999.25    -999.25    -999.25    -999.25    -999.25    -999.25    -999.25    -999.25    -999.25    -999.25   34.07170    -999.25   34.07170    -999.25    -999.25    -999.25    -999.25    -999.25    -999.25
  800.00000    -999.25    -999.25    -999.25    -999.25    -999.25    -999.25    -999.25    -999.25    -999.25    -999.25   34.67090    -999.25   34.67090    -999.25    -999.25    -999.25    -999.25    -999.25    -999.25
  850.00000    -999.25    -999.25    -999.25    -999.25    -999.25    -999.25    -999.25    -999.25    -999.25    -999.25   46.64050    -999.25   46.64050    -999.25    -999.25    -999.25    -999.25    -999.25    -999.25
  900.00000    -999.25    -999.25    -999.25    -999.25    -999.25    -999.25    -999.25    -999.25    -999.25    -999.25   41.18310    -999.25   41.18310    -999.25    -999.25    -999.25    -999.25    -999.25    -999.25
  950.00000    3.37270    -999.25    8.19870    8.19870    -999.25  114.92280  114.92280   13.97020  114.82040  114.82040   57.80340   60.13930   60.13930    -999.25    6.86930    -999.25  -83.45200   -8.43320    3.37270
 1000.00000    2.82840    -999.25    8.59410    8.59410    -999.25  226.16710  226.16710    4.42150  162.89580  162.89580   63.80610   64.94360   64.94360    -999.25    5.50550    -999.25  -90.91740   -0.87470    2.82840
 1050.00000    3.36000    -999.25    8.17930    8.17930    -999.25  188.82320  188.82320    5.29600  129.09200  129.09200   57.63340   62.38890   62.38890    -999.25    6.36260    -999.25  -85.37200   -6.11230    3.36000
 1100.00000    4.25040    -999.25    7.55820    7.55820    -999.25   88.52740   88.52740   11.37300  125.31680  125.31680   36.32980   44.09340   44.09340    -999.25   13.95600    -999.25  -57.57370  -33.60080    4.25040
 1150.00000    2.40950    -999.25    8.25490    8.25490    -999.25  253.68050  253.68050    3.94200  165.69530  165.69530   72.63560   65.07900   65.07900    -999.25    4.93870    -999.25  -84.67950   -6.18720    2.40950
 1200.00000    2.45190    -999.25    8.40650    8.40650    -999.25  288.91180  288.91180    3.46670  126.50570  126.50570   70.99470   60.64470   60.64470    -999.25    4.29780    -999.25  -85.03110   -5.52580    2.45190
 1250.00000    2.69510    -999.25    7.58210    7.58210    -999.25  175.74700  175.74700    5.69000  117.72700  117.72700   48.37600   60.77150   60.77150    -999.25    6.86890    -999.25  -70.53000  -19.71910    2.69510
 1300.00000    2.13510    -999.25    9.38890    9.38890    -999.25  284.56200  284.56200    3.51420  156.07920  156.07920   61.41720   67.34710   67.34710    -999.25    4.55280    -999.25  -84.42620   -5.51510    2.13510
 1350.00000    3.12530    -999.25    8.92480    8.92480    -999.25  251.67070  251.67070    3.97350  118.21050  118.21050   56.80720   62.39140   62.39140    -999.25    4.99060    -999.25  -85.07640   -4.55510    3.12530
 1400.00000    2.20130    -999.25    8.88730    8.88730    -999.25  277.54140  277.54140    3.60310  148.14540  148.14540   62.80160   57.81280   57.81280    -999.25    4.50090    -999.25  -82.70520   -6.61860    2.20130
 1450.00000    2.84580    -999.25    7.73430    7.73430    -999.25  198.65150  198.65150    5.03930  116.40240  116.40240   48.47250   53.44910   53.44910    -999.25    6.47270    -999.25  -72.51000  -16.50400    2.84580
 1500.00000    2.10220    -999.25    9.17450    9.17450    -999.25  272.35610  272.35610    3.67170  138.72790  138.72790   60.64570   53.73780   53.73780    -999.25    4.91780    -999.25  -80.93150   -7.77470    2.10220
 1550.00000    2.43620    -999.25    8.62110    8.62110    -999.25  255.47480  255.47480    3.91430  120.71250  120.71250   68.30670   66.41560   66.41560    -999.25    4.74590    -999.25  -85.87890   -2.51950    2.43620
 1600.00000    3.98820    -999.25    8.15160    8.15160    -999.25  201.98620  201.98620    4.95080  112.97880  112.97880   68.22240   59.76510   59.76510    -999.25    5.95390    -999.25  -86.38890   -1.69970    3.98820
 1650.00000    3.34730    -999.25    8.21620    8.21620    -999.25  234.51000  234.51000    4.26420  173.04690  173.04690   65.14010   65.70780   65.70780    -999.25    5.27300    -999.25  -85.77830   -2.30130    3.34730
 1700.00000    4.18650    -999.25    8.44490    8.44490    -999.25  171.77010  171.77010    5.82980  120.36560  120.36560   68.10780   63.00250   63.00250    -999.25    6.89810    -999.25  -85.32290   -2.79060    4.18650
 1750.00000    2.22090    -999.25    8.15440    8.15440    -999.25  281.11870  281.11870    3.55720  138.35570  138.35570   67.00440   63.52100   63.52100    -999.25    4.53610    -999.25  -86.38920   -1.75810    2.22090
 1800.00000    3.52030    -999.25    8.03440    8.03440    -999.25  243.41620  243.41620    4.10820  125.09570  125.09570   68.91780   58.94500   58.94500    -999.25    5.12780    -999.25  -86.79460   -1.38640    3.52030
 1850.00000    3.07680    -999.25    9.43260    9.43260    -999.25  236.49250  236.49250    4.22940  115.31430  115.31430   68.88850   65.42400   65.42400    -999.25    5.29110    -999.25  -87.30320   -0.91170    3.07680
 1900.00000    2.84540    -999.25    9.05680    9.05680    -999.25  253.84130  253.84130    3.93950  113.65720  113.65720   78.31810   72.14900   72.14900    -999.25    5.01650    -999.25  -86.42700   -1.82160    2.84540
 1950.00000    3.32800    -999.25    9.86150    9.86150    -999.25  190.85880  190.85880    5.24050  117.61860  117.61860   89.39980   72.94650   72.94650    -999.25    6.19000    -999.25  -81.39960   -6.88290    3.32800
 2000.00000    3.61040    -999.25   10.37710   10.37710    -999.25  149.89870  149.89870    6.67120  117.27230  117.27230   93.70810   70.63710   70.63710    -999.25    7.94570    -999.25  -77.22470  -11.09150    3.61040
 2050.00000    2.75670    -999.25    9.41820    9.41820    -999.25  205.85390  205.85390    4.85780  155.15110  155.15110  116.28300   98.48500   98.48500    -999.25    5.86680    -999.25  -75.46610  -12.88380    2.75670
 2100.00000    3.62160    -999.25    9.22480    9.22480    -999.25  190.54870  190.54870    5.24880  119.72850  119.72850  132.89860  127.32820  127.32820    -999.25    6.21560    -999.25  -82.22620   -6.15760    3.62160
