~Version ---------------------------------------------------
VERS.      2.0 : CWLS log ASCII Standard -VERSION 2.0
WRAP.       NO : One line per depth step
CREA. 11/17/17 : LAS Creation Date
~Well ------------------------------------------------------
STRT.FT                       300.0 : START DEPTH
STOP.FT                      9300.0 : STOP DEPTH
STEP.FT                    50.00000 : STEP LENGTH
NULL.                       -999.25 : NULL VALUE
COMP. CANADIAN EXPORT OIL & GAS LTD : COMPANY
WELL. CEGO ET AL SUNSET 10-23-69-19 : WELL
FLD .                               : FIELD
LOC .                               : LOCATION
CTRY.                        CANADA : COUNTRY
SRVC.                       Unknown : SERVICE COMPANY
DATE.                   18-Jan-1973 : LOGDATE
PROV.                       Alberta : PROVINCE
UWI .              100102306919W500 : UNIQUE WELL ID
SLAT.WGS84                   54.992 : SURFACE LATITUDE
SLON.WGS84                -116.7783 : SURFACE LONGITUDE
~Curve Information -----------------------------------------
DEPT   .FT    : Depth Curve
ASFLED .OHMM  : AMPLIFIED SHALLOW FOCUSED RESISTIVITY FROM SFIL LOG
ASNED  .OHMM  : AMPLIFIED SHORT NORMAL RESISTIVITY 16" FROM IEL LOG
CALSED .IN    : CALIPER FROM SONIC LOG
CALWS  .IN    : CALIPER [CALSED]
CILD1ED.MMHO  : CONDUCTIVITY FROM IEL LOG
CILDED .MMHO  : CONDUCTIVITY FROM SFIL LOG
CONDWS .MMHO  : CONDUCTIVITY [1000/DRESWS]
DRESWS .OHMM  : DEEP RESISTIVITY [1000/CILDED, IF ILDED<5, ILDED SPL. TO 1000/CILD1ED, IF ILD1ED<5, ILD1ED @ 8996']
DTED   .US/F  : DELTA TIME FROM SONIC LOG
DTWS   .US/F  : COMPRESSIONAL SONIC [DTED]
GRED   .GAPI  : CASED HOLE GAMMA RAY FROM CBL LOG [ADJ. TO ISF LOG/GRSED]
GRSED  .GAPI  : GAMMA RAY FROM SONIC LOG
GRWS   .GAPI  : GAMMA RAY [GRED SPL. TO GRSED @ 922'-4973', 4978'-6674' AND 6682']
ILD1ED .OHMM  : DEEP INDUCTION LOG RESISTIVITY FROM IEL LOG
ILDED  .OHMM  : DEEP INDUCTION LOG RESISTIVITY FROM SFIL LOG
SPR1ED .MV    : SPONTANEOUS POTENTIAL FROM IEL LOG
SPRED  .MV    : SPONTANEOUS POTENTIAL FROM SFIL LOG
SPWS   .MV    : SPONTANEOUS POTENTIAL [BASELINE 0 MV(SPRED SPL. TO SPR1ED @ 8996')*-1}]
SRESWS .OHMM  : SHALLOW RESISTIVITY [ASFLED SPL. TO ASNED @ 8996']
~Params ----------------------------------------------------
PD  .                     GL : PERMANENT DATUM
EPD .FT                 2660 : ELEVATION PERMANENT DATUM
LMF .                     KB : LOG MEASURED FROM
DAPD.FT                 14.7 : FEET ABOVE PERMANENT DATUM
EKB .FT               2674.7 : KELLY BUSHING
EGL .FT                 2660 : GROUND LEVEL
DATE.               01/18/73 : RUN DATE
RUN .                      2 : RUN NUMBER
DD  .FT                 9336 : DEPTH DRILLER
DL  .FT                 9336 : DEPTH LOGGER
BLI .FT                 9325 : BOTTOM LOG INTERVAL
TLI .FT                 8800 : TOP LOG INTERVAL
CBD .FT                  944 : CASING BOTTOM DRILLER
CBL .FT                  941 : CASING BOTTOM LOGGER
BS  .IN                7.875 : BIT SIZE
BSD .FT                 9336 : BIT SIZE AT DEPTH
DFT .                    KCL : DRILLING FLUID TYPE
DFD .                    9.1 : DRILLING FLUID DENSITY
DFV .                     60 : DRILLING FLUID VISCOSITY
DFPH.                    9.0 : DRILLING FLUID PH
DFL .                    8.2 : DRILLING FLUID LOSS
RMS .OHMM               0.44 : RESISTIVITY MUD SAMPLE
MST .DEGF                 55 : MUD SAMPLE TEMPERATURE
RMF .OHMM                0.6 : RESISTIVITY MUD FILTRATE SAMPLE
MFST.DEGF                 60 : MUD FILTRATE SAMPLE TEMPERATURE
RMB .OHMM               0.14 : RESISTIVITY MUD AT BHT
TCS .HRS                   2 : TIME CIRCULATED STOPPED
LUN .                   7635 : LOGGING UNIT NUMBER
LUL .                    D C : LOGGING UNIT LOCATION
ENGI.                   HALL : RECORDING ENGINEER
WITN.         WIGGINS WILMER : WITNESSED BY
CLNT.                A2DTECH : CLIENT CODE
ORIG.            2" 5" PRINT : ORIGIN OF DATA
UWI .       100102306919W500 : UNIQUE WELL ID
DICO. A2D Technologies, Inc. : DIGITIZING COMPANY
~Other -----------------------------------------------------
SFIL-IEL-BCS-GR TOOL RUN
GAP IN GR AND SPR AS PER IMAGE
SPR INOPERATIVE SALT MUD
SFIL-SONIC LOG (TOP TO 960.1M) FROM SMALL SCALE LOG
~ASCII -----------------------------------------------------
# ...
 7700.00000    9.65030    -999.25    8.15510    8.15510    -999.25  142.36420  127.65330    7.84420   71.50570   71.50570   70.64450   82.07160   82.07160    -999.25    7.84420    -999.25  -78.24960  -25.99040    9.65030
 7750.00000   74.57280    -999.25    8.00920    8.00920    -999.25    9.13970    1.79680  556.55040   52.99490   52.99490   15.20860   16.91840   16.91840    -999.25  556.55040    -999.25  -68.77690  -35.36520   74.57280
 7800.00000   21.16960    -999.25    8.00360    8.00360    -999.25   77.74330   69.07460   14.47710   60.38030   60.38030   38.58160   38.53130   38.53130    -999.25   14.47710    -999.25  -59.20230  -44.84190   21.16960
 7850.00000   15.85220    -999.25    7.99840    7.99840    -999.25  102.51180   92.44680   10.82910   65.00150   65.00150   47.81130   51.62370   51.62370    -999.25   10.82910    -999.25  -60.12780  -43.81790   15.85220
 7900.00000    4.01330    -999.25   10.28180   10.28180    -999.25  250.67140  250.67140    3.98930   74.50270   74.50270   57.94150   66.69900   66.69900    -999.25    3.66460    -999.25  -66.26470  -37.58300    4.01330
 7950.00000    2.32510    -999.25   12.11910   12.11910    -999.25  360.79780  360.79780    2.77170   89.25840   89.25840   79.11840   88.44360   88.44360    -999.25    2.81320    -999.25  -77.44780  -26.30140    2.32510
 8000.00000    2.29960    -999.25   12.03110   12.03110    -999.25  347.87030  347.87030    2.87460  151.45060  151.45060   82.82670   86.54560   86.54560    -999.25    2.87290    -999.25  -73.40450  -30.24680    2.29960
 8050.00000    2.97150    -999.25   10.82440   10.82440    -999.25  290.42850  290.42850    3.44320  132.14940  132.14940   69.62850   79.94690   79.94690    -999.25    3.55370    -999.25  -61.19400  -42.35940    2.97150
 8100.00000    2.58730    -999.25   10.67170   10.67170    -999.25  282.25710  282.25710    3.54300  113.20770  113.20770   70.67710   77.27590   77.27590    -999.25    3.60460    -999.25  -54.24470  -49.21010    2.58730
 8150.00000    2.69620    -999.25   11.28080   11.28080    -999.25  308.69670  308.69670    3.23940  103.83540  103.83540   79.47540   79.83810   79.83810    -999.25    3.39120    -999.25  -65.15790  -38.19900    2.69620
 8200.00000    2.29220    -999.25   13.43320   13.43320    -999.25  314.38580  314.38580    3.18090  110.99630  110.99630   71.47010   84.19450   84.19450    -999.25    3.27130    -999.25  -70.74740  -32.51090    2.29220
 8250.00000    2.41690    -999.25   13.18400   13.18400    -999.25  336.08170  336.08170    2.97550  101.80560  101.80560   74.87710   84.51730   84.51730    -999.25    3.04690    -999.25  -77.16440  -25.99600    2.41690
 8300.00000   12.43530    -999.25    7.76130    7.76130    -999.25  116.77510  107.25930    9.32320   68.75840   68.75840   63.83060   72.63190   72.63190    -999.25    9.32320    -999.25  -82.45350  -20.60900   12.43530
 8350.00000   13.07710    -999.25    7.99200    7.99200    -999.25  111.32310  101.50260    9.85260   65.90370   65.90370   47.88480   54.49570   54.49570    -999.25    9.85260    -999.25  -82.24920  -20.71480   13.07710
 8400.00000    7.54980    -999.25    8.10650    8.10650    -999.25  181.93930  172.79810    5.78710   85.62530   85.62530   87.79360   80.63890   80.63890    -999.25    5.78710    -999.25  -86.13520  -16.73080    7.54980
 8450.00000    9.74440    -999.25    7.99900    7.99900    -999.25  137.68460  126.79840    7.88660   82.97270   82.97270   73.85980   79.75630   79.75630    -999.25    7.88660    -999.25  -82.84000  -19.92750    9.74440
 8500.00000    8.04310    -999.25    7.47050    7.47050    -999.25  165.40030  157.23020    6.36010   84.73430   84.73430   73.05920   74.32310   74.32310    -999.25    6.36010    -999.25  -75.35340  -27.31620    8.04310
 8550.00000    9.73260    -999.25    8.16490    8.16490    -999.25  161.65990  149.37640    6.69450   83.53860   83.53860   64.47640   78.87690   78.87690    -999.25    6.69450    -999.25  -68.87010  -33.70160    9.73260
 8600.00000    8.37520    -999.25    8.17440    8.17440    -999.25  165.88100  159.88620    6.25450   97.95000   97.95000   86.27270   86.64640   86.64640    -999.25    6.25450    -999.25  -56.73690  -45.73620    8.37520
 8650.00000    7.10030    -999.25    8.18920    8.18920    -999.25  165.67690  165.36030    6.04740   78.12650   78.12650   63.14290   80.59230   80.59230    -999.25    6.04740    -999.25  -52.35140  -50.02380    7.10030
 8700.00000    6.28660    -999.25    8.39840    8.39840    -999.25  210.99230  210.99230    4.74080   84.05950   84.05950   89.27340   84.09960   84.09960    -999.25    4.86370    -999.25  -41.02970  -61.24690    6.28660
 8750.00000    6.47460    -999.25    8.63470    8.63470    -999.25  195.27330  192.42610    5.19680   96.95240   96.95240    -999.25   84.26240   84.26240    -999.25    5.19680    -999.25  -45.03630  -57.14240    6.47460
 8800.00000   18.20370   16.06700    7.74970    7.74970   79.70280   83.38790   73.47430   13.61020   93.53380   93.53380    -999.25   53.14620   53.14620   12.61880   13.61020  -31.97900  -35.41280  -66.66800   18.20370
 8850.00000    8.36440    8.62520    8.54790    8.54790  176.30920  184.80220  172.86250    5.78500   98.23790   98.23790    -999.25  114.91120  114.91120    5.63220    5.78500  -15.94820  -19.97710  -82.00510    8.36440
 8900.00000   11.20440   11.78110    7.77760    7.77760  102.74060  114.94090  102.33110    9.77220   72.71160   72.71160    -999.25   66.91380   66.91380    9.25330    9.77220  -37.91460  -23.28290  -78.60140   11.20440
 8950.00000   51.99470   20.18080    7.43050    7.43050   47.07640   52.78450   44.39500   22.53150   57.96700   57.96700    -999.25   33.05450   33.05450   20.03020   22.53150  -27.08230  -36.16020  -65.62560   51.99470
 9000.00000    -999.25   49.26550    7.41580    7.41580   22.00280    -999.25   21.51940   46.46970   58.77590   58.77590    -999.25   11.75350   11.75350   46.46970    -999.25  -56.49700    -999.25  -32.19090   49.26550
 9050.00000    -999.25   87.58230    7.41360    7.41360    2.19920    -999.25    2.00560  498.60130   51.80190   51.80190    -999.25   21.59440   21.59440  498.60130    -999.25  -81.86430    -999.25   -6.72570   87.58230
 9100.00000    -999.25   41.72120    7.64970    7.64970   21.79530    -999.25   21.99160   45.48410   51.85390   51.85390    -999.25   11.27490   11.27490   45.48410    -999.25  -76.54230    -999.25  -11.94910   41.72120
 9150.00000    -999.25   98.37330    7.66100    7.66100    3.36350    -999.25    2.44410  409.15460   53.05780   53.05780    -999.25   14.39280   14.39280  409.15460    -999.25  -82.28630    -999.25   -7.18240   98.37330
 9200.00000    -999.25  100.18730    7.61500    7.61500    7.90960    -999.25    3.58560  280.41630   57.24580   57.24580    -999.25   16.94840   16.94840  280.41630    -999.25  -66.73010    -999.25  -23.97750  100.18730
 9250.00000    -999.25   47.45640    7.62250    7.62250   20.81140    -999.25   19.48880   51.31150   69.68740   69.68740    -999.25   50.60900   50.60900   51.31150    -999.25  -36.45950    -999.25  -55.47890   47.45640
 9300.00000    -999.25    9.33920    -999.25    -999.25  260.68080    -999.25  260.68080    3.83610    -999.25    -999.25    -999.25    -999.25    -999.25    4.23020    -999.25  -71.48080    -999.25  -21.68840    9.33920
