~Version ---------------------------------------------------
VERS.      2.0 : CWLS log ASCII Standard -VERSION 2.0
WRAP.       NO : One line per depth step
CREA. 11/07/17 : LAS Creation Date
~Well ------------------------------------------------------
STRT.FT               600.0 : START DEPTH
STOP.FT              5750.0 : STOP DEPTH
STEP.FT            50.00000 : STEP LENGTH
NULL.               -999.25 : NULL VALUE
COMP.          PETRO-CANADA : COMPANY
WELL. ARCO NIPISI 4-17-80-9 : WELL
FLD .                nipisi : FIELD
LOC .                       : LOCATION
CTRY.                CANADA : COUNTRY
SRVC.         Dresser Atlas : SERVICE COMPANY
DATE.           03-Dec-1969 : LOGDATE
PROV.               Alberta : PROVINCE
UWI .      100041708009W500 : UNIQUE WELL ID
SLAT.WGS84    55.9317855835 : SURFACE LATITUDE
SLON.WGS84  -115.3810501099 : SURFACE LONGITUDE
~Curve Information -----------------------------------------
DEPT  .FT    : Depth Curve
ACED  .US/F  : DELTA TIME (ACOUSTIC) FROM SONIC LOG [DEPTH ADJ TO RES.]
CALSED.IN    : CALIPER FROM SONIC LOG [DEPTH ADJ TO RES.]
CALWS .IN    : CALIPER [CALSED]
CILDED.MMHO  : CONDUCTIVITY FROM IEL LOG
CONDWS.MMHO  : CONDUCTIVITY [1000/DRESWS]
DRESWS.OHMM  : DEEP RESISTIVITY [ILDED]
DTWS  .US/F  : DELTA TIME [DTED]
GRSED .GAPI  : GAMMA RAY FROM SONIC LOG [DEPTH SHIFTED TO RES.]
GRWS  .GAPI  : GAMMA RAY [GRSED]
ILDED .OHMM  : INDUCTION LOG DEEP RESISTIVITY
SNED  .OHMM  : 16 INCH SHORT NORMAL RESISTIVITY FROM IEL LOG
SPRED .MV    : SPONTANEOUS POTENTIAL FROM IEL LOG
SPWS  .MV    : SPONTANEOUS POTENTIAL [BASELINE 0 MV] [SPRED]
SRESWS.OHMM  : SHALLOW RESISTIVITY [SNED]
~Params ----------------------------------------------------
PD  .                     GL : PERMANENT DATUM
EPD .FT               2117.8 : ELEVATION PERMANENT DATUM
LMF .                     KB : LOG MEASURED FROM
DAPD.FT                 13.2 : FEET ABOVE PERMANENT DATUM
DMF .                     KB : DRILLING MEASURED FROM
EKB .FT                 2131 : KELLY BUSHING
EGL .FT               2117.8 : GROUND LEVEL
DATE.               12/03/69 : RUN DATE
RUN .                      1 : RUN NUMBER
DD  .FT                 5801 : DEPTH DRILLER
DL  .FT                 5802 : DEPTH LOGGER
BLI .FT                 5798 : BOTTOM LOG INTERVAL
TLI .FT                  624 : TOP LOG INTERVAL
CS  .IN                8.625 : CASING SIZE
CBD .FT                  623 : CASING BOTTOM DRILLER
CBL .FT                  624 : CASING BOTTOM LOGGER
BS  .IN                7.875 : BIT SIZE
BSD .FT                 5801 : BIT SIZE AT DEPTH
DFT .            MUD GEL OIL : DRILLING FLUID TYPE
DFD .                    9.4 : DRILLING FLUID DENSITY
DFV .                     50 : DRILLING FLUID VISCOSITY
DFPH.                      9 : DRILLING FLUID PH
DFL .                      5 : DRILLING FLUID LOSS
MSS .                   CIRC : MUD SAMPLE SOURCE
RMS .OHMM                2.8 : RESISTIVITY MUD SAMPLE
MST .DEGF                 65 : MUD SAMPLE TEMPERATURE
RMF .OHMM                2.4 : RESISTIVITY MUD FILTRATE SAMPLE
MFST.DEGF                 65 : MUD FILTRATE SAMPLE TEMPERATURE
RMC .OHMM                3.4 : RESISTIVITY MUD CAKE
MCST.DEGF                 64 : MUD CAKE SAMPLE TEMPERATURE
MFSS.                   MEAS : MUD FILTRATE SAMPLE SOURCE
MCSS.                   MEAS : MUD CAKE SAMPLE SOURCE
RMB .OHMM               1.38 : RESISTIVITY MUD AT BHT
TCS .HRS                   3 : TIME CIRCULATED STOPPED
LUN .                HL 1252 : LOGGING UNIT NUMBER
LUL .                    R D : LOGGING UNIT LOCATION
ENGI.               MAC LEON : RECORDING ENGINEER
WITN.                    REA : WITNESSED BY
CLNT.                A2DTECH : CLIENT CODE
ORIG.            2" 5" PRINT : ORIGIN OF DATA
UWI .       100041708009W500 : UNIQUE WELL ID
DICO. A2D Technologies, Inc. : DIGITIZING COMPANY
~Other -----------------------------------------------------
~ASCII -----------------------------------------------------
# ...
 3050.00000   57.76110    9.30780    9.30780   26.51990   27.16140   36.81690   57.76110   13.24920   13.24920   36.81690   83.97850 -100.82630  -69.07460   83.97850
 3100.00000   58.70430    8.29650    8.29650   22.63940   22.59190   44.26360   58.70430   11.60990   11.60990   44.26360   91.37190 -104.95820  -73.25820   91.37190
 3150.00000   57.91640    8.08870    8.08870   32.49770   33.06970   30.23920   57.91640   12.23170   12.23170   30.23920   87.57810 -115.20750  -83.55930   87.57810
 3200.00000   59.28470    8.06280    8.06280   36.76980   37.91930   26.37180   59.28470    9.45550    9.45550   26.37180   80.51220 -112.60330  -81.00690   80.51220
 3250.00000   56.35300    8.21690    8.21690   36.75560   36.67500   27.26650   56.35300    7.43760    7.43760   27.26650   68.77910  -91.30100  -59.75630   68.77910
 3300.00000   61.82260    8.68030    8.68030   61.80920   62.45430   16.01170   61.82260    9.37810    9.37810   16.01170   65.75220 -110.69000  -79.19710   65.75220
 3350.00000   57.49210    8.40370    8.40370   25.76410   26.02220   38.42870   57.49210   12.30990   12.30990   38.42870   81.93600  -89.66350  -58.22230   81.93600
 3400.00000   56.34910    8.31180    8.31180   26.48600   27.29140   36.64160   56.34910   10.95680   10.95680   36.64160   89.07400  -92.52680  -61.13740   89.07400
 3450.00000   55.51390    8.29320    8.29320   23.24700   24.00480   41.65830   55.51390   16.19680   16.19680   41.65830   97.73590  -92.18540  -60.84770   97.73590
 3500.00000   56.25270    8.23270    8.23270   22.39560   22.96590   43.54280   56.25270   13.43870   13.43870   43.54280   93.13610  -91.62300  -60.33710   93.13610
 3550.00000   54.86940    7.99420    7.99420   11.75120   11.74650   85.13170   54.86940    8.09660    8.09660   85.13170  102.31380  -86.68380  -55.44960  102.31380
 3600.00000   54.77940    7.95640    7.95640   18.25770   14.68020   68.11900   54.77940    8.08360    8.08360   68.11900  102.85470  -91.80740  -60.62500  102.85470
 3650.00000   57.18770    7.97300    7.97300   40.25620   40.98800   24.39740   57.18770   12.62450   12.62450   24.39740   83.02350  -99.42040  -68.28970   83.02350
 3700.00000   55.74050    7.95820    7.95820   54.82020   55.42620   18.04200   55.74050   14.39030   14.39030   18.04200   62.95350  -90.99810  -59.91920   62.95350
 3750.00000   59.90440    7.91270    7.91270  471.06680  406.14090    2.46220   59.90440   12.62910   12.62910    2.46220   15.96230 -107.77620  -76.74900   15.96230
 3800.00000   56.38790    7.42650    7.42650  394.32340  340.29810    2.93860   56.38790   18.33550   18.33550    2.93860   17.20720 -103.69960  -72.72420   17.20720
 3850.00000   59.54130    7.74560    7.74560   88.61110   89.88760   11.12500   59.54130   25.42490   25.42490   11.12500   31.62360  -79.95370  -49.03000   31.62360
 3900.00000   57.04510    8.11980    8.11980   60.92200   62.65430   15.96060   57.04510   28.40060   28.40060   15.96060   38.58860  -76.09740  -45.22550   38.58860
 3950.00000   52.76360    7.73550    7.73550   19.95480   20.09600   49.76120   52.76360   16.19650   16.19650   49.76120   78.53610  -73.35110  -42.53090   78.53610
 4000.00000   54.40070    7.40920    7.40920   69.55420   68.36620   14.62710   54.40070   42.88070   42.88070   14.62710   65.63400 -106.52450  -75.75610   65.63400
 4050.00000   55.30220    7.70590    7.70590   69.13580   66.78910   14.97250   55.30220   20.21950   20.21950   14.97250   31.00850  -70.62490  -39.90830   31.00850
 4100.00000   57.63120    7.80310    7.80310   33.68720   35.08400   28.50300   57.63120   29.05420   29.05420   28.50300   46.94370  -39.16340   -8.49850   46.94370
 4150.00000  101.68920    9.23030    9.23030  234.24830  217.97890    4.58760  101.68920   96.46040   96.46040    4.58760    5.69400  -57.64520  -27.45390    5.69400
 4200.00000  108.97120    9.46760    9.46760  361.60680  332.59050    3.00670  108.97120   99.60280   99.60280    3.00670    3.84570  -50.92720  -21.40800    3.84570
 4250.00000  184.55080   10.07940   10.07940  354.67830  314.16900    3.18300  184.55080  102.02370  102.02370    3.18300    3.89650  -49.88410  -21.03700    3.89650
 4300.00000   98.97290   10.82130   10.82130  306.18350  282.09540    3.54490   98.97290   87.35790   87.35790    3.54490    4.61510  -52.63060  -24.45560    4.61510
 4350.00000   99.81760   11.07750   11.07750  304.75920  266.37540    3.75410   99.81760   94.34050   94.34050    3.75410    4.66180  -48.49040  -20.98760    4.66180
 4400.00000   94.45060   10.02620   10.02620  295.83190  268.84610    3.71960   94.45060   88.36320   88.36320    3.71960    4.70700  -41.99910  -15.16840    4.70700
 4450.00000   96.50330   10.19770   10.19770  238.19920  219.32710    4.55940   96.50330   80.52900   80.52900    4.55940    5.88110  -41.17460  -15.01600    5.88110
 4500.00000  111.91840   11.66540   11.66540  302.30610  275.88490    3.62470  111.91840   85.54180   85.54180    3.62470    4.51780  -44.76440  -19.27790    4.51780
 4550.00000   94.49430   10.45370   10.45370  281.97710  260.34890    3.84100   94.49430   78.37020   78.37020    3.84100    4.84850  -38.74100  -15.72330    4.84850
 4600.00000  103.17310   11.30730   11.30730  277.71370  260.07800    3.84500  103.17310   86.99150   86.99150    3.84500    4.86900  -41.39150  -17.67360    4.86900
 4650.00000   99.88120   11.55980   11.55980  329.10430  309.60710    3.22990   99.88120   91.64130   91.64130    3.22990    4.15400  -43.10680  -19.69920    4.15400
 4700.00000  101.40760   11.35630   11.35630  341.53600  297.64560    3.35970  101.40760   94.04340   94.04340    3.35970    3.85970  -41.05740  -18.29520    3.85970
 4750.00000   99.00410   10.07940   10.07940  335.47490  293.70300    3.40480   99.00410   92.32160   92.32160    3.40480    4.08030  -43.01330  -20.89650    4.08030
 4800.00000   98.92830    9.12950    9.12950  300.04240  270.01490    3.70350   98.92830  102.56130  102.56130    3.70350    4.95910  -35.04580  -13.57440    4.95910
 4850.00000   59.13610    7.65660    7.65660   40.81680   43.68170   22.89290   59.13610   23.59020   23.59020   22.89290   27.90570  -43.58480  -22.75890   27.90570
 4900.00000   71.33540    7.85350    7.85350  108.69860  106.76800    9.36610   71.33540   51.61540   51.61540    9.36610   12.65020  -24.30340   -4.33450   12.65020
 4950.00000   77.13980    8.19300    8.19300  136.76280  131.30600    7.61580   77.13980   59.01440   59.01440    7.61580   10.07330  -24.90100   -6.12000   10.07330
 5000.00000   70.17290    7.97380    7.97380   95.16670   93.44750   10.70120   70.17290   51.39480   51.39480   10.70120   14.10170  -20.78060   -3.18750   14.10170
 5050.00000   82.23580    9.11700    9.11700  148.18680  143.24190    6.98120   82.23580   71.95200   71.95200    6.98120    9.28010  -26.98550   -3.51170    9.28010
 5100.00000  110.22250   10.62460   10.62460  376.27260  332.45790    3.00790  110.22250  149.95670  149.95670    3.00790    3.85690  -56.87950  -17.30360    3.85690
 5150.00000   72.99510    9.42470    9.42470  105.20120  103.59040    9.65340   72.99510   72.02510   72.02510    9.65340   14.24550  -42.76100   -4.13350   14.24550
 5200.00000  107.45970   11.58490   11.58490  231.08910  202.23680    4.94470  107.45970  104.43530  104.43530    4.94470    5.96140  -62.97620  -25.29720    5.96140
 5250.00000  124.45180   10.48990   10.48990  186.92300  178.48860    5.60260  124.45180   86.89330   86.89330    5.60260    7.07160  -53.51890  -16.78830    7.07160
 5300.00000   71.53560    9.31710    9.31710   73.11690   76.42570   13.08460   71.53560   61.68400   61.68400   13.08460   18.71080  -38.54990   -2.76780   18.71080
 5350.00000   66.80630    8.73050    8.73050   67.97030   70.53580   14.17720   66.80630   49.12610   49.12610   14.17720   24.99140  -44.12890   -9.29520   24.99140
 5400.00000   63.29880    8.00240    8.00240   84.40450   85.32420   11.72000   63.29880   36.31850   36.31850   11.72000   18.04890  -39.45700   -5.57180   18.04890
 5450.00000   80.18430    8.06860    8.06860  133.66010  131.49940    7.60460   80.18430   93.76480   93.76480    7.60460   11.49150  -48.03900  -15.10220   11.49150
