~Version ---------------------------------------------------
VERS.      2.0 : CWLS log ASCII Standard -VERSION 2.0
WRAP.       NO : One line per depth step
CREA. 08/29/14 : LAS Creation Date
~Well ------------------------------------------------------
STRT.FT                          950.0 : START DEPTH
STOP.FT                         9950.0 : STOP DEPTH
STEP.FT                       50.00000 : STEP LENGTH
NULL.                          -999.25 : NULL VALUE
COMP. AMOCO CANADA PETROLEUM CO., LTD. : COMPANY
WELL.  AMOCO HBOG WINDFALL 16-29-61-16 : WELL
FLD .                                  : FIELD
LOC .                                  : LOCATION
CTRY.                           CANADA : COUNTRY
SRVC.                     Schlumberger : SERVICE COMPANY
DATE.                      22-Dec-1976 : LOGDATE
PROV.                          Alberta : PROVINCE
UWI .                 100162906116W500 : UNIQUE WELL ID
SLAT.WGS84                    54.30881 : SURFACE LATITUDE
SLON.WGS84                   -116.3532 : SURFACE LONGITUDE
~Curve Information -----------------------------------------
DEPT   .FT :   DEPTH FEET : DepthCurve
CALD   .IN                : CALIPER FROM DENSITY LOG
CALS   .IN                : CALIPER FROM SONIC LOG
DPHI_LS.V/V               : DENSITY POROSITY [M=2.71 F=1.0] FROM DENSITY LOG
DPHI_SS.V/V               : DENSITY POROSITY [M=2.65 F=1.0] FROM DENSITY LOG
DRHO   .G/C3              : DENSITY CORRECTION FROM DENSITY LOG
DT     .US/F              : DELTA TIME FROM SONIC LOG [TAKEN FROM CANA. SUBSC. LAS FILE, BELOW 6300F]
GRD    .GAPI              : GAMMA RAY FROM DENSITY LOG
GRS    .GAPI              : GAMMA RAY FROM SONIC LOG
ILD    .OHMM              : INDUCTION LOG DEEP RESISTIVITY
ILM    .OHMM              : INDUCTION LOG MEDIUM RESISTIVITY
LL8    .OHMM              : 8 INCH LATEROLOG RESISTIVITY
NPHI_LS.V/V               : NEUTRON POROSITY LIMESTONE FROM DENSITY LOG
NPHI_SS.V/V               : NEUTRON POROSITY SANDSTONE FROM DENSITY LOG
RHOB   .G/C3              : BULK DENSITY FROM DENSITY LOG
SPR    .MV                : SPONTANEOUS POTENTIAL FROM RESISTIVITY LOG
~Params ----------------------------------------------------
PD  .                     GL : PERMANENT DATUM
EPD .FT                 2851 : ELEVATION PERMANENT DATUM
LMF .                     KB : LOG MEASURED FROM
DAPD.FT                   14 : FEET ABOVE PERMANENT DATUM
DMF .                     KB : DRILLING MEASURED FROM
EKB .FT                 2875 : KELLY BUSHING
EGL .FT                 2861 : GROUND LEVEL
DATE.               12/22/76 : RUN DATE
RUN .                      1 : RUN NUMBER
DD  .FT                 9966 : DEPTH DRILLER
DL  .FT                 9964 : DEPTH LOGGER
BLI .FT                 9958 : BOTTOM LOG INTERVAL
TLI .FT                 1029 : TOP LOG INTERVAL
CBD .FT                 1030 : CASING BOTTOM DRILLER
CBL .FT                 1029 : CASING BOTTOM LOGGER
BS  .IN                 8.75 : BIT SIZE
BSD .FT                 9966 : BIT SIZE AT DEPTH
DFT .               GEL CHEM : DRILLING FLUID TYPE
DFD .                    9.3 : DRILLING FLUID DENSITY
DFV .                     70 : DRILLING FLUID VISCOSITY
DFPH.                      9 : DRILLING FLUID PH
DFL .                      9 : DRILLING FLUID LOSS
MSS .             CIRCULATED : MUD SAMPLE SOURCE
RMF .OHMM               2.16 : RESISTIVITY MUD FILTRATE SAMPLE
MFST.DEGF                 74 : MUD FILTRATE SAMPLE TEMPERATURE
RMC .OHMM               2.83 : RESISTIVITY MUD CAKE
MCST.DEGF                 68 : MUD CAKE SAMPLE TEMPERATURE
LUN .                   7772 : LOGGING UNIT NUMBER
LUL .                    EDM : LOGGING UNIT LOCATION
ENGI.                   BIGG : RECORDING ENGINEER
WITN.                  LENTZ : WITNESSED BY
CLNT.                A2DTECH : CLIENT CODE
ORIG.            2" 5" PRINT : ORIGIN OF DATA
UWI .       100162906116W500 : UNIQUE WELL ID
DICO. A2D Technologies, Inc. : DIGITIZING COMPANY
~Other -----------------------------------------------------
~ASCII -----------------------------------------------------
# ...
 3250.00000    9.81020   12.17390    -999.25    0.09850    0.03400   85.45120   84.50880   49.65060    8.16580    8.80570   12.14260    -999.25    0.33940    2.49910  -52.08380
 3300.00000   10.68420   12.57100    -999.25    0.16510    0.13680   87.27000  101.96010   66.15520    8.02560    8.38000    8.99310    -999.25    0.32220    2.37180  -52.79770
 3350.00000   11.55330   12.67930    -999.25    0.15680    0.07780   94.03620  127.13100   84.79220    6.75500    6.63050    6.22250    -999.25    0.36440    2.38940  -53.40740
 3400.00000   13.53500   13.52090    -999.25    0.12070    0.05810   87.06450  118.99270   80.09330    7.30010    7.63050    7.95780    -999.25    0.29280    2.44030  -53.43390
 3450.00000   12.82590   13.24010    -999.25    0.12610    0.07310   96.70380  140.84000   92.90590    6.44960    6.82510    7.42110    -999.25    0.32160    2.41990  -53.19130
 3500.00000   12.83080   12.77020    -999.25    0.15260    0.03760   97.83850  159.39020  102.29900    6.12700    6.39740    7.60720    -999.25    0.39320    2.39280  -51.52990
 3550.00000   11.41460   12.77740    -999.25    0.07070    0.12790   87.24130  126.45440   90.88050   10.85060   11.35530   13.34200    -999.25    0.28470    2.50770  -52.21450
 3600.00000   11.33120   12.79400    -999.25    0.11340    0.15370   89.86000  135.01880   91.78330    7.51170    7.84480    9.31690    -999.25    0.32510    2.42980  -51.28210
 3650.00000    9.98680   12.39300    -999.25    0.12780    0.21010   84.80540  114.32260   84.55420    9.82470   10.26790   11.37250    -999.25    0.26210    2.33860  -52.56550
 3700.00000   10.30570   12.75010    -999.25    0.11320    0.07060   84.15700  131.60670   82.84020    5.89320    6.15330    6.46740    -999.25    0.33410    2.46510  -51.75410
 3750.00000   11.17890   13.77600    -999.25    0.04870    0.06970   81.56100  119.71180   75.50700    7.96650    8.38340    8.78120    -999.25    0.25500    2.57460  -52.99080
 3800.00000   11.57210   13.75980    -999.25    0.08030    0.05420   85.55070  126.34520   86.01870    7.63590    7.97730    8.33730    -999.25    0.30270    2.51210  -51.45050
 3850.00000   10.74240   13.01120    -999.25    0.10050    0.03950   90.43360  133.38640   88.43110    6.28340    6.56280    6.93260    -999.25    0.30330    2.47710  -51.63020
 3900.00000   11.26990   14.24460    -999.25    0.07640    0.09120   91.87570  144.14240   94.79350    5.72240    5.97540    6.80650    -999.25    0.37670    2.51180  -51.01340
 3950.00000   10.67420   12.91250    -999.25    0.07600    0.07490   93.59230  136.87360   90.95760    6.57040    6.87190    7.20010    -999.25    0.34130    2.50830  -50.15840
 4000.00000   10.96520   13.31660    -999.25    0.09150    0.04280   89.55250  139.83640   85.02260    7.25370    7.54150    7.86240    -999.25    0.30860    2.46190  -49.57090
 4050.00000   11.03910   13.94770    -999.25    0.08750    0.08250   90.82860  132.45170   88.59230    6.30160    6.84310    6.82900    -999.25    0.34630    2.45700  -49.67260
 4100.00000   10.30310   13.29930    -999.25    0.08750    0.17260   83.26560  124.25170   88.58010    8.04950    8.41440   10.95490    -999.25    0.28940    2.52030  -49.51720
 4150.00000   11.88030   13.34750    -999.25    0.09260    0.04150   85.67440  135.65450   94.65160    7.80520    8.16640    8.45150    -999.25    0.28240    2.47060  -48.39770
 4200.00000   11.60650   13.36090    -999.25    0.07670    0.04530   81.85810  134.58670   86.83400    7.84140    8.21160    8.43140    -999.25    0.29740    2.54670  -47.35470
 4250.00000   11.94030   13.33690    -999.25    0.09560    0.06690   84.60190  138.09330  103.05810    7.24050    7.43400    7.66120    -999.25    0.30330    2.50330  -46.85760
 4300.00000   12.11030   13.98840    -999.25    0.08470    0.08070   88.55000  142.28240   98.60800    6.63610    6.92880    8.39670    -999.25    0.32400    2.49590  -45.10140
 4350.00000   12.22710   13.39590    -999.25    0.18830    0.12310   94.17200  149.51360  102.14640    7.00710    7.33940    8.90150    -999.25    0.36150    2.34430  -43.90890
 4400.00000   11.75840   13.41010    -999.25    0.25380    0.25270   94.77800  154.70910  108.53050    7.24660    7.56910    9.43410    -999.25    0.38560    2.33050  -43.48930
 4450.00000    9.72780   12.24900    -999.25    0.10230    0.00400   91.44470  167.27640  112.89770    8.25750    8.62510   11.38370    -999.25    0.37390    2.47060  -42.53690
 4500.00000   10.11330   12.52790    -999.25    0.09660    0.00230   94.81580  180.67210  111.57500    9.75900   10.76170   16.95960    -999.25    0.38000    2.49720  -42.12350
 4550.00000    9.84340   12.60900    -999.25    0.07370    0.10800   81.63070  146.20160   89.68760    9.53880   10.23070   14.45280    -999.25    0.31800    2.51940  -42.40680
 4600.00000    9.70650   12.29510    -999.25    0.18750    0.01030   97.28060  221.60300  114.83800   10.26440   11.32150   17.68610    -999.25    0.46470    2.34540  -40.49650
 4650.00000   10.32390   13.18510    -999.25    0.08510    0.09560   98.09140  118.38800   79.68090    6.45010    6.73440    8.04360    -999.25    0.30090    2.51290  -42.19520
 4700.00000   10.34520   12.95730    -999.25    0.12330    0.18100   92.85460  135.60870   97.65630    5.02240    5.24470    6.79140    -999.25    0.34620    2.44170  -40.19220
 4750.00000   11.54540   13.18940    -999.25    0.13060    0.12910   89.88400  145.50630   94.61670    4.64690    4.86780    5.68680    -999.25    0.35930    2.46510  -40.37580
 4800.00000   11.35200   13.63830    -999.25    0.10910    0.18440   88.63480  142.79980   90.38030    5.50710    5.76240    6.98530    -999.25    0.33380    2.47900  -39.15330
 4850.00000   10.61940   12.92410    -999.25    0.04800    0.23080   82.09090  138.34720   85.30790    6.63610    6.92820    7.88140    -999.25    0.30920    2.49040  -39.89940
 4900.00000   10.89100   13.22680    -999.25   -0.03660    0.23320   85.88560  134.91130   86.07770    4.96930    5.18810    6.51860    -999.25    0.31460    2.44660  -39.11400
 4950.00000   11.61910   13.71430    -999.25    0.12540    0.24390   90.17090  146.79770   99.81310    5.33620    5.57120    7.33470    -999.25    0.35650    2.48320  -37.14050
 5000.00000   10.74970   12.99940    -999.25    0.15490    0.00390  101.07310  284.68100  242.16350    4.94480    5.52010    8.36220    -999.25    0.39040    2.42330  -37.08650
 5050.00000   11.21010   13.95970    -999.25    0.21780    0.19550   96.71040  123.78420   84.21510    2.97840    3.10950    4.84140    -999.25    0.44900    2.28960  -35.89220
 5100.00000   11.66730   12.24920    -999.25    0.20320    0.18350   85.13590  125.84480   86.96210    4.07900    4.25940    5.39030    -999.25    0.37900    2.36490  -35.59760
 5150.00000    9.92590   12.07900    -999.25    0.06380    0.00750   82.67750  119.93810   96.27950    6.36760    7.34900   10.44580    -999.25    0.17780    2.50220  -35.88350
 5200.00000    9.38800    9.03500    -999.25    0.13340    0.06580   76.36240   40.57210   21.64120   10.02290   12.06960   20.94860    -999.25    0.17370    2.45680  -70.35940
 5250.00000   12.17160   12.34310    -999.25    0.16440    0.19580   90.27120  111.53430   88.51300    4.79450    4.73790    5.64790    -999.25    0.35840    2.33890  -33.97840
 5300.00000   10.45220   12.65640    -999.25    0.07450    0.01570   73.79160   78.29540   54.59000    9.82890   10.66830   11.54880    -999.25    0.22740    2.54050  -38.60890
 5350.00000   10.03890   12.70500    -999.25    0.06030    0.06620   74.19700  104.06290   74.95790    8.63390    9.56000   13.61110    -999.25    0.28660    2.54220  -37.49490
 5400.00000   10.50660   12.81480    -999.25    0.08280    0.04670   78.30060   66.47450   45.12390    8.98010    9.23480   12.88800    -999.25    0.24720    2.54060  -51.34730
 5450.00000   10.75090   13.72530    -999.25    0.10340    0.05980   74.20560   97.76460   60.14380    7.46340    7.89650    8.98620    -999.25    0.34440    2.57760  -33.13800
 5500.00000   10.27570   13.99330    -999.25    0.06100    0.01500   72.93520   90.02650   58.79650    6.90630    7.25610    7.03150    -999.25    0.36560    2.57290  -32.34650
