~Version ---------------------------------------------------
VERS.      2.0 : CWLS log ASCII Standard -VERSION 2.0
WRAP.       NO : One line per depth step
CREA. 08/04/17 : LAS Creation Date
~Well ------------------------------------------------------
STRT.FT                             1100.0 : START DEPTH
STOP.FT                            11250.0 : STOP DEPTH
STEP.FT                           50.00000 : STEP LENGTH
NULL.                              -999.25 : NULL VALUE
COMP.                 PETROFINA CANADA LTD : COMPANY
WELL. FINA AMOCO HB SAKWATAMAU 10-21-62-15 : WELL
FLD .                                   WC : FIELD
LOC .                                      : LOCATION
CTRY.                               CANADA : COUNTRY
SRVC.                         Schlumberger : SERVICE COMPANY
DATE.                          21-Aug-1976 : LOGDATE
PROV.                              Alberta : PROVINCE
UWI .                     100102106215W500 : UNIQUE WELL ID
SLAT.WGS84                        54.37886 : SURFACE LATITUDE
SLON.WGS84                       -116.1857 : SURFACE LONGITUDE
~Curve Information -----------------------------------------
DEPT    .FT    : Depth Curve
CALDED  .IN    : CALIPER FROM CND LOG [ADJ. TO ILDED]
CALSED  .IN    : CALIPER FROM BCS LOG [ADJ. TO GRDED]
CALWS   .IN    : CALIPER [CALSED]
CILDED  .MMHO  : DEEP INDUCTION CONDUCTIVITY FROM DIL-LAT LOG
CONDWS  .MMHO  : CONDUCTIVITY [CILDED]
DCORWS  .G/C3  : DENSITY CORRECTION [DRHOED]
DENWS   .G/C3  : FROMATION BILK DENSITY [RHOBED]
DPHILSED.V/V   : DENSITY POROSITY LIMESTONE [M=2.71, F=1000] FROM CND LOG [ADJ. TO RHOBED]
DPHISSED.V/V   : DENSITY POROSITY SANDSTONE [M=2.65, F=1.00] FROM CND LOG [ADJ. TO RHOBED]
DPOLSWS .V/V   : DENSITY POROSITY LIMESTONE [CALCULATED FROM DENWS, M=2.71, F=1.00]
DRESWS  .OHMM  : DEEP RESISTIVITY [spl. 1000/CONDWS, IF ILDED <=1, ILDED/ILDED at 4490']
DRHOED  .G/C3  : BULK DENSITY CORRECTION FROM CND LOG [ADJ. TO ILDED]
DTED    .US/F  : DELTA-T (INTERVAL TRANSIT TIME) FROM BCS LOG  [ADJ. TO GRDED]
DTWS    .US/F  : COMPRESSIONA L SONIC [DTED]
GRDED   .GAPI  : GAMMA RAY FROM CND LOG [ADJ. TO ILDED]
GRSED   .GAPI  : GAMMA RAY FROM BCS LOG  [ADJ. TO GRDED]
GRWS    .GAPI  : GAMMA RAY [GRSED SPL. TO GRDED @ 11233.5']
ILDED   .OHMM  : DEEP INDUCTION RESISTIVITY FROM DIL-LAT LOG
ILMED   .OHMM  : MEDIUM INDUCTION  RESISTIVITY FROM DIL-LAT LOG
LL8ED   .OHMM  : LATEROLOG 8 FROM DIL-LAT LOG
MRESWS  .OHMM  : MEDIUM RESISTIVITY [ILMED]
NPHILSED.V/V   : NEUTRON POROSITY LIMESTONE FROM CND LOG [ADJ. TO RHOBED]
NPHISSED.V/V   : NEUTRON POROSITY SANDSTONE FROM CND LOG [ADJ. TO RHOBED]
NPOLSWS .V/V   : NEUTRON POROSITY LIMESTONE [NPHISSED MATRIX CONVERSION FRO LIMESTONE,SPL TO NPHILSED @ 6345']
RHOBED  .G/C3  : BULK DENSITY FROM CND LOG [ADJ. TO ILDED]
SPRED   .MV    : SPONTANEOUS POTENTIAL FROM DIL-LAT LOG
SPWS    .MV    : SPONTANEOUS POTENTIAL [BASELINE 0 MV, SPRED]
SRESWS  .OHMM  : SHALLOW RESISTIVITY [LL8ED]
~Params ----------------------------------------------------
PD  .                     GL : PERMANENT DATUM
EPD .FT               3315.9 : ELEVATION PERMANENT DATUM
LMF .                     KB : LOG MEASURED FROM
DAPD.FT                 15.1 : FEET ABOVE PERMANENT DATUM
EKB .FT                 3331 : KELLY BUSHING
EGL .FT               3315.9 : GROUND LEVEL
DATE.               08/21/76 : RUN DATE
RUN .                      1 : RUN NUMBER
DD  .FT                11275 : DEPTH DRILLER
DL  .FT                11270 : DEPTH LOGGER
BLI .FT                11267 : BOTTOM LOG INTERVAL
TLI .FT                 1134 : TOP LOG INTERVAL
CBD .FT                 1134 : CASING BOTTOM DRILLER
CBL .FT                 1134 : CASING BOTTOM LOGGER
BS  .IN                 8.75 : BIT SIZE
BSD .FT                11275 : BIT SIZE AT DEPTH
DFT .               GEL CHEM : DRILLING FLUID TYPE
DFD .                    9.5 : DRILLING FLUID DENSITY
DFV .                     95 : DRILLING FLUID VISCOSITY
DFPH.                   10.5 : DRILLING FLUID PH
DFL .                      7 : DRILLING FLUID LOSS
MSS .               FLOWLINE : MUD SAMPLE SOURCE
RMS .OHMM                2.7 : RESISTIVITY MUD SAMPLE
MST .DEGF                 55 : MUD SAMPLE TEMPERATURE
RMF .OHMM               2.65 : RESISTIVITY MUD FILTRATE SAMPLE
MFST.DEGF                 56 : MUD FILTRATE SAMPLE TEMPERATURE
RMB .OHMM               0.56 : RESISTIVITY MUD AT BHT
TCS .HRS                 3.5 : TIME CIRCULATED STOPPED
LUN .                   7691 : LOGGING UNIT NUMBER
LUL .                    WCT : LOGGING UNIT LOCATION
ENGI.                GOODMAN : RECORDING ENGINEER
WITN.                 TIFFIN : WITNESSED BY
CLNT.                A2DTECH : CLIENT CODE
ORIG.            2" 5" PRINT : ORIGIN OF DATA
UWI .       100102106215W500 : UNIQUE WELL ID
DICO. A2D Technologies, Inc. : DIGITIZING COMPANY
~Other -----------------------------------------------------
~ASCII -----------------------------------------------------
# ...
 9850.00000   10.15470    9.54860    9.54860    -999.25   16.23180    0.14290    2.70760    0.00180    -999.25    0.00140   61.60750    0.14290   49.93200   49.93200   17.97830   13.27630   13.27630   61.60750   84.52820   85.60540   84.52820    0.05950    -999.25    0.05950    2.70760  -86.32800 -106.31380   85.60540
 9900.00000   10.40940    9.54270    9.54270    -999.25    3.73560    0.15300    2.85440   -0.09510    -999.25   -0.08440  267.69220    0.15300   48.56230   48.56230   15.65170   13.24630   13.24630  267.69220  917.38040  968.71030  917.38040   -0.00120    -999.25   -0.00120    2.85440  -55.31180  -76.28620  968.71030
 9950.00000    9.96700    9.63320    9.63320    -999.25    0.73090    0.09650    2.78280   -0.05200    -999.25   -0.04260 1368.23310    0.09650   48.44680   48.44680   21.19220   16.42550   16.42550 1368.23310 1442.20650 1513.69320 1442.20650   -0.00080    -999.25   -0.00080    2.78280  -36.16850  -58.13790 1513.69320
 10000.00000    9.52500    9.35110    9.35110    -999.25   16.83600    0.04640    2.80650   -0.06570    -999.25   -0.05640   59.39660    0.04640   52.95680   52.95680  103.98790   82.12540   82.12540   59.39660   39.05350  114.69850   39.05350    0.05500    -999.25    0.05500    2.80650   19.56760   -3.50210  114.69850
 10050.00000    9.26680    8.91710    8.91710    -999.25   33.42090    0.06340    2.72590   -0.02100    -999.25   -0.00930   29.92140    0.06340   58.76390   58.76390  131.55960  128.54560  128.54560   29.92140   39.39510   58.63970   39.39510    0.07840    -999.25    0.07840    2.72590   24.46730   -7.52590   58.63970
 10100.00000    8.72650    8.71460    8.71460    -999.25   73.50510    0.16110    2.64060    0.04300    -999.25    0.04060   13.60450    0.16110   61.23060   61.23060   61.73690   63.20640   63.20640   13.60450   20.46190   34.60490   20.46190    0.05560    -999.25    0.05560    2.64060  -21.00110  -51.35610   34.60490
 10150.00000    9.02870    8.91070    8.91070    -999.25  108.71930    0.06200    2.66570    0.02380    -999.25    0.02590    9.19800    0.06200   60.12880   60.12880   98.50110   86.89290   86.89290    9.19800   11.22230   24.20260   11.22230    0.05150    -999.25    0.05150    2.66570  -33.14750  -60.17340   24.20260
 10200.00000    8.81160    8.55320    8.55320    -999.25  104.27090    0.15030    2.76820   -0.03410    -999.25   -0.03400    9.59040    0.15030   52.81110   52.81110   20.51280   18.65230   18.65230    9.59040   14.96230   29.11160   14.96230    0.14180    -999.25    0.14180    2.76820  -42.14360  -65.81840   29.11160
 10250.00000    9.87980    9.18680    9.18680    -999.25   32.89040    0.12960    2.78370   -0.04650    -999.25   -0.04310   30.40400    0.12960   48.33470   48.33470   73.16300   68.43160   68.43160   30.40400   92.93380  295.57510   92.93380    0.00290    -999.25    0.00290    2.78370  -20.47860  -40.82430  295.57510
 10300.00000    9.11410    9.14400    9.14400    -999.25   29.16480    0.05120    2.67880    0.01970    -999.25    0.01820   34.28790    0.05120   54.74240   54.74240  172.39340  158.14610  158.14610   34.28790   43.44720   92.51290   43.44720    0.02510    -999.25    0.02510    2.67880   -8.75180  -25.76830   92.51290
 10350.00000    8.80260    8.50780    8.50780    -999.25  184.97280    0.05170    2.68120    0.01880    -999.25    0.01680    5.40620    0.05170   59.97520   59.97520  134.57980  135.67250  135.67250    5.40620    8.36200   65.32600    8.36200    0.05720    -999.25    0.05720    2.68120  -59.05770  -72.72310   65.32600
 10400.00000    8.63750    8.64870    8.64870    -999.25  227.72300    0.24040    2.58560    0.07180    -999.25    0.07270    4.39130    0.24040   62.07690   62.07690  129.51290  126.81140  126.81140    4.39130    6.81340   38.77610    6.81340    0.11590    -999.25    0.11590    2.58560  -87.05310 -101.68920   38.77610
 10450.00000    8.52920    8.11830    8.11830    -999.25  528.34570    0.12150    2.50010    0.12300    -999.25    0.12270    1.89270    0.12150   67.00130   67.00130  132.16890  131.25680  131.25680    1.89270    3.19060   31.71530    3.19060    0.14180    -999.25    0.14180    2.50010 -118.21560 -139.93570   31.71530
 10500.00000    9.40210    9.32540    9.32540    -999.25  106.39540    0.12540    2.75650   -0.02960    -999.25   -0.02720    9.39890    0.12540   52.15340   52.15340   41.81950   37.03770   37.03770    9.39890   12.41480   32.66420   12.41480    0.11090    -999.25    0.11090    2.75650  -80.16690 -108.92460   32.66420
 10550.00000    9.36700    9.04420    9.04420    -999.25   47.48180    0.04370    2.71840   -0.00800    -999.25   -0.00490   21.06070    0.04370   61.24320   61.24320  186.14350  170.79230  170.79230   21.06070   22.20700   36.02390   22.20700    0.10650    -999.25    0.10650    2.71840   24.89300  -10.48300   36.02390
 10600.00000   13.17500   11.43640   11.43640    -999.25  114.29620    0.19510    2.37580    0.20190    -999.25    0.19540    8.74920    0.19510   71.05940   71.05940  135.56710  116.22610  116.22610    8.74920   10.07660   11.95990   10.07660    0.24570    -999.25    0.24570    2.37580   21.89880  -13.43670   11.95990
 10650.00000   13.46000   12.42960   12.42960    -999.25  267.74480    0.18220    2.31090    0.22760    -999.25    0.23340    3.73490    0.18220   89.46690   89.46690  144.15970  129.99100  129.99100    3.73490    5.73000    9.61390    5.73000    0.32180    -999.25    0.32180    2.31090    5.38570  -30.33610    9.61390
 10700.00000   13.87620   11.45450   11.45450    -999.25  119.05330    0.23970    2.33420    0.23400    -999.25    0.21980    8.39960    0.23970   69.29460   69.29460  119.86980  103.62060  103.62060    8.39960   10.23110   14.06310   10.23110    0.22170    -999.25    0.22170    2.33420   -3.17630  -39.28690   14.06310
 10750.00000   11.08280   10.36560   10.36560    -999.25   59.51710    0.19870    2.43120    0.16130    -999.25    0.16300   16.80190    0.19870   73.70090   73.70090  147.46600  120.94250  120.94250   16.80190   13.14290   17.73180   13.14290    0.31290    -999.25    0.31290    2.43120   -2.41260  -38.90950   17.73180
 10800.00000    9.15540    8.96590    8.96590    -999.25   29.63310    0.05620    2.71440   -0.00350    -999.25   -0.00260   33.74600    0.05620   55.12800   55.12800  161.97420  145.16950  145.16950   33.74600   39.06850   42.80650   39.06850    0.03350    -999.25    0.03350    2.71440   -2.93240  -39.81560   42.80650
 10850.00000    9.28560    9.05040    9.05040    -999.25   20.31950    0.06850    2.77020   -0.04220    -999.25   -0.03520   49.21380    0.06850   51.05700   51.05700  105.32990  102.69930  102.69930   49.21380   55.78670   63.86820   55.78670    0.04560    -999.25    0.04560    2.77020  -11.49680  -48.76890   63.86820
 10900.00000    9.00630    9.58160    9.58160    -999.25  557.35150    0.24150    2.53310    0.10370    -999.25    0.10350    1.79420    0.24150   72.97550   72.97550  140.81220  126.85490  126.85490    1.79420    2.45700    6.96050    2.45700    0.18500    -999.25    0.18500    2.53310  -64.63390 -102.29230    6.96050
 10950.00000    8.38550    8.64200    8.64200    -999.25  164.83430    0.24900    2.58790    0.06900    -999.25    0.07140    6.06670    0.24900   61.91630   61.91630   21.03750   15.84020   15.84020    6.06670    8.74080   65.88080    8.74080    0.02020    -999.25    0.02020    2.58790 -124.76830 -162.81550   65.88080
 11000.00000    9.43800    9.20220    9.20220    -999.25   58.05140    0.03090    2.70130   -0.00630    -999.25    0.00510   17.22610    0.03090   68.24100   68.24100  184.96840  168.93050  168.93050   17.22610   18.66090   26.10170   18.66090    0.12970    -999.25    0.12970    2.70130   24.46180  -13.97170   26.10170
 11050.00000    9.83550    9.22530    9.22530    -999.25   43.52200    0.08550    2.66040    0.03510    -999.25    0.02900   22.97690    0.08550   71.82670   71.82670  199.22430  180.58770  180.58770   22.97690   26.65920   36.07380   26.65920    0.16430    -999.25    0.16430    2.66040   21.84280   -7.52030   36.07380
