~Version ---------------------------------------------------
VERS.      2.0 : CWLS log ASCII Standard -VERSION 2.0
WRAP.       NO : One line per depth step
CREA. 10/27/17 : LAS Creation Date
~Well ------------------------------------------------------
STRT.FT                              1150.0 : START DEPTH
STOP.FT                             12400.0 : STOP DEPTH
STEP.FT                            50.00000 : STEP LENGTH
NULL.                               -999.25 : NULL VALUE
COMP. HUDSONS BAY OIL & GAS COMPANY LIMITED : COMPANY
WELL.        HB SHELL SIMONETTE 13-23-63-25 : WELL
FLD .                                       : FIELD
LOC .                                       : LOCATION
CTRY.                                CANADA : COUNTRY
SRVC.                          Schlumberger : SERVICE COMPANY
DATE.                           12-Mar-1973 : LOGDATE
PROV.                               Alberta : PROVINCE
UWI .                      100132306325W500 : UNIQUE WELL ID
SLAT.WGS84                            54.47 : SURFACE LATITUDE
SLON.WGS84                        -117.6781 : SURFACE LONGITUDE
~Curve Information -----------------------------------------
DEPT   .FT    : Depth Curve
ASNED  .OHMM  : AMPLIFIED SHORT NORMAL RESISTIVITY FROM IEL LOG [ADJ. TO DIL LOG]
CALSED .IN    : CALIPER FROM SONIC LOG
CALWS  .IN    : CALIPER [CALSED]
CILD1ED.MMHO  : CONDUCTIVITY FROM IEL LOG [ADJ. TO DIL LOG]
CILDED .MMHO  : CONDUCTIVITY FROM DIL LOG
CONDWS .MMHO  : CONDUCTIVITY [1000/DRESWS]
DRESWS .OHMM  : DEEP RESISTIVITY [SPLICED ILDED/ILD1ED AT 1737/3618] [FROM TOP TO 1737 IF ILDED<5;1000/CILDED;ELSE ILDED/ILD1ED<1;1000/CILD1ED;ELSED ILD1ED]
DTED   .US/F  : DELTA TIME FROM SONIC LOG [DEPTH ADJ TO RESISTIVITY LOG]
DTWS   .US/F  : COMPRESSIONAL SONIC [DTED]
GRNED  .GAPI  : GAMMA RAY FROM GRN LOG
GRSED  .GAPI  : GAMMA RAY FROM SONIC LOG
GRWS   .GAPI  : GAMMA RAY [GRSED SPL.  TO GRNED @ 11962']
ILD1ED .OHMM  : DEEP INDUCTION RESISTIVITY  FROM IEL LOG [ADJ. TO DIL LOG]
ILDED  .OHMM  : DEEP  INDUCTION RESISTIVITY FROM DIL LOG
ILMED  .OHMM  : MEDIUM INDUCTION RESISTIVITY FROM DIL LOG
LL8ED  .OHMM  : LATEROLOG 8 FROM DIL LOG
MRESWS .OHMM  : MEDIUM RESISTIVITY [ILMED]
NEUTED .NAPI  : NEUTRON FROM GRN LOG [DEPTH ADJ TO RESISTIVITY LOG]
NEUTWS .NAPI  : NEUTRON [NEUTED]
SPED   .MV    : SPONTANEOUS POTENTIAL [SPRED SPL. TO SPR1ED @ 11990']
SPR1ED .MV    : SPONTANEOUS POTENTIAL FROM IEL LOG [ADJ. TO DIL LOG]
SPRED  .MV    : SPONTANEOUS POTENTIAL FROM DIL LOG
SPWS   .MV    : SPONTANEOUS POTENIAL [BASELINE 0 MV, SPRED]
SRESWS .OHMM  : SHALLOW RESISTIVITY [LL8ED SPL. TO ASNED @ 11946']
~Params ----------------------------------------------------
PD  .                     GL : PERMANENT DATUM
EPD .FT                 2976 : ELEVATION PERMANENT DATUM
LMF .                     KB : LOG MEASURED FROM
DAPD.FT                   21 : FEET ABOVE PERMANENT DATUM
EKB .FT                 2997 : KELLY BUSHING
EGL .FT                 2976 : GROUND LEVEL
DATE.             03/12/1973 : RUN DATE
RUN .                      1 : RUN NUMBER
DD  .FT                12400 : DEPTH DRILLER
DL  .FT                11435 : DEPTH LOGGER
BLI .FT                12434 : BOTTOM LOG INTERVAL
TLI .FT                11300 : TOP LOG INTERVAL
CS  .IN               13.375 : CASING SIZE
BS  .IN                 8.75 : BIT SIZE
BSD .FT                12434 : BIT SIZE AT DEPTH
DFT .              FRESH GEL : DRILLING FLUID TYPE
DFD .                    9.3 : DRILLING FLUID DENSITY
DFV .                    400 : DRILLING FLUID VISCOSITY
DFPH.                   10.5 : DRILLING FLUID PH
DFL .                    8.4 : DRILLING FLUID LOSS
RMB .OHMM                1.1 : RESISTIVITY MUD AT BHT
LUN .               7670 EDM : LOGGING UNIT NUMBER
ENGI.                 CALVIN : RECORDING ENGINEER
WITN.                FOGARTY : WITNESSED BY
CLNT.                A2DTECH : CLIENT CODE
ORIG.            2" 5' PRINT : ORIGIN OF DATA
UWI .       100132306325W500 : UNIQUE WELL ID
DICO. A2D Technologies, Inc. : DIGITIZING COMPANY
~Other -----------------------------------------------------
DIL-IEL-GRN-BCS LOG RUN
SUFFIX OF THE CURVES ARE NOT REMOVED DUE TO DIFFERENT TOOL. BUT THEY HAVE SAME MNEMONICS
~ASCII -----------------------------------------------------
# ...
 4050.00000    -999.25   10.87460   10.87460    -999.25  115.78510  104.98580    9.52510   88.01780   88.01780    -999.25  105.47000  105.47000    -999.25    9.52510    -999.25   10.09120    -999.25    -999.25    -999.25 -106.82620    -999.25 -117.82620   -5.40150   10.09120
 4100.00000    -999.25   10.94750   10.94750    -999.25   98.37860   90.05110   11.10480   88.84090   88.84090    -999.25  113.08160  113.08160    -999.25   11.10480    -999.25   12.73130    -999.25    -999.25    -999.25 -102.86010    -999.25 -113.86010   -1.81490   12.73130
 4150.00000    -999.25   10.06320   10.06320    -999.25   74.69470   69.31780   14.42630   83.60300   83.60300    -999.25  108.94610  108.94610    -999.25   14.42630    -999.25   18.57730    -999.25    -999.25    -999.25 -103.57540    -999.25 -114.57540   -2.90780   18.57730
 4200.00000    -999.25   10.18430   10.18430    -999.25   87.60030   81.25590   12.30680   87.59020   87.59020    -999.25   99.76410   99.76410    -999.25   12.30680    -999.25   13.86890    -999.25    -999.25    -999.25 -103.08400    -999.25 -114.08400   -2.79400   13.86890
 4250.00000    -999.25   10.55460   10.55460    -999.25  115.77100  105.12260    9.51270   91.50830   91.50830    -999.25  106.98990  106.98990    -999.25    9.51270    -999.25   10.61110    -999.25    -999.25    -999.25 -102.59100    -999.25 -113.59100   -2.67870   10.61110
 4300.00000    -999.25   11.21030   11.21030    -999.25  137.31670  123.55290    8.09370   88.07130   88.07130    -999.25  107.31640  107.31640    -999.25    8.09370    -999.25    8.54870    -999.25    -999.25    -999.25 -104.89890    -999.25 -115.89890   -5.36240    8.54870
 4350.00000    -999.25   11.50060   11.50060    -999.25  128.92520  118.84950    8.41400   90.19970   90.19970    -999.25   90.66190   90.66190    -999.25    8.41400    -999.25    8.93760    -999.25    -999.25    -999.25 -103.01050    -999.25 -114.01050   -3.85340    8.93760
 4400.00000    -999.25   11.09490   11.09490    -999.25  120.68260  104.37540    9.58080   85.69370   85.69370    -999.25   93.01950   93.01950    -999.25    9.58080    -999.25    9.17600    -999.25    -999.25    -999.25 -106.59790    -999.25 -117.59790   -7.81840    9.17600
 4450.00000    -999.25   10.80060   10.80060    -999.25   71.61480   62.67080   15.95640   80.15280   80.15280    -999.25   94.34070   94.34070    -999.25   15.95640    -999.25   14.77510    -999.25    -999.25    -999.25 -103.31870    -999.25 -114.31870   -4.91690   14.77510
 4500.00000    -999.25   11.01080   11.01080    -999.25  129.33870  117.30070    8.52510   86.65960   86.65960    -999.25  103.51130  103.51130    -999.25    8.52510    -999.25    8.99900    -999.25    -999.25    -999.25 -101.62580    -999.25 -112.62580   -3.60160    8.99900
 4550.00000    -999.25   11.03060   11.03060    -999.25  103.71430   97.74600   10.23060   89.92500   89.92500    -999.25  105.22850  105.22850    -999.25   10.23060    -999.25   11.29270    -999.25    -999.25    -999.25 -103.78940    -999.25 -114.78940   -6.35110   11.29270
 4600.00000    -999.25   10.77060   10.77060    -999.25  128.22980  117.62910    8.50130   88.19900   88.19900    -999.25   89.00780   89.00780    -999.25    8.50130    -999.25    9.10110    -999.25    -999.25    -999.25 -103.34660    -999.25 -114.34660   -6.55360    9.10110
 4650.00000    -999.25   10.44880   10.44880    -999.25  107.12430   94.94690   10.53220   85.52470   85.52470    -999.25   88.41680   88.41680    -999.25   10.53220    -999.25   10.05090    -999.25    -999.25    -999.25 -102.80070    -999.25 -113.80070   -6.64970   10.05090
 4700.00000    -999.25    9.83760    9.83760    -999.25   53.44800   54.42530   18.37380   73.19850   73.19850    -999.25   83.77400   83.77400    -999.25   18.37380    -999.25   21.23670    -999.25    -999.25    -999.25 -106.44900    -999.25 -117.44900  -10.94010   21.23670
 4750.00000    -999.25    9.38750    9.38750    -999.25   60.77830   58.80210   17.00620   82.39020   82.39020    -999.25   79.23150   79.23150    -999.25   17.00620    -999.25   21.07580    -999.25    -999.25    -999.25 -101.71870    -999.25 -112.71870   -6.85180   21.07580
 4800.00000    -999.25   10.14330   10.14330    -999.25   68.62100   64.44540   15.51700   77.41420   77.41420    -999.25   98.80630   98.80630    -999.25   15.51700    -999.25   17.19700    -999.25    -999.25    -999.25  -97.65370    -999.25 -108.65370   -3.40710   17.19700
 4850.00000    -999.25   10.36440   10.36440    -999.25   99.29320   91.03990   10.98420   82.30170   82.30170    -999.25  100.65680  100.65680    -999.25   10.98420    -999.25   11.70720    -999.25    -999.25    -999.25 -100.08590    -999.25 -111.08590   -6.19750   11.70720
 4900.00000    -999.25   10.39060   10.39060    -999.25   95.62780   88.85020   11.25490   80.94930   80.94930    -999.25   94.22630   94.22630    -999.25   11.25490    -999.25   12.57670    -999.25    -999.25    -999.25  -98.81700    -999.25 -109.81700   -5.28510   12.57670
 4950.00000    -999.25    9.97600    9.97600    -999.25  120.40380  107.14210    9.33340   85.24650   85.24650    -999.25  101.65940  101.65940    -999.25    9.33340    -999.25    9.98650    -999.25    -999.25    -999.25  -99.76680    -999.25 -110.76680   -6.59140    9.98650
 5000.00000    -999.25    9.61780    9.61780    -999.25  121.50360  107.62180    9.29180   87.51310   87.51310    -999.25  103.99170  103.99170    -999.25    9.29180    -999.25   10.60060    -999.25    -999.25    -999.25  -98.29920    -999.25 -109.29920   -5.48030   10.60060
 5050.00000    -999.25    9.98100    9.98100    -999.25  121.55190  109.26930    9.15170   90.34360   90.34360    -999.25  104.52460  104.52460    -999.25    9.15170    -999.25   10.78470    -999.25    -999.25    -999.25  -95.92980    -999.25 -106.92980   -3.46560   10.78470
 5100.00000    -999.25    9.73020    9.73020    -999.25  107.86450   98.96380   10.10470   89.63390   89.63390    -999.25  109.26300  109.26300    -999.25   10.10470    -999.25   12.48500    -999.25    -999.25    -999.25  -98.82010    -999.25 -109.82010   -6.71420   12.48500
 5150.00000    -999.25    9.82160    9.82160    -999.25  102.60740   96.73330   10.33770   89.37370   89.37370    -999.25  115.63740  115.63740    -999.25   10.33770    -999.25   12.65240    -999.25    -999.25    -999.25  -96.10990    -999.25 -107.10990   -4.36050   12.65240
 5200.00000    -999.25    9.79240    9.79240    -999.25   92.30210   85.63400   11.67760   92.79600   92.79600    -999.25  117.72780  117.72780    -999.25   11.67760    -999.25   15.53620    -999.25    -999.25    -999.25  -97.51240    -999.25 -108.51240   -6.11950   15.53620
 5250.00000    -999.25   10.03020   10.03020    -999.25  106.36390   95.33340   10.48950   86.11530   86.11530    -999.25   96.12030   96.12030    -999.25   10.48950    -999.25   12.63130    -999.25    -999.25    -999.25  -99.52390    -999.25 -110.52390   -8.48750   12.63130
 5300.00000    -999.25   10.15200   10.15200    -999.25   92.05120   82.81160   12.07560   86.52460   86.52460    -999.25  107.36910  107.36910    -999.25   12.07560    -999.25   15.57750    -999.25    -999.25    -999.25  -97.05640    -999.25 -108.05640   -6.37470   15.57750
 5350.00000    -999.25    9.57040    9.57040    -999.25   56.72240   52.19890   19.15750   90.74080   90.74080    -999.25  134.28620  134.28620    -999.25   19.15750    -999.25   36.06960    -999.25    -999.25    -999.25  -96.49550    -999.25 -107.49550   -6.17200   36.06960
 5400.00000    -999.25    9.96610    9.96610    -999.25   90.41470   83.20510   12.01850   88.85040   88.85040    -999.25  115.13060  115.13060    -999.25   12.01850    -999.25   17.94830    -999.25    -999.25    -999.25  -95.63330    -999.25 -106.63330   -5.66630   17.94830
 5450.00000    -999.25    9.81590    9.81590    -999.25  112.32340  101.21760    9.87970   90.05800   90.05800    -999.25  112.78160  112.78160    -999.25    9.87970    -999.25   12.65150    -999.25    -999.25    -999.25  -91.37240    -999.25 -102.37240   -1.76190   12.65150
