~Version ---------------------------------------------------
VERS. 2.0 : CWLS log ASCII Standard -VERSION 2.0
WRAP.  NO : ONE LINE PER DEPTH STEP
~Well ------------------------------------------------------
STRT.F                             1200.0 : START DEPTH
STOP.F                            11400.0 : STOP DEPTH
STEP.F                           50.00000 : STEP LENGTH
NULL.                             -999.25 : NULL VALUE
COMP.       AMOCO CANADA PETROLEUM CO LTD : COMPANY
WELL. AMOCO MOBIL L-2 WAHIGAN 10-16-64-23 : WELL
FLD .                                     : FIELD
LOC .                                     : LOCATION
CTRY.                              CANADA : COUNTRY
SRVC.                             Unknown : SERVICE COMPANY
DATE.                         06-Feb-1976 : LOGDATE
PROV.                             Alberta : PROVINCE
UWI .                    100101606423W500 : UNIQUE WELL ID
SLAT.WGS84                       54.53986 : SURFACE LATITUDE
SLON.WGS84                      -117.4124 : SURFACE LONGITUDE
~Curve Information -----------------------------------------
DEPT   .F    0   1   0  0 : 1 MEASURED DEPTH
GRS    .GAPI 60 310 01 00 : GAMMA RAY FROM SONIC LOG
AC     .US/F 60 500 41 00 : ACOUSTIC
CALS   .IN   60 280 50 00 : CALIPER FROM SONIC LOG
SPR    .MV   07 010 01 00 : SPONTANEOUS POTENTIAL FROM RESISTIVITY LOG
ILM    .OHMM 07 120 44 00 : INDUCTION MEDIUM RESISTIVITY
SFL    .OHMM 07 220 06 00 : SPHERICALLY FOCUSED LOG
ILD    .OHMM 07 120 46 00 : INDUCTION DEEP RESISTIVITY
GRD    .GAPI 45 310 01 00 : GAMMA RAY FROM DENSITY LOG
CORR   .G/C3 45 356 01 00 : DENSITY CORRECTION
RHOB   .G/C3 45 350 01 00 : BULK DENSITY
CALD   .IN   45 280 60 00 : CALIPER FROM DENSITY LOG
NPHI_SS.DEC  42 890 03 00 : NEUTRON POROSITY SANDSTONE
DPHI_SS.DEC  45 890 12 00 : DENSITY POROSITY SANDSTONE
NPHI_LS.DEC  42 890 01 00 : NEUTRON POROSITY LIMESTONE
DPHI_LS.DEC  45 890 10 00 : DENSITY POROSITY LIMESTONE
~Params ----------------------------------------------------
PD  .                     GL : PERMANENT DATUM
EPD .FT               2628.5 : ELEVATION PERMANENT DATUM
LMF .                     KB : LOG MEASURED FROM
DAPD.FT                 13.5 : FEET ABOVE PERMANENT DATUM
DMF .                     KB : DRILLING MEASURED FROM
EKB .FT                 2642 : KELLY BUSHING
EGL .FT               2628.5 : GROUND LEVEL
DATE.               02/06/76 : RUN DATE
RUN .                      1 : RUN NUMBER
DD  .FT                11378 : DEPTH DRILLER
DL  .FT                11410 : DEPTH LOGGER
BLI .FT                11408 : BOTTOM LOG INTERVAL
TLI .FT                 1219 : TOP LOG INTERVAL
CS  .IN                9.625 : CASING SIZE
CBD .FT                 1208 : CASING BOTTOM DRILLER
CBL .FT                 1219 : CASING BOTTOM LOGGER
BS  .IN                 8.75 : BIT SIZE
BSD .FT                11378 : BIT SIZE AT DEPTH
DFT .           MUD GEL CHEM : DRILLING FLUID TYPE
DFD .                    9.3 : DRILLING FLUID DENSITY
DFV .                    135 : DRILLING FLUID VISCOSITY
DFPH.                     10 : DRILLING FLUID PH
DFL .                    8.1 : DRILLING FLUID LOSS
MSS .                   CIRC : MUD SAMPLE SOURCE
RMS .OHMM                3.5 : RESISTIVITY MUD SAMPLE
MST .DEGF                 67 : MUD SAMPLE TEMPERATURE
RMF .OHMM                3.5 : RESISTIVITY MUD FILTRATE SAMPLE
MFST.DEGF                 62 : MUD FILTRATE SAMPLE TEMPERATURE
RMC .OHMM                2.8 : RESISTIVITY MUD CAKE
MCST.DEGF                 67 : MUD CAKE SAMPLE TEMPERATURE
MFSS.                   MEAS : MUD FILTRATE SAMPLE SOURCE
MCSS.                   MEAS : MUD CAKE SAMPLE SOURCE
RMB .OHMM               1.21 : RESISTIVITY MUD AT BHT
TCS .HRS                   7 : TIME CIRCULATED STOPPED
LUN .                   6155 : LOGGING UNIT NUMBER
LUL .                    EDM : LOGGING UNIT LOCATION
ENGI.                    GAU : RECORDING ENGINEER
WITN.                  KAREL : WITNESSED BY
CLNT.                A2DTECH : CLIENT CODE
ORIG.            2" 5" PRINT : ORIGIN OF DATA
UWI .       100101606423W500 : UNIQUE WELL ID
DICO. A2D Technologies, Inc. : DIGITIZING COMPANY
~Other -----------------------------------------------------
~ASCII -----------------------------------------------------
# ...
 8100.00000   26.23460   49.33680    9.42790 -101.42130   71.12920  201.74420   43.21860   47.04320    0.20260    2.61660    9.42870    -999.25    -999.25    0.08110    0.05100
 8150.00000   21.33340   50.35930    9.58300 -190.89590  542.39760 1668.73840  260.04560   40.44700    0.17580    2.54380   10.06500    -999.25    -999.25    0.03370    0.04130
 8200.00000   82.77770   59.79310    9.34200  -55.23840   13.57720   85.91320   11.27890  130.84460    0.08450    2.61020    9.47370    -999.25    -999.25    0.11920    0.05080
 8250.00000   75.46700   61.80410    9.25190  -88.54740    6.43230   12.13540    5.56970  120.06390    0.02120    2.66170    9.63580    -999.25    -999.25    0.13130    0.02230
 8300.00000   76.52200   57.59470    9.11740  -58.08980   12.97380   20.45020   11.42280  136.97250    0.12660    2.54610    9.70090    -999.25    -999.25    0.12090    0.05030
 8350.00000   55.36910   57.05800    9.41820  -57.36290   72.12080  193.81880   55.38360   88.51340    0.04380    2.64670    9.94260    -999.25    -999.25    0.05040    0.03180
 8400.00000   33.91620   56.39050    9.67880  -38.11720  113.64760  307.09090   76.19200   52.95520    0.08100    2.63370   10.16480    -999.25    -999.25    0.03230    0.04110
 8450.00000   31.77540   52.05420    9.24180  -46.51070  196.33720  434.64140  148.26660   61.45390    0.09160    2.61800    9.51010    -999.25    -999.25    0.03320    0.05020
 8500.00000   35.22550   53.83000    9.11180  -16.94740  255.79170  543.29640  184.69920   61.92820    0.04700    2.66440    9.81100    -999.25    -999.25   -0.00020    0.01750
 8550.00000   36.63790   53.02130    9.08230  -51.68640  450.00000  497.17510  229.45460   54.50990    0.01610    2.66360    9.37490    -999.25    -999.25   -0.00800    0.02270
 8600.00000   28.71280   52.74660    8.87670 -115.89990  719.86600  713.57340  281.28620   56.43180    0.01850    2.65400    9.24930    -999.25    -999.25   -0.01100    0.03430
 8650.00000   46.94390   53.54650    8.87590  -80.15620 1461.50130 2265.60450  329.64250   70.01130    0.02450    2.64610    9.27670    -999.25    -999.25    0.00440    0.03160
 8700.00000   46.23810   53.59860    8.86870  -56.96700  202.65260  408.06780  131.98810   70.44860    0.01370    2.66850    9.23610    -999.25    -999.25   -0.01220    0.01870
 8750.00000   52.89250   55.82190    8.91580  -43.57910  673.66170 1235.01820  218.41790   77.67660   -0.00380    2.62620    9.21610    -999.25    -999.25    0.05780    0.03990
 8800.00000   35.39410   55.40340   10.09840  -35.76810  119.58560  261.61280  105.34120   58.92240    0.27700    2.41370   11.30390    -999.25    -999.25    0.10010    0.24470
 8850.00000   27.18940   51.22740    9.28410  -22.75010   78.28850 1360.77230   42.81380   44.02720    0.27840    2.50430   10.60700    -999.25    -999.25    0.04840    0.11470
 8900.00000   27.99700   50.80030    9.11340 -112.96350 2688.40010 2249.71410 1892.23850   40.56730    0.28160    2.76140   10.02690    -999.25    -999.25    0.01340   -0.02070
 8950.00000   27.67580   49.97470    9.41020  -87.02040 2652.50070 2241.76830  956.98490   52.79890    0.30660    2.57670    9.78990    -999.25    -999.25    0.02480    0.07640
 9000.00000   20.52400   50.17820    9.28940  -39.31510 2706.17800 2266.69410 1090.14600   43.30540    0.25210    2.31250   10.64210    -999.25    -999.25    0.03380    0.19940
 9050.00000   28.28680   52.70960    9.32220  -18.30710 1358.08870 2240.48120 1054.90390   43.52920    0.25350    2.22870   10.40110    -999.25    -999.25    0.05200    0.16390
 9100.00000   22.45940   51.80860    9.29040  -26.21610 2532.27730 1849.09790 1777.54150   47.15940    0.27230    2.27870   10.22060    -999.25    -999.25    0.03450    0.23980
 9150.00000   23.54700   52.00040    9.32030  -71.14810  639.70430  948.46270  385.11490   41.62930    0.32580    2.46440   10.51150    -999.25    -999.25    0.04940    0.06000
 9200.00000   26.93270   53.17400    9.33000  -76.11090 2208.60420 1291.44350 1768.69810   43.46900    0.27430    2.10520   10.42730    -999.25    -999.25    0.06850    0.39010
 9250.00000   24.15750   51.29200    9.24540  -87.96220  880.30760 2074.22070  494.61630   48.77930    0.29990    2.51070   10.71480    -999.25    -999.25    0.01450    0.05770
 9300.00000   27.04590   51.32940    9.35250 -106.28650 2570.30590 2252.78640  813.50430   43.89580    0.30540    2.54640   10.68470    -999.25    -999.25    0.01950    0.15590
 9350.00000   21.33890   51.65290    9.21920 -114.26030 1590.36950 2238.06930  669.64410   47.23400    0.30440    2.59030   10.51600    -999.25    -999.25   -0.00380    0.06410
 9400.00000   25.17630   52.19000    9.36870 -120.49030 1015.01750 1713.87440  848.06450   42.64910    0.32740    2.57140   10.16150    -999.25    -999.25   -0.00580    0.13080
 9450.00000   23.00140   53.05700    9.33950 -120.64000  191.10810  330.73490  155.34580   40.21920    0.25520    2.30690   10.18890    -999.25    -999.25    0.00600    0.22360
 9500.00000   26.72190   53.14890    9.29300 -120.38210  152.23390  489.12860  127.57910   45.64330   -0.01790    2.55240    8.92150    -999.25    -999.25    0.02670    0.15500
 9550.00000   21.02990   51.44130    8.81020 -120.55750  688.23550 1974.73410  491.09250   37.77970    0.03180    2.63310    8.69970    -999.25    -999.25   -0.00520    0.03330
 9600.00000   30.64190   50.51190    8.89660 -120.22330   22.97540  102.80590   21.10820   56.53940    0.03670    2.64380    8.81800    -999.25    -999.25    0.07070    0.06300
 9650.00000   29.18470   55.09090    8.31950 -120.43490   70.39780  479.57600   47.79550   49.89130    0.12340    2.64130    8.50760    -999.25    -999.25    0.09880    0.05110
 9700.00000   28.53770   49.32780    8.44320 -120.44190  295.43830 1672.94130  159.02100   35.65520    0.16340    2.65000    8.63340    -999.25    -999.25    0.05790    0.01930
 9750.00000   35.23780   51.46540    9.18520 -102.62750  387.17220 1403.28220  294.13740   53.94440    0.28890    2.67970    9.24690    -999.25    -999.25   -0.01570    0.00230
 9800.00000   31.34130   50.29550    9.12560 -120.63940 2532.34960 2247.85350 1617.47560   56.35090    0.30110    2.71100    9.08400    -999.25    -999.25   -0.02290    0.00490
 9850.00000   33.77030   49.41750    8.84060 -120.31200 1489.98780 2258.16770 1781.59580   52.92920    0.00990    2.70050    8.71140    -999.25    -999.25   -0.00060    0.01000
 9900.00000   33.77750   50.49870    8.77160 -120.40510 2651.53100 2216.49560 1543.78970   60.86050    0.02510    2.67240    8.68800    -999.25    -999.25   -0.01750    0.01550
 9950.00000   49.17690   51.59660    8.79530 -120.54400 2640.77250 2201.74240  631.46630   73.09780    0.00430    2.66530    8.83110    -999.25    -999.25   -0.00280    0.02800
 10000.00000   39.89480   51.14600    8.80070 -120.59460 2657.28560 2247.00980  885.48990   63.24270    0.03890    2.65640    8.34400    -999.25    -999.25   -0.01320    0.07850
 10050.00000   28.16210   50.93790    8.90410 -120.40250 1208.23440 2209.33670  504.80520   56.14710    0.30620    2.72380    8.50540    -999.25    -999.25   -0.01500    0.00570
 10100.00000   32.83720   51.71660    8.86970 -120.60910  773.65050 2215.18070  520.17710   50.53060    0.16260    2.68380    8.52750    -999.25    -999.25   -0.01690    0.01100
 10150.00000   34.29860   52.68450    8.80520 -104.52730  863.22230 2174.18600  195.33340   58.15060    0.03620    2.68100    8.70400    -999.25    -999.25   -0.01340    0.01720
 10200.00000   37.42430   55.15370    8.86030 -190.85140  126.20850  269.76790   65.07700   60.43580    0.02910    2.66430    8.98070    -999.25    -999.25   -0.00290    0.02540
 10250.00000   67.05690   64.03400    8.97710  -85.96540   21.51430   38.51700   16.40130   88.28570    0.02330    2.62730    9.65540    -999.25    -999.25    0.08520    0.05290
 10300.00000  120.64360   84.15670    9.53260  -46.23320   30.00850   42.27390   22.01010  147.47890    0.28130    2.50880   10.48170    -999.25    -999.25    0.27760    0.08690
 10350.00000   82.06390   74.84330    9.30360  -34.44040    8.42280   10.58780    6.17980  100.06040    0.13060    2.23320    9.45630    -999.25    -999.25    0.14260    0.30860
