~Version ---------------------------------------------------
VERS.      2.0 : CWLS log ASCII Standard -VERSION 2.0
WRAP.       NO : One line per depth step
CREA. 09/17/14 : LAS Creation Date
~Well ------------------------------------------------------
STRT.M                        600.0 : START DEPTH
STOP.M                       4650.0 : STOP DEPTH
STEP.M                     50.00000 : STEP LENGTH
NULL.                       -999.25 : NULL VALUE
COMP.     GULF CANADA RESOURCES INC : COMPANY
WELL. GULF ET AL HANLAN 11-25-47-18 : WELL
FLD .                        HANLAN : FIELD
LOC .                               : LOCATION
CTRY.                        CANADA : COUNTRY
SRVC.                  Schlumberger : SERVICE COMPANY
DATE.                   07-Oct-1981 : LOGDATE
PROV.                       Alberta : PROVINCE
UWI .              100112504718W500 : UNIQUE WELL ID
SLAT.WGS84                 53.08538 : SURFACE LATITUDE
SLON.WGS84                -116.5027 : SURFACE LONGITUDE
~Curve Information -----------------------------------------
DEPT    .M      : DEPTH METER
CALDED  .MM     : CALIPER FROM DENSITY LOG [ADJ. TO RESISTIVITY LOG]
CALSED  .MM     : CALIPER FROM SONIC LOG [ADJ. TO RESISTIVITY LOG]
CALWS   .MM     : CALIPER [CALDED]
CONDWS  .MMHO   : CONDUCTIVITY [1000/DRESWS]
CORRED  .KG/M3  : DENSITY CORRECTION FROM DENSITY LOG [ADJ. TO RESISTIVITY LOG]
DCORWS  .KG/M3  : DENSITY CORRECTION [CORRED]
DENWS   .KG/M3  : FORMATION BULK DENSITY [CALC. FROM DPOLSWS, M=2710, F=1000]
DPHILSED.V/V    : DENSITY POROSITY LIMESTONE [M=2710, F=1000] FROM DENSITY LOG [ADJ. TO RESISTIVITY LOG]
DPHISSED.V/V    : DENSITY POROSITY SANDSTONE [M=2650, F=1000] FROM DENSITY LOG [ADJ. TO RESISTIVITY LOG]
DPOLSWS .V/V    : DENSITY POROSITY LIMESTONE [DPHISSED CONVEERTED INTO LIMESTONE MATRIX , M=2710, F=1000 & SPL. TO DPHILSED @ 3600 M]
DRESWS  .OHMM   : DEEP RESISTIVITY [ILDED SPL. TO LLDED @ 3235.5 M]
DTED    .US/M   : DELTA TIME FROM SONIC LOG [ADJ. TO RESISTIVITY LOG]
DTWS    .US/M   : COMPRESSIONAL SONIC [DTED]
GRDED   .GAPI   : GAMMA RAY FROM DENSITY LOG [ADJ. TO RESISTIVITY LOG]
GRRED   .GAPI   : GAMMA RAY FROM DLL LOG
GRSED   .GAPI   : GAMMA RAY FROM SONIC LOG [ADJ. TO RESISTIVITY LOG]
GRWS    .GAPI   : GAMMA RAY [GRSED SPL. TO GRRED @ 3219.2 M]
ILDED   .OHMM   : DEEP INDUCTION FROM DIL-SFL LOG
ILMED   .OHMM   : MEDIUM INDUCTION FROM DIL-SFL LOG
LLDED   .OHMM   : DEEP LATEROLOG FROM DLL LOG [ADJ. TO DIL-MSFL LOG]
LLSED   .OHMM   : SHALLOW LATEROLOG FROM DLL LOG [ADJ. TO DIL-MSFL LOG]
MRESWS  .OHMM   : MEDIUM RESISTIVITY [ILMED]
NPHILSED.V/V    : NEUTRON POROSITY LIMESTONE FROM DENSITY LOG [ADJ. TO RESISTIVITY LOG]
NPHISSED.V/V    : NEUTRON POROSITY SANDSTONE FROM DENSITY LOG [ADJ. TO RESISTIVITY LOG]
NPOLSWS .V/V    : NEUTRON POROSITY LIMESTONE [NPHISSED MATRIX CONVERSION FOR LIMESTONE & SPL. TO NPHILSED @ 3593.5 M]
PEFED   .B/E    : PHOTOELECTRIC FACTOR FROM DENSITY LOG [ADJ. TO RESISTIVITY LOG]
PEFWS   .B/E    : PHOTOELECTRIC FACTOR [PEFED]
RHOBED  .KG/M3  : BULK DENSITY FROM DENSITY LOG [ADJ. TO DPHISSED/DPHILSED/RESISTIVITY LOG]
SFLED   .OHMM   : SHALLOW FOCUSED FROM DIL-SFL LOG
SPRED   .MV     : SPONTANEOUS POTENTIAL FROM DIL-SFL LOG
SPWS    .MV     : SPONTANEOUS POTENTIAL [BASELINE 0 MV,SPRED]
SRESWS  .OHMM   : SHALLOW RESISTIVITY [SFLED SPL. TO LLSED @ 3235.5 M]
~Params ----------------------------------------------------
PD  .                         GL : PERMANENT DATUM
EPD .M                   1212.95 : ELEVATION PERMANENT DATUM
LMF .                         KB : LOG MEASURED FROM
DAPD.M                      9.93 : FEET ABOVE PERMANENT DATUM
DMF .                         KB : DRILLING MEASURED FROM
EKB .M                   1222.88 : KELLY BUSHING
EGL .M                   1212.95 : GROUND LEVEL
DATE.                   10/07/81 : RUN DATE
RUN .                          2 : RUN NUMBER
DD  .M                      4665 : DEPTH DRILLER
DL  .M                      4665 : DEPTH LOGGER
BLI .M                    4661.1 : BOTTOM LOG INTERVAL
TLI .M                    3235.5 : TOP LOG INTERVAL
CS  .MM                      244 : CASING SIZE
CBD .M                      3236 : CASING BOTTOM DRILLER
CBL .M                    3235.5 : CASING BOTTOM LOGGER
BS  .MM                      216 : BIT SIZE
BSD .M                      4665 : BIT SIZE AT DEPTH
DFT .                   GEL CHEM : DRILLING FLUID TYPE
DFD .                       1160 : DRILLING FLUID DENSITY
DFV .                         78 : DRILLING FLUID VISCOSITY
DFPH.                       10.5 : DRILLING FLUID PH
DFL .                          8 : DRILLING FLUID LOSS
MSS .                CIRCULATION : MUD SAMPLE SOURCE
RMS .OHMM                   0.84 : RESISTIVITY MUD SAMPLE
MST .DEGC                   23.3 : MUD SAMPLE TEMPERATURE
RMF .OHMM                   0.62 : RESISTIVITY MUD FILTRATE SAMPLE
MFST.DEGC                   23.9 : MUD FILTRATE SAMPLE TEMPERATURE
RMB .OHMM                   0.27 : RESISTIVITY MUD AT BHT
TCS .HRS                    1000 : TIME CIRCULATED STOPPED
TLAB.HRS                     830 : TIME LOGGER AT BOTTOM
LUN .                       8110 : LOGGING UNIT NUMBER
LUL .                        EDS : LOGGING UNIT LOCATION
ENGI.             BEBB LABRECQUB : RECORDING ENGINEER
WITN.                      PERRY : WITNESSED BY
CLNT.                    A2DTECH : CLIENT CODE
ORIG. 6.5"/100M 16.5"/100M PRINT : ORIGIN OF DATA
UWI .           100112504718W500 : UNIQUE WELL ID
DICO.     A2D Technologies, Inc. : DIGITIZING COMPANY
~Other -----------------------------------------------------
DIL-MSFL-DLL-CNL-FDC-BHC LOG RUN
~ASCII -----------------------------------------------------
# ...
 3900.00000  236.93800  243.53470  236.93800    6.35790  -39.86600  -39.86600 2519.16400    0.11160    -999.25    0.11160  157.28450  221.02810  221.02810  300.40210  300.34980  300.02350  300.34980  151.67570  154.27600  157.28450  210.34000  154.27600    0.10740    -999.25    0.10740    2.79320    2.79320 2516.60280  283.61250  147.71850  -70.34310  210.34000
 3950.00000  250.46010  275.25370  250.46010    0.03380   76.00330   76.00330 2689.30900    0.01210    -999.25    0.01210 29548.43360  160.22090  160.22090   13.87330   16.28860   14.29400   16.28860 2000.00000  106.62100 29548.43360 1100.96900  106.62100    0.03140    -999.25    0.03140    5.22470    5.22470 2692.06910 1887.33130   43.69690 -183.91150 1100.96900
 4000.00000  281.43940  250.86670  281.43940    0.11450  176.47760  176.47760 2622.27700    0.05130    -999.25    0.05130 8732.68550  161.18660  161.18660   11.38030   10.22590   11.66130   10.22590  784.47250 2019.68790 8732.68550 1318.17380 2019.68790    0.01950    -999.25    0.01950    6.37100    6.37100 2626.76860 1967.24960  -17.75670 -254.91190 1318.17380
 4050.00000  421.00250  269.34270  421.00250    0.04950  -83.96390  -83.96390 1593.37000    0.65300    -999.25    0.65300 20205.66990  167.56300  167.56300   13.00070   14.05880   11.40830   14.05880 1142.49580  725.57130 20205.66990   36.45240  725.57130    0.00700    -999.25    0.00700    4.25660    4.25660 1581.46120  290.99740  165.39720  -81.30480   36.45240
 4100.00000  277.11360  249.10680  277.11360    5.08780  169.09930  169.09930 2550.62800    0.09320    -999.25    0.09320  196.54970  170.36760  170.36760   11.72010   11.31540   13.53280   11.31540  173.54540  128.92290  196.54970  234.74660  128.92290    0.11030    -999.25    0.11030    6.60300    6.60300 2560.06130  431.95970   52.21250 -204.03630  234.74660
 4150.00000  319.66600  245.77080  319.66600    0.54520  192.05790  192.05790 2752.40800   -0.02480    -999.25   -0.02480 1834.23270  154.90090  154.90090   19.54520   16.42500   20.53230   16.42500 2023.51670  141.29910 1834.23270  582.25350  141.29910    0.01700    -999.25    0.01700    4.29290    4.29290 2750.99240 1904.98680   40.20690 -225.58870  582.25350
 4200.00000  249.56440  251.18590  249.56440   18.15750  -20.00190  -20.00190 2768.65300   -0.03430    -999.25   -0.03430   55.07360  174.90280  174.90280   44.53590   48.18220   43.33020   48.18220   42.34920   44.19790   55.07360   59.21470   44.19790    0.02440    -999.25    0.02440    4.06430    4.06430 2768.25390   61.68040  253.67160  -30.58480   59.21470
 4250.00000  257.10570  252.10970  257.10570    9.80340  -26.21140  -26.21140 2728.29700   -0.01070    -999.25   -0.01070  102.00570  178.35350  178.35350   38.59840   33.44200   36.86640   33.44200   43.64230   54.78560  102.00570  147.16470   54.78560    0.04440    -999.25    0.04440    4.31660    4.31660 2732.59280  172.81190  212.92040 -159.07600  147.16470
 4300.00000  309.82220  263.34560  309.82220   87.58950  230.82450  230.82450 2712.73600   -0.00160    -999.25   -0.00160   11.41690  217.55490  217.55490   78.59500   83.11840   71.16030   83.11840    7.78100    7.90860   11.41690   11.16210    7.90860    0.11210    -999.25    0.11210    4.79630    4.79630 2720.48440   11.14040  404.37910  -55.35720   11.16210
 4350.00000  313.36940  266.87160  313.36940  123.42630  225.62270  225.62270 2733.25600   -0.01360    -999.25   -0.01360    8.10200  246.95120  246.95120  110.39220  107.57060  103.74420  107.57060    4.72700    4.81720    8.10200    6.13580    4.81720    0.20570    -999.25    0.20570    4.60550    4.60550 2734.19850    6.11040  111.65020 -367.91530    6.13580
 4400.00000  240.13900  244.78780  240.13900  120.89710   -8.06620   -8.06620 2795.32900   -0.04990    -999.25   -0.04990    8.27150  221.78580  221.78580   97.16800   93.86890   91.45170   93.86890    6.93130    7.14930    8.27150    9.44060    7.14930    0.16060    -999.25    0.16060    3.78230    3.78230 2790.88790    9.15660  209.52360 -270.04190    9.44060
 4450.00000  261.31450  249.46840  261.31450   93.95320   11.78750   11.78750 2743.00300   -0.01930    -999.25   -0.01930   10.64360  237.66540  237.66540   99.54790   96.72900  102.59320   96.72900   10.24610   10.87980   10.64360   12.91200   10.87980    0.17520    -999.25    0.17520    3.64480    3.64480 2747.01610   12.84780  141.43340 -338.13210   12.91200
 4500.00000  239.33360  239.77770  239.33360    2.84550  -20.57160  -20.57160 2664.85600    0.02640    -999.25    0.02640  351.43080  211.51740  211.51740   79.29690   85.20780   82.76130   85.20780  137.82620  157.91590  351.43080  368.39040  157.91590    0.05960    -999.25    0.05960    3.62040    3.62040 2663.76070  866.73290  185.70130 -293.86420  368.39040
 4550.00000  249.56000  241.01580  249.56000    5.44780   -4.38860   -4.38860 2764.72000   -0.03200    -999.25   -0.03200  183.55930  172.20510  172.20510   38.04740   38.86420   37.64450   38.86420  138.80950  145.95100  183.55930  148.37260  145.95100    0.02220    -999.25    0.02220    4.24710    4.24710 2766.70360  178.80600  189.14360 -290.42190  148.37260
 4600.00000  224.56570  224.37500  224.56570    0.16710  -33.84040  -33.84040 2582.09200    0.07480    -999.25    0.07480 5983.30370  185.91300  185.91300    9.44990   11.53790    9.26870   11.53790 2004.50520  713.60740 5983.30370 1027.44600  713.60740    0.10620    -999.25    0.10620    3.45640    3.45640 2583.36350 1750.57900   68.62060 -410.94490 1027.44600
 4650.00000  227.38110  227.73380  227.38110    2.93140    9.41000    9.41000 2858.25700   -0.08670    -999.25   -0.08670  341.13330  154.61580  154.61580   21.02710   46.06800    -999.25   46.06800  297.33240  258.49830  341.13330  157.45580  258.49830    0.02100    -999.25    0.02100    3.03270    3.03270 2847.78000  218.28710 -250.44640 -730.01190  157.45580
