~Version ---------------------------------------------------
VERS.      2.0 : CWLS log ASCII Standard -VERSION 2.0
WRAP.       NO : One line per depth step
CREA. 11/15/17 : LAS Creation Date
~Well ------------------------------------------------------
STRT.FT                                 750.0 : START DEPTH
STOP.FT                                8300.0 : STOP DEPTH
STEP.FT                              50.00000 : STEP LENGTH
NULL.                                 -999.25 : NULL VALUE
COMP.                  EXXONMOBIL CANADA LTD. : COMPANY
WELL. MOBIL OIL EQUITY SOUTH 14-1-31-23 #14-1 : WELL
FLD .                                         : FIELD
LOC .                                         : LOCATION
CTRY.                                  CANADA : COUNTRY
SRVC.                            Schlumberger : SERVICE COMPANY
DATE.                             02-Oct-1957 : LOGDATE
PROV.                                 Alberta : PROVINCE
UWI .                        100140103123W400 : UNIQUE WELL ID
SLAT.WGS84                           51.63251 : SURFACE LATITUDE
SLON.WGS84                          -113.1369 : SURFACE LONGITUDE
~Curve Information -----------------------------------------
DEPT  .FT         : Depth Curve
CALMED.IN         : CALIPER FROM MICROLATEROLOG
CALWS .IN         : CALIPER [MCALED SPL. TO CALMED @ 5476']
CONDWS.MMHO       : CONDUCTIVITY [1000/DRESWS]
DRESWS.OHMM       : DEEP RESISTIVITY [LNED]
GRNED .UgRa-Eq/T  : GAMMA RAY FROM GRN LOG
GRWS  .GAPI       : GAMMA RAY [GRNED*16.5]
LL7ED .OHMM       : LATEROLOG 7 FROM LATEROLOG
LNED  .OHMM       : 64 INCH LONG NORMAL RESISTIVITY FROM ELECRICAL LOG
LT18ED.OHMM       : 18 FOOT 8 INCH LATERAL FROM ELECRICAL LOG
MCALED.mm         : MLT (MICROLOG) CALIPER FROM MICROLOG
MLLED .OHMM       : MICRO FOCUSED LATEROLOG RESISTIVITY FROM MICROLATEROLOG
MRESWS.OHMM       : MEDIUM RESISTIVITY [LL7ED]
NEUTED.CPS        : NEUTRON FROM GRN LOG
NEUTWS.CPS        : NEUTRON [NEUTED]
SNED  .OHMM       : 16 INCH SHORT NORMAL RESISTIVITY FROM ELECRICAL LOG
SPR1ED.MV         : SPONTANEOUS POTENTIAL FROM LATEROLOG
SPRED .MV         : SPONTANEOUS POTENTIAL FROM ELECRICAL LOG
SPWS  .MV         : SPONTANEOUS POTENTIAL [SPRED SPL. TO SPR1ED @ 5828', BASELINE 0 MV, SPRED]
SRESWS.OHMM       : SHALLOW RESISTIVITY [SNED]
~Params ----------------------------------------------------
LMF .                     KB : LOG MEASURED FROM
DMF .                     KB : DRILLING MEASURED FROM
EKB .FT                 3027 : KELLY BUSHING
EGL .FT               2016.8 : GROUND LEVEL
DATE.               10/02/57 : RUN DATE
RUN .                      1 : RUN NUMBER
DD  .FT                 8343 : DEPTH DRILLER
DL  .FT                 8345 : DEPTH LOGGER
BLI .FT                 8341 : BOTTOM LOG INTERVAL
TLI .FT                 5300 : TOP LOG INTERVAL
CBD .FT                  748 : CASING BOTTOM DRILLER
CBL .FT                  748 : CASING BOTTOM LOGGER
BS  .IN                    9 : BIT SIZE
BSD .FT                 8343 : BIT SIZE AT DEPTH
DFT .               OIL EMUL : DRILLING FLUID TYPE
DFD .                    9.9 : DRILLING FLUID DENSITY
DFV .                     78 : DRILLING FLUID VISCOSITY
DFPH.                      8 : DRILLING FLUID PH
DFL .                    4.9 : DRILLING FLUID LOSS
TCS .HRS                 2.5 : TIME CIRCULATED STOPPED
LUN .                   2741 : LOGGING UNIT NUMBER
LUL .                   STET : LOGGING UNIT LOCATION
ENGI.               FORESTER : RECORDING ENGINEER
WITN.                 MCCINN : WITNESSED BY
CLNT.                A2DTECH : CLIENT CODE
ORIG.            2" 5" PRINT : ORIGIN OF DATA
UWI .       100140103123W400 : UNIQUE WELL ID
DICO. A2D Technologies, Inc. : DIGITIZING COMPANY
~Other -----------------------------------------------------
~ASCII -----------------------------------------------------
# ...
 6300.00000    9.24830    9.24830    -999.25    -999.25    0.50570    8.34410 1566.35640    -999.25    -999.25    -999.25  207.52000 1566.35640  467.01040  467.01040    -999.25 -125.86710    -999.25 -113.33040    -999.25
 6350.00000    9.12790    9.12790    -999.25    -999.25    0.72940   12.03510 1317.82340    -999.25    -999.25    -999.25  284.86330 1317.82340  453.85770  453.85770    -999.25 -146.06470    -999.25 -133.85780    -999.25
 6400.00000    9.09150    9.09150    -999.25    -999.25    0.93490   15.42580  193.58040    -999.25    -999.25    -999.25  137.19170  193.58040  422.81080  422.81080    -999.25 -155.53830    -999.25 -143.65900    -999.25
 6450.00000    9.23340    9.23340    -999.25    -999.25    1.47740   24.37710  399.76030    -999.25    -999.25    -999.25  242.45880  399.76030  490.95260  490.95260    -999.25  -67.76030    -999.25  -56.21090    -999.25
 6500.00000    9.00030    9.00030    -999.25    -999.25    2.19360   36.19440 2245.61770    -999.25    -999.25    -999.25  627.97900 2245.61770  520.94760  520.94760    -999.25  -38.50270    -999.25  -27.28090    -999.25
 6550.00000    8.98630    8.98630    -999.25    -999.25    0.85540   14.11410   33.95910    -999.25    -999.25    -999.25  101.24240   33.95910  324.28170  324.28170    -999.25  -40.67580    -999.25  -29.78170    -999.25
 6600.00000    9.01790    9.01790    -999.25    -999.25    0.89080   14.69820   15.95560    -999.25    -999.25    -999.25  329.02730   15.95560  328.63390  328.63390    -999.25  -89.74750    -999.25  -79.18320    -999.25
 6650.00000    9.01630    9.01630    -999.25    -999.25    1.67190   27.58630  143.99080    -999.25    -999.25    -999.25  288.40000  143.99080  422.49390  422.49390    -999.25 -179.90300    -999.25 -169.66630    -999.25
 6700.00000    9.44610    9.44610    -999.25    -999.25    4.59500   75.81830   43.97910    -999.25    -999.25    -999.25   40.51060   43.97910  275.62200  275.62200    -999.25 -175.17200    -999.25 -165.26510    -999.25
 6750.00000    9.01550    9.01550    -999.25    -999.25    4.07550   67.24580  173.65920    -999.25    -999.25    -999.25   53.02430  173.65920  391.97070  391.97070    -999.25 -149.35840    -999.25 -139.77920    -999.25
 6800.00000    9.07770    9.07770    -999.25    -999.25    4.00770   66.12700  488.10900    -999.25    -999.25    -999.25   88.30670  488.10900  373.68620  373.68620    -999.25  -76.69000    -999.25  -67.43840    -999.25
 6850.00000    9.20860    9.20860    -999.25    -999.25    6.40380  105.66270   24.98700    -999.25    -999.25    -999.25   68.56600   24.98700  289.13020  289.13020    -999.25  -87.11210    -999.25  -78.19040    -999.25
 6900.00000    9.04100    9.04100    -999.25    -999.25    2.23090   36.80990  396.58890    -999.25    -999.25    -999.25  205.66060  396.58890  487.37840  487.37840    -999.25  -41.81530    -999.25  -33.22120    -999.25
 6950.00000    9.07540    9.07540    -999.25    -999.25    7.58040  125.07740   35.97890    -999.25    -999.25    -999.25   56.57040   35.97890  329.43220  329.43220    -999.25  -67.58660    -999.25  -59.32230    -999.25
 7000.00000    9.13630    9.13630    -999.25    -999.25    6.19660  102.24390   53.43640    -999.25    -999.25    -999.25   46.45610   53.43640  335.91300  335.91300    -999.25  -33.18620    -999.25  -25.24960    -999.25
 7050.00000    9.10750    9.10750    -999.25    -999.25    3.91990   64.67840   98.51050    -999.25    -999.25    -999.25   37.97710   98.51050  369.98330  369.98330    -999.25  -73.07100    -999.25  -65.46200    -999.25
 7100.00000    9.10960    9.10960    -999.25    -999.25    2.68490   44.30080   88.85290    -999.25    -999.25    -999.25   47.89730   88.85290  426.91290  426.91290    -999.25 -133.53080    -999.25 -126.25160    -999.25
 7150.00000    9.04230    9.04230    -999.25    -999.25    3.45540   57.01410  541.27600    -999.25    -999.25    -999.25  780.46700  541.27600  353.16790  353.16790    -999.25 -163.21100    -999.25 -156.25950    -999.25
 7200.00000    9.09520    9.09520    -999.25    -999.25    6.84570  112.95320   18.67090    -999.25    -999.25    -999.25   70.42150   18.67090  277.03170  277.03170    -999.25 -152.80980    -999.25 -146.18810    -999.25
 7250.00000    9.19060    9.19060    -999.25    -999.25    1.71440   28.28760 11940.28220    -999.25    -999.25    -999.25  463.69620 11940.28220  463.72380  463.72380    -999.25 -173.31270    -999.25 -167.01870    -999.25
 7300.00000    9.26110    9.26110    -999.25    -999.25    1.94500   32.09250  790.62610    -999.25    -999.25    -999.25  304.03150  790.62610  385.97540  385.97540    -999.25 -129.17220    -999.25 -123.20580    -999.25
 7350.00000   10.38470   10.38470    -999.25    -999.25    0.91340   15.07110 10419.08010    -999.25    -999.25    -999.25   39.77280 10419.08010  427.00460  427.00460    -999.25 -161.50760    -999.25 -155.87100    -999.25
 7400.00000   10.15620   10.15620    -999.25    -999.25    0.64530   10.64740 1964.16760    -999.25    -999.25    -999.25  172.04640 1964.16760  465.80430  465.80430    -999.25 -190.99530    -999.25 -185.68640    -999.25
 7450.00000    9.07230    9.07230    -999.25    -999.25    0.62870   10.37350 2628.21080    -999.25    -999.25    -999.25  247.07950 2628.21080  478.01390  478.01390    -999.25 -158.61350    -999.25 -153.63440    -999.25
 7500.00000    9.12040    9.12040    -999.25    -999.25    1.32430   21.85100  147.03040    -999.25    -999.25    -999.25   51.33760  147.03040  440.29430  440.29430    -999.25  -88.88490    -999.25  -84.23340    -999.25
 7550.00000    9.13950    9.13950    -999.25    -999.25    2.23430   36.86600  258.25470    -999.25    -999.25    -999.25  131.42250  258.25470  327.11540  327.11540    -999.25  -93.98540    -999.25  -89.66160    -999.25
 7600.00000   10.23510   10.23510    -999.25    -999.25    1.17270   19.34960 4181.36870    -999.25    -999.25    -999.25   47.51470 4181.36870  494.85740  494.85740    -999.25  -52.38690    -999.25  -48.37350    -999.25
 7650.00000    9.04930    9.04930    -999.25    -999.25    0.80340   13.25610  170.51300    -999.25    -999.25    -999.25  150.07170  170.51300  485.94270  485.94270    -999.25 -108.03610    -999.25 -104.02270    -999.25
 7700.00000    9.04310    9.04310    -999.25    -999.25    1.30180   21.47970  264.75810    -999.25    -999.25    -999.25  327.29420  264.75810  499.22090  499.22090    -999.25 -248.22470    -999.25 -244.21130    -999.25
 7750.00000    9.01910    9.01910    -999.25    -999.25    0.63070   10.40660  785.15760    -999.25    -999.25    -999.25  544.40930  785.15760  495.12630  495.12630    -999.25 -295.79440    -999.25 -291.78100    -999.25
 7800.00000    9.15900    9.15900    -999.25    -999.25    1.05710   17.44210  201.02070    -999.25    -999.25    -999.25  250.19510  201.02070  461.84530  461.84530    -999.25 -207.83000    -999.25 -203.81660    -999.25
 7850.00000    8.99110    8.99110    -999.25    -999.25    0.72740   12.00210  106.78180    -999.25    -999.25    -999.25  575.64650  106.78180  373.20250  373.20250    -999.25  -95.96900    -999.25  -91.95560    -999.25
 7900.00000    8.85080    8.85080    -999.25    -999.25    0.48680    8.03220  212.26540    -999.25    -999.25    -999.25  573.51450  212.26540  438.79110  438.79110    -999.25  -95.66120    -999.25  -91.64780    -999.25
 7950.00000    9.06760    9.06760    -999.25    -999.25    0.57770    9.53210  133.51990    -999.25    -999.25    -999.25   59.92230  133.51990  451.24660  451.24660    -999.25  -94.11020    -999.25  -90.09680    -999.25
 8000.00000    9.11630    9.11630    -999.25    -999.25    1.61880   26.71020 1735.43020    -999.25    -999.25    -999.25  583.57690 1735.43020  377.52440  377.52440    -999.25 -113.13590    -999.25 -109.12250    -999.25
 8050.00000    9.03810    9.03810    -999.25    -999.25    1.57420   25.97430 2399.17110    -999.25    -999.25    -999.25   44.43080 2399.17110  382.75850  382.75850    -999.25 -218.34990    -999.25 -214.33650    -999.25
 8100.00000    9.03740    9.03740    -999.25    -999.25    4.39160   72.46140   71.55760    -999.25    -999.25    -999.25   72.17020   71.55760  343.35530  343.35530    -999.25 -171.90390    -999.25 -167.89050    -999.25
