~Version ---------------------------------------------------
VERS.      2.0 : CWLS log ASCII Standard -VERSION 2.0
WRAP.       NO : One line per depth step
CREA. 08/21/13 : LAS Creation Date
~Well ------------------------------------------------------
STRT.M                      450.0 : START DEPTH
STOP.M                     4050.0 : STOP DEPTH
STEP.M                   50.00000 : STEP LENGTH
NULL.                     -999.25 : NULL VALUE
COMP.                PETRO CANADA : COMPANY
WELL. PC NEWPORT EDSON 4-35-50-18 : WELL
FLD .                       EDSON : FIELD
LOC .                             : LOCATION
CTRY.                      CANADA : COUNTRY
SRVC.                Schlumberger : SERVICE COMPANY
DATE.                 12-Apr-1988 : LOGDATE
PROV.                     Alberta : PROVINCE
UWI .            100043505018W500 : UNIQUE WELL ID
SLAT.WGS84               53.35424 : SURFACE LATITUDE
SLON.WGS84                -116.53 : SURFACE LONGITUDE
~Curve Information -----------------------------------------
DEPT    .M      : DEPTH METER
AHT10ED .OHMM   : 10 INCH RESISTIVITY ONE FOOT RESOLUTION FROM AIT LOG
AHT20ED .OHMM   : 20 INCH RESISTIVITY ONE FOOT RESOLUTION FROM AIT LOG
AHT30ED .OHMM   : 30 INCH RESISTIVITY ONE FOOT RESOLUTION FROM AIT LOG
AHT60ED .OHMM   : 60 INCH RESISTIVITY ONE FOOT RESOLUTION FROM AIT LOG
AHT90ED .OHMM   : 90 INCH RESISTIVITY ONE FOOT RESOLUTION FROM AIT LOG
CAL2ED  .MM     : CALIPER 2 HORIZONTAL FROM DENSITY LOG
CALWS   .MM     : CALIPER [HCALDED]
CONDWS  .MMHO   : CONDUCTIVITY [1000/DRESWS]
DCORWS  .KG/M3  : DENSITY CORRECTION [HDRAED]
DENWS   .KG/M3  : FORMATION BULK DENSITY [CALC. FROM DPOLSWS M=2710,F=1000]
DNPHED  .V/V    : DELTA THERMAL NEUTRON POROSITY SANDSTONE [M=2650,F=1000] FROM DENSITY LOG
DPHZLSED.V/V    : DENSITY POROSITY LIMESTONE [M=2710,F=1000] FROM DENSITY LOG
DPHZSSED.V/V    : DENSITY POROSITY SANDSTONE [M=2650,F=1000] FROM DENSITY LOG
DPOLSWS .V/V    : DENSITY POROSITY LIMESTONE [DPHISSED CONVERRED TO LIMESTONE, SPL. TO DPHILSED @ 2984M - 2987.82M]
DRESWS  .OHMM   : DEEP RESISTIVITY AHT90ED]
DTED    .US/M   : DELTA TIME FROM SONIC LOG
DTWS    .US/M   : COMPRESSIONAL SONIC [DTED]
GRDED   .GAPI   : GAMMA RAY FROM DENSITY LOG
GRWS    .GAPI   : GAMMA RAY [GRDED]
HCALDED .MM     : CALIPER FROM DENSITY LOG
HDRAED  .KG/M3  : DENSITY CORRECTION FROM DENSITY LOG
HPRAED  .B/E    : HRDD PHOTOELECTRIC FACTOR CORRECTION FROM DENSITY LOG
MRESWS  .OHMM   : MEDIUM RESISTIVITY AHT30ED]
NPOLSWS .V/V    : NEUTRON POROSITY LIMESTONE [NPHISSED MATRIX CONVERSION FOR LIMESTONE FROM BALER ATLAS (CNL-2420), SPL. TO NPHILSED @ 2980M]
NPORLSED.V/V    : NEUTRON POROSITY LIMESTONE FROM DENSITY LOG
NPORSSED.V/V    : NEUTRON POROSITY SANDSTONE FROM DENSITY LOG
PEFWS   .B/E    : PHOTOELECTRIC FACTOR [HPRAED SPL. TO PEFZED @ 2087.89M]
PEFZED  .B/E    : PHOTO ELECTRIC FACTOR FROM DENSITY LOG
RHOZED  .KG/M3  : BULK DENSITY HRDD STANDARD RESOLUTION FROM DENSITY LOG [ADJ. TO DPHZSSED/DPHZLSED]
RXOZED  .OHMM   : MICRO RESISTIVITY FROM AIT LOG
SPRED   .MV     : SPONTANEOUS POTENTIAL FROM AIT LOG
SPWS    .MV     : SPONTANEOUS POTENTIAL [BASELINE 0 MV,SPRED]
SRESWS  .OHMM   : SHALLOW RESISTIVITY [AHT10ED]
TENSED  .N      : TENSION FROM SONIC LOG
~Params ----------------------------------------------------
PD  .                           GL : PERMANENT DATUM
EPD .M                      995.13 : ELEVATION PERMANENT DATUM
LMF .                           KB : LOG MEASURED FROM
DAPD.M                         7.6 : FEET ABOVE PERMANENT DATUM
DMF .                           KB : DRILLING MEASURED FROM
EKB .M                     1002.75 : KELLY BUSHING
EDF .M                     1002.45 : DRILLING FLOOR
EGL .M                      995.13 : GROUND LEVEL
DATE.                     04/12/98 : RUN DATE
RUN .                            2 : RUN NUMBER
DD  .M                        4095 : DEPTH DRILLER
DL  .M                        4091 : DEPTH LOGGER
BLI .M                        4091 : BOTTOM LOG INTERVAL
TLI .M                        2927 : TOP LOG INTERVAL
CS  .MM                      244.5 : CASING SIZE
CBD .M                        2989 : CASING BOTTOM DRILLER
CBL .M                        2987 : CASING BOTTOM LOGGER
BS  .MM                        216 : BIT SIZE
BSD .M                        4095 : BIT SIZE AT DEPTH
DFT .                  GEL POLYMER : DRILLING FLUID TYPE
DFD .                         1245 : DRILLING FLUID DENSITY
DFV .                           65 : DRILLING FLUID VISCOSITY
DFPH.                          4.5 : DRILLING FLUID PH
DFL .                         11.5 : DRILLING FLUID LOSS
MSS .                     FLOWLINE : MUD SAMPLE SOURCE
RMS .OHMM                     1.14 : RESISTIVITY MUD SAMPLE
MST .DEGC                       12 : MUD SAMPLE TEMPERATURE
RMF .OHMM                     0.93 : RESISTIVITY MUD FILTRATE SAMPLE
MFST.DEGC                       12 : MUD FILTRATE SAMPLE TEMPERATURE
RMC .OHMM                     0.55 : RESISTIVITY MUD CAKE
MCST.DEGC                      118 : MUD CAKE SAMPLE TEMPERATURE
MFSS.                         MEAS : MUD FILTRATE SAMPLE SOURCE
MCSS.                         MEAS : MUD CAKE SAMPLE SOURCE
RMB .OHMM                    0.274 : RESISTIVITY MUD AT BHT
TCS .HRS                      2030 : TIME CIRCULATED STOPPED
TLAB.HRS                       630 : TIME LOGGER AT BOTTOM
LUN .                         2111 : LOGGING UNIT NUMBER
LUL .                     NISKU ES : LOGGING UNIT LOCATION
ENGI.                       HARVEY : RECORDING ENGINEER
WITN.                     MARSLAND : WITNESSED BY
CLNT.                      A2DTECH : CLIENT CODE
ORIG. 6.5IN/100M 16.5IN/100M PRINT : ORIGIN OF DATA
UWI .             100043505018W500 : UNIQUE WELL ID
DICO.       A2D Technologies, Inc. : DIGITIZING COMPANY
~Other -----------------------------------------------------
PEX-AIT-TDL-CNL-XY-DSLT LOG RUN IN COMBO.
NEUTRON MATRIX CONVERSION FOR LIMESTONE FROM BALER ATLAS (CNL-2420)
~ASCII -----------------------------------------------------
  450.00000    -999.25    -999.25    -999.25    -999.25    -999.25    -999.25    -999.25    -999.25    -999.25    -999.25   -0.03300    -999.25    -999.25    -999.25    -999.25    -999.25    -999.25   39.89290   39.89290    -999.25    -999.25    -999.25    -999.25    -999.25    -999.25    -999.25    -999.25    -999.25    -999.25    -999.25    -999.25    -999.25    -999.25    -999.25
  500.00000    8.49750    7.97610    9.14310   11.36210   12.08310   67.38220  184.98810   82.76020   64.37300    -999.25   -0.04930    -999.25    -999.25    -999.25   12.08310  323.19180  323.19180   77.43240   77.43240  184.98810   64.37300    0.87710    9.14310    -999.25    -999.25    -999.25    0.87710    -999.25    -999.25    -999.25    -999.25    -999.25    8.49750 9210.81930
  550.00000   19.31700   16.22980   17.19530   21.71380   24.11730   67.08310  122.62640   41.46400   27.50840    -999.25   -0.04090    -999.25    -999.25    -999.25   24.11730  319.29170  319.29170   63.59830   63.59830  122.62640   27.50840    0.04340   17.19530    -999.25    -999.25    -999.25    0.04340    -999.25    -999.25    -999.25    -999.25    -999.25   19.31700 9507.50590
  600.00000    5.78160    5.46090    6.27830    6.53540    6.95780   68.87860  154.07680  143.72360    4.08840    -999.25   -0.04880    -999.25    -999.25    -999.25    6.95780  302.41380  302.41380   74.01680   74.01680  154.07680    4.08840    0.08760    6.27830    -999.25    -999.25    -999.25    0.08760    -999.25    -999.25    -999.25    -999.25    -999.25    5.78160 9381.28220
  650.00000    5.46290    4.73250    5.35650    6.67200    7.14190   64.48490  216.16130  140.01880   57.44480    -999.25   -0.05670    -999.25    -999.25    -999.25    7.14190  352.89080  352.89080   81.54000   81.54000  216.16130   57.44480    0.08020    5.35650    -999.25    -999.25    -999.25    0.08020    -999.25    -999.25    -999.25    -999.25    -999.25    5.46290 9849.35740
  700.00000    7.37560    6.87230    7.93810    8.56320    9.11980   67.70470  137.62390  109.65150   63.89060    -999.25   -0.04630    -999.25    -999.25    -999.25    9.11980  290.91770  290.91770   94.23200   94.23200  137.62390   63.89060    0.29790    7.93810    -999.25    -999.25    -999.25    0.29790    -999.25    -999.25    -999.25    -999.25    -999.25    7.37560 9716.66990
  750.00000   19.37580   17.30160   17.88120   21.39370   21.82340  114.03080   69.90410   45.82240   14.91170    -999.25   -0.02880    -999.25    -999.25    -999.25   21.82340  253.77520  253.77520   54.99590   54.99590   69.90410   14.91170    0.05720   17.88120    -999.25    -999.25    -999.25    0.05720    -999.25    -999.25    -999.25    -999.25    -999.25   19.37580 10282.18750
  800.00000   24.48210   18.08640   18.64850   20.76740   22.56170   97.04670   68.33040   44.32290   20.00820    -999.25   -0.02870    -999.25    -999.25    -999.25   22.56170  240.17000  240.17000   60.19720   60.19720   68.33040   20.00820    0.07060   18.64850    -999.25    -999.25    -999.25    0.07060    -999.25    -999.25    -999.25    -999.25    -999.25   24.48210 10675.17870
  850.00000    5.16770    3.65480    3.76440    3.86380    3.94750  320.19220   80.67360  253.32490  -17.78300    -999.25   -0.02920    -999.25    -999.25    -999.25    3.94750  501.64570  501.64570   63.97640   63.97640   80.67360  -17.78300    0.26820    3.76440    -999.25    -999.25    -999.25    0.26820    -999.25    -999.25    -999.25    -999.25    -999.25    5.16770 11051.39060
  900.00000   18.20320   11.27460   13.66680   15.18590   16.30510  154.53110   69.31180   61.33050   22.63130    -999.25   -0.02930    -999.25    -999.25    -999.25   16.30510  248.59920  248.59920   94.65580   94.65580   69.31180   22.63130    0.06420   13.66680    -999.25    -999.25    -999.25    0.06420    -999.25    -999.25    -999.25    -999.25    -999.25   18.20320 10963.43650
  950.00000   25.47530   18.33810   18.74320   22.01190   23.83600  121.49210   68.23790   41.95330   17.43360    -999.25   -0.02900    -999.25    -999.25    -999.25   23.83600  251.53710  251.53710   58.14140   58.14140   68.23790   17.43360    0.04540   18.74320    -999.25    -999.25    -999.25    0.04540    -999.25    -999.25    -999.25    -999.25    -999.25   25.47530 11180.25100
 1000.00000   13.27650    9.09600   10.23160   11.27360   12.06750  190.09290   69.76750   82.86720   52.39620    -999.25   -0.02920    -999.25    -999.25    -999.25   12.06750  292.91120  292.91120   79.52770   79.52770   69.76750   52.39620    0.06520   10.23160    -999.25    -999.25    -999.25    0.06520    -999.25    -999.25    -999.25    -999.25    -999.25   13.27650 11699.11430
 1050.00000  109.01940   52.43930   57.38280   62.43320   65.64750   65.27920   68.28200   15.23290   43.99110    -999.25   -0.02860    -999.25    -999.25    -999.25   65.64750  243.91840  243.91840   51.11330   51.11330   68.28200   43.99110    0.99150   57.38280    -999.25    -999.25    -999.25    0.99150    -999.25    -999.25    -999.25    -999.25    -999.25  109.01940 11974.03520
 1100.00000    8.19080    7.42800    7.74830    8.12600    8.29200   71.83290  147.18550  120.59820   85.68280    -999.25   -0.04370    -999.25    -999.25    -999.25    8.29200  258.71190  258.71190   78.56320   78.56320  147.18550   85.68280    0.20550    7.74830    -999.25    -999.25    -999.25    0.20550    -999.25    -999.25    -999.25    -999.25    -999.25    8.19080 12019.94730
 1150.00000    8.33000    7.31540    8.52070    9.57580   10.53870   74.52860  125.16750   94.88840  -43.14690    -999.25   -0.04680    -999.25    -999.25    -999.25   10.53870  276.98790  276.98790   84.90580   84.90580  125.16750  -43.14690    0.03560    8.52070    -999.25    -999.25    -999.25    0.03560    -999.25    -999.25    -999.25    -999.25    -999.25    8.33000 12483.56250
 1200.00000    9.16850    7.79360    8.36730    8.89270    9.05640   66.79460  126.04780  110.41920   90.33590    -999.25   -0.04240    -999.25    -999.25    -999.25    9.05640  260.60730  260.60730   90.67710   90.67710  126.04780   90.33590    0.44450    8.36730    -999.25    -999.25    -999.25    0.44450    -999.25    -999.25    -999.25    -999.25    -999.25    9.16850 12647.37400
 1250.00000   10.28900   10.12960   10.64990   11.22570   11.40740   67.44050  156.15910   87.66240  100.24570    -999.25   -0.04770    -999.25    -999.25    -999.25   11.40740  262.27290  262.27290   93.21670   93.21670  156.15910  100.24570    0.15620   10.64990    -999.25    -999.25    -999.25    0.15620    -999.25    -999.25    -999.25    -999.25    -999.25   10.28900 12776.71190
 1300.00000    8.99970    7.71890    8.16090    8.50600    8.63580   66.20760  184.43710  115.79700  109.47330    -999.25   -0.05490    -999.25    -999.25    -999.25    8.63580  270.40470  270.40470   94.47550   94.47550  184.43710  109.47330    0.16410    8.16090    -999.25    -999.25    -999.25    0.16410    -999.25    -999.25    -999.25    -999.25    -999.25    8.99970 13134.33400
 1350.00000  132.48930   44.28210   49.67020   57.10390   65.06490   77.57990  133.96020   15.36930  147.50660    -999.25   -0.03910    -999.25    -999.25    -999.25   65.06490  205.58090  205.58090   55.59370   55.59370  133.96020  147.50660    0.13380   49.67020    -999.25    -999.25    -999.25    0.13380    -999.25    -999.25    -999.25    -999.25    -999.25  132.48930 13405.80270
 1400.00000   10.91960    9.55550    9.86540   10.25100   10.41870   63.73250  157.53260   95.98130  106.75860    -999.25   -0.04880    -999.25    -999.25    -999.25   10.41870  256.06480  256.06480   86.75820   86.75820  157.53260  106.75860    1.36580    9.86540    -999.25    -999.25    -999.25    1.36580    -999.25    -999.25    -999.25    -999.25    -999.25   10.91960 14154.88670
 1450.00000   11.99790    9.45110    9.81410   10.47230   11.15980   66.55490  273.34580   89.60730   59.65780    -999.25   -0.06640    -999.25    -999.25    -999.25   11.15980  265.75670  265.75670   72.08920   72.08920  273.34580   59.65780    1.05830    9.81410    -999.25    -999.25    -999.25    1.05830    -999.25    -999.25    -999.25    -999.25    -999.25   11.99790 14422.29000
