~Version ---------------------------------------------------
VERS.      2.0 : CWLS log ASCII Standard -VERSION 2.0
WRAP.       NO : One line per depth step
CREA. 08/01/17 : LAS Creation Date
~Well ------------------------------------------------------
STRT.FT                  900.0 : START DEPTH
STOP.FT                 9500.0 : STOP DEPTH
STEP.FT               50.00000 : STEP LENGTH
NULL.                  -999.25 : NULL VALUE
COMP. BP CANADA ENERGY COMPANY : COMPANY
WELL. AMOCO HB WIND 3-32-60-15 : WELL
FLD .                          : FIELD
LOC .                          : LOCATION
CTRY.                   CANADA : COUNTRY
SRVC.   Schlumberger of Canada : SERVICE COMPANY
DATE.              25-Jan-1971 : LOGDATE
PROV.                  Alberta : PROVINCE
UWI .         100033206015W500 : UNIQUE WELL ID
SLAT.WGS84             54.2274 : SURFACE LATITUDE
SLON.WGS84           -116.2148 : SURFACE LONGITUDE
~Curve Information -----------------------------------------
DEPT    .FT    : Depth Curve
CALDED  .IN    : CALIPER FROM DENSITY LOG
CALNED  .IN    : CALIPER FROM NEUTRON LOG
CALSED  .IN    : CALIPER FROM SONIC LOG
CALWS   .IN    : CALIPER [CALSED]
CONDWS  .MMHO  : CONDUCTIVITY [1000/DRESWS]
CORRED  .G/C3  : DENSITY CORRECTION FROM DENSITY LOG
DCORWS  .G/C3  : DENSITY CORR4ECTION [CORRED]
DENWS   .G/C3  : BULK DENSITY RHOBED]
DPHILSED.V/V   : DENSITY POROSITY [M=2.71, F=1.00] FROM DENSITY LOG
DPOLSWS .V/V   : DENSITY POROSITY LIMESTONE [CALCULATED FROM DENWS]
DRESWS  .OHMM  : DEEP RESISTIVITY [ILDED]
DTED    .US/F  : DELTA TIME FROM SONIC LOG
DTWS    .US/F  : DELTA TIME [DTED]
GRDED   .GAPI  : GAMMA RAY FROM DENSITY LOG
GRNED   .GAPI  : GAMMA RAY FROM NEUTRON LOG
GRSED   .GAPI  : GAMMA RAY FROM SONIC LOG
GRWS    .GAPI  : GAMMA RAY [GRDED]
ILDED   .OHMM  : INDUCTION LOG DEEP RESISTIVITY
ILMED   .OHMM  : INDUCTION LOG MEDIUM RESISTIVITY
LL8ED   .OHMM  : 8 INCH LATEROLOG RESISTIVITY
MRESWS  .OHMM  : MEDIUM RESISTIVITY [ILMED]
NPOLSWS .V/V   : NEUTRON POROSITY LIMESTONE [SNPLSED]
RHOBED  .G/C3  : BULK DENSITY FROM DENSITY LOG
SNPLSED .V/V   : SIDEWALL NEUTRON POROSITY LIMESONTE
SPRED   .MV    : SPONTANEOUS POTENTIAL FROM RESISTIVITY LOG
SPWS    .MV    : SPONTANEOUS POTENTIAL [BASELINE 0 MV] [SPRED]
SRESWS  .OHMM  : SHALLOW RESISTIVITY [LL8ED]
~Params ----------------------------------------------------
PD  .                     GL : PERMANENT DATUM
EPD .FT               2499.5 : ELEVATION PERMANENT DATUM
LMF .                     KB : LOG MEASURED FROM
DAPD.FT                   14 : FEET ABOVE PERMANENT DATUM
EKB .FT               2513.5 : KELLY BUSHING
EGL .FT               2499.5 : GROUND LEVEL
DATE.               01/25/71 : RUN DATE
RUN .                      1 : RUN NUMBER
DD  .FT                 8540 : DEPTH DRILLER
DL  .FT                 8541 : DEPTH LOGGER
BLI .FT                 8535 : BOTTOM LOG INTERVAL
TLI .FT                  921 : TOP LOG INTERVAL
CBD .FT                  921 : CASING BOTTOM DRILLER
CBL .FT                  920 : CASING BOTTOM LOGGER
BS  .IN                 8.75 : BIT SIZE
BSD .FT                 9540 : BIT SIZE AT DEPTH
DFT .                GELCHEM : DRILLING FLUID TYPE
DFD .                    9.7 : DRILLING FLUID DENSITY
DFV .                    122 : DRILLING FLUID VISCOSITY
DFPH.                     10 : DRILLING FLUID PH
DFL .                      8 : DRILLING FLUID LOSS
MSS .               FLOWLINE : MUD SAMPLE SOURCE
RMF .OHMM               0.97 : RESISTIVITY MUD FILTRATE SAMPLE
MFST.DEGF                 73 : MUD FILTRATE SAMPLE TEMPERATURE
RMC .OHMM               1.49 : RESISTIVITY MUD CAKE
MCST.DEGF                 72 : MUD CAKE SAMPLE TEMPERATURE
TCS .HRS                   4 : TIME CIRCULATED STOPPED
LUN .                   7501 : LOGGING UNIT NUMBER
LUL .                    EDM : LOGGING UNIT LOCATION
ENGI.                 SLADEN : RECORDING ENGINEER
WITN.       HEIKKINEN MORRIS : WITNESSED BY
CLNT.                A2DTECH : CLIENT CODE
ORIG.            2" 5" PRINT : ORIGIN OF DATA
UWI .       100033206015W500 : UNIQUE WELL ID
DICO. A2D Technologies, Inc. : DIGITIZING COMPANY
~Other -----------------------------------------------------
~ASCII -----------------------------------------------------
# ...
 8700.00000    9.32280    9.29800    8.73750    8.73750    2.00620    0.16640    0.16640    2.77720   -0.03120   -0.03930  499.34440   48.15610   48.15610    9.79230   10.88190   12.56740   12.56740  499.34440 1409.72290 1305.98450 1409.72290    0.06920    2.77720    0.06920 -165.57570 -132.44970 1305.98450
 8750.00000    9.25400    9.20850    8.46020    8.46020   13.23570    0.12740    0.12740    2.74760   -0.01600   -0.02200   75.55320   49.86430   49.86430    8.60960    6.54800   11.44850   11.44850   75.55320   69.87310   85.21460   69.87310    0.10330    2.74760    0.10330 -165.92510 -132.08520   85.21460
 8800.00000    9.24210    9.14650    8.64760    8.64760    3.88660    0.13380    0.13380    2.73720   -0.01000   -0.01590  257.29740   48.29220   48.29220   11.21400    8.63570   11.99350   11.99350  257.29740  955.72690  279.63240  955.72690    0.12860    2.73720    0.12860 -160.54320 -125.98580  279.63240
 8850.00000    8.93010    8.83720    8.46410    8.46410    2.67430    0.17030    0.17030    2.89830   -0.09280   -0.11010  373.93070   50.87380   50.87380    8.91460    8.64420   13.42070   13.42070  373.93070  868.87530  555.23190  868.87530    0.07960    2.89830    0.07960 -162.59450 -127.31950  555.23190
 8900.00000    9.10390    9.14720    8.54390    8.54390   12.40300    0.04760    0.04760    2.61280    0.06230    0.05680   80.62570   58.82700   58.82700    8.46270    8.22150   12.51340   12.51340   80.62570  135.28270  124.70540  135.28270    0.15300    2.61280    0.15300 -161.73190 -125.73940  124.70540
 8950.00000    9.36120    9.44550    8.77000    8.77000    0.68900    0.04010    0.04010    2.83950   -0.06860   -0.07570 1451.31760   47.78450   47.78450    7.03140    7.16380   14.11150   14.11150 1451.31760 1531.28610 1568.08940 1531.28610    0.02970    2.83950    0.02970 -145.38160 -108.66800 1568.08940
 9000.00000    9.63740    9.59970    8.96950    8.96950    0.68930    0.05930    0.05930    2.76950   -0.02570   -0.03480 1450.80630   48.45890   48.45890    8.12470    6.78860    9.34480    9.34480 1450.80630 1526.96740 1567.53540 1526.96740    0.00090    2.76950    0.00090 -144.95950 -107.53200 1567.53540
 9050.00000    9.62520    9.66270    8.95020    8.95020    2.53470    0.04770    0.04770    2.74480   -0.01600   -0.02040  394.51980   48.45040   48.45040    7.54000    7.82330   12.72760   12.72760  394.51980  237.41390  448.77960  237.41390    0.00330    2.74480    0.00330 -149.69690 -111.55190  448.77960
 9100.00000    9.06740    9.01280    8.51440    8.51440   62.19720    0.13510    0.13510    2.73650   -0.00970   -0.01550   16.07790   54.72770   54.72770    7.25780    8.04040   11.30340   11.30340   16.07790   23.82980  109.42150   23.82980    0.06970    2.73650    0.06970 -159.41460 -120.55200  109.42150
 9150.00000    9.81990    9.86310    8.94420    8.94420    0.69950    0.01580    0.01580    2.70750    0.00720    0.00150 1429.51370   50.09540   50.09540    6.76310    8.99930   10.29810   10.29810 1429.51370 1380.78320 1546.53040 1380.78320   -0.00330    2.70750   -0.00330 -144.13290 -104.55280 1546.53040
 9200.00000    9.57810    9.66170    9.06230    9.06230    1.61500    0.02560    0.02560    2.73630   -0.00980   -0.01540  625.50680   49.10620   49.10620    9.90590    8.17760   10.11690   10.11690  625.50680  301.46030  535.04400  301.46030   -0.00190    2.73630   -0.00190  -97.49760  -57.19650  535.04400
 9250.00000    9.66070    9.85070    9.16690    9.16690    0.70280    0.04400    0.04400    2.75250   -0.01890   -0.02490 1422.81960   48.50240   48.50240   11.48350   12.48390   13.91830   13.91830 1422.81960  559.65640  940.25750  559.65640   -0.00220    2.75250   -0.00220  -82.99670  -41.98160  940.25750
 9300.00000    9.74740    9.91440    8.94950    8.94950    0.70420    0.02850    0.02850    2.72210   -0.00120   -0.00710 1419.97460   50.52210   50.52210    5.95240    6.16110    9.27960    9.27960 1419.97460  359.28410  489.29780  359.28410   -0.00160    2.72210   -0.00160 -120.53930  -78.80670  489.29780
 9350.00000   10.16630    9.62210    9.07450    9.07450    0.67810    0.10340    0.10340    2.77250   -0.02900   -0.03650 1474.71170   48.48500   48.48500    8.86980    8.74650    9.73080    9.73080 1474.71170 1412.17190 1560.32090 1412.17190    0.02710    2.77250    0.02710 -145.77490 -103.32470 1560.32090
 9400.00000    9.43830    9.36370    9.05760    9.05760    0.68410    0.06360    0.06360    2.76240   -0.02180   -0.03060 1461.86650   49.06820   49.06820   12.62470   16.22840   13.48010   13.48010 1461.86650 1405.30290 1560.30130 1405.30290    0.00040    2.76240    0.00040 -150.31470 -107.14700 1560.30130
 9450.00000    9.09290    9.34640    9.04310    9.04310    1.44930    0.05660    0.05660    2.75970   -0.02140   -0.02910  740.14380   49.45970   49.45970    1.00990    9.34130   10.90310   10.90310  740.14380  617.28740 1168.83180  617.28740    0.00000    2.75970    0.00000 -118.16590  -74.27710 1168.83180
 9500.00000    8.41530    8.28250    8.47690    8.47690   61.51760    0.23340    0.23340    2.64030    0.04630    0.04080   16.25550   65.66910   65.66910   48.69670   44.88460   45.63060   45.63060   16.25550   22.40480   72.49480   22.40480    0.08530    2.64030    0.08530  -94.29210  -49.68940   72.49480
