~Version ---------------------------------------------------
VERS.      2.0 : CWLS log ASCII Standard -VERSION 2.0
WRAP.       NO : One line per depth step
CREA. 10/01/14 : LAS Creation Date
~Well ------------------------------------------------------
STRT.FT                        1500.0 : START DEPTH
STOP.FT                        9650.0 : STOP DEPTH
STEP.FT                      50.00000 : STEP LENGTH
NULL.                         -999.25 : NULL VALUE
COMP.           OCELOT INDUSTRIES LTD : COMPANY
WELL. OIL ET AL VIRGHILLS 11-15-63-13 : WELL
FLD .                                 : FIELD
LOC .                                 : LOCATION
CTRY.                          CANADA : COUNTRY
SRVC.                   Dresser Atlas : SERVICE COMPANY
DATE.                     19-Jun-1978 : LOGDATE
PROV.                         Alberta : PROVINCE
UWI .                100111506313W500 : UNIQUE WELL ID
SLAT.WGS84                   54.45302 : SURFACE LATITUDE
SLON.WGS84                  -115.8819 : SURFACE LONGITUDE
~Curve Information -----------------------------------------
DEPT    .FT    : DEPTH METER
CALD    .IN    : CALIPER FROM CDL-CNL LOG
CALD1   .IN    : CALIPER FROM CNFD LOG
CORR    .G/C3  : DENSITY CORRECTION FROM CDL-CNL LOG
DCOR1   .G/C3  : DENSITY CORRECTION FROM CNFD LOG
DPHI_LS .DEC   : DENSITY POROSITY LIMESTONE [M=2.71,F=1.0] FROM CDL-CNL LOG
DPHI_SS .DEC   : DENSITY POROSITY SANDSTONE [M=2.65,F=1.0] FROM CDL-CNL LOG
DPHI_SS1.DEC   : DENSITY POROSITY SANDSTONE [M=2.65,F=1.0] FROM CNFD LOG
GRD     .GAPI  : GAMMA RAY FROM CDL-CNL LOG
GRD1    .GAPI  : GAMMA RAY FROM CNFD LOG
ILD     .OHMM  : DEEP INDUCTION FROM RESISTIVITY LOG
ILM     .OHMM  : MEDIUM INDUCTION FROM RESISTIVITY LOG
NPHI_LS .DEC   : NEUTRON POROSITY LIMESTONE FROM CDL-CNL LOG
NPHI_SS .DEC   : NEUTRON POROSITY SANDSTONE FROM CDL-CNL LOG
NPHI_SS1.DEC   : NEUTRON POROSITY SANDSTONE FROM CNFD LOG
RHOB    .G/C3  : BULK DENSITY FROM CDL-CNL LOG
RHOB1   .G/C3  : BULK DENSITY FROM CNFD LOG
SFL     .OHMM  : SPHERICALLY FOCUSED FROM RESISTIVITY LOG
SPR     .MV    : SPONTANEOUS POTENTIAL FROM RESISTIVITY LOG
~Params ----------------------------------------------------
PD  .                     GL : PERMANENT DATUM
EPD .FT               3435.5 : ELEVATION PERMANENT DATUM
LMF .                     KB : LOG MEASURED FROM
DAPD.FT                 15.5 : FEET ABOVE PERMANENT DATUM
DMF .                     KB : DRILLING MEASURED FROM
EKB .FT                 3451 : KELLY BUSHING
EGL .FT               3435.5 : GROUND LEVEL
DATE.               06/19/78 : RUN DATE
RUN .                      1 : RUN NUMBER
DD  .FT                 9683 : DEPTH DRILLER
DL  .FT                 9684 : DEPTH LOGGER
BLI .FT                 9681 : BOTTOM LOG INTERVAL
TLI .FT                 1517 : TOP LOG INTERVAL
CS  .IN                8.625 : CASING SIZE
CBD .FT                 1517 : CASING BOTTOM DRILLER
CBL .FT                 1517 : CASING BOTTOM LOGGER
BS  .IN                7.875 : BIT SIZE
BSD .FT                 9683 : BIT SIZE AT DEPTH
DFT .               GEL CHEM : DRILLING FLUID TYPE
DFD .                    9.1 : DRILLING FLUID DENSITY
DFV .                     65 : DRILLING FLUID VISCOSITY
DFPH.                      9 : DRILLING FLUID PH
DFL .                     11 : DRILLING FLUID LOSS
MSS .                   CIRC : MUD SAMPLE SOURCE
RMS .OHMM                  3 : RESISTIVITY MUD SAMPLE
MST .DEGF                 76 : MUD SAMPLE TEMPERATURE
RMF .OHMM                2.8 : RESISTIVITY MUD FILTRATE SAMPLE
MFST.DEGF                 72 : MUD FILTRATE SAMPLE TEMPERATURE
RMC .OHMM                2.5 : RESISTIVITY MUD CAKE
MCST.DEGF                 72 : MUD CAKE SAMPLE TEMPERATURE
MFSS.                   MEAS : MUD FILTRATE SAMPLE SOURCE
MCSS.                   MEAS : MUD CAKE SAMPLE SOURCE
RMB .OHMM               1.23 : RESISTIVITY MUD AT BHT
TCS .HRS                   5 : TIME CIRCULATED STOPPED
LUN .                HL 6155 : LOGGING UNIT NUMBER
LUL .                     VV : LOGGING UNIT LOCATION
ENGI.                 GORDON : RECORDING ENGINEER
WITN.                  BROCK : WITNESSED BY
CLNT.                A2DTECH : CLIENT CODE
ORIG.            2" 5" PRINT : ORIGIN OF DATA
UWI .       100111506313W500 : UNIQUE WELL ID
DICO. A2D Technologies, Inc. : DIGITIZING COMPANY
~Other -----------------------------------------------------
~ASCII -----------------------------------------------------
# ...
 5400.00000    8.43070    8.72150    0.01260    0.00640    -999.25    0.14010    0.06690   94.50410   77.43860    5.10860    5.36240    -999.25    0.27320    0.30590    2.41340    2.49800   10.19590  -38.62360
 5450.00000    7.69930    8.56990    0.04720    0.14850    -999.25    0.19650    0.15610   86.94340   73.41760    4.43620    6.87990    -999.25    0.28710    0.32300    2.30630    2.40810   11.59540  -96.26370
 5500.00000    7.96410    9.02540    0.02640    0.15070    -999.25    0.17600    0.13840   78.69060   60.75100    4.22690    7.16590    -999.25    0.28670    0.32840    2.37750    2.40730   16.36840 -107.62500
 5550.00000    8.79040    9.08270   -0.00880    0.02380    -999.25    0.08250    0.05020  115.27890  101.87790    5.37210    5.59920    -999.25    0.25950    0.32470    2.50530    2.57720    6.08110  -34.07810
 5600.00000   10.32190    9.26200    0.04480    0.19100    0.42670    0.35500    0.18430  110.42770  107.34620    2.05070    2.17270    0.38930    0.37650    0.47500    2.09630    2.36150    4.10030  -28.48070
 5650.00000    8.68630    8.87670    0.10200    0.05770    0.14070    0.07140    0.02030  110.84240  106.94230    5.69860    5.95910    0.31030    0.28640    0.32390    2.48790    2.61260    6.17120  -33.09740
 5700.00000    8.94300    9.18900    0.03970    0.08920    0.26740    0.23700    0.07650  115.45870   99.28650    5.20380    5.40700    0.29690    0.29170    0.40600    2.17590    2.50120    5.46930  -30.78840
 5750.00000    8.54310    8.99440    0.01400   -0.00480    0.21340    0.15510    0.11580  104.04830  106.24790   13.55050   15.00260    0.21050    0.23700    0.25410    2.50970    2.45280   13.09500  -34.29410
 5800.00000    9.00860    8.38250    0.09950    0.04780    0.10210    0.07560    0.00190  110.73780  104.81370    7.03830    7.38880    0.25110    0.24220    0.29800    2.50580    2.63000    9.31240  -25.93260
 5850.00000   11.96790    8.53900    0.13160    0.08570    0.17180    0.14860    -999.25  119.17030  124.59280    4.38550    4.55010    0.32120    0.33910    0.34100    2.34250    2.70000    6.08480  -26.74800
 5900.00000    9.66890    7.95400    0.09180    0.00680    0.13530    0.07930    0.09750  104.60610    -999.25   13.54420   14.44800    0.29530    0.31930    -999.25    2.48330    2.52340   21.42500  -24.69240
 5950.00000    8.08750    -999.25   -0.00380    -999.25    0.07340    0.03560    -999.25   30.77800    -999.25  265.09070  785.36710    0.07950    0.09400    -999.25    2.56700    -999.25 2241.82980  -44.11320
 6000.00000    9.40390    -999.25    0.02340    -999.25    0.02510   -0.00030    -999.25   37.65680    -999.25    7.67020    9.62210    0.16230    -999.25    -999.25    2.65420    -999.25   16.19930  -66.36480
 6050.00000    9.60700    -999.25    0.00250    -999.25    0.05240    -999.25    -999.25   45.04800    -999.25    4.49940    6.57550    0.16290    -999.25    -999.25    2.64320    -999.25   10.61700  -62.79880
 6100.00000    7.91320    -999.25    0.02340    -999.25    0.08930    -999.25    -999.25   14.32830    -999.25   22.14940   28.44180    0.11240    -999.25    -999.25    2.57460    -999.25  133.38550 -139.66730
 6150.00000    8.25910    -999.25    0.00020    -999.25    0.09960    -999.25    -999.25   12.30850    -999.25   22.97300   34.84840    0.08280    -999.25    -999.25    2.54540    -999.25 2135.25560 -186.53020
 6200.00000    8.98320    -999.25    0.01870    -999.25    0.01250    -999.25    -999.25   10.88590    -999.25  213.24820  206.36890    0.03130    -999.25    -999.25    2.66580    -999.25 2168.93820 -128.29430
 6250.00000   10.19320    -999.25    0.00620    -999.25    0.05560    -999.25    -999.25   39.38070    -999.25    2.02640    2.31930    0.20780    -999.25    -999.25    2.60010    -999.25    4.58540  -79.52440
 6300.00000    9.29080    -999.25    0.02870    -999.25    0.02440    -999.25    -999.25   76.90720    -999.25    6.33870    7.18850    0.18240    -999.25    -999.25    2.58860    -999.25   12.47950  -55.98140
 6350.00000    9.01850    -999.25   -0.00340    -999.25    0.08990    -999.25    -999.25   47.38150    -999.25    4.79830    5.22160    0.14750    -999.25    -999.25    2.55070    -999.25   10.62370  -74.76920
 6400.00000    8.94280    -999.25    0.02080    -999.25   -0.00610    -999.25    -999.25   10.05910    -999.25  112.25200  284.83680    0.05580    -999.25    -999.25    2.70330    -999.25  604.56980  -93.21410
 6450.00000    8.49740    -999.25   -0.00070    -999.25   -0.00170    -999.25    -999.25   21.34570    -999.25   88.48860  101.15660    0.08520    -999.25    -999.25    2.70010    -999.25  242.62490  -45.85750
 6500.00000    8.44500    -999.25   -0.00530    -999.25    0.00830    -999.25    -999.25   19.89370    -999.25   49.78880   54.44850    0.07020    -999.25    -999.25    2.65320    -999.25 1268.85890  -68.15910
 6550.00000    7.97850    -999.25    0.00480    -999.25    0.00120    -999.25    -999.25   22.55600    -999.25   30.17010   32.70080    0.06180    -999.25    -999.25    2.68610    -999.25   34.87700  -52.67630
 6600.00000    7.54180    -999.25    0.01260    -999.25    0.01800    -999.25    -999.25   27.83700    -999.25   53.68590   58.90880    0.04610    -999.25    -999.25    2.65860    -999.25  100.95460  -46.67140
 6650.00000    7.71690    -999.25   -0.00260    -999.25    0.03790    -999.25    -999.25   36.36540    -999.25   35.04330   37.83390    0.05140    -999.25    -999.25    2.61300    -999.25   42.09660  -32.45180
 6700.00000    8.15580    -999.25   -0.00730    -999.25    0.00920    -999.25    -999.25   45.48730    -999.25   24.04590   24.98290    0.09530    -999.25    -999.25    2.66220    -999.25   35.90590  -28.07490
 6750.00000    9.74160    -999.25    0.14790    -999.25    0.13380    -999.25    -999.25  117.41230    -999.25    7.54730    8.29650    0.20630    -999.25    -999.25    2.43850    -999.25    8.83270  -26.76340
 6800.00000    8.71720    -999.25    0.00950    -999.25    0.01130    -999.25    -999.25   76.49100    -999.25    9.93350   10.39380    0.12850    -999.25    -999.25    2.66410    -999.25   13.10080  -47.73950
 6850.00000    8.28260    -999.25    0.02050    -999.25    0.03010    -999.25    -999.25   18.10530    -999.25   47.90360  177.80970    0.06350    -999.25    -999.25    2.68660    -999.25  234.49320  -91.32890
 6900.00000    8.22410    -999.25   -0.00770    -999.25    0.01590    -999.25    -999.25   21.62950    -999.25  518.22380  911.02810    0.02510    -999.25    -999.25    2.63640    -999.25 2039.26880 -117.94010
 6950.00000    8.23530    -999.25   -0.01120    -999.25    0.01820    -999.25    -999.25   29.21090    -999.25  511.77800  990.85000    0.02840    -999.25    -999.25    2.67420    -999.25 2183.43330  -84.17840
 7000.00000    8.77080    -999.25    0.00950    -999.25   -0.00030    -999.25    -999.25   32.08980    -999.25  720.06560 1085.04470    0.02410    -999.25    -999.25    2.68880    -999.25 2253.19820 -119.48160
 7050.00000    8.55270    -999.25   -0.00510    -999.25   -0.02480    -999.25    -999.25   27.58030    -999.25   62.98700   60.50920    0.04640    -999.25    -999.25    2.73720    -999.25  292.23280 -109.11830
 7100.00000    8.79650    -999.25    0.03930    -999.25    0.01640    -999.25    -999.25   34.13620    -999.25   55.07450   62.29940    0.05580    -999.25    -999.25    2.67230    -999.25  684.94500 -129.75990
 7150.00000    7.32820    -999.25    0.02970    -999.25    0.07800    -999.25    -999.25   28.43080    -999.25   17.06890   37.88890    0.08350    -999.25    -999.25    2.58720    -999.25 1194.94520 -196.20820
 7200.00000    8.63130    -999.25    0.02220    -999.25   -0.02800    -999.25    -999.25   35.48910    -999.25  561.68320 1032.75950    0.04000    -999.25    -999.25    2.73260    -999.25 2255.14110 -157.84230
 7250.00000    8.58150    -999.25    0.04650    -999.25    0.03420    -999.25    -999.25   34.31560    -999.25   31.25640   49.65020    0.07190    -999.25    -999.25    2.60520    -999.25 2168.19430 -189.92490
 7300.00000    8.49570    -999.25    0.00550    -999.25    0.00860    -999.25    -999.25   35.95150    -999.25   87.09220  123.70540    0.05150    -999.25    -999.25    2.67990    -999.25 2230.36180 -133.81960
