~Version ---------------------------------------------------
VERS.      2.0 : CWLS log ASCII Standard -VERSION 2.0
WRAP.       NO : One line per depth step
CREA. 11/16/17 : LAS Creation Date
~Well ------------------------------------------------------
STRT.FT                    300.0 : START DEPTH
STOP.FT                   7750.0 : STOP DEPTH
STEP.FT                 50.00000 : STEP LENGTH
NULL.                    -999.25 : NULL VALUE
COMP.        GULF CANADA LIMITED : COMPANY
WELL. B.A. CPR HUXLEY 2-33-33-22 : WELL
FLD .                            : FIELD
LOC .                            : LOCATION
CTRY.                     CANADA : COUNTRY
SRVC.     Schlumberger of Canada : SERVICE COMPANY
DATE.                09-May-1959 : LOGDATE
PROV.                    Alberta : PROVINCE
UWI .           100023303322W400 : UNIQUE WELL ID
SLAT.WGS84              51.86894 : SURFACE LATITUDE
SLON.WGS84             -113.0601 : SURFACE LONGITUDE
~Curve Information -----------------------------------------
DEPT  .FT         : Depth Curve
CALMED.IN         : CALIPER FROM MICROLATERO LOG
CALWS .IN         : CALIPER [MCALED SPL. TO CALMED @ 5410']
CILDED.MMHO       : INDUCTION DEEP CONDUCTIVITY FROM RESISTIVITY LOG
CONDWS.MMHO       : CONDUCTIVITY [1000/DRESWS]
DRESWS.OHMM       : DEEP RESISTIVITY [1000/CILDED IF ILDED <=5, ILDED]
GRNED .UgRa-Eq/T  : GAMMA RAY FROM NEUTRON LOG  [ADJ. TO RESISTIVITY LOG]
GRWS  .GAPI       : GAMMA RAY [GRNED*16.5]
ILDED .OHMM       : INDUCTION DEEP RESISTIVITY FROM RESISTIVITY LOG
MCALED.IN         : MLT FROM MICRO LOG
MLLED .OHMM       : MICRO FOCUSED LATEROLOG RESISTIVITY FROM MICROLATERO LOG
NEUTED.CPS        : NEUTRON FROM NEUTRON LOG [ADJ. TO RESISTIVITY LOG]
NEUTWS.CPS        : NEUTRON [NEUTED]
SNED  .OHMM       : SHORT NORMAL RESISTIVITY FROM RESISTIVITY LOG
SPRED .MV         : SPONTANEOUS POTENTIAL FROM RESISTIVITY LOG
SPWS  .MV         : SPONTANEOUS POTENTIAL [BASELINE 0 MV, SPRED]
SRESWS.OHMM       : SHALLOW RESISTIVITY [SNED]
~Params ----------------------------------------------------
LMF .                     KB : LOG MEASURED FROM
DMF .                     KB : DRILLING MEASURED FROM
EKB .FT                 2780 : KELLY BUSHING
DATE.               05/09/59 : RUN DATE
RUN .                      2 : RUN NUMBER
DD  .FT                 7791 : DEPTH DRILLER
DL  .FT                 7795 : DEPTH LOGGER
BLI .FT                 7790 : BOTTOM LOG INTERVAL
TLI .FT                 5209 : TOP LOG INTERVAL
CBD .FT                  612 : CASING BOTTOM DRILLER
CBL .FT                  615 : CASING BOTTOM LOGGER
BS  .IN                    9 : BIT SIZE
BSD .FT                 7791 : BIT SIZE AT DEPTH
DFT .               GYP BASE : DRILLING FLUID TYPE
DFD .                   10.4 : DRILLING FLUID DENSITY
DFV .                     72 : DRILLING FLUID VISCOSITY
DFPH.                      7 : DRILLING FLUID PH
DFL .                    7.8 : DRILLING FLUID LOSS
RMS .OHMM                0.7 : RESISTIVITY MUD SAMPLE
MST .DEGF                 65 : MUD SAMPLE TEMPERATURE
RMF .OHMM               0.43 : RESISTIVITY MUD FILTRATE SAMPLE
MFST.DEGF                 78 : MUD FILTRATE SAMPLE TEMPERATURE
RMC .OHMM               0.84 : RESISTIVITY MUD CAKE
MCST.DEGF                 78 : MUD CAKE SAMPLE TEMPERATURE
RMB .OHMM               0.32 : RESISTIVITY MUD AT BHT
TCS .HRS                   2 : TIME CIRCULATED STOPPED
LUN .                  27410 : LOGGING UNIT NUMBER
ENGI.                MCKEOWN : RECORDING ENGINEER
WITN.                DOMANKO : WITNESSED BY
CLNT.                A2DTECH : CLIENT CODE
ORIG.            2" 5" PRINT : ORIGIN OF DATA
UWI .       100023303322W400 : UNIQUE WELL ID
DICO. A2D Technologies, Inc. : DIGITIZING COMPANY
~Other -----------------------------------------------------
~ASCII -----------------------------------------------------
# ...
 2450.00000    -999.25    9.38560  116.93270  105.15470    9.50980    4.07040   61.78180    9.50980    9.38560    -999.25  220.87450  220.87450   11.31960  -25.29360   -4.73620   11.31960
 2500.00000    -999.25    9.77820  189.78920  185.88400    5.37970    3.93880   65.83750    5.37970    9.77820    -999.25  182.32920  182.32920    6.25560  -24.43920   -3.88180    6.25560
 2550.00000    -999.25   10.20030  166.51050  163.83510    6.10370    4.27510   72.26670    6.10370   10.20030    -999.25  188.40430  188.40430    7.16970  -25.82990   -5.27250    7.16970
 2600.00000    -999.25   11.92800  238.05590  238.05590    4.20070    4.12190   70.95000    4.41470   11.92800    -999.25  178.52880  178.52880    5.10500  -23.82140   -3.23440    5.10500
 2650.00000    -999.25   12.30840  155.13060  151.94340    6.58140    5.25890   88.01350    6.58140   12.30840    -999.25  171.71900  171.71900    7.89700  -26.80620   -6.13080    7.89700
 2700.00000    -999.25   12.01600  139.48380  132.64710    7.53880    5.09820   84.11950    7.53880   12.01600    -999.25  168.32680  168.32680    8.79570  -29.36570   -8.60140    8.79570
 2750.00000    -999.25   12.40770  135.55970  129.73530    7.70800    5.55030   91.26150    7.70800   12.40770    -999.25  179.64020  179.64020    8.71150  -30.79460   -9.94200    8.71150
 2800.00000    -999.25   11.71330  102.40950   98.37870   10.16480    4.90580   82.19970   10.16480   11.71330    -999.25  177.01930  177.01930   11.49520  -29.80900   -8.86810   11.49520
 2850.00000    -999.25   11.22130  121.72340  115.49480    8.65840    5.75620   92.56010    8.65840   11.22130    -999.25  172.30630  172.30630    9.95910  -31.21290  -10.18310    9.95910
 2900.00000    -999.25   12.82450  131.22650  125.16110    7.98970    5.96090   98.99500    7.98970   12.82450    -999.25  167.67760  167.67760    9.58720  -29.65300   -8.53480    9.58720
 2950.00000    -999.25   10.79780  119.66710  114.28960    8.74970    6.32570  103.52350    8.74970   10.79780    -999.25  183.82880  183.82880   11.24120  -30.78580   -9.57870   11.24120
 3000.00000    -999.25    9.88370  101.67150   98.11520   10.19210    7.25230  120.15140   10.19210    9.88370    -999.25  180.08280  180.08280   14.16550  -27.87100   -6.57560   14.16550
 3050.00000    -999.25   11.32170  112.80620  107.94590    9.26390    6.77510  114.54960    9.26390   11.32170    -999.25  173.38940  173.38940   11.75070  -28.30670   -6.92300   11.75070
 3100.00000    -999.25   11.91550  138.37500  132.96100    7.52100    6.65340  109.81990    7.52100   11.91550    -999.25  161.71150  161.71150   10.08820  -27.95380   -6.48110   10.08820
 3150.00000    -999.25   10.85290  137.81300  134.37970    7.44160    6.16820   97.74110    7.44160   10.85290    -999.25  180.17670  180.17670    9.11800  -31.74300  -10.18200    9.11800
 3200.00000    -999.25   12.69020  162.16210  158.65460    6.30300    6.48460  105.92670    6.30300   12.69020    -999.25  178.48450  178.48450    8.02750  -29.24870   -7.59880    8.02750
 3250.00000    -999.25   11.89750  150.58480  147.83930    6.76410    6.48140  103.57710    6.76410   11.89750    -999.25  181.72820  181.72820    7.97030  -27.63490   -5.89670    7.97030
 3300.00000    -999.25   11.68080  123.65420  114.27530    8.75080    6.67110  109.06670    8.75080   11.68080    -999.25  192.26390  192.26390   10.32520  -30.58140   -8.75480   10.32520
 3350.00000    -999.25   13.11940  161.36490  158.29050    6.31750    6.22980  103.32710    6.31750   13.11940    -999.25  178.97480  178.97480    7.73760  -30.87130   -8.95580    7.73760
 3400.00000    -999.25   11.81140  164.75700  163.29730    6.12380    6.48150  105.32120    6.12380   11.81140    -999.25  181.81120  181.81120    7.75470  -30.37790   -8.37410    7.75470
 3450.00000    -999.25   11.57120  129.97840  123.67360    8.08580    6.32110  105.00770    8.08580   11.57120    -999.25  186.95330  186.95330    9.52300  -30.17860   -8.08590    9.52300
 3500.00000    -999.25   11.43690  130.91830  125.03590    7.99770    6.61500  109.66810    7.99770   11.43690    -999.25  179.16070  179.16070   10.15050  -29.19860   -7.01760   10.15050
 3550.00000    -999.25    9.99380   77.11040   74.86430   13.35750    5.09730   86.17790   13.35750    9.99380    -999.25  203.36900  203.36900   14.61420  -31.39150   -9.12210   14.61420
 3600.00000    -999.25   12.98810  141.96100  137.39660    7.27820    6.43300  104.71810    7.27820   12.98810    -999.25  168.37240  168.37240    8.56820  -30.76910   -8.41080    8.56820
 3650.00000    -999.25   11.81650  122.32140  114.27790    8.75060    5.86060   99.16090    8.75060   11.81650    -999.25  172.65960  172.65960    9.96610  -30.06710   -7.62050    9.96610
 3700.00000    -999.25   11.76640  155.70870  152.69040    6.54920    6.68190  110.05830    6.54920   11.76640    -999.25  173.29370  173.29370    8.42870  -31.91480   -9.37930    8.42870
 3750.00000    -999.25   12.58530  154.34010  149.58860    6.68500    6.65600  110.48650    6.68500   12.58530    -999.25  165.54310  165.54310    8.63570  -32.81520  -10.19140    8.63570
 3800.00000    -999.25   10.29180  139.21510  136.03220    7.35120    7.79180  128.56470    7.35120   10.29180    -999.25  167.66550  167.66550    9.94770  -31.29610   -8.58390    9.94770
 3850.00000    -999.25    9.27710   99.57660   96.90490   10.31940    9.24880  150.52790   10.31940    9.27710    -999.25  189.42970  189.42970   13.89350  -29.74090   -6.93980   13.89350
 3900.00000    -999.25    9.71300  106.42920   94.77860   10.55090    6.76420  111.60930   10.55090    9.71300    -999.25  180.05860  180.05860   14.89150  -29.55940   -6.67000   14.89150
 3950.00000    -999.25   12.76340  140.20810  137.38910    7.27860    5.94000   99.30280    7.27860   12.76340    -999.25  176.41310  176.41310    9.88640  -29.70040   -6.36440    9.88640
 4000.00000    -999.25    9.33930   94.46410   89.00600   11.23520    8.76260  143.78430   11.23520    9.33930    -999.25  170.89260  170.89260   15.82400  -32.57430   -8.60090   15.82400
 4050.00000    -999.25    9.91010  158.69580  158.82600    6.29620    9.86000  162.69000    6.29620    9.91010    -999.25  173.86580  173.86580    8.87680  -31.33800   -6.72720    8.87680
 4100.00000    -999.25    9.32490  171.96310  168.94750    5.91900    9.58910  158.22010    5.91900    9.32490    -999.25  184.43390  184.43390    7.71240  -34.94000   -9.68760    7.71240
 4150.00000    -999.25   11.67270  248.27200  248.27200    4.02780    6.03240   98.71370    4.18710   11.67270    -999.25  180.17090  180.17090    5.75200  -35.09520   -9.20540    5.75200
 4200.00000    -999.25   12.38180  311.58850  311.58850    3.20940    5.88290   97.39780    3.35010   12.38180    -999.25  168.99630  168.99630    4.36250  -35.91180   -9.38040    4.36250
 4250.00000    -999.25    9.45070  132.81200  117.77180    8.49100    8.84970  134.93530    8.49100    9.45070    -999.25  225.97140  225.97140   12.47950  -38.83120  -11.66240   12.47950
 4300.00000    -999.25    9.30350   73.42930   67.38050   14.84110    3.94280   70.83290   14.84110    9.30350    -999.25  217.48350  217.48350   17.77020  -42.61220  -14.80600   17.77020
 4350.00000    -999.25   10.08780  144.45290  142.29610    7.02760    5.85310   93.94360    7.02760   10.08780    -999.25  205.61500  205.61500    8.97040  -35.99630   -7.54850    8.97040
 4400.00000    -999.25   14.87950  402.41630  402.41630    2.48500    5.25660   86.69270    2.54710   14.87950    -999.25  173.67440  173.67440    3.34400  -35.02650   -6.95900    3.34400
 4450.00000    -999.25   13.01030  472.14860  472.14860    2.11800    5.80560   93.61270    2.25740   13.01030    -999.25  165.16880  165.16880    2.84330  -34.16800   -8.01140    2.84330
 4500.00000    -999.25   10.04720  118.07290  107.96340    9.26240    4.68420   62.48720    9.26240   10.04720    -999.25  213.57040  213.57040   11.87380  -35.50140  -11.24320   11.87380
 4550.00000    -999.25   10.10000   97.73830   89.10910   11.22220    5.25600   75.83560   11.22220   10.10000    -999.25  214.68130  214.68130   12.83850  -37.25350  -14.89370   12.83850
