~Version ---------------------------------------------------
VERS.      2.0 : CWLS log ASCII Standard -VERSION 2.0
WRAP.       NO : One line per depth step
CREA. 08/31/17 : LAS Creation Date
~Well ------------------------------------------------------
STRT.FT                             1100.0 : START DEPTH
STOP.FT                            11500.0 : STOP DEPTH
STEP.FT                           50.00000 : STEP LENGTH
NULL.                              -999.25 : NULL VALUE
COMP.              MURPHY OIL COMPANY LTD. : COMPANY
WELL. MURPHY ASHLAND WOLF CREEK 11-5-53-15 : WELL
FLD .                                      : FIELD
LOC .                                      : LOCATION
CTRY.                               CANADA : COUNTRY
SRVC.               Schlumberger of Canada : SERVICE COMPANY
DATE.                          08-Dec-1976 : LOGDATE
PROV.                              Alberta : PROVINCE
UWI .                     100110505315W500 : UNIQUE WELL ID
SLAT.WGS84                        53.55101 : SURFACE LATITUDE
SLON.WGS84                        -116.179 : SURFACE LONGITUDE
~Curve Information -----------------------------------------
DEPT    .FT    : Depth Curve
CALDED  .IN    : CALIPER FROM CNL-FDC LOG [ADJ. TO GRSED]
CALSED  .IN    : CALIPER FROM SONIC LOG
CALWS   .IN    : CALIPER [CALDED]
CILDED  .MMHO  : DEEP INDUCTION CONDUCTIVITY FROM RESISTIVITY LOG
CONDWS  .MMHO  : CONDUCTIVITY [1000/DRESWS]
DCORWS  .G/C3  : DENSITY CORRECTION [DRHOED]
DENWS   .G/C3  : FORMATION BULK DENSITY [RHOBED]
DPHILSED.V/V   : DENSITY POROSITY LIME [M=2.71, F=1.00] FROM CNL-FDC LOG [ADJ. TO GRSED]
DPHISSED.V/V   : DENSITY POROSITY SAND [M=2.65, F=1.00] FROM CNL-FDC LOG [ADJ. TO GRSED]
DPOLSWS .V/V   : DENSITY POROSITY LIME [CALCULATED FROM DENWS, M=2.71, F=1.00]
DRESWS  .OHMM  : DEEP RESISTIVITY [ILDED]
DRHOED  .G/C3  : BULK DENSITY CORRECTION FROM DENSITY LOG [ADJ. TO DPHISSED/DPHILSED/GRSED]
DTED    .US/F  : DELTA-T (INTERVAL TRANSIT TIME) FROM SONIC LOG
DTWS    .US/F  : COMPRESSIONAL SONIC [DTED]
GRDED   .GAPI  : GAMMA RAY FROM DENSITY LOG [ADJ. TO GRSED]
GRSED   .GAPI  : GAMMA RAY FROM SONIC LOG
GRWS    .GAPI  : GAMMA RAY [GRSED]
ILDED   .OHMM  : DEEP INDUCTION FROM RESISTIVITY LOG
ILMED   .OHMM  : MEDIUM INDUCTION FROM RESISTIVITY LOG
LL8ED   .OHMM  : LATEROLOG 8 FROM RESISTIVITY LOG
MRESWS  .OHMM  : MEDIUM RESISTIVITY [ILMED]
NPHILSED.V/V   : NEUTRON POROSITY LIME FROM CNL-FDC LOG [ADJ. TO GRSED]
NPHISSED.V/V   : NEUTRON POROSITY SAND FROM CNL-FDC LOG [ADJ. TO GRSED]
NPOLSWS .V/V   : NEUTRON POROSITY LIME [NPHISSED MATRIX CONVERTED TO LIMESTONE & SPL. TO NPHILSED @ 8000']
RHOBED  .G/C3  : BULK DENSITY FROM DENSITY LOG [ADJ. TO DPHISSED/DPHILSED/GRSED]
SPRED   .MV    : SPONTANEOUS POTENTIAL FROM RESISTIVITY LOG
SPWS    .MV    : SPONTANEOUS POTENTIAL [BASELINE 0 MV, SPRED]
SRESWS  .OHMM  : SHALLOW RESISTIVITY [LL8ED]
~Params ----------------------------------------------------
PD  .                     GL : PERMANENT DATUM
EPD .FT               2966.3 : ELEVATION PERMANENT DATUM
LMF .                     KB : LOG MEASURED FROM
DAPD.FT                 15.4 : FEET ABOVE PERMANENT DATUM
EKB .FT               2981.7 : KELLY BUSHING
EGL .FT               2966.3 : GROUND LEVEL
DATE.               12/08/76 : RUN DATE
RUN .                      1 : RUN NUMBER
DD  .FT                11560 : DEPTH DRILLER
DL  .FT                11554 : DEPTH LOGGER
BLI .FT                11548 : BOTTOM LOG INTERVAL
TLI .FT                 1160 : TOP LOG INTERVAL
CBD .FT                 1160 : CASING BOTTOM DRILLER
CBL .FT                 1160 : CASING BOTTOM LOGGER
BS  .IN                 8.75 : BIT SIZE
BSD .FT                11560 : BIT SIZE AT DEPTH
DFT .               GEL CHEM : DRILLING FLUID TYPE
DFD .                    9.1 : DRILLING FLUID DENSITY
DFV .                    290 : DRILLING FLUID VISCOSITY
DFPH.                     11 : DRILLING FLUID PH
DFL .                    5.8 : DRILLING FLUID LOSS
MSS .               FLOWLINE : MUD SAMPLE SOURCE
RMS .OHMM               1.67 : RESISTIVITY MUD SAMPLE
MST .DEGF                 37 : MUD SAMPLE TEMPERATURE
RMF .OHMM                1.3 : RESISTIVITY MUD FILTRATE SAMPLE
MFST.DEGF                 55 : MUD FILTRATE SAMPLE TEMPERATURE
TCS .HRS                 2.5 : TIME CIRCULATED STOPPED
LUN .                   7730 : LOGGING UNIT NUMBER
LUL .                    EDM : LOGGING UNIT LOCATION
ENGI.        MCDONALD KARAKI : RECORDING ENGINEER
WITN.            ABEL WORKUM : WITNESSED BY
CLNT.                A2DTECH : CLIENT CODE
ORIG.            2" 5" PRINT : ORIGIN OF DATA
UWI .       100110505315W500 : UNIQUE WELL ID
DICO. A2D Technologies, Inc. : DIGITIZING COMPANY
~Other -----------------------------------------------------
~ASCII -----------------------------------------------------
# ...
 9850.00000    9.13050    8.76990    9.13050    -999.25   47.16740    0.02310    2.68940    0.01590    -999.25    0.01210   21.20110    0.02310   61.70840   61.70840   63.47480   71.56270   71.56270   21.20110   22.13010   28.65010   22.13010    0.11120    -999.25    0.11120    2.68940   23.97640   -4.71640   28.65010
 9900.00000    9.01340    8.81290    9.01340    -999.25   29.29880    0.01370    2.70730    0.00320    -999.25    0.00150   34.13120    0.01370   55.50050   55.50050   53.27900   58.05960   58.05960   34.13120   35.27890   51.84950   35.27890    0.07490    -999.25    0.07490    2.70730   18.22630  -12.05760   51.84950
 9950.00000    9.40220    8.84550    9.40220    -999.25  108.16420    0.17500    2.57150    0.08880    -999.25    0.08100    9.24520    0.17500   66.71860   66.71860   79.12640   92.44620   92.44620    9.24520    9.56030   15.44180    9.56030    0.14560    -999.25    0.14560    2.57150   23.26480   -8.35630   15.44180
 10000.00000    9.05720    8.70620    9.05720    -999.25   63.33560    0.09590    2.75800   -0.03220    -999.25   -0.02810   15.78890    0.09590   61.13720   61.13720   60.00730   64.23590   64.23590   15.78890   16.74220   26.19300   16.74220    0.10090    -999.25    0.10090    2.75800   24.94070   -8.01090   26.19300
 10050.00000   10.10750    9.11380   10.10750    -999.25  199.35270    0.20340    2.45410    0.15650    -999.25    0.14970    5.01630    0.20340   79.84800   79.84800  108.94540  118.61570  118.61570    5.01630    5.18530    7.48750    5.18530    0.28790    -999.25    0.28790    2.45410   19.13100  -15.14440    7.48750
 10100.00000    9.04680    8.76090    9.04680    -999.25   37.32460    0.00170    2.64270    0.04010    -999.25    0.03940   26.79200    0.00170   61.40620   61.40620   75.21290   85.88200   85.88200   26.79200   24.54500   72.44690   24.54500    0.15950    -999.25    0.15950    2.64270   21.77660  -13.83600   72.44690
 10150.00000    9.16600    8.85000    9.16600    -999.25   63.63480    0.11790    2.71710    0.00090    -999.25   -0.00410   15.73490    0.11790   59.23750   59.23750   61.79860   65.83430   65.83430   15.73490   16.40040   34.58360   16.40040    0.08490    -999.25    0.08490    2.71710   24.09290  -12.84350   34.58360
 10200.00000   13.33960   10.00900   13.33960    -999.25  173.55390    0.15110    2.16990    0.29990    -999.25    0.31580    5.76190    0.15110   79.74480   79.74480   90.41000  109.12990  109.12990    5.76190    6.19110    7.47240    6.19110    0.29180    -999.25    0.29180    2.16990   14.88480  -23.38870    7.47240
 10250.00000    9.54030    8.92020    9.54030    -999.25   29.67840    0.24940    2.62090    0.04540    -999.25    0.05210   33.69450    0.24940   53.47250   53.47250   59.14620   65.27150   65.27150   33.69450   28.13610  101.50020   28.13610    0.09430    -999.25    0.09430    2.62090   23.84930  -15.75470  101.50020
 10300.00000    9.01410    8.86360    9.01410    -999.25   71.50770    0.10780    2.70090    0.00660    -999.25    0.00530   13.98810    0.10780   61.85930   61.85930   81.20750   84.00220   84.00220   13.98810   12.46620   22.03600   12.46620    0.15170    -999.25    0.15170    2.70090   28.57420  -12.35370   22.03600
 10350.00000    9.08920    8.79020    9.08920    -999.25   89.80610    0.00900    2.67670    0.02460    -999.25    0.01950   11.13510    0.00900   63.95170   63.95170   84.61770   95.99210   95.99210   11.13510   11.55190   17.47850   11.55190    0.15260    -999.25    0.15260    2.67670   31.08900  -11.17600   17.47850
 10400.00000    9.71690    8.87980    9.71690    -999.25   89.96770    0.23890    2.68460    0.00900    -999.25    0.01490   11.11550    0.23890   66.63750   66.63750   90.67060  100.19550  100.19550   11.11550   10.52880   15.25280   10.52880    0.18170    -999.25    0.18170    2.68460   29.27240  -14.31640   15.25280
 10450.00000   11.04750    9.23060   11.04750    -999.25   96.69120    0.02960    2.48340    0.11350    -999.25    0.13250   10.34220    0.02960   70.61730   70.61730  106.42050  114.68530  114.68530   10.34220    8.88870   10.95900    8.88870    0.21380    -999.25    0.21380    2.48340   24.36060  -20.56540   10.95900
 10500.00000    9.96000    9.04280    9.96000    -999.25  101.54550    0.19370    2.67050    0.02530    -999.25    0.02310    9.84780    0.19370   67.86090   67.86090   97.37750  104.93440  104.93440    9.84780    9.50640   14.47370    9.50640    0.19170    -999.25    0.19170    2.67050   27.49630  -18.76020   14.47370
 10550.00000   10.24030    8.93070   10.24030    -999.25  112.11650    0.19130    2.61060    0.05950    -999.25    0.05820    8.91930    0.19130   69.40950   69.40950   88.81600  108.81130  108.81130    8.91930    8.61730   13.11360    8.61730    0.18970    -999.25    0.18970    2.61060   32.33980  -15.24050   13.11360
 10600.00000    9.95190    9.09550    9.95190    -999.25  117.70380    0.25110    2.50210    0.13040    -999.25    0.12160    8.49590    0.25110   70.94700   70.94700   99.29800  104.61010  104.61010    8.49590    8.22700   12.78780    8.22700    0.20060    -999.25    0.20060    2.50210   33.31990  -15.59760   12.78780
 10650.00000    8.97500    8.85210    8.97500    -999.25  101.69470    0.02140    2.72080   -0.00440    -999.25   -0.00630    9.83340    0.02140   68.12550   68.12550   92.05910  101.67410  101.67410    9.83340    9.35370   14.29110    9.35370    0.18910    -999.25    0.18910    2.72080   43.35130   -6.86620   14.29110
 10700.00000    9.48640    9.09660    9.48640    -999.25  112.78150    0.10290    2.72390   -0.00700    -999.25   -0.00810    8.86670    0.10290   70.67090   70.67090  104.29680  125.78390  125.78390    8.86670    8.41510   13.34470    8.41510    0.22170    -999.25    0.22170    2.72390   42.97850   -8.48530   13.34470
 10750.00000    9.12130    8.88410    9.12130    -999.25   96.36700    0.00230    2.69330    0.01140    -999.25    0.00980   10.37700    0.00230   67.29350   67.29350   91.44560   92.32860   92.32860   10.37700    9.62860   16.10030    9.62860    0.19780    -999.25    0.19780    2.69330   45.37100   -6.65960   16.10030
 10800.00000    9.15360    8.77840    9.15360    -999.25   49.13060    0.00630    2.72070   -0.00940    -999.25   -0.00630   20.35400    0.00630   61.61060   61.61060   66.30990   75.44920   75.44920   20.35400   19.15500   35.01680   19.15500    0.10380    -999.25    0.10380    2.72070   49.52910   -2.98250   35.01680
 10850.00000    9.06440    8.75670    9.06440    -999.25   12.62480    0.01010    2.54120    0.09960    -999.25    0.09870   79.20900    0.01010   72.20200   72.20200  126.23720  134.20800  134.20800   79.20900   84.45300  219.47150   84.45300    0.15030    -999.25    0.15030    2.54120   34.13460  -18.86290  219.47150
 10900.00000    9.07630    8.79860    9.07630    -999.25    8.31250    0.00560    2.66090    0.02650    -999.25    0.02870  120.64640    0.00560   54.33590   54.33590   56.35970   50.76790   50.76790  120.64640  142.92900  339.18790  142.92900    0.04030    -999.25    0.04030    2.66090   26.86070  -26.61790  339.18790
 10950.00000    9.46040    9.18370    9.46040    -999.25   98.76840    0.04750    2.66450    0.02640    -999.25    0.02660   10.12470    0.04750   75.95300   75.95300  104.95590  120.31510  120.31510   10.12470   10.51590   15.29720   10.51590    0.19090    -999.25    0.19090    2.66450   41.67490  -12.28960   15.29720
 11000.00000    9.36670    9.17410    9.36670    -999.25  111.75310    0.16290    2.65880    0.03650    -999.25    0.02990    8.94830    0.16290   80.07100   80.07100  103.41150  116.34390  116.34390    8.94830    9.05400   15.75310    9.05400    0.20550    -999.25    0.20550    2.65880   41.67320  -12.77480   15.75310
 11050.00000    8.95970    8.91990    8.95970    -999.25   15.02020    0.01590    2.66960    0.02490    -999.25    0.02370   66.80040    0.01590   53.69970   53.69970   44.13360   52.64590   52.64590   66.80040   78.62830  130.34890   78.62830    0.06380    -999.25    0.06380    2.66960   49.35750   -5.57160  130.34890
