~Version ---------------------------------------------------
VERS.      2.0 : CWLS log ASCII Standard -VERSION 2.0
WRAP.       NO : One line per depth step
CREA. 07/17/14 : LAS Creation Date
~Well ------------------------------------------------------
STRT.M                              650.0 : START DEPTH
STOP.M                             3900.0 : STOP DEPTH
STEP.M                           50.00000 : STEP LENGTH
NULL.                             -999.25 : NULL VALUE
COMP. UNION OIL COMPANY OF CANADA LIMITED : COMPANY
WELL.     UNION ET AL WESTPEM 11-16-49-14 : WELL
FLD .                                     : FIELD
LOC .                                     : LOCATION
CTRY.                              CANADA : COUNTRY
SRVC.                             Unknown : SERVICE COMPANY
DATE.                         14-Apr-1979 : LOGDATE
PROV.                             Alberta : PROVINCE
UWI .                    100111604914W500 : UNIQUE WELL ID
SLAT.WGS84                       53.22947 : SURFACE LATITUDE
SLON.WGS84                      -115.9887 : SURFACE LONGITUDE
~Curve Information -----------------------------------------
DEPT    .M      : DEPTH METER
CALDED  .MM     : CALIPER FROM DENSITY LOG [ADJ. TO DLL-DISFL LOG]
CALSED  .MM     : CALIPER FROM SONIC LOG [ADJ. TO DLL-DISFL LOG]
CALWS   .MM     : CALIPER [CALSED SPL. TO CALDED @ 2731M -2738M & 3910.3 M]
CONDWS  .MMHO   : CONDUCTIVITY [1000/DRESWS]
DCORED  .KG/M3  : DENSITY CORRECTION FROM DENSITY LOG [ADJ. TO DLL-DISFL LOG]
DCORWS  .KG/M3  : DENSITY CORRECTION [DCORED]
DENWS   .KG/M3  : FORMATION BULK DENSITY [CALC. FROM DPOLSWS,M=2710,F=1000]
DPHILSED.V/V    : DENSITY POROSITY LIMESTONE [M=2710,F=1000] FROM DENSITY LOG [ADJ. TO DLL-DISFL LOG]
DPHISSED.V/V    : DENSITY POROSITY SANDSTONE [M=2650,F=1000] FROM DENSITY LOG [ADJ. TO DLL-DISFL LOG]
DPOLSWS .V/V    : DENSITY POROSITY LIMESTONE [DPHISSED CONVERTED TO LIMESTONE MATRIX SPL. TO DPHILSED @2831.6 M & SPL. TO CALC. FROM RHOBED M=2710,F=1000, AT SEVERAL INTERVAL ]
DRESWS  .OHMM   : DEEP RESISTIVITY [LLDED]
DTED    .US/M   : DELTA-T FROM SONIC LOG [ADJ. TO DLL-DISFL LOG]
DTWS    .US/M   : COMPRESSIONAL SONIC [DTED]
GRDED   .GAPI   : GAMMA RAY FROM DENSITY LOG [ADJ. TO DLL-DISFL LOG]
GRSED   .GAPI   : GAMMA RAY FROM SONIC LOG [ADJ. TO DLL-DISFL LOG]
GRWS    .GAPI   : GAMMA RAY [GRSED SP. TO GRDED @ 3902.7M] GRWS (+5 API) IN CSG. FROM 3270M - 3323M
ILDED   .OHMM   : DEEP INDUCTION RESISTIVITY FROM DISFL LOG
ILMED   .OHMM   : MEDIUM  INDUCTION RESISTIVITY FROM DISFL LOG
LLDED   .OHMM   : DEEP  LATEROLOG RESISTIVITY FROM DLL LOG [ADJ. TO DISFL LOG]
LLSED   .OHMM   : SHALLOW LATEROLOG  RESISTIVITY FROM DLL LOG [ADJ. TO DISFL LOG]
MRESWS  .OHMM   : MEDIUM RESISTIVITY [ILMED]
NPHILSED.V/V    : NEUTRON POROSITY LIMESTONE FROM DENSITY LOG [ADJ. TO DLL-DISFL LOG]
NPHISSED.V/V    : NEUTRON POROSITY SANDSTONE FROM DENSITY LOG [ADJ. TO DLL-DISFL LOG]
NPOLSWS .V/V    : NEUTRON POROSITY LIMESTONE [NPHISSED CONVERTED TO LIMESTONE MATRIX SPL. TO NPHILSED @2771.6 M USE SCHLUMBERGER (NPHI)]
RHOBED  .KG/M3  : BULK DENSITY FROM DENSITY LOG [ADJ. TO DLL-DISFL LOG]
SFLED   .OHMM   : SPHERICALLY FOCUSED RESISTIVITY FROM DISFL LOG
SPR1ED  .MV     : SPONTANEOUS POTENTIAL FROM DISFL LOG
SPRED   .MV     : SPONTANEOUS POTENTIAL FROM DLL LOG [ADJ. TO DISFL LOG]
SPWS    .MV     : SPONTANEOUS POTENTIAL [BASELINE 0 MV,(SPRED SPL. TO SPR1ED 3324.1M- 3347.1M & 3899.9M -BORROM)*-1]
SRESWS  .OHMM   : SHALLOW RESISTIVITY [LLSED SPL. TO SFLED @ 3895 M]
~Params ----------------------------------------------------
PD  .                         GL : PERMANENT DATUM
EPD .M                      1081 : ELEVATION PERMANENT DATUM
LMF .                         KB : LOG MEASURED FROM
DAPD.M                      9.75 : FEET ABOVE PERMANENT DATUM
DMF .                         KB : DRILLING MEASURED FROM
EKB .M                   1090.75 : KELLY BUSHING
EGL .M                      1081 : GROUND LEVEL
DATE.                   04/14/79 : RUN DATE
RUN .                          1 : RUN NUMBER
DD  .M                      3327 : DEPTH DRILLER
DL  .M                    3280.4 : DEPTH LOGGER
BLI .M                    3275.5 : BOTTOM LOG INTERVAL
TLI .M                     644.5 : TOP LOG INTERVAL
CS  .MM                      320 : CASING SIZE
CBD .M                       644 : CASING BOTTOM DRILLER
CBL .M                     644.5 : CASING BOTTOM LOGGER
BS  .MM                    311.2 : BIT SIZE
BSD .M                      3327 : BIT SIZE AT DEPTH
DFT .                        KCL : DRILLING FLUID TYPE
DFD .                       1265 : DRILLING FLUID DENSITY
DFV .                         59 : DRILLING FLUID VISCOSITY
DFPH.                       10.5 : DRILLING FLUID PH
DFL .                         18 : DRILLING FLUID LOSS
MSS .                       CIRC : MUD SAMPLE SOURCE
RMS .OHMM                 0.0927 : RESISTIVITY MUD SAMPLE
MST .DEGC                   16.6 : MUD SAMPLE TEMPERATURE
RMF .OHMM                 0.0137 : RESISTIVITY MUD FILTRATE SAMPLE
MFST.DEGC                   15.5 : MUD FILTRATE SAMPLE TEMPERATURE
MFSS.                      WATER : MUD FILTRATE SAMPLE SOURCE
MCSS.                       LOSS : MUD CAKE SAMPLE SOURCE
TCS .HRS                    1400 : TIME CIRCULATED STOPPED
TLAB.HRS                     100 : TIME LOGGER AT BOTTOM
LUN .                       7800 : LOGGING UNIT NUMBER
LUL .                        EDM : LOGGING UNIT LOCATION
ENGI.         WESOLOWSKY ROVELLI : RECORDING ENGINEER
WITN.                      MCRAF : WITNESSED BY
CLNT.                    A2DTECH : CLIENT CODE
ORIG. 6.5"/100M 16.5"/100M PRINT : ORIGIN OF DATA
UWI .           100111604914W500 : UNIQUE WELL ID
DICO.     A2D Technologies, Inc. : DIGITIZING COMPANY
~Other -----------------------------------------------------
DLL-DISFL-CNFD-BCS LOG RAN
RHOB,DCOR FROM TOP TO BOTTOM FROM SMALL SECTION
~ASCII -----------------------------------------------------
  650.00000    -999.25  355.80590  355.80590   62.06320    -999.25    -999.25    -999.25    -999.25    -999.25    -999.25   16.11260  320.12420  320.12420    -999.25   74.58960   74.58960    -999.25    -999.25   16.11260    8.56970    -999.25    -999.25    -999.25    -999.25    -999.25    -999.25    -999.25   31.66200   48.71030    8.56970
  700.00000    -999.25  324.38570  324.38570   84.47440    -999.25    -999.25    -999.25    -999.25    -999.25    -999.25   11.83790  275.46960  275.46960    -999.25   81.29740   81.29740    -999.25    -999.25   11.83790    7.14780    -999.25    -999.25    -999.25    -999.25    -999.25    -999.25    -999.25   -7.52200    9.67850    7.14780
  750.00000    -999.25  315.18230  315.18230   76.02650    -999.25    -999.25    -999.25    -999.25    -999.25    -999.25   13.15330  372.21040  372.21040    -999.25   92.30030   92.30030    -999.25    -999.25   13.15330   15.00470    -999.25    -999.25    -999.25    -999.25    -999.25    -999.25    -999.25   -7.80130    9.64400   15.00470
  800.00000    -999.25  341.56820  341.56820  165.11190    -999.25    -999.25    -999.25    -999.25    -999.25    -999.25    6.05650  306.64770  306.64770    -999.25   94.88010   94.88010    -999.25    -999.25    6.05650    4.62080    -999.25    -999.25    -999.25    -999.25    -999.25    -999.25    -999.25  -12.44210    5.24790    4.62080
  850.00000    -999.25  334.57140  334.57140  328.65550    -999.25    -999.25    -999.25    -999.25    -999.25    -999.25    3.04270  380.68730  380.68730    -999.25  108.25170  108.25170    -999.25    -999.25    3.04270    1.79850    -999.25    -999.25    -999.25    -999.25    -999.25    -999.25    -999.25   -9.69490    8.23980    1.79850
  900.00000    -999.25  310.73750  310.73750   78.05670    -999.25    -999.25    -999.25    -999.25    -999.25    -999.25   12.81120  259.41540  259.41540    -999.25   70.39470   70.39470    -999.25    -999.25   12.81120    7.34890    -999.25    -999.25    -999.25    -999.25    -999.25    -999.25    -999.25    3.59310   20.70020    7.34890
  950.00000    -999.25  320.26570  320.26570  113.19900    -999.25    -999.25    -999.25    -999.25    -999.25    -999.25    8.83400  266.73590  266.73590    -999.25   88.74100   88.74100    -999.25    -999.25    8.83400    6.32650    -999.25    -999.25    -999.25    -999.25    -999.25    -999.25    -999.25  -10.55130    5.66930    6.32650
 1000.00000    -999.25  311.97110  311.97110  103.37840    -999.25    -999.25    -999.25    -999.25    -999.25    -999.25    9.67320  255.79470  255.79470    -999.25   92.70010   92.70010    -999.25    -999.25    9.67320    7.35500    -999.25    -999.25    -999.25    -999.25    -999.25    -999.25    -999.25   -7.28490    8.04930    7.35500
 1050.00000    -999.25  332.07170  332.07170  182.78190    -999.25    -999.25    -999.25    -999.25    -999.25    -999.25    5.47100  315.69740  315.69740    -999.25  105.64030  105.64030    -999.25    -999.25    5.47100    4.12690    -999.25    -999.25    -999.25    -999.25    -999.25    -999.25    -999.25   -8.74570    5.70210    4.12690
 1100.00000    -999.25  328.88530  328.88530  170.56700    -999.25    -999.25    -999.25    -999.25    -999.25    -999.25    5.86280  286.09530  286.09530    -999.25  107.53080  107.53080    -999.25    -999.25    5.86280    4.17360    -999.25    -999.25    -999.25    -999.25    -999.25    -999.25    -999.25  -11.24920    2.31210    4.17360
 1150.00000    -999.25  330.31140  330.31140  163.55370    -999.25    -999.25    -999.25    -999.25    -999.25    -999.25    6.11420  281.78380  281.78380    -999.25   93.91270   93.91270    -999.25    -999.25    6.11420    5.58750    -999.25    -999.25    -999.25    -999.25    -999.25    -999.25    -999.25   -9.14170    3.53320    5.58750
 1200.00000    -999.25  324.41840  324.41840  104.51070    -999.25    -999.25    -999.25    -999.25    -999.25    -999.25    9.56840  240.47090  240.47090    -999.25   85.28220   85.28220    -999.25    -999.25    9.56840    7.81120    -999.25    -999.25    -999.25    -999.25    -999.25    -999.25    -999.25   -6.13570    5.65280    7.81120
 1250.00000    -999.25  321.57070  321.57070  150.92520    -999.25    -999.25    -999.25    -999.25    -999.25    -999.25    6.62580  269.52870  269.52870    -999.25  103.68570  103.68570    -999.25    -999.25    6.62580    5.27670    -999.25    -999.25    -999.25    -999.25    -999.25    -999.25    -999.25   -5.83910    5.06290    5.27670
 1300.00000    -999.25  334.32970  334.32970  158.65460    -999.25    -999.25    -999.25    -999.25    -999.25    -999.25    6.30300  290.86610  290.86610    -999.25  110.66830  110.66830    -999.25    -999.25    6.30300    4.89300    -999.25    -999.25    -999.25    -999.25    -999.25    -999.25    -999.25   -6.82970    4.72460    4.89300
 1350.00000    -999.25  326.39620  326.39620  177.22330    -999.25    -999.25    -999.25    -999.25    -999.25    -999.25    5.64260  271.22130  271.22130    -999.25  116.75140  116.75140    -999.25    -999.25    5.64260    4.08170    -999.25    -999.25    -999.25    -999.25    -999.25    -999.25    -999.25   -5.09120    7.42160    4.08170
 1400.00000    -999.25  311.02390  311.02390   83.62670    -999.25    -999.25    -999.25    -999.25    -999.25    -999.25   11.95790  235.86920  235.86920    -999.25   75.72500   75.72500    -999.25    -999.25   11.95790    9.88600    -999.25    -999.25    -999.25    -999.25    -999.25    -999.25    -999.25   -4.66720    8.80400    9.88600
 1450.00000    -999.25  318.78310  318.78310  118.54380    -999.25    -999.25    -999.25    -999.25    -999.25    -999.25    8.43570  258.15260  258.15260    -999.25   96.48280   96.48280    -999.25    -999.25    8.43570    6.61220    -999.25    -999.25    -999.25    -999.25    -999.25    -999.25    -999.25   -3.18520   11.24450    6.61220
 1500.00000  301.21370  315.14040  315.14040   49.69880   33.02020   33.02020 2468.50000    -999.25    0.11000    0.14120   20.12120  243.22730  243.22730   62.11920   69.71810   69.71810    -999.25    -999.25   20.12120   14.30200    -999.25    -999.25    0.36670    0.32330 2459.21610    -999.25    -999.25   11.58110   26.56310   14.30200
 1550.00000  450.00000  369.67620  369.67620  134.06800  -63.65800  -63.65800 1671.52000    -999.25    0.58100    0.60730    7.45890  262.03490  262.03490   80.44950   86.48990   86.48990    -999.25    -999.25    7.45890    3.56000    -999.25    -999.25    0.50910    0.46970 1671.52000    -999.25    -999.25   -2.89650   10.22310    3.56000
 1600.00000  309.60000  314.85030  314.85030   33.32340    1.24600    1.24600 2558.42500    -999.25    0.05550    0.08860   30.00890  223.73840  223.73840   50.17480   60.35880   60.35880    -999.25    -999.25   30.00890   23.87380    -999.25    -999.25    0.23340    0.18960 2553.41410    -999.25    -999.25    2.64690   13.90420   23.87380
 1650.00000  450.00000  339.21330  339.21330  145.80870   -1.79060   -1.79060 1733.62650    -999.25    0.57020    0.57100    6.85830  275.56800  275.56800   67.50620   76.20790   76.20790    -999.25    -999.25    6.85830    3.93650    -999.25    -999.25    0.46250    0.42120 1733.62650    -999.25    -999.25   -1.24470    8.15020    3.93650
 1700.00000  307.75670  311.86850  311.86850   40.10650   17.91310   17.91310 2468.17000    -999.25    0.11020    0.14140   24.93360  226.03600  226.03600   53.93200   57.05510   57.05510    -999.25    -999.25   24.93360   14.36110    -999.25    -999.25    0.30520    0.26120 2470.97830    -999.25    -999.25   16.19110   24.04070   14.36110
 1750.00000  450.00000  365.75780  365.75780  136.68670    9.40440    9.40440 1788.86500    -999.25    0.52190    0.53870    7.31600  347.66050  347.66050   68.45370   75.55240   75.55240    -999.25    -999.25    7.31600    2.31790    -999.25    -999.25    0.57620    0.54060 1955.06200    -999.25    -999.25    7.18430   14.29590    2.31790
 1800.00000  398.09510  331.62950  331.62950  104.97370  125.24350  125.24350 2213.24500    -999.25    0.26470    0.29050    9.52620  263.61950  263.61950   83.31650   93.08750   93.08750    -999.25    -999.25    9.52620    8.18680    -999.25    -999.25    0.37470    0.33140 2199.08280    -999.25    -999.25   -0.53510    5.83850    8.18680
