~Version ---------------------------------------------------
VERS.      2.0 : CWLS log ASCII Standard -VERSION 2.0
WRAP.       NO : One line per depth step
CREA. 08/16/13 : LAS Creation Date
~Well ------------------------------------------------------
STRT.M                         400.0 : START DEPTH
STOP.M                        2700.0 : STOP DEPTH
STEP.M                      50.00000 : STEP LENGTH
NULL.                        -999.25 : NULL VALUE
COMP.            ROXY PETROLEUM LTD. : COMPANY
WELL. ROXY MURPHY PRAIRIE RIVER 1-15 : WELL
FLD .                                : FIELD
LOC .                                : LOCATION
CTRY.                         CANADA : COUNTRY
SRVC.                        Unknown : SERVICE COMPANY
DATE.                    15-Mar-1984 : LOGDATE
PROV.                        Alberta : PROVINCE
UWI .               100011506915W500 : UNIQUE WELL ID
SLAT.WGS84                  54.96893 : SURFACE LATITUDE
SLON.WGS84                 -116.1868 : SURFACE LONGITUDE
~Curve Information -----------------------------------------
DEPT   .M      : DEPTH METER
CALD   .MM     : CALIPER FROM DENSITY LOG
CALS   .MM     : CALIPER FROM SONIC LOG
DPHI_LS.DEC    : DENSITY POROSITY LIMESTONE [M=2710,F=1000] FROM DENSITY LOG
DPHI_SS.DEC    : DENSITY POROSITY SANDSTONE [M=2650,F=1000] FROM DENSITY LOG
DRHO   .KG/M3  : BULK DENSITY CORRECTION FROM DENSITY LOG
DT     .US/M   : TRANSIT TIME FROM SONIC LOG
GRD    .GAPI   : GAMMA RAY FROM DENSITY LOG
GRS    .GAPI   : GAMMA RAY FROM SONIC LOG
ILD    .OHMM   : DEEP INDUCTION FROM RESISTIVITY LOG
ILM    .OHMM   : MEDIUM INDUCTION FROM RESISTIVITY LOG
NPHI_LS.DEC    : NEUTRON POROSITY LIMESTONE FROM DENSITY LOG
NPHI_SS.DEC    : NEUTRON POROSITY SANDSTONE FROM DENSITY LOG
PEF    .B/E    : PHOTOELECTRIC FACTOR FROM DENSITY LOG
RHOB   .KG/M3  : BULK DENSITY FROM DENSITY LOG
SFLU   .OHMM   : SHALLOW FOCUS FROM RESISTIVITY LOG
SPR    .MV     : SPONTANEOUS POTENTIAL FROM RESISTIVITY LOG
~Params ----------------------------------------------------
PD  .                         GL : PERMANENT DATUM
EPD .M                    867.26 : ELEVATION PERMANENT DATUM
LMF .                         KB : LOG MEASURED FROM
DAPD.M                      5.85 : FEET ABOVE PERMANENT DATUM
DMF .                         KB : DRILLING MEASURED FROM
EKB .M                    873.11 : KELLY BUSHING
EGL .M                    867.26 : GROUND LEVEL
DATE.                   03/15/84 : RUN DATE
RUN .                          1 : RUN NUMBER
DD  .M                      2710 : DEPTH DRILLER
DL  .M                      2709 : DEPTH LOGGER
BLI .M                      2708 : BOTTOM LOG INTERVAL
TLI .M                       401 : TOP LOG INTERVAL
CS  .MM                    244.5 : CASING SIZE
CBD .M                       401 : CASING BOTTOM DRILLER
CBL .M                       401 : CASING BOTTOM LOGGER
BSD .M                      2710 : BIT SIZE AT DEPTH
DFT .                        GEL : DRILLING FLUID TYPE
DFD .                       1150 : DRILLING FLUID DENSITY
DFV .                         83 : DRILLING FLUID VISCOSITY
DFPH.                         11 : DRILLING FLUID PH
DFL .                        9.5 : DRILLING FLUID LOSS
MSS .                   FLOWLINE : MUD SAMPLE SOURCE
RMS .OHMM                   1.17 : RESISTIVITY MUD SAMPLE
MST .DEGC                     17 : MUD SAMPLE TEMPERATURE
RMF .OHMM                   0.84 : RESISTIVITY MUD FILTRATE SAMPLE
MFST.DEGC                     18 : MUD FILTRATE SAMPLE TEMPERATURE
RMC .OHMM                  0.371 : RESISTIVITY MUD CAKE
MCST.DEGC                     68 : MUD CAKE SAMPLE TEMPERATURE
MFSS.                      PRESS : MUD FILTRATE SAMPLE SOURCE
MCSS.                      PRESS : MUD CAKE SAMPLE SOURCE
RMB .OHMM                  0.504 : RESISTIVITY MUD AT BHT
TCS .HRS                     930 : TIME CIRCULATED STOPPED
TLAB.HRS                    1500 : TIME LOGGER AT BOTTOM
LUN .                       8110 : LOGGING UNIT NUMBER
LUL .                        EDM : LOGGING UNIT LOCATION
ENGI.                     CSIKOS : RECORDING ENGINEER
WITN.                    DIAMOND : WITNESSED BY
CLNT.                    A2DTECH : CLIENT CODE
ORIG. 6.5"/100M 16.5"/100M PRINT : ORIGIN OF DATA
UWI .           100011506915W500 : UNIQUE WELL ID
DICO.     A2D Technologies, Inc. : DIGITIZING COMPANY
~Other -----------------------------------------------------
~ASCII -----------------------------------------------------
  400.00000    -999.25    -999.25    -999.25    -999.25    -999.25    -999.25    -999.25   30.50910    -999.25    -999.25    -999.25    -999.25    -999.25    -999.25    -999.25    -999.25
  450.00000    -999.25  268.92390    -999.25    -999.25    -999.25  403.20840    -999.25   56.93940    3.41730    3.00900    -999.25    -999.25    -999.25    -999.25    2.88150  -65.07110
  500.00000    -999.25  268.65170    -999.25    -999.25    -999.25  390.93170    -999.25   48.18640    3.39190    3.05860    -999.25    -999.25    -999.25    -999.25    2.94400  -65.61930
  550.00000    -999.25  254.23850    -999.25    -999.25    -999.25  423.11020    -999.25   59.73710    3.44280    3.10970    -999.25    -999.25    -999.25    -999.25    3.00720  -67.32300
  600.00000    -999.25  294.67970    -999.25    -999.25    -999.25  381.95130    -999.25   87.02300    4.53040    3.97660    -999.25    -999.25    -999.25    -999.25    4.07870  -67.51230
  650.00000    -999.25  257.63900    -999.25    -999.25    -999.25  396.51660    -999.25  147.98200    5.74550    4.85980    -999.25    -999.25    -999.25    -999.25    5.84610  -67.53050
  700.00000    -999.25  249.21860    -999.25    -999.25    -999.25  304.90600    -999.25   98.22090    9.64760    9.06770    -999.25    -999.25    -999.25    -999.25    8.12370  -77.41930
  750.00000    -999.25  242.25920    -999.25    -999.25    -999.25  351.45510    -999.25  112.34660    5.81900    5.07150    -999.25    -999.25    -999.25    -999.25    4.95940  -74.94760
  800.00000    -999.25  253.11980    -999.25    -999.25    -999.25  329.18730    -999.25   88.94810    7.70490    6.33800    -999.25    -999.25    -999.25    -999.25    6.28810  -73.38310
  850.00000    -999.25  258.09550    -999.25    -999.25    -999.25  373.74080    -999.25  113.01730    5.49770    5.08370    -999.25    -999.25    -999.25    -999.25    5.50710  -66.73810
  900.00000    -999.25  230.89200    -999.25    -999.25    -999.25  346.61690    -999.25   99.13820    3.97810    3.80760    -999.25    -999.25    -999.25    -999.25    4.15800  -64.37280
  950.00000    -999.25  267.46140    -999.25    -999.25    -999.25  332.11920    -999.25  108.70390    3.64050    3.44650    -999.25    -999.25    -999.25    -999.25    3.70250  -60.91950
 1000.00000  320.71940  239.51330    -999.25    0.20660   -5.91430  381.18520   96.76940  102.13180    2.04700    1.94710    -999.25    0.44560    2.54590 2309.41430    2.15710  -54.47500
 1050.00000  330.42200  250.89400    -999.25    0.28480  -27.91090  328.87730   90.08800   96.36260    3.45380    3.34550    -999.25    0.37270    2.17900 2171.93970    3.71930  -56.86600
 1100.00000  222.82870  214.81040    -999.25    0.26260  -45.81920  297.22490   32.24300   33.23400    2.61460    3.94860    -999.25    0.27220    1.76120 2213.41140    7.28000 -114.88290
 1150.00000  228.11210  213.10150    -999.25    0.24280  -17.52710  309.76560   61.44140   59.22980    2.46600    3.04680    -999.25    0.36510    2.23420 2249.64870    3.16320  -83.65310
 1200.00000  245.79340  227.70860    -999.25    0.22290   75.15790  301.33670   71.38210   74.47770    3.05180    3.44830    -999.25    0.35730    2.95930 2309.71780    4.50040  -64.75800
 1250.00000  247.82720  243.95070    -999.25    0.13330  -38.42670  300.29740   79.14880   78.09450    3.87260    3.92840    -999.25    0.36020    2.77890 2430.33110    4.14630  -55.96100
 1300.00000  282.58750  263.97850    -999.25    0.12140  -46.28100  290.74350   79.64960   78.82150    3.70120    3.87950    -999.25    0.31200    2.95000 2442.67070    4.13220  -62.25870
 1350.00000  294.21510  267.15730    0.20660    0.17700  131.37400  300.96410   82.22830   94.54370    5.52720    5.23090    0.29730    0.34020    2.30370 2357.14990    6.02910  -57.87800
 1400.00000  232.01370  231.91420    0.06770    -999.25  -46.93740  196.23110   38.52770   42.84010   98.71150  112.81300    0.07930    -999.25    4.11980 2595.74930   86.83060  -66.94780
 1450.00000  236.43000  225.59980    0.06470    -999.25   26.34490  179.72080   14.84160   17.84070   30.84200   59.46790    0.02280    -999.25    3.93620 2596.61870  190.32700  -89.21720
 1500.00000  244.08220  231.71260    0.07750    -999.25  -25.88980  224.57190   27.16680   29.19050    2.56790    3.94620    0.19050    -999.25    3.32280 2548.12260   18.07850 -117.44940
 1550.00000  251.23040  245.35070    0.02470    -999.25  -26.47640  177.74370   32.80190   34.13400   28.56570   26.57500    0.02820    -999.25    4.00460 2663.74000   39.90130 -117.67070
 1600.00000  264.36400  259.23320    0.10200    -999.25  -13.60500  249.64130   73.13230   62.48600    1.42730    1.56060    0.25030    -999.25    2.87570 2531.64700    1.27330  -75.48910
 1650.00000    -999.25  228.92800    -999.25    -999.25    -999.25  183.50940    -999.25   16.49610   12.53250   16.43760    -999.25    -999.25    -999.25    -999.25   36.36370  -98.83380
 1700.00000    -999.25  239.89890    -999.25    -999.25    -999.25  206.49340    -999.25   50.43400   10.82190   11.41540    -999.25    -999.25    -999.25    -999.25   16.30260  -34.07370
 1750.00000    -999.25  232.51300    -999.25    -999.25    -999.25  180.44610    -999.25   25.18000   48.44570   51.62600    -999.25    -999.25    -999.25    -999.25   59.83820  -58.54100
 1800.00000    -999.25  241.93500    -999.25    -999.25    -999.25  167.13930    -999.25   24.45060  181.05600  317.53400    -999.25    -999.25    -999.25    -999.25  213.14560  -52.37440
 1850.00000    -999.25  251.30910    -999.25    -999.25    -999.25  166.11670    -999.25   14.77450  272.92300  356.61170    -999.25    -999.25    -999.25    -999.25  352.99660 -101.44290
 1900.00000    -999.25  245.08340    -999.25    -999.25    -999.25  175.21000    -999.25   12.36180   66.79960   70.68690    -999.25    -999.25    -999.25    -999.25  119.52750 -114.15980
 1950.00000    -999.25  235.90190    -999.25    -999.25    -999.25  163.20650    -999.25   12.04350   87.55910   96.72340    -999.25    -999.25    -999.25    -999.25  185.10740 -103.30530
 2000.00000    -999.25  234.79350    -999.25    -999.25    -999.25  165.31340    -999.25   10.22060  177.15900  279.82810    -999.25    -999.25    -999.25    -999.25  357.00790 -118.45810
 2050.00000    -999.25  223.13460    -999.25    -999.25    -999.25  189.95080    -999.25   69.76130   10.21680   15.21550    -999.25    -999.25    -999.25    -999.25   29.07540 -108.90690
 2100.00000    -999.25  237.91940    -999.25    -999.25    -999.25  171.80180    -999.25   30.98310   15.25490   16.67500    -999.25    -999.25    -999.25    -999.25   18.31670  -64.26800
 2150.00000    -999.25  234.72110    -999.25    -999.25    -999.25  192.70510    -999.25   43.41350   23.52000   29.21080    -999.25    -999.25    -999.25    -999.25   34.73670  -19.90220
 2200.00000    -999.25  358.97180    -999.25    -999.25    -999.25  281.54010    -999.25   94.97850    3.86920    3.26660    -999.25    -999.25    -999.25    -999.25    4.06810  -40.28960
 2250.00000    -999.25  376.13650    -999.25    -999.25    -999.25  263.83120    -999.25   82.50870    4.35290    3.51000    -999.25    -999.25    -999.25    -999.25    4.42180  -39.86680
 2300.00000    -999.25  238.78400    -999.25    -999.25    -999.25  212.72630    -999.25   58.75860   10.11950   10.94190    -999.25    -999.25    -999.25    -999.25   15.06770  -17.39990
 2350.00000    -999.25  254.38550    -999.25    -999.25    -999.25  234.89860    -999.25   71.65810    7.43580    7.75170    -999.25    -999.25    -999.25    -999.25    9.10470  -14.50460
 2400.00000    -999.25  279.91220    -999.25    -999.25    -999.25  237.83960    -999.25   70.86150    5.72580    6.23140    -999.25    -999.25    -999.25    -999.25    5.81650   -9.87930
 2450.00000  236.74710  232.00760    0.03740    -999.25   19.30640  197.14350   36.66070   42.28100   15.41500   17.19310    0.05820    -999.25    4.09850 2616.94120   20.70540    0.55520
 2500.00000  291.66380  250.08210    0.15280    -999.25  186.93950  215.83030   57.96780   61.92520    9.33510    9.62290    0.15860    -999.25    3.22250 2437.39620   10.82670   -8.61470
