~Version ---------------------------------------------------
VERS.      2.0 : CWLS log ASCII Standard -VERSION 2.0
WRAP.       NO : One line per depth step
CREA. 11/15/17 : LAS Creation Date
~Well ------------------------------------------------------
STRT.FT                        600.0 : START DEPTH
STOP.FT                      10800.0 : STOP DEPTH
STEP.FT                     50.00000 : STEP LENGTH
NULL.                        -999.25 : NULL VALUE
COMP.           PETROFINA CANADA LTD : COMPANY
WELL. FINA AMOCO HB FOXCK 6-35-60-18 : WELL
FLD .                                : FIELD
LOC .                                : LOCATION
CTRY.                         CANADA : COUNTRY
SRVC.         Schlumberger of Canada : SERVICE COMPANY
DATE.                    29-Aug-1976 : LOGDATE
PROV.                        Alberta : PROVINCE
UWI .               100063506018W500 : UNIQUE WELL ID
SLAT.WGS84                  54.22952 : SURFACE LATITUDE
SLON.WGS84                 -116.5928 : SURFACE LONGITUDE
~Curve Information -----------------------------------------
DEPT    .FT    : Depth Curve
CALDED  .IN    : CALIPER FROM DENSITY LOG, DEPTH ADJUSTED WITH [SPRED]
CALSED  .IN    : CALIPER FROM SONIC LOG, DEPTH ADJUSTED WITH [SPRED]
CALWS   .IN    : CALIPER [CALSED]
CONDWS  .MMHO  : CONDUCTIVITY [1000/DRESWS]
DCORED  .G/C3  : DENSITY CORRECTION FROM DENSITY LOG, DEPTH ADJUSTED WITH [SPRED]
DCORWS  .G/C3  : DENSITY CORRECTION [DCORED]
DENWS   .G/C3  : BULK DENSITY [RHOBED]
DPOLSWS .V/V   : DENSITY POROSITY LIMESTONE [CALCULATED FROM DENWS]
DPORLSED.V/V   : DENSITY POROSITY LIMESTONE FROM DENSITY LOG, DEPTH ADJUSTED WITH [SPRED]
DPORSSED.V/V   : DENSITY POROSITY SANDSTONE FROM DENSITY LOG, DEPTH ADJUSTED WITH [SPRED]
DRESWS  .OHMM  : DEEP RESISTIVITY [ILDED]
DTED    .US/F  : DELTA TIME FROM SONIC LOG, DEPTH ADJUSTED WITH [SPRED]
DTWS    .US/F  : DELTA TIME [DTED]
GRDED   .GAPI  : GAMMA RAY FROM DENSITY LOG, DEPTH ADJUSTED WITH [SPRED]
GRED    .GAPI  : GAMMA RAY FROM CEMENT LOG, DEPTH ADJUSTED WITH [SPRED]
GRSED   .GAPI  : GAMMA RAY FROM SONIC LOG, DEPTH ADJUSTED WITH [SPRED]
GRWS    .GAPI  : GAMMA RAY [GRSED], SPLICED WITH [GRED] FROM TOP TO 1095'
ILDED   .OHMM  : INDUCTION LOG DEEP RESISTIVITY
ILMED   .OHMM  : INDUCTION LOG MEDIUM RESISTIVITY
LL8ED   .OHMM  : 8 INCH LATEROLOG RESISTIVITY
MRESWS  .OHMM  : MEDIUM RESISTIVITY [ILMED]
NPOLSWS .V/V   : NEUTRON POROSITY LIMESTONE [NPORLSED], MATRIX CONVERTED FROM [NPORSSED] TO LIMESTONE FROM TOP TO 6954'
NPORLSED.V/V   : NEUTRON POROSITY LIMESTONE FROM DENSITY LOG, DEPTH ADJUSTED WITH [SPRED]
NPORSSED.V/V   : NEUTRON POROSITY SANDSTONE FROM DENSITY LOG, DEPTH ADJUSTED WITH [SPRED]
RHOBED  .G/C3  : BULK DENSITY FROM DENSITY LOG, DEPTH ADJUSTED WITH [SPRED]
SPRED   .MV    : SPONTANEOUS POTENTIAL FROM RESISTIVITY LOG
SPWS    .MV    : SPONTANEOUS POTENTIAL [BASELINE 0 MV] [SPRED]
SRESWS  .OHMM  : SHALLOW RESISTIVITY [LL8ED]
~Params ----------------------------------------------------
PD  .                     GL : PERMANENT DATUM
EPD .FT                 3085 : ELEVATION PERMANENT DATUM
LMF .                     KB : LOG MEASURED FROM
DAPD.FT                 15.7 : FEET ABOVE PERMANENT DATUM
EKB .FT               3100.9 : KELLY BUSHING
EDF .FT               3085.2 : DRILLING FLOOR
EGL .FT               3085.5 : GROUND LEVEL
DATE.               08/29/76 : RUN DATE
RUN .                      1 : RUN NUMBER
DD  .FT                10843 : DEPTH DRILLER
DL  .FT                10840 : DEPTH LOGGER
BLI .FT                10834 : BOTTOM LOG INTERVAL
TLI .FT                 1119 : TOP LOG INTERVAL
CBD .FT                 1119 : CASING BOTTOM DRILLER
CBL .FT                 1119 : CASING BOTTOM LOGGER
BS  .IN                 8.75 : BIT SIZE
BSD .FT                10843 : BIT SIZE AT DEPTH
DFT .               GEL CHEM : DRILLING FLUID TYPE
DFD .                    9.3 : DRILLING FLUID DENSITY
DFV .                    150 : DRILLING FLUID VISCOSITY
DFPH.                   10.5 : DRILLING FLUID PH
DFL .                    7.0 : DRILLING FLUID LOSS
MSS .            CIRCULATION : MUD SAMPLE SOURCE
RMS .OHMM               2.43 : RESISTIVITY MUD SAMPLE
MST .DEGF                 76 : MUD SAMPLE TEMPERATURE
RMF .OHMM               2.33 : RESISTIVITY MUD FILTRATE SAMPLE
MFST.DEGF                 73 : MUD FILTRATE SAMPLE TEMPERATURE
RMC .OHMM               2.22 : RESISTIVITY MUD CAKE
MCST.DEGF                 67 : MUD CAKE SAMPLE TEMPERATURE
RMB .OHMM               0.86 : RESISTIVITY MUD AT BHT
TCS .HRS                   3 : TIME CIRCULATED STOPPED
LUN .                   7691 : LOGGING UNIT NUMBER
LUL .                    WCT : LOGGING UNIT LOCATION
ENGI.              CROCKFORD : RECORDING ENGINEER
WITN.                 HALKOW : WITNESSED BY
CLNT.                A2DTECH : CLIENT CODE
ORIG.            2" 5" PRINT : ORIGIN OF DATA
UWI .       100063506018W500 : UNIQUE WELL ID
DICO. A2D Technologies, Inc. : DIGITIZING COMPANY
~Other -----------------------------------------------------
~ASCII -----------------------------------------------------
# ...
 6850.00000   11.81060   10.06850   10.06850   97.25170    0.15200    0.15200    2.06250    0.37870    -999.25    0.35250   10.28260   81.52330   81.52330  106.13730    -999.25   89.78950   89.78950   10.28260   10.03950   13.47950   10.03950    0.25990    -999.25    0.31090    2.06250   -7.97220   -2.91390   13.47950
 6900.00000   13.75360   11.73980   11.73980  288.68360    0.22200    0.22200    2.20130    0.29750    -999.25    0.26440    3.46400   96.03810   96.03810  105.65190    -999.25  102.20250  102.20250    3.46400    3.29580    4.35170    3.29580    0.37010    -999.25    0.41380    2.20130  -10.24010   -4.83600    4.35170
 6950.00000   14.87520   11.61080   11.61080  164.63620    0.22970    0.22970    2.10840    0.35180    -999.25    0.32110    6.07400   80.61300   80.61300   94.61310    -999.25   94.17520   94.17520    6.07400    5.92600    7.86510    5.92600    0.30320    -999.25    0.35190    2.10840  -12.96340   -7.21350    7.86510
 7000.00000   13.91890   11.97040   11.97040  148.16130    0.21230    0.21230    2.07480    0.37150    0.35710    -999.25    6.74940   97.93560   97.93560   94.32780    -999.25   84.48870   84.48870    6.74940    4.84120    8.21300    4.84120    0.37800    0.37800    -999.25    2.07480  -16.58710  -10.49150    8.21300
 7050.00000   15.21590   13.49990   13.49990  137.26480    0.02830    0.02830    1.51370    0.69960    0.45280    -999.25    7.28690  103.32780  103.32780   79.60670    -999.25   81.87840   81.87840    7.28690    6.19200   13.08340    6.19200    0.47450    0.47450    -999.25    1.51370  -18.45920  -12.01950   13.08340
 7100.00000    8.74320    8.98200    8.98200    1.62010    0.00810    0.00810    2.57180    0.08080    0.08470    -999.25  617.23300   62.39300   62.39300   98.58780    -999.25   77.45630   77.45630  617.23300 1345.94430 1459.65200 1345.94430    0.11630    0.11630    -999.25    2.57180  -26.83160  -20.04450 1459.65200
 7150.00000    9.24150    9.05770    9.05770   51.94290    0.00670    0.00670    2.61680    0.05450    0.05790    -999.25   19.25190   62.88050   62.88050   85.98640    -999.25   84.53190   84.53190   19.25190   20.23360   24.47270   20.23360    0.05590    0.05590    -999.25    2.61680  -23.43570  -16.91800   24.47270
 7200.00000    8.77960    9.05450    9.05450   40.20180    0.05030    0.05030    2.64530    0.03780    0.03730    -999.25   24.87450   63.29160   63.29160   72.99690    -999.25   72.79330   72.79330   24.87450   24.89970   28.75470   24.89970    0.06190    0.06190    -999.25    2.64530  -23.27160  -17.02950   28.75470
 7250.00000    9.71230    9.32490    9.32490   49.91120    0.04660    0.04660    2.73630   -0.01540   -0.00920    -999.25   20.03560   61.90290   61.90290   91.41860    -999.25   85.20270   85.20270   20.03560   20.92580   23.96030   20.92580    0.06140    0.06140    -999.25    2.73630  -15.40990   -9.44340   23.96030
 7300.00000    9.14950    9.10510    9.10510   37.57890    0.14970    0.14970    2.79920   -0.05210   -0.06920    -999.25   26.66520   50.31900   50.31900   47.86320    -999.25   46.76850   46.76850   26.66520   35.70740   81.32080   35.70740    0.07690    0.07690    -999.25    2.79920  -25.46670  -19.77440   81.32080
 7350.00000    9.40720    9.32370    9.32370  273.44070    0.06060    0.06060    2.63800    0.04210    0.04390    -999.25    3.65710   62.16230   62.16230   51.31730    -999.25   48.79040   48.79040    3.65710    3.71410   11.09970    3.71410    0.15550    0.15550    -999.25    2.63800  -68.46370  -63.04840   11.09970
 7400.00000    9.20190    9.04630    9.04630   72.70030    0.01610    0.01610    2.72160   -0.00680   -0.00840    -999.25   13.75510   57.46610   57.46610   65.87470    -999.25   58.62890   58.62890   13.75510   13.13380   21.39990   13.13380    0.07610    0.07610    -999.25    2.72160  -37.52690  -32.38720   21.39990
 7450.00000   10.26150    9.53150    9.53150   16.44740    0.23670    0.23670    2.64140    0.04010    0.03990    -999.25   60.79970   55.57750   55.57750   27.08240    -999.25   28.87160   28.87160   60.79970   59.70350  493.57590   59.70350    0.02860    0.02860    -999.25    2.64140  -20.39430  -15.53020  493.57590
 7500.00000    9.46630    9.01320    9.01320   28.02170    0.10400    0.10400    2.52650    0.10730    0.10540    -999.25   35.68660   50.11160   50.11160   15.53770    -999.25   15.01940   15.01940   35.68660   59.53890  240.52830   59.53890    0.03380    0.03380    -999.25    2.52650 -134.64610 -130.05760  240.52830
 7550.00000    9.24970    9.18880    9.18880   31.53440    0.05610    0.05610    2.62000    0.05260    0.05570    -999.25   31.72500   51.21050   51.21050   13.29210    -999.25   16.04780   16.04780   31.72500   46.55070  287.69200   46.55070    0.03030    0.03030    -999.25    2.62000 -169.61550 -165.30120  287.69200
 7600.00000    9.09100    9.08280    9.08280  129.93260    0.00950    0.00950    2.69510    0.00870    0.00910    -999.25    7.69630   63.54060   63.54060   88.18550    -999.25   94.57070   94.57070    7.69630    7.43760   12.75180    7.43760    0.10680    0.10680    -999.25    2.69510  -10.21260   -6.17530   12.75180
 7650.00000    9.02960    8.94870    8.94870   52.98690    0.02120    0.02120    2.70630    0.00220   -0.00200    -999.25   18.87260   59.47860   59.47860   84.76120    -999.25   86.22150   86.22150   18.87260   19.92990   27.23590   19.92990    0.08120    0.08120    -999.25    2.70630   -4.50110   -0.73940   27.23590
 7700.00000    9.25500    9.19610    9.19610  151.73360    0.03940    0.03940    2.70540    0.00270   -0.00770    -999.25    6.59050   62.56060   62.56060   71.88030    -999.25   71.11170   71.11170    6.59050    6.19450   11.77060    6.19450    0.14700    0.14700    -999.25    2.70540  -15.15010  -11.66400   11.77060
 7750.00000    9.10740    9.03260    9.03260   24.04730    0.00360    0.00360    2.68710    0.01340    0.01610    -999.25   41.58470   53.43040   53.43040   33.26350    -999.25   37.97960   37.97960   41.58470   47.99280  177.82690   47.99280    0.03750    0.03750    -999.25    2.68710   -7.95010   -4.73960  177.82690
 7800.00000    9.14750    9.12460    9.12460    3.53570    0.01500    0.01500    2.70380    0.00360    0.00250    -999.25  283.28210   51.35900   51.35900   13.02570    -999.25   12.53890   12.53890  283.28210  283.34240 1172.36350  283.34240    0.00360    0.00360    -999.25    2.70380  -22.88800  -19.95170 1172.36350
 7850.00000    8.97760    8.91870    8.91870    6.66340    0.02100    0.02100    2.72690   -0.00990   -0.00000    -999.25  150.07300   53.32150   53.32150   31.63790    -999.25   30.38450   30.38450  150.07300  184.47220  238.96120  184.47220    0.02380    0.02380    -999.25    2.72690  -19.70410  -17.04490  238.96120
 7900.00000    8.83270    8.92990    8.92990   12.66190    0.01100    0.01100    2.73580   -0.01510   -0.01460    -999.25   78.97700   53.42810   53.42810   26.39130    -999.25   24.88360   24.88360   78.97700   80.20700   99.59620   80.20700    0.01340    0.01340    -999.25    2.73580  -14.57270  -12.18910   99.59620
 7950.00000    8.76250    9.06470    9.06470    4.59660    0.02140    0.02140    2.72140   -0.00670   -0.00250    -999.25  217.55400   51.49050   51.49050   16.45510    -999.25   16.98820   16.98820  217.55400  321.72350  517.80400  321.72350    0.00580    0.00580    -999.25    2.72140  -40.68710  -38.57910  517.80400
 8000.00000    8.87900    8.25030    8.25030   17.28820    0.02500    0.02500    2.72070   -0.00630   -0.01240    -999.25   57.84300   54.84210   54.84210   42.13580    -999.25   41.29240   41.29240   57.84300   61.31450   87.65210   61.31450    0.02340    0.02340    -999.25    2.72070   -9.30730   -7.47490   87.65210
 8050.00000    8.76810    8.59420    8.59420    7.04660    0.01540    0.01540    2.70010    0.00580    0.00530    -999.25  141.91510   53.51690   53.51690   25.70120    -999.25   24.99600   24.99600  141.91510  160.11170  211.34860  160.11170    0.01230    0.01230    -999.25    2.70010  -36.82970  -35.27150  211.34860
