~Version ---------------------------------------------------
VERS.      2.0 : CWLS log ASCII Standard -VERSION 2.0
WRAP.       NO : One line per depth step
CREA. 12/14/17 : LAS Creation Date
~Well ------------------------------------------------------
STRT.FT                          1000.0 : START DEPTH
STOP.FT                          9450.0 : STOP DEPTH
STEP.FT                        50.00000 : STEP LENGTH
NULL.                           -999.25 : NULL VALUE
COMP.      CANADIAN HOMESTEAD OILS LTD. : COMPANY
WELL. HOMESTEAD ET AL SNIPE 11-28-68-19 : WELL
FLD .                                   : FIELD
LOC .                                   : LOCATION
CTRY.                            CANADA : COUNTRY
SRVC.                      Schlumberger : SERVICE COMPANY
DATE.                       25-Dec-1972 : LOGDATE
PROV.                           Alberta : PROVINCE
UWI .                  100112806819W500 : UNIQUE WELL ID
SLAT.WGS84                     54.91868 : SURFACE LATITUDE
SLON.WGS84                    -116.8396 : SURFACE LONGITUDE
~Curve Information -----------------------------------------
DEPT    .FT    : Depth Curve
CALDED  .IN    : CALIPER FROM DENSITY LOG [ADJ. TO GRSED]
CALSED  .IN    : CALIPER FROM SONIC LOG
CALWS   .IN    : CALIPER [CALSED]
CONDWS  .MMHO  : CONDUCTIVITY [1000/DRESWS]
DRESWS  .OHMM  : DEEP RESISTIVITY [ILDED]
DTED    .US/F  : DELTA TIME FROM SONIC LOG
DTWS    .US/F  : COMPRESSIONAL SONIC [DTED]
GRDED   .GAPI  : GAMMA RAY FROM DENSITY LOG [ADJ. TO GRSED]
GRSED   .GAPI  : GAMMA RAY FROM SONIC LOG
GRWS    .GAPI  : GAMMA RAY [GRSED]
ILDED   .OHMM  : DEEP INDUCTION RESISTIVITY FROM RESISTIVITY LOG
ILMED   .OHMM  : MEDIUM INDUCTION  RESISTIVITY FROM RESISTIVITY LOG
LL8ED   .OHMM  : LATEROLOG 8 FROM RESISTIVITY LOG
MRESWS  .OHMM  : MEDIUM RESISTIVITY [ILMED]
NPHILSED.V/V   : NEUTRON POROSITY LIMESTONE FROM DENSITY LOG
NPHISSED.V/V   : NEUTRON POROSITY SANDSTONE FROM DENSITY LOG
NPOLSWS .V/V   : NEUTRON POROSITY LIMESTONE [NPHISSED MATRIX CONVERSION FOR LIMESTONE, SPL. TO NPHILSED @ 5498']
SPHILSED.V/V   : SONIC POROSITY LIMESTONE [DTM=55.6, DTF=189] FROM SONIC LOG
SPHISSED.V/V   : SONIC POROSITY SANDSTONE [DTM=47.6, DTF=189]  FROM SONIC LOG
SPOWS   .V/V   : SONIC POROSITY [SPHISSED SPL. TO SPHILSED @ 5403']
SPRED   .MV    : SPONTANEOUS POTENTIAL FROM RESISTIVITY LOG
SPWS    .MV    : SPONTANEOUS POTENTIAL [BASELINE 0, MV SPRED]
SRESWS  .OHMM  : SHALLOW RESISTIVITY [LL8ED]
~Params ----------------------------------------------------
PD  .                     GL : PERMANENT DATUM
EPD .FT                 2594 : ELEVATION PERMANENT DATUM
LMF .                     KB : LOG MEASURED FROM
DAPD.FT                   16 : FEET ABOVE PERMANENT DATUM
EKB .FT                 2610 : KELLY BUSHING
EGL .FT                 2594 : GROUND LEVEL
DATE.               12/25/72 : RUN DATE
RUN .                      1 : RUN NUMBER
DD  .FT                 9485 : DEPTH DRILLER
DL  .FT                 9485 : DEPTH LOGGER
BLI .FT                 9479 : BOTTOM LOG INTERVAL
TLI .FT                  972 : TOP LOG INTERVAL
CBD .FT                  972 : CASING BOTTOM DRILLER
CBL .FT                  972 : CASING BOTTOM LOGGER
BS  .IN                7.875 : BIT SIZE
BSD .FT                 9485 : BIT SIZE AT DEPTH
DFT .                    FGM : DRILLING FLUID TYPE
DFD .                    9.1 : DRILLING FLUID DENSITY
DFV .                     75 : DRILLING FLUID VISCOSITY
DFPH.                    9.5 : DRILLING FLUID PH
DFL .                      8 : DRILLING FLUID LOSS
MSS .               MEASURED : MUD SAMPLE SOURCE
RMS .OHMM               2.13 : RESISTIVITY MUD SAMPLE
MST .DEGF                 44 : MUD SAMPLE TEMPERATURE
RMF .OHMM                1.3 : RESISTIVITY MUD FILTRATE SAMPLE
MFST.DEGF                 75 : MUD FILTRATE SAMPLE TEMPERATURE
RMC .OHMM               2.06 : RESISTIVITY MUD CAKE
MCST.DEGF                 52 : MUD CAKE SAMPLE TEMPERATURE
CLNT.                A2DTECH : CLIENT CODE
ORIG.            2" 5" PRINT : ORIGIN OF DATA
UWI .       100112806819W500 : UNIQUE WELL ID
DICO. A2D Technologies, Inc. : DIGITIZING COMPANY
~Other -----------------------------------------------------
DIL-CNL-SLC LOG RUN
CALD/GRD DEPTH SHIFTED TO GRSED
~ASCII -----------------------------------------------------
 1000.00000    -999.25   11.53050   11.53050  303.89590    3.29060  129.60290  129.60290    -999.25   54.68900   54.68900    3.29060    2.59280    4.49770    2.59280    -999.25    -999.25    -999.25    -999.25    0.45000    0.45000 -125.78820   -4.87780    4.49770
 1050.00000    -999.25    9.70340    9.70340  373.47350    2.67840  135.63050  135.63050    -999.25   66.15830   66.15830    2.67840    2.11430    3.57270    2.11430    -999.25    -999.25    -999.25    -999.25    0.55260    0.55260 -126.11440   -6.44680    3.57270
 1100.00000    -999.25    8.74870    8.74870  121.62340    8.22210  112.91730  112.91730    -999.25   52.53180   52.53180    8.22210    6.12780    7.88330    6.12780    -999.25    -999.25    -999.25    -999.25    0.41590    0.41590 -132.64210  -14.22980    7.88330
 1150.00000    -999.25    9.73130    9.73130  289.30680    3.45670  143.70380  143.70380    -999.25   58.85050   58.85050    3.45670    2.51470    3.20170    2.51470    -999.25    -999.25    -999.25    -999.25    0.63220    0.63220 -124.05890   -6.88930    3.20170
 1200.00000    -999.25    8.55000    8.55000  317.76290    3.14700  143.03440  143.03440    -999.25   50.48750   50.48750    3.14700    2.27380    3.28270    2.27380    -999.25    -999.25    -999.25    -999.25    0.66270    0.66270 -122.08050   -5.82810    3.28270
 1250.00000    -999.25    8.32500    8.32500   75.53380   13.23910  114.54000  114.54000    -999.25   42.38020   42.38020   13.23910    7.58580    9.32310    7.58580    -999.25    -999.25    -999.25    -999.25    0.43090    0.43090 -128.40680  -12.63500    9.32310
 1300.00000    -999.25    9.16020    9.16020  309.00170    3.23700  128.87070  128.87070    -999.25   63.00190   63.00190    3.23700    2.49240    3.56030    2.49240    -999.25    -999.25    -999.25    -999.25    0.45000    0.45000 -120.90550   -5.61190    3.56030
 1350.00000    -999.25    8.53230    8.53230  158.16030    6.32270  105.69730  105.69730    -999.25   48.14320   48.14320    6.32270    5.07810    6.95740    5.07810    -999.25    -999.25    -999.25    -999.25    0.36730    0.36730 -120.77350   -5.96290    6.95740
 1400.00000    -999.25    8.68530    8.68530  302.73520    3.30340  124.23770  124.23770    -999.25   54.96020   54.96020    3.30340    2.64800    3.78460    2.64800    -999.25    -999.25    -999.25    -999.25    0.44950    0.44950 -118.58280   -4.25040    3.78460
 1450.00000    -999.25    9.15410    9.15410  290.01480    3.44810  130.84580  130.84580    -999.25   48.11390   48.11390    3.44810    2.61670    3.44540    2.61670    -999.25    -999.25    -999.25    -999.25    0.45050    0.45050 -120.58410   -6.73470    3.44540
 1500.00000    -999.25    8.31530    8.31530  144.70730    6.91050  109.87280  109.87280    -999.25   46.93270   46.93270    6.91050    5.51440    7.43020    5.51440    -999.25    -999.25    -999.25    -999.25    0.40280    0.40280 -126.75420  -13.38530    7.43020
 1550.00000    -999.25    9.12940    9.12940  352.14630    2.84100  135.96020  135.96020    -999.25   47.32350   47.32350    2.84100    2.28310    3.65250    2.28310    -999.25    -999.25    -999.25    -999.25    0.45000    0.45000 -120.19190   -7.30120    3.65250
 1600.00000    -999.25    8.00970    8.00970  148.81400    6.71980   84.49240   84.49240    -999.25   41.34540   41.34540    6.71980    5.56760   12.84310    5.56760    -999.25    -999.25    -999.25    -999.25    0.21740    0.21740 -120.00590   -6.81650   12.84310
 1650.00000    -999.25    8.86270    8.86270  273.38150    3.66010  102.47330  102.47330    -999.25   49.11060   49.11060    3.66010    3.19390    4.26680    3.19390    -999.25    -999.25    -999.25    -999.25    0.34890    0.34890 -119.23030   -5.55880    4.26680
 1700.00000    -999.25    7.95940    7.95940   94.92170   10.53500   90.62060   90.62060    -999.25   37.60370   37.60370   10.53500    9.85130   12.65430    9.85130    -999.25    -999.25    -999.25    -999.25    0.26880    0.26880 -125.16280  -11.00430   12.65430
 1750.00000    -999.25    9.14580    9.14580  241.45840    4.14150  107.39580  107.39580    -999.25   59.08220   59.08220    4.14150    3.42140    5.32630    3.42140    -999.25    -999.25    -999.25    -999.25    0.37830    0.37830 -118.80190   -4.15890    5.32630
 1800.00000    -999.25    8.04790    8.04790   69.50930   14.44720   93.76310   93.76310    -999.25   39.25750   39.25750   14.44720   12.98900   26.97210   12.98900    -999.25    -999.25    -999.25    -999.25    0.27700    0.27700 -127.13530  -11.82550   26.97210
 1850.00000    -999.25    8.88260    8.88260  269.77450    3.70680  121.59770  121.59770    -999.25   52.56480   52.56480    3.70680    2.95880    4.24180    2.95880    -999.25    -999.25    -999.25    -999.25    0.45000    0.45000 -122.14590   -7.86910    4.24180
 1900.00000    -999.25    8.86570    8.86570  326.27840    3.06510  115.92710  115.92710    -999.25   50.54050   50.54050    3.06510    2.60710    4.19850    2.60710    -999.25    -999.25    -999.25    -999.25    0.43700    0.43700 -118.59710   -5.34290    4.19850
 1950.00000    -999.25    9.18230    9.18230  320.38960    3.12120  116.45930  116.45930    -999.25   51.92660   51.92660    3.12120    2.57440    3.88050    2.57440    -999.25    -999.25    -999.25    -999.25    0.44160    0.44160 -117.82530   -5.60410    3.88050
 2000.00000    -999.25    8.42080    8.42080  142.84080    7.00080   96.09900   96.09900    -999.25   52.29470   52.29470    7.00080    5.84700   11.49970    5.84700    -999.25    -999.25    -999.25    -999.25    0.30140    0.30140 -121.01560   -9.78230   11.49970
 2050.00000    -999.25    8.76600    8.76600  178.05000    5.62280   93.23510   93.23510    -999.25   51.44310   51.44310    5.62280    4.99760    6.06160    4.99760    -999.25    -999.25    -999.25    -999.25    0.28340    0.28340 -117.68500   -6.14960    6.06160
 2100.00000    -999.25   12.29260   12.29260  184.27410    5.42670  109.00160  109.00160    -999.25   75.21480   75.21480    5.42670    4.31020    6.05240    4.31020    -999.25    -999.25    -999.25    -999.25    0.39020    0.39020 -121.02520   -9.18470    6.05240
 2150.00000    -999.25   10.17120   10.17120  190.82590    5.24040  117.83000  117.83000    -999.25   82.43890   82.43890    5.24040    4.19240    5.76220    4.19240    -999.25    -999.25    -999.25    -999.25    0.44320    0.44320 -121.61530   -9.47270    5.76220
 2200.00000    -999.25    9.70500    9.70500  197.44900    5.06460  108.23610  108.23610    -999.25  102.56410  102.56410    5.06460    4.21220    6.68460    4.21220    -999.25    -999.25    -999.25    -999.25    0.38140    0.38140 -120.64250   -8.19480    6.68460
 2250.00000    -999.25    9.50450    9.50450  174.70000    5.72410  111.31910  111.31910    -999.25  128.03360  128.03360    5.72410    4.92480    7.75040    4.92480    -999.25    -999.25    -999.25    -999.25    0.40660    0.40660 -118.63810   -5.88680    7.75040
 2300.00000    -999.25    9.80090    9.80090  203.24840    4.92020  108.52630  108.52630    -999.25   89.77080   89.77080    4.92020    4.11360    6.59950    4.11360    -999.25    -999.25    -999.25    -999.25    0.38940    0.38940 -118.82760   -5.77420    6.59950
 2350.00000    -999.25   10.31200   10.31200  192.35580    5.19870  103.94090  103.94090    -999.25   75.36980   75.36980    5.19870    4.25670    6.09700    4.25670    -999.25    -999.25    -999.25    -999.25    0.44890    0.44890 -124.01530   -9.61290    6.09700
 2400.00000    -999.25   10.63550   10.63550  188.79390    5.29680  115.34860  115.34860    -999.25   84.72000   84.72000    5.29680    4.05840    6.02040    4.05840    -999.25    -999.25    -999.25    -999.25    0.43670    0.43670 -124.46430   -6.62170    6.02040
 2450.00000    -999.25    8.83440    8.83440  148.70110    6.72490  103.13240  103.13240    -999.25   90.02590   90.02590    6.72490    5.60030    7.83720    5.60030    -999.25    -999.25    -999.25    -999.25    0.35620    0.35620 -121.22910   -3.83300    7.83720
 2500.00000    -999.25   10.40070   10.40070  161.32680    6.19860  103.11000  103.11000    -999.25   88.23220   88.23220    6.19860    4.99740    6.81100    4.99740    -999.25    -999.25    -999.25    -999.25    0.33790    0.33790 -123.93970   -7.34840    6.81100
