~Version ---------------------------------------------------
VERS.      2.0 : CWLS log ASCII Standard -VERSION 2.0
WRAP.       NO : One line per depth step
CREA. 06/05/13 : LAS Creation Date
~Well ------------------------------------------------------
STRT.M                   300.0 : START DEPTH
STOP.M                  3000.0 : STOP DEPTH
STEP.M                50.00000 : STEP LENGTH
NULL.                  -999.25 : NULL VALUE
COMP. PARAMOUNT RESOURCES LTD. : COMPANY
WELL.   PARA KAYBOB 7-27-63-18 : WELL
FLD .                   KAYBOB : FIELD
LOC .                          : LOCATION
CTRY.                   CANADA : COUNTRY
SRVC.               Computalog : SERVICE COMPANY
DATE.              26-Jul-1998 : LOGDATE
PROV.                  Alberta : PROVINCE
UWI .         100072706318W500 : UNIQUE WELL ID
SLAT.WGS84       54.4775665089 : SURFACE LATITUDE
SLON.WGS84     -116.6347462801 : SURFACE LONGITUDE
~Curve Information -----------------------------------------
DEPT    .M      : DEPTH METER
CALWS   .MM     : CALIPER [CALXDED]
CALXDED .MM     : CALIPER X FROM DENSITY LOG [ADJ. TO RESISTIVITY LOG]
CALYDED .MM     : CALIPER Y FROM DENSITY LOG [ADJ. TO RESISTIVITY LOG]
CALYSED .MM     : CALIPER Y FROM SONIC LOG [ADJ. TO RESISTIVITY LOG]
CONDWS  .MMHO   : CONDUCTIVITY [1000/DRESWS]
DCORED  .KG/M3  : DENSITY CORRECTION FROM DENSITY LOG [ADJ. TO RESISTIVITY LOG]
DCORWS  .KG/M3  : DENSITY CORRECTION [DRHOED SPL. TO DCORED @1907.5M]
DENWS   .KG/M3  : FORMATION BULK DENSITY [CALC. FROM DPOLSWS M=2710,F=1000]
DPOLSWS .V/V    : DENSITY POROSITY LIMESTONE [DPORSSED CONVERTED TO LIMESTONE MATRIX, SPL. TO DPORLSED @ 1815M]
DPORLSED.V/V    : DENSITY POROSITY LIMESTONE [M=2710,F=1000] FROM DENSITY LOG [ADJ. TO RESISTIVITY LOG]
DPORSSED.V/V    : DENSITY POROSITY SANDSTONE [M=2650,F=1000] FROM DENSITY LOG [ADJ. TO RESISTIVITY LOG]
DRESWS  .OHMM   : DEEP RESISTIVITY [STIDED]
DRHOED  .KG/M3  : BULK DENSITY CORRECTION FROM DENSITY LOG [ADJ. TO RESISTIVITY LOG]
DTED    .US/M   : DELTA-T FROM SONIC LOG [ADJ. TO RESISTIVITY LOG]
DTWS    .US/M   : COMPRESSIONAL SONIC [DTED]
GRDED   .GAPI   : GAMMA RAY FROM DENSITY LOG [ADJ. TO RESISTIVITY LOG]
GRRED   .GAPI   : GAMMA RAY FROM RESISTIVITY LOG
GRSED   .GAPI   : GAMMA RAY FROM SONIC LOG [ADJ. TO RESISTIVITY LOG]
GRWS    .GAPI   : GAMMA RAY [GRSED SPL. TO GRDED @3028.2M]
MRESWS  .OHMM   : MEDIUM RESISTIVITY [STIMED]
NPOLSWS .V/V    : NEUTRON POROSITY LIMESTONE [NPORSSED MATRIX CONVERSION FOR LIMESTONE, SPL. TO NPORLSED @1815M]
NPORLSED.V/V    : NEUTRON POROSITY LIMESTONE FROM DENSITY LOG [ADJ. TO RESISTIVITY LOG]
NPORSSED.V/V    : NEUTRON POROSITY SANDSTONE FROM DENSITY LOG [ADJ. TO RESISTIVITY LOG]
PEED    .B/E    : PHOTO ELECTRIC CROSS SECTION FROM DENSITY LOG [ADJ. TO RESISTIVITY LOG]
PEFWS   .B/E    : PHOTOELECTRIC FACTOR [PEED]
RHOBED  .KG/M3  : BULK DENSITY FROM DENSITY LOG [ADJ. TO RESISTIVITY LOG/DPORSSED]
SFLED   .OHMM   : SPHERICALLY FOCUSED FROM RESISTIVITY LOG
SPRED   .MV     : SPONTANEOUS POTENTIAL FROM RESISTIVITY LOG
SPWS    .MV     : SPONTANEOUS POTENTIAL [BASELINE 0 MV, SPRED]
SRESWS  .OHMM   : SHALLOW RESISTIVITY [SFLED]
STIDED  .OHMM   : SIMULTANEOUS TRIPLE DEEP INDUCTION FROM RESISTIVITY LOG
STIMED  .OHMM   : SIMULTANEOUS TRIPLE MEDIUM INDUCTION FROM RESISTIVITY LOG
TENDED  .N      : TENSION FROM DENSITY LOG [ADJ. TO RESISTIVITY LOG]
TENRED  .N      : TENSION FROM RESISTIVITY LOG
TENSED  .N      : TENSION FROM SONIC LOG [ADJ. TO RESISTIVITY LOG]
~Params ----------------------------------------------------
PD  .                         GL : PERMANENT DATUM
EPD .FT                      782 : ELEVATION PERMANENT DATUM
LMF .                         KB : LOG MEASURED FROM
DAPD.FT                      5.4 : FEET ABOVE PERMANENT DATUM
EKB .FT                    787.4 : KELLY BUSHING
EGL .FT                      782 : GROUND LEVEL
DATE.                   07/26/98 : RUN DATE
RUN .                          2 : RUN NUMBER
DD  .FT                     3040 : DEPTH DRILLER
DL  .FT                   3040.2 : DEPTH LOGGER
BLI .FT                   3038.1 : BOTTOM LOG INTERVAL
TLI .FT                     1906 : TOP LOG INTERVAL
CBD .FT                     1910 : CASING BOTTOM DRILLER
CBL .FT                   1906.8 : CASING BOTTOM LOGGER
BS  .IN                      155 : BIT SIZE
BSD .MM                     3040 : BIT SIZE AT DEPTH
DFT .               GEL CHEMICAL : DRILLING FLUID TYPE
DFD .                      11100 : DRILLING FLUID DENSITY
DFV .                         70 : DRILLING FLUID VISCOSITY
DFPH.                         10 : DRILLING FLUID PH
DFL .                          7 : DRILLING FLUID LOSS
MSS .                   FLOWLINE : MUD SAMPLE SOURCE
RMS .OHMM                    1.3 : RESISTIVITY MUD SAMPLE
MST .DEGC                     23 : MUD SAMPLE TEMPERATURE
RMF .OHMM                    1.2 : RESISTIVITY MUD FILTRATE SAMPLE
MFST.DEGC                     23 : MUD FILTRATE SAMPLE TEMPERATURE
RMC .OHMM                    1.3 : RESISTIVITY MUD CAKE
MCST.DEGC                     23 : MUD CAKE SAMPLE TEMPERATURE
RMB .OHMM                    0.5 : RESISTIVITY MUD AT BHT
TCS .HRS                       6 : TIME CIRCULATED STOPPED
LUN .                        361 : LOGGING UNIT NUMBER
LUL .                     GRANDE : LOGGING UNIT LOCATION
ENGI.                       BAST : RECORDING ENGINEER
WITN.                  CZYPIANKA : WITNESSED BY
CLNT.                    A2DTECH : CLIENT CODE
ORIG. 6.5"/100M 16.5"/100M PRINT : ORIGIN OF DATA
UWI .           100072706318W500 : UNIQUE WELL ID
DICO.     A2D Technologies, Inc. : DIGITIZING COMPANY
~Other -----------------------------------------------------
RUN #1 : STI-SP-SPED-CNT-GR RUN IN COMBO & BHC LOG RUN
RUN #2 : STI-BHC RUN IN COMBO & CNT LOG RUN
RHOB FROM SMALL SCALE SECTION
~ASCII -----------------------------------------------------
# ...
 1350.00000  225.44030  225.44030  237.71830  234.88330  143.29730    -999.25   37.76740 2583.50500    0.07400    -999.25    0.04030    6.97850   37.76740  279.55140  279.55140  102.15060  102.29160  100.73760  100.73760    7.43110    0.26540    -999.25    0.31040    2.81340    2.81340 2593.99390    8.20080  -36.81280   -3.77470    8.20080    6.97850    7.43110 12544.74830 12610.66070 10713.40170
 1400.00000  227.61350  227.61350  228.69460  245.59110  315.80610    -999.25  133.27850 2531.86000    0.10420    -999.25    0.07160    3.16650  133.27850  331.41970  331.41970  149.32680  149.69480  144.53940  144.53940    3.25690    0.33230    -999.25    0.37730    2.79430    2.79430 2530.67970    3.35120  -34.70860   -3.81300    3.35120    3.16650    3.25690 12665.43030 12767.98500 11070.85810
 1450.00000  231.92060  231.92060  265.73560  273.37190  202.25310    -999.25   79.27350 2558.59000    0.08850    -999.25    0.05540    4.94430   79.27350  299.58970  299.58970  110.50680  110.27430  109.96700  109.96700    5.10480    0.30580    -999.25    0.35080    2.74760    2.74760 2569.71560    5.57180  -31.58120   -2.90710    5.57180    4.94430    5.10480 13152.21970 13146.49080 11486.98390
 1500.00000  236.24460  236.24460  230.79700  228.71130  106.97020    -999.25   25.15990 2551.00000    0.09300    -999.25    0.06000    9.34840   25.15990  240.91590  240.91590   63.26370   64.43330   64.37100   64.37100   10.00110    0.21160    -999.25    0.25660    2.85210    2.85210 2560.06250   12.32990  -36.39930   -5.93600   12.32990    9.34840   10.00110 13453.58980 13376.43140 11904.99620
 1550.00000  228.54000  228.54000  230.00790  229.27820   89.50550    -999.25   41.54710 2587.30000    0.07180    -999.25    0.03800   11.17250   41.54710  251.14810  251.14810   83.81360   83.93230   82.59840   82.59840   11.57150    0.22630    -999.25    0.27130    2.46830    2.46830 2576.91770   13.48730  -43.97330  -11.72090   13.48730   11.17250   11.57150 13736.93710 13627.98900 12016.40590
 1600.00000  236.33260  236.33260  232.74330  228.89730  102.98980    -999.25   27.85650 2578.55500    0.07690    -999.25    0.04330    9.70970   27.85650  246.00620  246.00620   83.95810   85.38360   84.52800   84.52800    9.95750    0.22220    -999.25    0.26720    2.84120    2.84120 2597.71510   10.50490  -41.17670   -7.22150   10.50490    9.70970    9.95750 13720.44170 13604.50370 12122.97950
 1650.00000  236.01420  236.01420  233.79700  229.88810   93.91880    -999.25   31.48160 2657.42500    0.03070    -999.25   -0.00450   10.64750   31.48160  242.27880  242.27880   75.58290   72.98590   71.48000   71.48000   12.45140    0.23830    -999.25    0.28330    3.62390    3.62390 2686.03880   15.24730  -33.26560   -2.01880   15.24730   10.64750   12.45140 13838.11990 13813.98030 12384.19770
 1700.00000  237.85700  237.85700  243.72610  239.15390  112.16670    -999.25   25.17470 2621.95000    0.05150    -999.25    0.01700    8.91530   25.17470  251.80810  251.80810   91.91240   91.46020   84.91130   84.91130    9.86560    0.23620    -999.25    0.28120    2.80850    2.80850 2622.67970   10.39920  -27.96550   -0.57900   10.39920    8.91530    9.86560 14172.93750 14238.50880 12603.86430
 1750.00000  241.53780  241.53780  250.24950  240.60640  119.20940    -999.25   31.13700 2605.28500    0.06120    -999.25    0.02710    8.38860   31.13700  225.50410  225.50410   89.35450   90.64310   90.34420   90.34420   11.31200    0.17440    -999.25    0.21950    2.18700    2.18700 2681.08740   14.04210  -46.04140  -15.08860   14.04210    8.38860   11.31200 13974.46940 14023.92650 12364.80620
 1800.00000  255.33390  255.33390  254.56240  253.16150   43.19320    -999.25   38.38420 2439.62500    0.15810    -999.25    0.12750   23.15180   38.38420  334.95000  334.95000  134.61870  134.45630  131.75010  131.75010   27.17320    0.34130    -999.25    0.38630    3.25220    3.25220 2433.17970   41.26400  -45.23230   -6.31780   41.26400   23.15180   27.17320 14061.78620 14108.04950 12764.14700
 1850.00000  273.85740  273.85740  263.68440  266.38280  105.00010    -999.25   21.11910 2668.96000    0.02400    0.02400   -0.01140    9.52380   21.11910  209.72780  209.72780   76.11230   76.38580   69.34480   69.34480   10.44080    0.13700    0.13700    0.18140    2.78150    2.78150 2667.17850   12.50140  -78.40250  -23.05070   12.50140    9.52380   10.44080 14642.52600 14734.50060 13147.48590
 1900.00000    -999.25    -999.25    -999.25    -999.25   39.47920    -999.25    -999.25    -999.25    -999.25    -999.25    -999.25   25.32980    -999.25  169.56530  169.56530   20.75830   22.50090   22.57230   22.57230   27.77130    0.17830    0.17830    -999.25    -999.25    -999.25    -999.25   34.42940 -124.26580  -41.51730   34.42940   25.32980   27.77130 14933.68660 14927.58010 13168.11720
 1950.00000  161.67200  161.67200  154.50900  161.40260   28.28500   65.07970   65.07970 2722.82500   -0.00750   -0.00750    -999.25   35.35440    -999.25  188.51550  188.51550   86.96080   85.67140   88.12030   88.12030   42.23670    0.08270    0.08270    -999.25    4.11620    4.11620 2721.40670   71.40850 -132.52400  -30.30460   71.40850   35.35440   42.23670 15539.28970 13616.40940 13967.55160
 2000.00000  162.23210  162.23210  157.47520  160.48010   50.99130   72.02960   72.02960 2704.18600    0.00340    0.00340    -999.25   19.61120    -999.25  170.11890  170.11890   12.08260   10.14860   10.24300   10.24300   27.25560    0.03590    0.03590    -999.25    4.79070    4.79070 2699.87160  180.39510 -269.91550 -158.66850  180.39510   19.61120   27.25560 16200.48810 14114.49190 14186.57130
 2050.00000  156.99330  156.99330  160.34900  160.91060  125.37930   61.75810   61.75810 2719.40500   -0.00550   -0.00550    -999.25    7.97580    -999.25  214.85720  214.85720  118.53240  113.26080  112.96190  112.96190    8.62110    0.16400    0.16400    -999.25    3.12590    3.12590 2730.67970   11.40640 -128.90290   -8.62830   11.40640    7.97580    8.62110 16530.39400 14167.29360 14276.62820
 2100.00000  156.06300  156.06300  161.21220  160.14940   13.37930   67.66410   67.66410 2704.01500    0.00350    0.00350    -999.25   74.74240    -999.25  176.84580  176.84580   29.57820   28.00980   28.23150   28.23150   88.54420    0.03910    0.03910    -999.25    4.81760    4.81760 2700.64380  148.82550 -122.52480   -3.32720  148.82550   74.74240   88.54420 17186.87280 14418.54870 14534.51300
 2150.00000  153.41160  153.41160  155.28920  157.27330    6.59500   66.31800   66.31800 2689.30900    0.01210    0.01210    -999.25  151.62930    -999.25  172.53020  172.53020   40.58780   35.59930   35.31110   35.31110  195.56290    0.03140    0.03140    -999.25    4.08570    4.08570 2702.72290  325.17180 -154.42180  -36.92520  325.17180  151.62930  195.56290 17018.48310 14309.49350 14530.61860
 2200.00000  152.07660  152.07660  154.35000  155.35380   20.64040   74.90620   74.90620 2713.07800   -0.00180   -0.00180    -999.25   48.44870    -999.25  188.69770  188.69770   58.72530   57.55840   57.44600   57.44600   54.73150    0.06930    0.06930    -999.25    4.58510    4.58510 2706.43040   73.39770 -122.68320   -6.68880   73.39770   48.44870   54.73150 17366.38830 14589.61090 14938.50540
 2250.00000  151.92560  151.92560  169.12480  169.87560    3.07270   74.69800   74.69800 2751.55300   -0.02430   -0.02430    -999.25  325.44200    -999.25  162.59890  162.59890   17.48090   14.38960   14.83730   14.83730  403.96230    0.01620    0.01620    -999.25    4.63800    4.63800 2754.40530  635.40140 -187.39000  -70.84510  635.40140  325.44200  403.96230 17731.20340 14791.82570 15069.55310
 2300.00000  151.54910  151.54910  166.20900  168.27400   11.34620   75.09790   75.09790 2713.59100   -0.00210   -0.00210    -999.25   88.13500    -999.25  170.94990  170.94990   13.53730    9.96330   10.26090   10.26090   90.59210    0.02370    0.02370    -999.25    5.04980    5.04980 2721.99000  137.30980 -205.73610  -87.61130  137.30980   88.13500   90.59210 17912.50630 15661.02870 15788.27630
