~Version ---------------------------------------------------
VERS.      2.0 : CWLS log ASCII Standard -VERSION 2.0
WRAP.       NO : One line per depth step
CREA. 12/18/17 : LAS Creation Date
~Well ------------------------------------------------------
STRT.FT                               950.0 : START DEPTH
STOP.FT                              9500.0 : STOP DEPTH
STEP.FT                            50.00000 : STEP LENGTH
NULL.                               -999.25 : NULL VALUE
COMP.                 TEXACO CANADA LIMITED : COMPANY
WELL. TEXACO AMERADA SNIPE LAKE 14-29-69-19 : WELL
FLD .                                       : FIELD
LOC .                                       : LOCATION
CTRY.                                CANADA : COUNTRY
SRVC.                Schlumberger of Canada : SERVICE COMPANY
DATE.                           13-Mar-1960 : LOGDATE
PROV.                               Alberta : PROVINCE
UWI .                      100142906919W500 : UNIQUE WELL ID
SLAT.WGS84                         55.00866 : SURFACE LATITUDE
SLON.WGS84                        -116.8632 : SURFACE LONGITUDE
~Curve Information -----------------------------------------
DEPT   .FT     : Depth Curve
CALWS  .IN     : CALIPER [MCALED]
CILDED .MMHO   : CONDUCTIVITY FROM RESISTIVITY LOG
CONDWS .MMHO   : CONDUCTIVITY [1000/DRESWS]
DRESWS .OHMM   : DEEP RESISTIVITY [1000/CILDED IF ILDED<1, ILDED]
DTED   .US/F   : DELTA-T FROM SONIC LOG
DTWS   .US/F   : COMPRESSIONAL SONIC [DTED]
GRED   .GAPI   : GAMMA RAY FROM GR-CCL LOG
GRN1ED .GAPI   : GAMMA RAY FROM GR-CCL-N LOG
GRNED  .UR/HR  : GAMMA RAY FROM GRN LOG [ADJ TO RESISTIVITY LOG]
GRWS   .GAPI   : GAMMA RAY [GRED SPL. TO GRN1ED @ 4242' @ 8497' TO GRNED*10.4]
ILDED  .OHMM   : DEEP INDUCTION RESISTIVITY FROM RESISTIVITY LOG
MCALED .IN     : MICRO CALIPER FROM ML LOG [ADJ TO RESISTIVITY LOG]
NEUT1ED.NAPI   : NEUTRON FROM GR-CCL-N LOG
NEUTED .NAPI   : NEUTRON FROM GRN LOG [ADJ TO RESISTIVITY LOG]
NEUTWS .NAPI   : NEUTRON [NEUT1ED SPL. TO NEUTED @ 4954']
SNED   .OHMM   : SHORT NORMAL RESISTIVITY FROM RESISTIVITY LOG
SPRED  .MV     : SPONTANEOUS POTENTIAL FROM RESISTIVITY LOG
SPWS   .MV     : SPONTANEOUS POTENTIAL [BASELINE 0MV, SPRED]
SRESWS .OHMM   : SHALLOW RESISTIVITY [SNED]
~Params ----------------------------------------------------
LMF .                     KB : LOG MEASURED FROM
DMF .                     KB : DRILLING MEASURED FROM
EKB .FT                 2397 : KELLY BUSHING
DATE.               03/13/60 : RUN DATE
RUN .                      1 : RUN NUMBER
DD  .FT                 9513 : DEPTH DRILLER
DL  .FT                 9508 : DEPTH LOGGER
BLI .FT                 9503 : BOTTOM LOG INTERVAL
TLI .FT                  945 : TOP LOG INTERVAL
CBD .FT                  948 : CASING BOTTOM DRILLER
CBL .FT                  945 : CASING BOTTOM LOGGER
BS  .IN                    9 : BIT SIZE
BSD .FT                 9513 : BIT SIZE AT DEPTH
DFT .                    GEL : DRILLING FLUID TYPE
DFD .                   10.6 : DRILLING FLUID DENSITY
DFV .                    110 : DRILLING FLUID VISCOSITY
DFPH.                   10.5 : DRILLING FLUID PH
DFL .                    5.2 : DRILLING FLUID LOSS
RMS .OHMM                  3 : RESISTIVITY MUD SAMPLE
MST .DEGF                 60 : MUD SAMPLE TEMPERATURE
RMF .OHMM                1.3 : RESISTIVITY MUD FILTRATE SAMPLE
MFST.DEGF                 70 : MUD FILTRATE SAMPLE TEMPERATURE
RMC .OHMM                3.1 : RESISTIVITY MUD CAKE
MCST.DEGF                 70 : MUD CAKE SAMPLE TEMPERATURE
RMB .OHMM               0.95 : RESISTIVITY MUD AT BHT
TCS .HRS                   4 : TIME CIRCULATED STOPPED
LUN .                   2742 : LOGGING UNIT NUMBER
LUL .                     VV : LOGGING UNIT LOCATION
ENGI.                    GAU : RECORDING ENGINEER
WITN.                  IRVIN : WITNESSED BY
CLNT.                A2DTECH : CLIENT CODE
ORIG.            2" 5" PRINT : ORIGIN OF DATA
UWI .       100142906919W500 : UNIQUE WELL ID
DICO. A2D Technologies, Inc. : DIGITIZING COMPANY
~Other -----------------------------------------------------
GR-CCL-N-GRN-IEL-ML-SONIC LOG
~ASCII -----------------------------------------------------
# ...
 4650.00000    9.19610   40.54350   24.32470   41.11050  113.09960  113.09960    -999.25  102.10820    -999.25  102.10820   41.11050    9.19610  228.64050    -999.25  228.64050   55.06370 -152.06010   -8.45910   55.06370
 4700.00000    9.24170   51.29750   33.87420   29.52100   94.16510   94.16510    -999.25  144.95830    -999.25  144.95830   29.52100    9.24170  295.26500    -999.25  295.26500   50.45040 -159.23150  -17.55700   50.45040
 4750.00000    9.11710   23.54070    7.53910  132.64230   90.10920   90.10920    -999.25  178.16530    -999.25  178.16530  132.64230    9.11710  247.11570    -999.25  247.11570  107.77870 -193.04430  -54.02070  107.77870
 4800.00000    8.94250  167.15010  157.77600    6.33810   75.73940   75.73940    -999.25  112.45610    -999.25  112.45610    6.33810    8.94250  215.13520    -999.25  215.13520   12.34980 -193.96650  -57.59380   12.34980
 4850.00000    8.59200  213.98010  214.33470    4.66560   81.04610   81.04610    -999.25   71.03430    -999.25   71.03430    4.66560    8.59200  211.34760    -999.25  211.34760   13.01340 -213.78290  -80.07850   13.01340
 4900.00000    9.32010  219.28760  217.16000    4.60490   72.60790   72.60790    -999.25   59.60670    -999.25   59.60670    4.60490    9.32010  296.46210    -999.25  296.46210    7.91650 -160.60610  -29.55250    7.91650
 4950.00000    8.45600 1123.70670 1252.50500    0.79840   74.73320   74.73320    -999.25    -999.25    -999.25    -999.25    0.79840    8.45600    -999.25    -999.25    -999.25    7.08410 -252.67880 -124.29360    7.08410
 5000.00000    8.38680  818.78190  935.45370    1.06900   83.32500   83.32500    -999.25    -999.25    -999.25    -999.25    1.06900    8.38680    -999.25    -999.25    -999.25    4.95310 -257.63640 -131.90200    4.95310
 5050.00000    8.77030  208.81380  206.36430    4.84580   63.76250   63.76250    -999.25    -999.25    -999.25    -999.25    4.84580    8.77030    -999.25    -999.25    -999.25    9.28630 -184.65840  -61.57490    9.28630
 5100.00000    8.14340   78.30420   61.10830   16.36440   52.86220   52.86220    -999.25    -999.25    -999.25    -999.25   16.36440    8.14340    -999.25    -999.25    -999.25   49.41840 -267.04600 -146.63080   49.41840
 5150.00000    8.88270   94.14230   82.22530   12.16170   60.21780   60.21780    -999.25    -999.25    -999.25    -999.25   12.16170    8.88270    -999.25    -999.25    -999.25   44.22910 -236.20450 -118.44020   44.22910
 5200.00000    9.19640   28.67140   11.83530   84.49270   53.83770   53.83770    -999.25    -999.25    -999.25    -999.25   84.49270    9.19640    -999.25    -999.25    -999.25   69.50900 -194.07630  -78.98030   69.50900
 5250.00000    9.14530   32.01450   15.08920   66.27240   56.33270   56.33270    -999.25    -999.25    -999.25    -999.25   66.27240    9.14530    -999.25    -999.25    -999.25   80.56280 -196.05980  -83.61470   80.56280
 5300.00000    9.71310  110.43320   83.08480   12.03590   59.10430   59.10430    -999.25    -999.25    -999.25    -999.25   12.03590    9.71310    -999.25    -999.25    -999.25   19.28980 -122.21000  -12.41580   19.28980
 5350.00000    9.14260   50.51580   36.52050   27.38190   60.75730   60.75730    -999.25    -999.25    -999.25    -999.25   27.38190    9.14260    -999.25    -999.25    -999.25   36.40700 -128.90250  -21.77660   36.40700
 5400.00000    9.19500   63.35920   51.30130   19.49270   64.07180   64.07180    -999.25    -999.25    -999.25    -999.25   19.49270    9.19500    -999.25    -999.25    -999.25   27.21680 -123.79080  -18.12740   27.21680
 5450.00000    9.48130  239.77370  225.81520    4.42840   65.61240   65.61240    -999.25    -999.25    -999.25    -999.25    4.42840    9.48130    -999.25    -999.25    -999.25   11.30400 -159.32940  -54.03270   11.30400
 5500.00000    9.33630   64.81980   41.48790   24.10340   55.34950   55.34950    -999.25    -999.25    -999.25    -999.25   24.10340    9.33630    -999.25    -999.25    -999.25   32.47270 -179.64670  -74.71430   32.47270
 5550.00000    9.80220   63.30150   50.54440   19.78460   61.07410   61.07410    -999.25    -999.25    -999.25    -999.25   19.78460    9.80220    -999.25    -999.25    -999.25   29.27170 -145.71420  -41.14610   29.27170
 5600.00000    9.75320   64.18840   46.74430   21.39300   64.35520   64.35520    -999.25    -999.25    -999.25    -999.25   21.39300    9.75320    -999.25    -999.25    -999.25   24.66860 -134.74610  -30.54480   24.66860
 5650.00000    9.01530  106.46700   98.25310   10.17780   62.39370   62.39370    -999.25    -999.25    -999.25    -999.25   10.17780    9.01530    -999.25    -999.25    -999.25   47.90020 -260.23270 -156.39570   47.90020
 5700.00000    9.44130   89.14420   76.65360   13.04570   61.33680   61.33680    -999.25    -999.25    -999.25    -999.25   13.04570    9.44130    -999.25    -999.25    -999.25   43.88000 -245.33450 -141.86420   43.88000
 5750.00000   10.35800   28.30360   14.01980   71.32760   56.16630   56.16630    -999.25    -999.25    -999.25    -999.25   71.32760   10.35800    -999.25    -999.25    -999.25   54.73800 -218.34120 -115.23520   54.73800
 5800.00000   10.31120   35.60000   21.26650   47.02230   55.56510   55.56510    -999.25    -999.25    -999.25    -999.25   47.02230   10.31120    -999.25    -999.25    -999.25   60.27760 -233.43710 -130.69540   60.27760
 5850.00000   11.41470  437.12840  476.21320    2.09990   76.62420   76.62420    -999.25    -999.25    -999.25    -999.25    2.09990   11.41470    -999.25    -999.25    -999.25    3.16410 -169.77300  -67.39810    3.16410
 5900.00000   10.56930  289.72750  291.17170    3.43440   72.29480   72.29480    -999.25    -999.25    -999.25    -999.25    3.43440   10.56930    -999.25    -999.25    -999.25    6.79960 -145.47160  -43.46100    6.79960
 5950.00000   13.14750  154.46050  145.58800    6.86870   70.35060   70.35060    -999.25    -999.25    -999.25    -999.25    6.86870   13.14750    -999.25    -999.25    -999.25   10.57970 -109.35700   -7.71310   10.57970
 6000.00000    9.99440   31.85690   14.77040   67.70300   55.47070   55.47070    -999.25    -999.25    -999.25    -999.25   67.70300    9.99440    -999.25    -999.25    -999.25   44.60000 -118.67170  -17.16170   44.60000
 6050.00000   10.09130   22.23310    8.34010  119.90260   54.82140   54.82140    -999.25    -999.25    -999.25    -999.25  119.90260   10.09130    -999.25    -999.25    -999.25   81.84160 -133.76230  -32.29220   81.84160
 6100.00000    9.24920   30.07130   14.70910   67.98520   55.50140   55.50140    -999.25    -999.25    -999.25    -999.25   67.98520    9.24920    -999.25    -999.25    -999.25   63.31400 -137.28400  -35.85410   63.31400
 6150.00000    9.30360   66.12450   51.58630   19.38500   63.37940   63.37940    -999.25    -999.25    -999.25    -999.25   19.38500    9.30360    -999.25    -999.25    -999.25   23.05710 -110.85910   -9.46920   23.05710
 6200.00000    9.08760   57.16720   42.41260   23.57790   60.86460   60.86460    -999.25    -999.25    -999.25    -999.25   23.57790    9.08760    -999.25    -999.25    -999.25   30.31200 -114.13700  -12.78730   30.31200
 6250.00000    9.06870   41.18860   26.20820   38.15600   55.80160   55.80160    -999.25    -999.25    -999.25    -999.25   38.15600    9.06870    -999.25    -999.25    -999.25   52.14380 -140.55540  -39.24570   52.14380
 6300.00000    9.18690   56.14300   40.59640   24.63270   60.69760   60.69760    -999.25    -999.25    -999.25    -999.25   24.63270    9.18690    -999.25    -999.25    -999.25   33.22810 -141.32350  -40.05380   33.22810
 6350.00000    9.13750   31.92770   17.75760   56.31390   58.22480   58.22480    -999.25    -999.25    -999.25    -999.25   56.31390    9.13750    -999.25    -999.25    -999.25   56.54970 -143.28820  -42.05870   56.54970
 6400.00000    9.38850   65.00420   50.61910   19.75540   64.20250   64.20250    -999.25    -999.25    -999.25    -999.25   19.75540    9.38850    -999.25    -999.25    -999.25   24.65830 -130.33090  -29.14130   24.65830
 6450.00000    9.26740   60.30570   46.79240   21.37100   64.52390   64.52390    -999.25    -999.25    -999.25    -999.25   21.37100    9.26740    -999.25    -999.25    -999.25   27.88220 -123.74350  -22.59420   27.88220
