~Version ---------------------------------------------------
VERS.      2.0 : CWLS log ASCII Standard -VERSION 2.0
WRAP.       NO : One line per depth step
CREA. 12/01/17 : LAS Creation Date
~Well ------------------------------------------------------
STRT.FT                       650.0 : START DEPTH
STOP.FT                      6550.0 : STOP DEPTH
STEP.FT                    50.00000 : STEP LENGTH
NULL.                       -999.25 : NULL VALUE
COMP.    CANADIAN SUPERIOR OIL LTD. : COMPANY
WELL. CDN-SUP ET AL NIPISI 7-5-77-8 : WELL
FLD .                               : FIELD
LOC .                               : LOCATION
CTRY.                        CANADA : COUNTRY
SRVC.        Schlumberger of Canada : SERVICE COMPANY
DATE.                   23-Mar-1976 : LOGDATE
PROV.                       Alberta : PROVINCE
UWI .              100070507708W500 : UNIQUE WELL ID
SLAT.WGS84                 55.64085 : SURFACE LATITUDE
SLON.WGS84                -115.1982 : SURFACE LONGITUDE
~Curve Information -----------------------------------------
DEPT    .FT    : Depth Curve
CALDED  .IN    : CALIPER FROM DENSITY LOG
CALWS   .IN    : CALIPER [CALDED]
CONDWS  .MMHO  : CONDUCTIVITY [1000/DRESWS]
DCORWS  .G/C3  : DENSITY CORRECTION [DRHOED]
DENWS   .G/C3  : FROMATION BULK DENSITY [CALC. FROM DPOLSWS, M=2.71, F=1.00]
DPHILSED.V/V   : DENSITY POROSITY LIMESTONE [DPOLSWS, M=2.71, F=1.00] FROM DENSITY LOG
DPOLSWS .V/V   : DENSITY POROSITY LIMESTONE [DPHILSED SPL. TO CALC. FROM RHOBED M=2.71, F=1.00 AT SEVERAL INTERVAL]
DRESWS  .OHMM  : DEEP RESISTIVITY [ILDED]
DRHOED  .G/C3  : BULK DENSITY CORRECTION FROM DENSITY LOG
GRDED   .GAPI  : GAMMA RAY FROM DENSITY LOG
GRWS    .GAPI  : GAMMA RAY [GRDED]
ILDED   .OHMM  : DEEP INDUCTION RESISTIVITY FROM RESISTIVITY LOG
ILMED   .OHMM  : MEDIUM INDUCTION RESISTIVITY FROM RESISTIVITY LOG
LL8ED   .OHMM  : LATEROLOG 8 RESISTIVITY  FROM RESISTIVITY LOG
MRESWS  .OHMM  : MEDIUM RESISTIVITY [ILMED]
NPHILSED.V/V   : NEUTRON POROSITY LIMESTONE FROM DENSITY LOG
NPOLSWS .V/V   : NEUTRON POROSITY LIMESTONE [NPHILSED]
RHOBED  .G/C3  : BULK DENSITY FROM DENSITY LOG
SPRED   .MV    : SPONTANEOUS POTENTIAL FROM RESISTIVITY LOG
SPWS    .MV    : SPONTANEOUS POTENTIAL [BASELINE 0 MV,SPRED]
SRESWS  .OHMM  : SHALLOW RESISTIVITY [LL8ED]
~Params ----------------------------------------------------
PD  .                     GL : PERMANENT DATUM
EPD .FT                 2344 : ELEVATION PERMANENT DATUM
LMF .                     KB : LOG MEASURED FROM
DAPD.FT                   14 : FEET ABOVE PERMANENT DATUM
EKB .FT                 2358 : KELLY BUSHING
EGL .FT                 2344 : GROUND LEVEL
DATE.               03/23/76 : RUN DATE
RUN .                      1 : RUN NUMBER
DD  .FT                 6590 : DEPTH DRILLER
DL  .FT                 6592 : DEPTH LOGGER
BLI .FT                 6586 : BOTTOM LOG INTERVAL
TLI .FT                  646 : TOP LOG INTERVAL
CBD .FT                  646 : CASING BOTTOM DRILLER
CBL .FT                  646 : CASING BOTTOM LOGGER
BS  .IN                7.875 : BIT SIZE
BSD .FT                 6590 : BIT SIZE AT DEPTH
DFT .               GEL CHEM : DRILLING FLUID TYPE
DFD .                    9.9 : DRILLING FLUID DENSITY
DFV .                    120 : DRILLING FLUID VISCOSITY
DFPH.                     11 : DRILLING FLUID PH
DFL .                    9.6 : DRILLING FLUID LOSS
MSS .             CIRCULATED : MUD SAMPLE SOURCE
RMS .OHMM               0.76 : RESISTIVITY MUD SAMPLE
MST .DEGF                 42 : MUD SAMPLE TEMPERATURE
RMF .OHMM               0.46 : RESISTIVITY MUD FILTRATE SAMPLE
MFST.DEGF                 65 : MUD FILTRATE SAMPLE TEMPERATURE
TCS .HRS                   3 : TIME CIRCULATED STOPPED
LUN .                   7691 : LOGGING UNIT NUMBER
LUL .                    EDM : LOGGING UNIT LOCATION
ENGI.   CROCKFORD KREZANOSKI : RECORDING ENGINEER
WITN.            KELLY GLEEN : WITNESSED BY
CLNT.                A2DTECH : CLIENT CODE
ORIG.            2" 5" PRINT : ORIGIN OF DATA
UWI .       100070507708W500 : UNIQUE WELL ID
DICO. A2D Technologies, Inc. : DIGITIZING COMPANY
~Other -----------------------------------------------------
~ASCII -----------------------------------------------------
# ...
 2300.00000    8.77320    8.77320   91.47290    0.11500    2.56350    0.14920    0.08570   10.93220    0.11500   48.39650   48.39650   10.93220    9.55800   19.56160    9.55800    0.10310    0.10310    2.56350  -79.16840  -19.28330   19.56160
 2350.00000   10.71330   10.71330  222.21230    0.09840    2.38250    0.19150    0.19150    4.50020    0.09840   67.21740   67.21740    4.50020    4.39070    6.29400    4.39070    0.24120    0.24120    2.41340  -75.36790  -16.59170    6.29400
 2400.00000   10.06710   10.06710  219.05330    0.09720    2.43450    0.16110    0.16110    4.56510    0.09720   51.61760   51.61760    4.56510    4.08530    8.45840    4.08530    0.27190    0.27190    2.44950  -83.08030  -25.40570    8.45840
 2450.00000    8.81700    8.81700   89.73840    0.11520    2.40890    0.17610    0.17610   11.14350    0.11520   31.95640   31.95640   11.14350   12.62100   19.07940   12.62100    0.27440    0.27440    2.42260  -86.53360  -29.96790   19.07940
 2500.00000    9.43840    9.43840  120.47760    0.05130    2.60570    0.06100    0.06100    8.30030    0.05130   39.44570   39.44570    8.30030    8.63500   11.45770    8.63500    0.12830    0.12830    2.63080  -65.31460   -9.85050   11.45770
 2550.00000    9.33910    9.33910   51.82340    0.02110    2.58040    0.07580    0.07580   19.29630    0.02110   21.19090   21.19090   19.29630   19.97560   23.70250   19.97560    0.07950    0.07950    2.59440  -69.59070  -15.22830   23.70250
 2600.00000    9.72450    9.72450  195.90170    0.00680    2.55080    0.09310    0.09310    5.10460    0.00680   49.43670   49.43670    5.10460    5.33050    5.36750    5.33050    0.16790    0.16790    2.55040  -66.17180  -12.91820    5.36750
 2650.00000    8.47090    8.47090   70.60850    0.03170    2.62600    0.04910    0.04910   14.16260    0.03170   36.47350   36.47350   14.16260   15.35870   17.56750   15.35870    0.08210    0.08210    2.63790  -59.79500   -7.64310   17.56750
 2700.00000    8.50520    8.50520  124.03410    0.02930    2.60310    0.06250    0.06250    8.06230    0.02930   34.41060   34.41060    8.06230    8.36320    9.25360    8.36320    0.10440    0.10440    2.58700  -56.70300   -5.65990    9.25360
 2750.00000    9.92390    9.92390  160.35660    0.05100    2.60040    0.06410    0.06410    6.23610    0.05100   33.41870   33.41870    6.23610    6.55590    6.89150    6.55590    0.12980    0.12980    2.58320  -53.98510   -3.21680    6.89150
 2800.00000    8.09220    8.09220   86.91800    0.00770    2.60620    0.06070    0.06070   11.50510    0.00770   20.99260   20.99260   11.50510   12.10410   15.63460   12.10410    0.07320    0.07320    2.60300  -71.69160  -20.96870   15.63460
 2850.00000    8.46980    8.46980  109.50260    0.03780    2.61850    0.05350    0.05350    9.13220    0.03780   26.73370   26.73370    9.13220    9.60850   11.01430    9.60850    0.09990    0.09990    2.61700  -56.77940   -6.10230   11.01430
 2900.00000    8.33640    8.33640  100.76680    0.03540    2.62670    0.04870    0.04870    9.92390    0.03540   29.74510   29.74510    9.92390   10.47910    9.17390   10.47910    0.10880    0.10880    2.63100  -62.51770  -11.88600    9.17390
 2950.00000    7.88320    7.88320  102.14300    0.02810    2.60960    0.05870    0.05870    9.79020    0.02810   26.04970   26.04970    9.79020   10.31790   16.32780   10.31790    0.09960    0.09960    2.62020  -81.08900  -30.50310   16.32780
 3000.00000    7.96220    7.96220   74.52450    0.02660    2.63720    0.04260    0.04260   13.41840    0.02660   22.99650   22.99650   13.41840   14.79990   29.03640   14.79990    0.05870    0.05870    2.65170  -64.22150  -13.68100   29.03640
 3050.00000    7.98730    7.98730   85.25880    0.05090    2.67940    0.01790    0.01790   11.72900    0.05090   36.52870   36.52870   11.72900   14.04590   19.10020   14.04590    0.07970    0.07970    2.64310  -62.25350  -11.75840   19.10020
 3100.00000    8.11810    8.11810   40.50990    0.01740    2.61750    0.05410    0.05410   24.68530    0.01740   16.17720   16.17720   24.68530   19.56200   62.09190   19.56200    0.06220    0.06220    2.59870  -92.97050  -42.52120   62.09190
 3150.00000    7.97020    7.97020   51.47930    0.14260    2.54600    0.09590    0.09590   19.42530    0.14260   17.31220   17.31220   19.42530   25.25300   71.15220   25.25300    0.08720    0.08720    2.55190 -110.36760  -59.96370   71.15220
 3200.00000    8.47390    8.47390   56.48190    0.03240    2.66350    0.02720    0.02720   17.70480    0.03240   19.33980   19.33980   17.70480   18.20100   30.66540   18.20100    0.05840    0.05840    2.68970 -104.34350  -53.98540   30.66540
 3250.00000    8.94980    8.94980   43.33640    0.01010    2.64180    0.03990    0.03990   23.07530    0.01010   17.21140   17.21140   23.07530   27.54350   60.91220   27.54350    0.03880    0.03880    2.64720 -113.95410  -63.64140   60.91220
 3300.00000    8.03590    8.03590   44.32860    0.08540    2.67530    0.02030    0.02030   22.55880    0.08540   15.22680   15.22680   22.55880   23.51410   54.65370   23.51410    0.05360    0.05360    2.67340 -115.68680  -65.41960   54.65370
 3350.00000    8.12440    8.12440   48.46160    0.05940    2.60760    0.05990    0.05990   20.63490    0.05940   18.91270   18.91270   20.63490   23.59430   38.42350   23.59430    0.06730    0.06730    2.60880 -108.02010  -57.79860   38.42350
 3400.00000    8.14690    8.14690   77.66570    0.09640    2.58980    0.07030    0.07030   12.87570    0.09640   17.91290   17.91290   12.87570   18.96160   61.83360   18.96160    0.08460    0.08460    2.59830 -129.96280  -79.78680   61.83360
 3450.00000    8.14560    8.14560  107.67860    0.06280    2.54700    0.09530    0.09530    9.28690    0.06280   15.32090   15.32090    9.28690   15.29100   47.19310   15.29100    0.11470    0.11470    2.55070 -127.77550  -77.64520   47.19310
 3500.00000    8.32070    8.32070   26.75510    0.04160    2.71510   -0.00300   -0.00300   37.37610    0.04160   15.42700   15.42700   37.37610   48.34530  142.32140   48.34530    0.02050    0.02050    2.70060 -109.78030  -59.69540  142.32140
 3550.00000    8.08670    8.08670  134.93820    0.10040    2.54530    0.09630    0.09630    7.41080    0.10040   14.63930   14.63930    7.41080   11.90250   42.06070   11.90250    0.10650    0.10650    2.54980 -140.59620  -90.55680   42.06070
 3600.00000    8.15570    8.15570   24.59560    0.00890    2.70910    0.00050    0.00050   40.65760    0.00890   15.25730   15.25730   40.65760   43.77670   83.87960   43.77670    0.02840    0.02840    2.70720 -101.16630  -51.17260   83.87960
 3650.00000    8.20610    8.20610   21.88440    0.01940    2.68230    0.01620    0.01620   45.69460    0.01940   14.68040   14.68040   45.69460   47.94920  144.25770   47.94920    0.01530    0.01530    2.69100 -115.53800  -65.58980  144.25770
 3700.00000    8.19410    8.19410   20.85510    0.02660    2.71100   -0.00060   -0.00060   47.95000    0.02660   12.71750   12.71750   47.95000   52.25150   93.02630   52.25150    0.03750    0.03750    2.70550 -105.37070  -55.46820   93.02630
 3750.00000    8.11180    8.11180   18.52600   -0.00370    2.67270    0.02180    0.02180   53.97810   -0.00370   15.43110   15.43110   53.97810   56.70800  155.46090   56.70800    0.01120    0.01120    2.67040 -104.31560  -54.45860  155.46090
 3800.00000    8.09130    8.09130   22.94070    0.05060    2.70570    0.00250    0.00250   43.59060    0.05060   15.68220   15.68220   43.59060   59.60840  134.20530   59.60840    0.01770    0.01770    2.72990 -119.21880  -69.40720  134.20530
 3850.00000    7.83610    7.83610   52.70150    0.08540    2.63680    0.04280    0.04280   18.97480    0.08540   16.13360   16.13360   18.97480   23.17210   40.27160   23.17210    0.07260    0.07260    2.63630 -128.84200  -79.07620   40.27160
 3900.00000    7.84890    7.84890   35.53180    0.10150    2.68860    0.01250    0.01250   28.14380    0.10150   13.94410   13.94410   28.14380   48.62430  140.01620   48.62430    0.06130    0.06130    2.69510 -125.18200  -75.46160  140.01620
