~Version ---------------------------------------------------
VERS.      2.0 : CWLS log ASCII Standard -VERSION 2.0
WRAP.       NO : One line per depth step
CREA. 11/03/17 : LAS Creation Date
~Well ------------------------------------------------------
STRT.FT                              1050.0 : START DEPTH
STOP.FT                              9550.0 : STOP DEPTH
STEP.FT                            50.00000 : STEP LENGTH
NULL.                               -999.25 : NULL VALUE
COMP.                       PEYTO OILS LTD. : COMPANY
WELL. PEYTO UNION ET AL MAHASKA 11-26-57-13 : WELL
FLD .                                    WC : FIELD
LOC .                                       : LOCATION
CTRY.                                CANADA : COUNTRY
SRVC.                          Schlumberger : SERVICE COMPANY
DATE.                           21-Mar-1971 : LOGDATE
PROV.                               Alberta : PROVINCE
UWI .                      100112605713W500 : UNIQUE WELL ID
SLAT.WGS84                         53.95807 : SURFACE LATITUDE
SLON.WGS84                        -115.8253 : SURFACE LONGITUDE
~Curve Information -----------------------------------------
DEPT  .FT    : Depth Curve
CALSED.IN    : CALIPER FROM SONIC LOG [ADJ. TO RESISTIVITY LOG]
CALWS .IN    : CALIPER [CALSED]
CILDED.MMHO  : DEEP INDUCTION CONDUCTIVITY FROM RESISTIVITY LOG
CONDWS.MMHO  : CONDUCTIVITY [1000/DRESWS]
DRESWS.OHMM  : DEEP RESISTIVITY [ILDED]
DTED  .US/F  : DELTA T FROM SONIC LOG [ADJ. TO RESISTIVITY LOG]
DTWS  .US/F  : COMPRESSIONAL SONIC [DTED]
GRSED .GAPI  : GAMMA RAY FROM SONIC LOG [ADJ. TO RESISTIVITY LOG]
GRWS  .GAPI  : GAMMA RAY [GRSED]
ILDED .OHMM  : DEEP INDUCTION RESISTIVITY FROM RESISTIVITY LOG
SNED  .OHMM  : SHORT NORMAL 16" RESISTIVITY FROM RESISTIVITY LOG
SPRED .MV    : SPONTANEOUS POTENTIAL FROM RESISTIVITY LOG
SPWS  .MV    : SPONTANEOUS POTENTIAL [BASELINE 0 MV, SPRED]
SRESWS.OHMM  : SHALLOW RESISTIVITY [SNED]
~Params ----------------------------------------------------
PD  .                     GL : PERMANENT DATUM
EPD .FT                 2640 : ELEVATION PERMANENT DATUM
LMF .                     KB : LOG MEASURED FROM
DAPD.FT                 18.2 : FEET ABOVE PERMANENT DATUM
EKB .FT               2658.2 : KELLY BUSHING
EGL .FT                 2640 : GROUND LEVEL
DATE.               03/21/71 : RUN DATE
RUN .                      1 : RUN NUMBER
DD  .FT                 9555 : DEPTH DRILLER
DL  .FT                 9554 : DEPTH LOGGER
BLI .FT                 9552 : BOTTOM LOG INTERVAL
TLI .FT                 2200 : TOP LOG INTERVAL
CBD .FT                 1033 : CASING BOTTOM DRILLER
CBL .FT                 1033 : CASING BOTTOM LOGGER
BS  .IN                 8.75 : BIT SIZE
BSD .FT                 9555 : BIT SIZE AT DEPTH
DFT .               GEL CHEM : DRILLING FLUID TYPE
DFD .                    9.1 : DRILLING FLUID DENSITY
DFV .                    118 : DRILLING FLUID VISCOSITY
DFPH.                      9 : DRILLING FLUID PH
DFL .                    8.6 : DRILLING FLUID LOSS
RMS .OHMM               2.34 : RESISTIVITY MUD SAMPLE
MST .DEGF                 60 : MUD SAMPLE TEMPERATURE
RMF .OHMM               2.03 : RESISTIVITY MUD FILTRATE SAMPLE
MFST.DEGF                 60 : MUD FILTRATE SAMPLE TEMPERATURE
RMC .OHMM               2.53 : RESISTIVITY MUD CAKE
MCST.DEGF                 59 : MUD CAKE SAMPLE TEMPERATURE
RMB .OHMM               0.79 : RESISTIVITY MUD AT BHT
TCS .HRS                 4.5 : TIME CIRCULATED STOPPED
LUN .                   7014 : LOGGING UNIT NUMBER
LUL .                     RD : LOGGING UNIT LOCATION
ENGI.             MCLAFFERTY : RECORDING ENGINEER
WITN.               CHRISTIE : WITNESSED BY
CLNT.                A2DTECH : CLIENT CODE
ORIG.               5" PRINT : ORIGIN OF DATA
UWI .       100112605713W500 : UNIQUE WELL ID
DICO. A2D Technologies, Inc. : DIGITIZING COMPANY
~Other -----------------------------------------------------
IEL-BHC LOG RUN
ALL DATA FROM IEL LOG VERIFIED UPTO (TOP- 5000') FROM 2" SCALE SECTION
~ASCII -----------------------------------------------------
# ...
 5950.00000    9.51670    9.51670   67.83200   69.49270   14.39000   76.98980   76.98980   98.12960   98.12960   14.39000   26.82000 -146.68000   -5.98900   26.82000
 6000.00000    9.55930    9.55930  210.81490  256.08190    3.90500   88.65660   88.65660   94.06860   94.06860    3.90500    8.04500 -154.92000  -16.67940    8.04500
 6050.00000    8.67500    8.67500   62.04050   64.82980   15.42500   65.58340   65.58340   30.85840   30.85840   15.42500   46.88000 -217.10000  -81.30970   46.88000
 6100.00000    8.71050    8.71050   11.49120    6.91090  144.70000   54.64730   54.64730   17.80750   17.80750  144.70000  178.15000 -194.06000  -60.73620  178.15000
 6150.00000    8.77500    8.77500    8.63900    4.66850  214.20000   59.63870   59.63870   23.97720   23.97720  214.20000  177.90000 -153.50000  -22.62650  177.90000
 6200.00000    9.13270    9.13270   82.50040   93.37070   10.71000   56.49340   56.49340   56.50840   56.50840   10.71000   32.82000 -167.42000  -39.01300   32.82000
 6250.00000    8.68530    8.68530   39.16320   37.58690   26.60500   51.38010   51.38010   19.77970   19.77970   26.60500  111.35000 -255.52000 -129.56340  111.35000
 6300.00000    8.58080    8.58080   31.15070   31.51100   31.73500   52.14560   52.14560   24.32590   24.32590   31.73500  108.70000 -261.00000 -137.49370  108.70000
 6350.00000    9.26630    9.26630  216.43450  265.95740    3.76000   61.25630   61.25630   38.15130   38.15130    3.76000    9.06500 -191.48000  -70.44020    9.06500
 6400.00000    8.92540    8.92540   75.16110   76.51110   13.07000   58.92520   58.92520   57.09640   57.09640   13.07000   21.39500 -166.42000  -47.83060   21.39500
 6450.00000    9.16230    9.16230  131.95690  148.47810    6.73500   61.66930   61.66930   39.39790   39.39790    6.73500   17.88500 -179.76000  -63.63700   17.88500
 6500.00000    8.98490    8.98490   15.47260   11.72330   85.30000   51.48930   51.48930   18.20510   18.20510   85.30000  102.15000 -180.70000  -67.02740  102.15000
 6550.00000    8.80700    8.80700   19.81330   15.23230   65.65000   54.51930   54.51930   30.51010   30.51010   65.65000   71.20000 -154.64000  -43.41780   71.20000
 6600.00000    8.99510    8.99510   13.11820    8.45310  118.30000   51.40100   51.40100   12.95950   12.95950  118.30000  104.95000 -190.44000  -81.68420  104.95000
 6650.00000    8.41720    8.41720   23.14090   17.31600   57.75000   54.90080   54.90080   25.68480   25.68480   57.75000   74.35000 -154.64000  -48.33460   74.35000
 6700.00000    8.64140    8.64140   23.14180   20.26750   49.34000   54.65030   54.65030   32.52240   32.52240   49.34000   64.05000 -150.88000  -47.04110   64.05000
 6750.00000    8.57790    8.57790   20.25750   15.91090   62.85000   54.37630   54.37630   33.37390   33.37390   62.85000   72.50000 -151.02000  -49.63140   72.50000
 6800.00000    8.50070    8.50070   15.07800   10.86960   92.00000   56.66930   56.66930   47.28740   47.28740   92.00000  104.30000 -142.94000  -44.00180  104.30000
 6850.00000    8.65050    8.65050   26.57910   24.28360   41.18000   75.18280   75.18280  152.83060  152.83060   41.18000   60.05000  -97.96000   -1.48830   60.05000
 6900.00000    8.61470    8.61470   20.76730   14.19450   70.45000   54.17910   54.17910   25.95400   25.95400   70.45000  105.10000 -113.68000  -19.06060  105.10000
 6950.00000    8.86230    8.86230    7.87130    3.71400  269.25000   49.63720   49.63720   13.55610   13.55610  269.25000  252.60000 -151.52000  -58.76120  252.60000
 7000.00000    8.60880    8.60880    8.42270    4.53410  220.55000   49.40280   49.40280   16.11460   16.11460  220.55000  171.95000 -143.88000  -52.96960  171.95000
 7050.00000    8.94170    8.94170    5.86990    3.25890  306.85000   51.34490   51.34490   10.47920   10.47920  306.85000  198.30000 -159.14000  -70.07800  198.30000
 7100.00000    8.59840    8.59840   12.10890    8.61330  116.10000   48.80300   48.80300    9.82750    9.82750  116.10000  130.80000 -169.64000  -82.43860  130.80000
 7150.00000    9.41910    9.41910    6.51920    2.25710  443.05000   50.16670   50.16670   12.59610   12.59610  443.05000  296.85000 -162.90000  -77.54700  296.85000
 7200.00000    8.99860    8.99860   10.46050    7.41020  134.95000   48.43730   48.43730   12.62030   12.62030  134.95000  147.75000 -169.64000  -86.14760  147.75000
 7250.00000    8.93740    8.93740   30.98170   29.74860   33.61500   48.88260   48.88260   11.94230   11.94230   33.61500  123.65000 -182.06000 -100.41600  123.65000
 7300.00000    9.15790    9.15790   10.50160    7.03730  142.10000   48.87660   48.87660   10.52460   10.52460  142.10000  122.90000 -165.46000  -85.66440  122.90000
 7350.00000    9.28880    9.28880    9.38480    4.81810  207.55000   49.97990   49.97990   13.73150   13.73150  207.55000  144.05000 -161.78000  -83.84490  144.05000
 7400.00000    8.95000    8.95000   11.89430    7.77300  128.65000   49.40480   49.40480    9.66940    9.66940  128.65000  105.65000 -161.28000  -85.19340  105.65000
 7450.00000    9.32930    9.32930   12.95270    8.76040  114.15000   52.00150   52.00150   11.90300   11.90300  114.15000   92.50000 -161.98000  -87.75390   92.50000
 7500.00000    8.73660    8.73660   31.91550   28.07810   35.61500   50.80710   50.80710   11.07260   11.07260   35.61500  108.00000 -205.36000 -132.98230  108.00000
 7550.00000    8.70740    8.70740   27.89540   25.86990   38.65500   47.12520   47.12520   12.94820   12.94820   38.65500  138.65000 -193.22000 -122.69070  138.65000
 7600.00000    8.90230    8.90230    5.09830    4.34500  230.15000   48.62550   48.62550   13.65680   13.65680  230.15000  206.00000 -121.12000  -52.45130  206.00000
 7650.00000    8.53830    8.53830   55.38510   55.72580   17.94500   53.33630   53.33630   15.57710   15.57710   17.94500   74.30000 -169.32000 -102.49970   74.30000
 7700.00000    9.30870    9.30870   16.79260   12.07730   82.80000   49.44080   49.44080   21.16450   21.16450   82.80000   76.30000 -156.74000  -91.78030   76.30000
 7750.00000    8.99180    8.99180   16.10940   12.78770   78.20000   49.49530   49.49530   23.63150   23.63150   78.20000   65.65000 -129.66000  -66.54870   65.65000
 7800.00000    8.87750    8.87750   20.69140   14.50330   68.95000   53.33510   53.33510   31.15250   31.15250   68.95000   75.20000  -76.52000  -15.25710   75.20000
 7850.00000    8.94350    8.94350   26.31610   24.84470   40.25000   54.43950   54.43950   32.86850   32.86850   40.25000   56.65000  -62.56000   -3.11370   56.65000
 7900.00000    8.93030    8.93030   59.79640   60.77180   16.45500   59.27500   59.27500   48.03290   48.03290   16.45500   26.23000  -61.40000   -2.48150   26.23000
 7950.00000    8.90660    8.90660   72.49630   74.96250   13.34000   65.01980   65.01980   53.29370   53.29370   13.34000   17.29000  -60.26000   -1.84060   17.29000
 8000.00000    9.27640    9.27640   55.88100   55.23340   18.10500   62.08370   62.08370   53.12030   53.12030   18.10500   20.81500  -67.56000   -9.63640   20.81500
 8050.00000   13.39340   13.39340  210.80750  255.42780    3.91500   79.53420   79.53420   72.85710   72.85710    3.91500    5.73500  -70.28000  -12.85220    5.73500
 8100.00000   11.43740   11.43740  168.36690  193.79840    5.16000   75.17350   75.17350   65.11790   65.11790    5.16000    8.09000  -60.26000   -3.33130    8.09000
 8150.00000    8.90210    8.90210   69.66040   67.22690   14.87500   68.21580   68.21580   49.66470   49.66470   14.87500   24.31500  -63.30000   -6.86710   24.31500
 8200.00000   12.07550   12.07550  191.31900  219.29820    4.56000   81.14690   81.14690   76.45030   76.45030    4.56000    7.76000  -76.44000  -20.50620    7.76000
 8250.00000   12.43850   12.43850  182.46090  201.40990    4.96500   79.11360   79.11360   76.75040   76.75040    4.96500    6.70500  -70.44000  -15.00200    6.70500
 8300.00000    9.20520    9.20520   40.03840   43.29000   23.10000   57.62460   57.62460   49.53320   49.53320   23.10000   34.50500  -65.28000  -10.33780   34.50500
 8350.00000    9.46260    9.46260   94.08830   99.10800   10.09000   67.37410   67.37410   71.77060   71.77060   10.09000   16.08500  -58.48000   -4.03690   16.08500
