~Version ---------------------------------------------------
VERS.      2.0 : CWLS log ASCII Standard -VERSION 2.0
WRAP.       NO : One line per depth step
CREA. 07/14/14 : LAS Creation Date
~Well ------------------------------------------------------
STRT.M                         450.0 : START DEPTH
STOP.M                        3000.0 : STOP DEPTH
STEP.M                      50.00000 : STEP LENGTH
NULL.                        -999.25 : NULL VALUE
COMP.              SABINE CANADA LTD : COMPANY
WELL. SABINE SUN ET AL KAYBOB 6-24-6 : WELL
FLD .                                : FIELD
LOC .                                : LOCATION
CTRY.                         CANADA : COUNTRY
SRVC.         Schlumberger of Canada : SERVICE COMPANY
DATE.                    27-Mar-1979 : LOGDATE
PROV.                        Alberta : PROVINCE
UWI .               100062406517W500 : UNIQUE WELL ID
SLAT.WGS84                  54.63663 : SURFACE LATITUDE
SLON.WGS84                 -116.4342 : SURFACE LONGITUDE
~Curve Information -----------------------------------------
DEPT    .M      : DEPTH METER
CALDED  .MM     : CALIPER FROM DENSITY LOG [ADJ. TO RESISTIVITY LOG]
CALSED  .MM     : CALIPER FROM SONIC LOG [ADJ. TO RESISTIVITY LOG]
CALWS   .MM     : CALIPER [CALDED]
CONDWS  .MMHO   : CONDUCTIVITY [1000/DRESWS]
DCORWS  .KG/M3  : DENSITY CORRECTION [DRHOED]
DENWS   .KG/M3  : FORMATION BULK DENSITY [CALC. FROM DPOLSWS,M=2710,F=1000]
DPHILSED.V/V    : DENSITY POROSITY LIMESTONE [M=2710,F=1000] FROM DENSITY LOG [ADJ. TO RESISTIVITY LOG]
DPHISSED.V/V    : DENSITY POROSITY SANDSTONE [M=2650,F=1000] FROM DENSITY LOG [ADJ. TO RESISTIVITY LOG]
DPOLSWS .V/V    : DENSITY POROSITY LIMESTONE [DPHISSED CONVERTED TO LIMESTONE MATRIX,M=2710,F=1000,SPL. TO DPHILSED @ 1773M]
DRESWS  .OHMM   : DEEP RESISTIVITY [ILDED]
DRHOED  .KG/M3  : DENSITY CORRECTION FROM DENSITY LOG [ADJ. TO RESISTIVITY LOG]
DTED    .US/M   : DELTA-T FROM SONIC LOG [ADJ. TO RESISTIVITY LOG]
DTWS    .US/M   : COMPRESSIONAL SONIC [DTED]
GRDED   .GAPI   : GAMMA RAY FROM DENSITY LOG [ADJ. TO RESISTIVITY LOG]
GRSED   .GAPI   : GAMMA RAY FROM SONIC LOG [ADJ. TO RESISTIVITY LOG]
GRWS    .GAPI   : GAMMA RAY [GRSED SPL. TO GRDED @ 447M]
ILDED   .OHMM   : DEEP INDUCTION RESISTIVITY FROM RESISTIVITY LOG
ILMED   .OHMM   : MEDIUM INDUCTION RESISTIVITY FROM RESISTIVITY LOG
MRESWS  .OHMM   : MEDIUM RESISTIVITY [ILMED]
NPHILSED.V/V    : NEUTRON POROSITY LIMESTONE FROM DENSITY LOG [ADJ. TO RESISTIVITY LOG]
NPHISSED.V/V    : NEUTRON POROSITY SANDSTONE FROM DENSITY LOG [ADJ. TO RESISTIVITY LOG]
NPOLSWS .V/V    : NEUTRON POROSITY LIMESTONE [NPHISSED MATRIX CONVERSION FOR LIMESTONE,SPL. TO NPHILSED @1775M]
SFLED   .OHMM   : SHALLOW FOCUSED RESISTIVITY FROM RESISTIVITY LOG
SPRED   .MV     : SPONTANEOUS POTENTIAL FROM RESISTIVITY LOG
SPWS    .MV     : SPONTANEOUS POTENTIAL [BASELINE 0 MV,SPRED]
SRESWS  .OHMM   : SHALLOW RESISTIVITY [SFLED]
~Params ----------------------------------------------------
PD  .                         GL : PERMANENT DATUM
EPD .M                     945.3 : ELEVATION PERMANENT DATUM
LMF .                         KB : LOG MEASURED FROM
DAPD.M                      5.05 : FEET ABOVE PERMANENT DATUM
DMF .                         KB : DRILLING MEASURED FROM
EKB .M                    950.35 : KELLY BUSHING
EGL .M                     945.3 : GROUND LEVEL
DATE.                   03/27/79 : RUN DATE
RUN .                          1 : RUN NUMBER
DD  .M                    3007.5 : DEPTH DRILLER
DL  .M                    3006.2 : DEPTH LOGGER
BLI .M                      3005 : BOTTOM LOG INTERVAL
TLI .M                       449 : TOP LOG INTERVAL
CS  .MM                      244 : CASING SIZE
CBD .M                       449 : CASING BOTTOM DRILLER
CBL .M                       449 : CASING BOTTOM LOGGER
BS  .M                       222 : BIT SIZE
BSD .M                    3007.5 : BIT SIZE AT DEPTH
DFT .                   GEL CHEM : DRILLING FLUID TYPE
DFD .                       1130 : DRILLING FLUID DENSITY
DFV .                         11 : DRILLING FLUID VISCOSITY
DFPH.                        9.5 : DRILLING FLUID PH
DFL .                         10 : DRILLING FLUID LOSS
MSS .                CIRCULATION : MUD SAMPLE SOURCE
RMS .OHMM                   1.66 : RESISTIVITY MUD SAMPLE
MST .DEGC                   17.5 : MUD SAMPLE TEMPERATURE
RMF .OHMM                   1.36 : RESISTIVITY MUD FILTRATE SAMPLE
MFST.DEGC                   16.7 : MUD FILTRATE SAMPLE TEMPERATURE
MFSS.                      PRESS : MUD FILTRATE SAMPLE SOURCE
TCS .HRS                    1945 : TIME CIRCULATED STOPPED
TLAB.HRS                     630 : TIME LOGGER AT BOTTOM
LUN .                       7772 : LOGGING UNIT NUMBER
LUL .                         ED : LOGGING UNIT LOCATION
ENGI.                     KESTER : RECORDING ENGINEER
WITN.                    TAXBOCK : WITNESSED BY
CLNT.                    A2DTECH : CLIENT CODE
ORIG. 6.5"/100M 16.5"/100M PRINT : ORIGIN OF DATA
UWI .           100062406517W500 : UNIQUE WELL ID
DICO.     A2D Technologies, Inc. : DIGITIZING COMPANY
~Other -----------------------------------------------------
DIL-BHC-CNFD LOG RAN.
BHC: ALL DATA VERIFIED FROM SMALL SCALE @ 435M TO 1390M
~ASCII -----------------------------------------------------
  450.00000  254.00850  283.06800  254.00850    -999.25    -999.25    -999.25    -999.25    -999.25    -999.25    -999.25    -999.25    -999.25    -999.25   62.46250   72.38010   62.46250    -999.25    -999.25    -999.25    -999.25    0.59140    0.55680    -999.25    -999.25    -999.25    -999.25
  500.00000  310.59810  328.57010  310.59810  393.60780   39.22670 1660.33000    -999.25    0.59980    0.61380    2.54060   39.22670  487.17430  487.17430   65.51970   88.28100   65.51970    2.54060    2.47520    2.47520    -999.25    0.61730    0.58450    4.68520   -9.54250   -3.24740    4.68520
  550.00000  263.57720  278.19110  263.57720  453.69990   12.07300 2083.72000    -999.25    0.34320    0.36620    2.20410   12.07300  421.70050  421.70050   89.81990   98.17390   89.81990    2.20410    2.06840    2.06840    -999.25    0.46600    0.42480    2.03980   -9.79260   -3.24730    2.03980
  600.00000  239.69320  244.31920  239.69320  456.72530    8.08100 2176.94500    -999.25    0.28670    0.31170    2.18950    8.08100  382.15770  382.15770   74.84080   78.54450   74.84080    2.18950    2.32950    2.32950    -999.25    0.49170    0.45150    2.05740   -9.63710   -2.84160    2.05740
  650.00000  262.92830  275.80910  262.92830  290.12420   26.98370 2196.08500    -999.25    0.27510    0.30050    3.44680   26.98370  407.01460  407.01460   62.35500   63.92170   62.35500    3.44680    2.82440    2.82440    -999.25    0.50580    0.46630    2.40760   -8.81660   -1.77090    2.40760
  700.00000  254.66620  267.85280  254.66620  336.06670   28.72200 2261.75500    -999.25    0.23530    0.26210    2.97560   28.72200  368.80480  368.80480   60.45080   68.31160   60.45080    2.97560    2.79960    2.79960    -999.25    0.46570    0.42450    2.71190   -9.48010   -2.59210    2.71190
  750.00000  214.42090  237.27750  214.42090  152.85610   58.47110 2226.11500    -999.25    0.25690    0.28300    6.54210   58.47110  322.18500  322.18500   58.85930   59.95930   58.85930    6.54210    6.27710    6.27710    -999.25    0.41300    0.37040    5.73900  -10.48600   -4.16030    5.73900
  800.00000  227.80570  248.00950  227.80570  316.12560  146.11970 2190.14500    -999.25    0.27870    0.30400    3.16330  146.11970  340.80130  340.80130   62.68120   65.46970   62.68120    3.16330    2.98860    2.98860    -999.25    0.47190    0.43090    3.28310   -9.07350   -3.31010    3.28310
  850.00000  269.11280  263.42650  269.11280  168.49200   19.53380 2296.07500    -999.25    0.21450    0.24210    5.93500   19.53380  317.27140  317.27140   46.52450   50.25050   46.52450    5.93500    5.43050    5.43050    -999.25    0.36930    0.32590    5.24510  -12.18150   -6.98040    5.24510
  900.00000  373.84040  230.04800  373.84040  248.86770   66.26820 2369.83000    -999.25    0.16980    0.19890    4.01820   66.26820  338.88430  338.88430   79.98310   85.56360   79.98310    4.01820    3.78630    3.78630    -999.25    0.36840    0.32500    3.69430   -9.80220   -5.16340    3.69430
  950.00000  278.79540  264.23140  278.79540  187.34310  124.67640 2256.47500    -999.25    0.23850    0.26520    5.33780  124.67640  354.15650  354.15650  122.61360  122.26320  122.61360    5.33780    4.81770    4.81770    -999.25    0.47570    0.43490    5.99590   -6.68150   -2.60500    5.99590
 1000.00000  336.43130  366.99630  336.43130  157.03520   40.30240 2220.83500    -999.25    0.26010    0.28610    6.36800   40.30240  290.08400  290.08400   76.00870   84.54040   76.00870    6.36800    5.96310    5.96310    -999.25    0.47130    0.43030    5.79910   -9.47740   -9.65100    5.79910
 1050.00000  274.18560  278.28560  274.18560  177.82520   32.19020 1836.88000    -999.25    0.49280    0.51060    5.62350   32.19020  319.16720  319.16720   86.41790   95.04200   86.41790    5.62350    4.93160    4.93160    -999.25    0.48890    0.44860    4.76290   -7.00080  -11.61040    4.76290
 1100.00000  329.81120  357.08520  329.81120  141.75950   77.08740 2418.17500    -999.25    0.14050    0.17070    7.05420   77.08740  288.42160  288.42160   90.88550   97.18340   90.88550    7.05420    5.65600    5.65600    -999.25    0.35840    0.31490    5.13390    6.10640   -2.88320    5.13390
 1150.00000  312.05360  316.91600  312.05360  149.51710   56.41790 2499.52000    -999.25    0.09120    0.12310    6.68820   56.41790  288.06430  288.06430  108.04760  118.26080  108.04760    6.68820    6.04790    6.04790    -999.25    0.31610    0.27220    6.34080    8.33020   -4.69010    6.34080
 1200.00000  275.65890  278.25050  275.65890  170.03910   33.87990 2444.24500    -999.25    0.12470    0.15540    5.88100   33.87990  329.69200  329.69200  118.16330  128.72710  118.16330    5.88100    5.63000    5.63000    -999.25    0.39830    0.35540    6.64360   13.95500   -3.09590    6.64360
 1250.00000  248.57710  280.91980  248.57710  195.81730   60.36140 2422.96000    -999.25    0.13760    0.16790    5.10680   60.36140  305.58650  305.58650  104.09100  107.98990  104.09100    5.10680    4.84040    4.84040    -999.25    0.40800    0.36530    5.27590   12.84840   -7.65020    5.27590
 1300.00000  262.37240  275.53410  262.37240  197.16870   90.58270 2545.55500    -999.25    0.06330    0.09620    5.07180   90.58270  296.02140  296.02140  104.16590  108.27050  104.16590    5.07180    4.88230    4.88230    -999.25    0.33700    0.29320    5.38350   16.34780   -4.75280    5.38350
 1350.00000  329.72210  309.75290  329.72210  223.60360   36.91020 2469.65500    -999.25    0.10930    0.14060    4.47220   36.91020  301.75230  301.75230  117.35020  125.91690  117.35020    4.47220    4.25950    4.25950    -999.25    0.36510    0.32160    4.66110   17.53710   -4.16560    4.66110
 1400.00000  247.42310  265.18730  247.42310  270.36530  148.25130 2205.82000    -999.25    0.26920    0.29480    3.69870  148.25130  296.08700  296.08700   92.11790   97.34560   92.11790    3.69870    3.59420    3.59420    -999.25    0.40090    0.35800    3.77960   19.97650   -2.80130    3.77960
 1450.00000  289.98660  334.92560  289.98660  198.25930   52.44240 2499.52000    -999.25    0.09120    0.12310    5.04390   52.44240  274.10170  274.10170   78.68890   79.67790   78.68890    5.04390    4.84560    4.84560    -999.25    0.31480    0.27090    5.17350   20.09010   -4.10830    5.17350
 1500.00000  302.89400  364.87090  302.89400  355.49240  115.57590 2081.08000    -999.25    0.34480    0.36780    2.81300  115.57590  467.82060  467.82060   76.45040   78.56480   76.45040    2.81300    2.29860    2.29860    -999.25    0.57330    0.53760    2.88750   18.81710   -6.80190    2.88750
 1550.00000  254.41740  290.62790  254.41740  149.85090   43.11350 2316.70000    -999.25    0.20200    0.23000    6.67330   43.11350  302.52850  302.52850   66.89630   71.11750   66.89630    6.67330    8.54510    8.54510    -999.25    0.41750    0.37500    6.95480   -0.01210  -27.05170    6.95480
 1600.00000  241.86420  239.13250  241.86420  109.19060   66.55570 2456.62000    -999.25    0.11720    0.14820    9.15830   66.55570  245.53380  245.53380   38.25750   41.70320   38.25750    9.15830   12.02570   12.02570    -999.25    0.24910    0.20520   14.12700  -20.45710  -48.91730   14.12700
 1650.00000  251.92710  292.65770  251.92710  139.23890   -3.10420 2551.82500    -999.25    0.05950    0.09250    7.18190   -3.10420  243.53210  243.53210   90.78840   93.59260   90.78840    7.18190    7.42380    7.42380    -999.25    0.26380    0.21980    8.16660   27.78360   -2.09720    8.16660
 1700.00000  231.71550  253.41420  231.71550   97.44590  158.30350 2484.50500    -999.25    0.10030    0.13190   10.26210  158.30350  234.46810  234.46810   50.19150   56.46740   50.19150   10.26210   12.31320   12.31320    -999.25    0.28260    0.23860   15.86050  -12.06230  -45.67060   15.86050
 1750.00000  256.14660  298.54300  256.14660  122.35410   52.80610 2561.72500    -999.25    0.05350    0.08670    8.17300   52.80610  228.98100  228.98100   84.71880   92.96410   84.71880    8.17300    8.64900    8.64900    -999.25    0.24350    0.19960   10.36720   21.26450  -16.96830   10.36720
