~Version ---------------------------------------------------
VERS.      2.0 : CWLS log ASCII Standard -VERSION 2.0
WRAP.       NO : One line per depth step
CREA. 07/27/17 : LAS Creation Date
~Well ------------------------------------------------------
STRT.FT                       700.0 : START DEPTH
STOP.FT                     10900.0 : STOP DEPTH
STEP.FT                    50.00000 : STEP LENGTH
NULL.                       -999.25 : NULL VALUE
COMP.   SHELL CANADA RESOURCES LTD. : COMPANY
WELL. SHELL ET AL PEERS 11-34-53-14 : WELL
FLD .                               : FIELD
LOC .                               : LOCATION
CTRY.                        CANADA : COUNTRY
SRVC.        Schlumberger of Canada : SERVICE COMPANY
DATE.                   29-Aug-1977 : LOGDATE
PROV.                       Alberta : PROVINCE
UWI .              100113405314W500 : UNIQUE WELL ID
SLAT.WGS84                 53.62396 : SURFACE LATITUDE
SLON.WGS84                -115.9841 : SURFACE LONGITUDE
~Curve Information -----------------------------------------
DEPT    .FT    : Depth Curve
CALDED  .IN    : CALIPER FROM FDC/CNL LOG
CALSED  .IN    : CALIPER FROM BHC/GR LOG
CALWS   .IN    : CALIPER [CALDED]
CONDWS  .MMHO  : CONDUCTIVITY [1000/DRESWS]
DCORED  .G/C3  : DENSITY CORRECTION FROM FDC/CNL LOG
DCORWS  .G/C3  : DENSITY CORRECTION [DCORED]
DENWS   .G/C3  : BULK DENSITY [M=2.650,2.710 F=1000] [RHOBED]
DPHILSED.V/V   : DENSITY POROSITY [M=2.710 F=1.000] FROM FDC/CNL LOG
DPHISSED.V/V   : DENSITY POROSITY [M=2.650 F=1.000] FROM FDC/CNL LOG
DPOLSWS .V/V   : DENSITY POROSITY [M=2.710 F=1.000] [CALCULATED FROM DENWS]
DRESWS  .OHMM  : DEEP RESISTIVITY [LLDED]
DTED    .US/F  : DELTA TIME FROM BHC/GR LOG
DTWS    .US/F  : DELTA TIME [DTED]
GRDED   .GAPI  : GAMMA RAY FROM FDC/CNL LOG
GRRED   .GAPI  : GAMMA RAY FROM DLL LOG
GRSED   .GAPI  : GAMMA RAY FROM BHC/GR LOG
GRWS    .GAPI  : GAMMA RAY [MERGED GRSED/GRRED at 1160.5']
LLDED   .OHMM  : LATEROLOG DEEP RESISTIVITY FROM DLL LOG
LLSED   .OHMM  : LATEROLOG SHALLOW RESISTIVITY FROM DLL LOG
MCALED  .IN    : CALIPER MICROLOG FROM PML LOG
NPHILSED.V/V   : NEUTRON POROSITY LIMESTONE FROM FDC/CNL LOG
NPHISSED.V/V   : NEUTRON POROSITY SANDSTONE FROM FDC/CNL LOG
NPOLSWS .V/V   : NEUTRON POROSITY LIMESTONE [MERGED NPHISSED CONVERTED TO LS/NPHILSED at 7316']
PROXED  .OHMM  : PROXIMITY RESISTIVITY FROM PML LOG
RHOBED  .G/C3  : BULK DENSITY FROM FDC/CNL LOG
SRESWS  .OHMM  : SHALLOW RESISTIVITY [LLSED]
~Params ----------------------------------------------------
PD  .                     GL : PERMANENT DATUM
EPD .FT               2853.7 : ELEVATION PERMANENT DATUM
LMF .                     KB : LOG MEASURED FROM
DAPD.FT                 20.6 : FEET ABOVE PERMANENT DATUM
EKB .FT               2874.3 : KELLY BUSHING
EGL .FT               2853.7 : GROUND LEVEL
DATE.               08/29/77 : RUN DATE
RUN .                      1 : RUN NUMBER
DD  .FT                10950 : DEPTH DRILLER
DL  .FT                10935 : DEPTH LOGGER
BLI .FT                10932 : BOTTOM LOG INTERVAL
TLI .FT                 1159 : TOP LOG INTERVAL
CS  .IN                9.625 : CASING SIZE
CBD .FT                 1159 : CASING BOTTOM DRILLER
CBL .FT                 1159 : CASING BOTTOM LOGGER
BS  .IN                 8.75 : BIT SIZE
BSD .FT                10950 : BIT SIZE AT DEPTH
DFT .             KCL BARITE : DRILLING FLUID TYPE
DFD .                    9.2 : DRILLING FLUID DENSITY
DFV .                     65 : DRILLING FLUID VISCOSITY
DFPH.                   10.5 : DRILLING FLUID PH
DFL .                   14.2 : DRILLING FLUID LOSS
RMS .OHMM              0.243 : RESISTIVITY MUD SAMPLE
MST .DEGF                 60 : MUD SAMPLE TEMPERATURE
RMF .OHMM              0.172 : RESISTIVITY MUD FILTRATE SAMPLE
MFST.DEGF                 74 : MUD FILTRATE SAMPLE TEMPERATURE
RMB .OHMM              0.069 : RESISTIVITY MUD AT BHT
TCS .HRS                   5 : TIME CIRCULATED STOPPED
LUN .                   7772 : LOGGING UNIT NUMBER
LUL .                    EDM : LOGGING UNIT LOCATION
ENGI.               BERNISKY : RECORDING ENGINEER
WITN.                  CRAIG : WITNESSED BY
CLNT.                A2DTECH : CLIENT CODE
ORIG.            2" 5" PRINT : ORIGIN OF DATA
UWI .       100113405314W500 : UNIQUE WELL ID
DICO. A2D Technologies, Inc. : DIGITIZING COMPANY
~Other -----------------------------------------------------
~ASCII -----------------------------------------------------
# ...
 4750.00000    -999.25   11.60050   11.60050  105.44300    -999.25    -999.25    -999.25    -999.25    -999.25    -999.25    9.48380   82.14100   82.14100    -999.25  119.04940  122.54180  119.04940    9.48380    9.95070    -999.25    -999.25    -999.25    -999.25    -999.25    -999.25    9.95070
 4800.00000    -999.25   11.65130   11.65130  112.68110    -999.25    -999.25    -999.25    -999.25    -999.25    -999.25    8.87460   81.41500   81.41500    -999.25  117.98410  113.78320  117.98410    8.87460    8.45870    -999.25    -999.25    -999.25    -999.25    -999.25    -999.25    8.45870
 4850.00000    -999.25   10.97600   10.97600  109.21440    -999.25    -999.25    -999.25    -999.25    -999.25    -999.25    9.15630   81.86410   81.86410    -999.25  117.38310  116.93110  117.38310    9.15630    9.41810    -999.25    -999.25    -999.25    -999.25    -999.25    -999.25    9.41810
 4900.00000    -999.25   10.96200   10.96200  101.57440    -999.25    -999.25    -999.25    -999.25    -999.25    -999.25    9.84500   79.59310   79.59310    -999.25  113.34100  117.64660  113.34100    9.84500   10.53820    -999.25    -999.25    -999.25    -999.25    -999.25    -999.25   10.53820
 4950.00000    -999.25   10.25050   10.25050  106.04680    -999.25    -999.25    -999.25    -999.25    -999.25    -999.25    9.42980   78.18310   78.18310    -999.25  114.06210  118.83250  114.06210    9.42980    9.96220    -999.25    -999.25    -999.25    -999.25    -999.25    -999.25    9.96220
 5000.00000   10.51290   10.49440   10.49440  112.51760    0.23290    0.23290    2.36700    -999.25    0.19420    0.20060    8.88750   80.55300   80.55300  125.07940  118.22060  120.95000  118.22060    8.88750    9.39620    -999.25    -999.25    0.31440    0.26360    -999.25    2.36700    9.39620
 5050.00000   10.56510   10.39200   10.39200  106.34790    0.25670    0.25670    2.40420    -999.25    0.15540    0.17880    9.40310   80.03850   80.03850  119.96540  119.04960  122.11570  119.04960    9.40310    9.94840    -999.25    -999.25    0.29950    0.24810    -999.25    2.40420    9.94840
 5100.00000   11.28710   10.67950   10.67950  122.55200    0.18980    0.18980    2.16350    -999.25    0.29420    0.31960    8.15980   81.92970   81.92970  121.84340  126.94530  126.63890  126.94530    8.15980    8.63590    -999.25    -999.25    0.32250    0.27210    -999.25    2.16350    8.63590
 5150.00000   11.48070   10.44110   10.44110  132.40820    0.18950    0.18950    2.01010    -999.25    0.39470    0.40930    7.55240   83.57440   83.57440  129.76080  131.42010  124.29700  131.42010    7.55240    8.04050    -999.25    -999.25    0.34300    0.29370    -999.25    2.01010    8.04050
 5200.00000    9.38130    9.50050    9.50050   54.07520    0.13080    0.13080    2.49240    -999.25    0.09440    0.12720   18.49270   71.87670   71.87670  106.33710  109.81330   96.84490  109.81330   18.49270   20.88190    -999.25    -999.25    0.21060    0.15920    -999.25    2.49240   20.88190
 5250.00000   10.27420    9.93550    9.93550   73.26380    0.18420    0.18420    2.51760    -999.25    0.08690    0.11250   13.64930   75.03500   75.03500  124.60700  122.25280  113.26010  122.25280   13.64930   14.42800    -999.25    -999.25    0.24690    0.19430    -999.25    2.51760   14.42800
 5300.00000   10.26420   10.16700   10.16700   83.92710    0.20360    0.20360    2.42350    -999.25    0.14720    0.16750   11.91510   75.86670   75.86670  126.07310  123.31430  124.37970  123.31430   11.91510   12.58290    -999.25    -999.25    0.25150    0.19890    -999.25    2.42350   12.58290
 5350.00000   10.67810   10.17150   10.17150   79.64290    0.20790    0.20790    2.36030    -999.25    0.18100    0.20450   12.55600   76.43950   76.43950  129.19440  122.88310  120.37730  122.88310   12.55600   13.66920    -999.25    -999.25    0.25940    0.20670    -999.25    2.36030   13.66920
 5400.00000   10.58490   10.30260   10.30260   91.19010    0.25830    0.25830    2.27610    -999.25    0.23030    0.25370   10.96610   78.81020   78.81020  130.28660  126.56500  120.52210  126.56500   10.96610   11.58180    -999.25    -999.25    0.29490    0.24340    -999.25    2.27610   11.58180
 5450.00000   11.00670   10.35240   10.35240   97.96810    0.18930    0.18930    2.25360    -999.25    0.24310    0.26690   10.20740   80.02090   80.02090  129.27890  126.39360  129.31240  126.39360   10.20740   11.45080    -999.25    -999.25    0.31590    0.26520    -999.25    2.25360   11.45080
 5500.00000   10.49720    9.98670    9.98670   80.42720    0.24110    0.24110    2.44440    -999.25    0.12480    0.15530   12.43360   80.13620   80.13620  127.35570  127.46720  129.28800  127.46720   12.43360   14.11460    -999.25    -999.25    0.32770    0.27760    -999.25    2.44440   14.11460
 5550.00000    9.28630    9.52790    9.52790   69.04980    0.25540    0.25540    2.54250    -999.25    0.06640    0.09800   14.48230   83.60930   83.60930  143.01390  134.57160  148.33550  134.57160   14.48230   17.55800    -999.25    -999.25    0.35830    0.31000    -999.25    2.54250   17.55800
 5600.00000    9.01900    9.22020    9.22020   65.71810    0.01620    0.01620    2.59890    -999.25    0.02940    0.06500   15.21650   86.18160   86.18160  150.37730  148.27680  147.30260  148.27680   15.21650   18.32830    -999.25    -999.25    0.36570    0.31790    -999.25    2.59890   18.32830
 5650.00000    9.07360    9.32420    9.32420   62.63580   -0.00230   -0.00230    2.59350    -999.25    0.03490    0.06810   15.96530   85.63040   85.63040  145.86530  151.19970  143.89790  151.19970   15.96530   19.23150    -999.25    -999.25    0.35380    0.30520    -999.25    2.59350   19.23150
 5700.00000    9.09170    9.41110    9.41110   61.36420    0.01410    0.01410    2.59890    -999.25    0.02910    0.06500   16.29620   87.70590   87.70590  139.06850  143.60940  149.56150  143.60940   16.29620   18.77860    -999.25    -999.25    0.36750    0.31980    -999.25    2.59890   18.77860
 5750.00000    9.20880    9.39270    9.39270   38.99670    0.01830    0.01830    2.58930    -999.25    0.03540    0.07060   25.64320   84.86620   84.86620  135.88040  133.77540  136.18790  133.77540   25.64320   31.44640    -999.25    -999.25    0.35520    0.30670    -999.25    2.58930   31.44640
 5800.00000   10.09390    9.57370    9.57370   75.96130    0.19010    0.19010    2.45030    -999.25    0.12370    0.15190   13.16460   86.91030   86.91030  143.79820  137.71900  131.08570  137.71900   13.16460   16.06760    -999.25    -999.25    0.35130    0.30250    -999.25    2.45030   16.06760
 5850.00000    9.15200    9.69030    9.69030   57.17320    0.11110    0.11110    2.49890    -999.25    0.08770    0.12340   17.49070   92.68140   92.68140  149.64410  141.34100  145.34440  141.34100   17.49070   21.38800    -999.25    -999.25    0.39900    0.35390    -999.25    2.49890   21.38800
 5900.00000   10.36700   10.29030   10.29030   87.28590    0.20520    0.20520    2.45260    -999.25    0.12430    0.15050   11.45660   81.84880   81.84880  129.17710  129.18050  128.40680  129.18050   11.45660   12.84740    -999.25    -999.25    0.31950    0.26890    -999.25    2.45260   12.84740
 5950.00000   11.17010   10.14090   10.14090  113.46100    0.22790    0.22790    2.31230    -999.25    0.20250    0.23250    8.81360   85.94640   85.94640  130.77170  130.46750  136.96210  130.46750    8.81360   10.67720    -999.25    -999.25    0.37850    0.33170    -999.25    2.31230   10.67720
 6000.00000    9.92720    9.79650    9.79650   72.46850    0.10020    0.10020    2.48110    -999.25    0.10780    0.13390   13.79910   73.57510   73.57510  120.06270  124.58650  119.19310  124.58650   13.79910   15.76590    -999.25    -999.25    0.28920    0.23750    -999.25    2.48110   15.76590
 6050.00000   11.14390    9.96950    9.96950  119.25920    0.25690    0.25690    2.31470    -999.25    0.20250    0.23120    8.38510   85.00400   85.00400  128.73710  136.66890  139.00390  136.66890    8.38510   10.07900    -999.25    -999.25    0.35640    0.30800    -999.25    2.31470   10.07900
