~Version ---------------------------------------------------
VERS.      2.0 : CWLS log ASCII Standard -VERSION 2.0
WRAP.       NO : One line per depth step
CREA. 10/22/19 : LAS Creation Date
~Well ------------------------------------------------------
STRT.ft                                          300.0 : START DEPTH
STOP.ft                                        10300.0 : STOP DEPTH
STEP.ft                                       50.00000 : STEP LENGTH
NULL.                                          -999.25 : NULL VALUE
COMP.                             IMPERIAL OIL LIMITED : COMPANY
WELL. IMPERIAL CANADIAN SUPERIOR BUCK CREEK 14-29-48-6 : WELL
FLD .                                          WILDCAT : FIELD
LOC .                                                  : LOCATION
CTRY.                                           CANADA : COUNTRY
SRVC.                           Schlumberger of Canada : SERVICE COMPANY
DATE.                                      27-May-1954 : LOGDATE
PROV.                                          Alberta : PROVINCE
UWI .                                 100142904806W500 : UNIQUE WELL ID
SLAT.WGS84                                    53.17637 : SURFACE LATITUDE
SLON.WGS84                                   -114.8447 : SURFACE LONGITUDE
~Curve Information -----------------------------------------
DEPT   .ft     : Depth Curve
GRD    .GAPI   : GAMMA RAY FROM CNL LOG
GRN    .MR/HR  : GAMMA RAY FROM GRN LOG
LN     .OHMM   : LONG NORMAL RESISTIVITY
LT18   .OHMM   : LATERAL 18'
NEUT   .NAPI   : NEUTRON
NPHI_DM.DEC    : NEUTRON POROSITY DOLOMITE MATRIX FROM CNL LOG
NPHI_LS.DEC    : NEUTRON POROSITY LIMESTONE FROM CNL LOG
NPHI_SS.DEC    : NEUTRON POROSITY SANDSTONE FROM CNL LOG
SN     .OHMM   : SHORT NORMAL RESISTIVITY
SPR    .MV     : SPONTANEOUS POTENTIAL FROM RESISTIVITY LOG
~Params ----------------------------------------------------
LMF .                     KB : LOG MEASURED FROM
DMF .                     KB : DRILLING MEASURED FROM
EKB .FT                 2810 : KELLY BUSHING
DATE.               05/27/54 : RUN DATE
RUN .                      4 : RUN NUMBER
DD  .FT                10219 : DEPTH DRILLER
DL  .FT                10221 : DEPTH LOGGER
BLI .FT                10221 : BOTTOM LOG INTERVAL
TLI .FT                 7088 : TOP LOG INTERVAL
BS  .IN                8.625 : BIT SIZE
BSD .FT                10219 : BIT SIZE AT DEPTH
DFT .              LIME BASE : DRILLING FLUID TYPE
DFD .                   10.5 : DRILLING FLUID DENSITY
DFV .                    220 : DRILLING FLUID VISCOSITY
DFPH.                   12.5 : DRILLING FLUID PH
DFL .                    9.5 : DRILLING FLUID LOSS
RMS .OHMM                1.0 : RESISTIVITY MUD SAMPLE
MST .DEGF                 72 : MUD SAMPLE TEMPERATURE
RMB .OHMM               0.42 : RESISTIVITY MUD AT BHT
TCS .HRS                   2 : TIME CIRCULATED STOPPED
LUN .                   1772 : LOGGING UNIT NUMBER
ENGI.              HENDERSON : RECORDING ENGINEER
WITN.               MCKENZIE : WITNESSED BY
CLNT.                A2DTECH : CLIENT CODE
ORIG.            2" 5" PRINT : ORIGIN OF DATA
UWI .       100142904806W500 : UNIQUE WELL ID
DICO. A2D Technologies, Inc. : DIGITIZING COMPANY
~Other -----------------------------------------------------
CONVERTED CNL. CURVES FROM M to F. KEPT THE ENTIRE WELL AS FEET.
~ASCII -----------------------------------------------------
# ...
 6900.00000    -999.25    4.24700  259.48790  595.61650  671.51700    -999.25    -999.25    -999.25   73.70900  -41.89870
 6950.00000    -999.25    6.49840  426.85760  707.73190  531.54530    -999.25    -999.25    -999.25  100.27100  -34.96090
 7000.00000    -999.25    1.84710  636.66200 1329.98240  625.25850    -999.25    -999.25    -999.25   97.19420  -80.62340
 7050.00000    -999.25    2.20900   48.48750   84.11440  452.78110    -999.25    -999.25    -999.25   24.74840  -88.57460
 7100.00000    -999.25    1.94750  121.08730  468.40790  601.69600    -999.25    -999.25    -999.25   43.59940 -130.53120
 7150.00000    -999.25    1.45000  154.76350  407.26450  581.93640    -999.25    -999.25    -999.25   52.12850 -158.84840
 7200.00000    -999.25    1.31800  135.57570  216.19660  484.88880    -999.25    -999.25    -999.25   54.56510 -167.60600
 7250.00000    -999.25    1.52710   66.47670   84.10100  344.85100    -999.25    -999.25    -999.25   36.43260 -148.34440
 7300.00000    -999.25    1.21480   31.79130   16.14240  449.60770    -999.25    -999.25    -999.25   27.54990 -166.13850
 7350.00000    -999.25    1.50530  170.46580  213.60320  644.92310    -999.25    -999.25    -999.25   61.66710 -155.83800
 7400.00000    -999.25    1.53540  104.04640  262.40350  542.68710    -999.25    -999.25    -999.25   46.13800 -159.40300
 7450.00000    -999.25    1.84730  147.03750  325.26540  396.68570    -999.25    -999.25    -999.25   52.25250 -159.43300
 7500.00000    -999.25    2.48690  182.59490  241.27080  579.50840    -999.25    -999.25    -999.25   59.37300 -138.92200
 7550.00000    -999.25    2.24170    -999.25 1064.31770  484.43620    -999.25    -999.25    -999.25   96.22400 -149.50420
 7600.00000    -999.25    2.85180  249.54820 1338.06530  565.58540    -999.25    -999.25    -999.25   53.81760 -102.03380
 7650.00000    -999.25    2.34630  153.61250  155.19060  589.50100    -999.25    -999.25    -999.25   57.47690 -135.28250
 7700.00000    -999.25    2.81330  178.77740  442.25730  515.28690    -999.25    -999.25    -999.25   55.55770 -139.43840
 7750.00000    -999.25    2.91440   68.11230   85.63270  271.44500    -999.25    -999.25    -999.25   30.27000 -104.43820
 7800.00000    -999.25    3.79590  115.75890  494.95920  364.87980    -999.25    -999.25    -999.25   49.47170 -110.45130
 7850.00000    -999.25    2.97090  197.81300   49.17630  422.33370    -999.25    -999.25    -999.25   77.78890 -122.87270
 7900.00000    -999.25    2.99440  235.47680    -999.25  375.83750    -999.25    -999.25    -999.25   58.15050  -96.56110
 7950.00000    -999.25    7.16170   56.93860  175.37270  100.04370    -999.25    -999.25    -999.25   28.02960  -58.32820
 8000.00000    -999.25    8.85380   49.97310   91.83100  277.33100    -999.25    -999.25    -999.25   27.21620  -56.12970
 8050.00000    -999.25    8.18940   69.22810   74.95990  339.00160    -999.25    -999.25    -999.25   28.15390  -55.74240
 8100.00000    -999.25    9.01910   24.76950   52.47450  154.22720    -999.25    -999.25    -999.25   15.38300  -46.57370
 8150.00000    -999.25    8.99380   20.20490   19.32350  202.83910    -999.25    -999.25    -999.25   15.10860  -44.30050
 8200.00000    -999.25    9.13290   19.44710   16.90730  240.76520    -999.25    -999.25    -999.25   14.82500  -44.05840
 8250.00000    -999.25    9.77900   13.75000   15.78120   95.93990    -999.25    -999.25    -999.25   10.48240  -48.01620
 8300.00000    -999.25    8.32340   14.25810   13.88770  155.57620    -999.25    -999.25    -999.25   10.79980  -44.27830
 8350.00000    -999.25    9.25070   12.90480   10.13680  110.47990    -999.25    -999.25    -999.25   10.43380  -40.40730
 8400.00000    -999.25    8.09330   12.21140   13.01990   68.02680    -999.25    -999.25    -999.25    9.13190  -32.84910
 8450.00000    -999.25    7.64460   13.22180   11.47800   75.91760    -999.25    -999.25    -999.25    9.62210  -29.77700
 8500.00000    -999.25    7.00790   24.47720   53.12640  217.92230    -999.25    -999.25    -999.25   15.46660  -30.26730
 8550.00000    -999.25    6.77820   28.72340   30.10800  357.80160    -999.25    -999.25    -999.25   20.78680  -32.92490
 8600.00000    -999.25    7.40830   13.72430   12.26480   85.72340    -999.25    -999.25    -999.25    9.99620  -34.71710
 8650.00000    -999.25    2.64560  155.29600   47.68500  641.40160    -999.25    -999.25    -999.25   63.12910  -40.24250
 8700.00000    -999.25    9.09200   89.24170  377.29240  227.34770    -999.25    -999.25    -999.25   31.97530  -32.02700
 8750.00000    -999.25    5.45450  119.29940  196.81080  505.08440    -999.25    -999.25    -999.25    -999.25  -37.69510
 8800.00000    -999.25    9.25630   12.37840   57.14930   27.84300    -999.25    -999.25    -999.25    7.73800  -35.56370
 8850.00000    -999.25    7.86600    5.28390    5.51950  -10.69060    -999.25    -999.25    -999.25    4.01000  -31.46830
 8900.00000    -999.25    7.72300    6.80030    6.07220   34.25720    -999.25    -999.25    -999.25    5.05260  -35.20520
 8950.00000    -999.25    4.37470   41.28270  106.27590  468.68790    -999.25    -999.25    -999.25   21.95210  -37.36300
 9000.00000    -999.25    6.43970   11.02200   25.07860  181.56140    -999.25    -999.25    -999.25    7.66460  -35.14800
 9050.00000    -999.25    4.04630   36.58310   18.74320  583.55480    -999.25    -999.25    -999.25   24.12930  -33.20070
 9100.00000    -999.25    3.83070   47.02550   94.08240  550.77650    -999.25    -999.25    -999.25   23.85060  -41.83510
 9150.00000    -999.25    4.66240   25.94090   23.35920  505.97910    -999.25    -999.25    -999.25   17.75460  -35.96030
 9200.00000    -999.25    3.50680   86.38750   41.46910  648.17690    -999.25    -999.25    -999.25   43.12620  -34.43830
 9250.00000    -999.25    4.88760   53.35470  110.53930  524.46890    -999.25    -999.25    -999.25   23.09300  -32.55750
 9300.00000    -999.25    5.93430   31.84290   22.73240  367.23970    -999.25    -999.25    -999.25   20.24280  -30.17290
 9350.00000    -999.25    5.59100   25.20680   59.46710  467.68510    -999.25    -999.25    -999.25   16.91120  -32.43850
 9400.00000    -999.25    3.60290   77.68740   27.41070  591.92470    -999.25    -999.25    -999.25   43.39800  -36.95840
 9450.00000    -999.25    3.13780  100.81540  101.67840  563.43400    -999.25    -999.25    -999.25   49.34110  -25.52540
 9500.00000    -999.25    3.18650  165.98500  859.47130  661.59220    -999.25    -999.25    -999.25   47.94150  -32.78010
 9550.00000    -999.25    8.86090   10.71610   17.51710  337.20010    -999.25    -999.25    -999.25    9.07910  -59.37280
 9600.00000    -999.25    6.94620   13.69070   14.44160  312.53890    -999.25    -999.25    -999.25   10.97800  -51.82410
 9650.00000    -999.25    8.41680   58.09110   69.00210  390.21600    -999.25    -999.25    -999.25   34.76570  -50.22180
 9700.00000    -999.25    8.07990    -999.25   63.96040  328.45080    -999.25    -999.25    -999.25   28.83160  -60.38010
 9750.00000    -999.25   10.94730   43.95460   34.08130  242.73910    -999.25    -999.25    -999.25   25.69790  -45.47670
 9800.00000    -999.25    7.34560   63.21190   86.66100  463.54800    -999.25    -999.25    -999.25   35.44710  -86.99940
 9850.00000    -999.25    3.16070   29.15220   15.06880  341.96800    -999.25    -999.25    -999.25   21.21390 -129.84070
 9900.00000    -999.25    7.49300   63.87730   83.36440  491.01880    -999.25    -999.25    -999.25   35.97210  -51.73220
 9950.00000    -999.25    6.85270   55.93700   55.98290  526.66050    -999.25    -999.25    -999.25   29.11100  -68.89480
 10000.00000    -999.25    4.98280   49.92650   20.19860  334.08220    -999.25    -999.25    -999.25   33.20180 -128.33210
 10050.00000    -999.25    4.78620  144.36880  144.17320  627.99990    -999.25    -999.25    -999.25   47.93350  -83.35310
 10100.00000    -999.25   14.14380   48.95140  142.85390  517.82780    -999.25    -999.25    -999.25   30.00230  -54.30310
 10150.00000    -999.25    7.35190   20.04490   32.58640  524.32950    -999.25    -999.25    -999.25   11.70480  -57.54010
