~Version ---------------------------------------------------
VERS.      2.0 : CWLS log ASCII Standard -VERSION 2.0
WRAP.       NO : One line per depth step
CREA. 11/20/17 : LAS Creation Date
~Well ------------------------------------------------------
STRT.FT                    700.0 : START DEPTH
STOP.FT                   6900.0 : STOP DEPTH
STEP.FT                 50.00000 : STEP LENGTH
NULL.                    -999.25 : NULL VALUE
COMP.            SUN OIL COMPANY : COMPANY
WELL. SUN ET AL YEKAU 11-9-52-26 : WELL
FLD .                            : FIELD
LOC .                            : LOCATION
CTRY.                     CANADA : COUNTRY
SRVC.     Schlumberger of Canada : SERVICE COMPANY
DATE.                21-Nov-1972 : LOGDATE
PROV.                    Alberta : PROVINCE
UWI .           100110905226W400 : UNIQUE WELL ID
SLAT.WGS84              53.47802 : SURFACE LATITUDE
SLON.WGS84             -113.7795 : SURFACE LONGITUDE
~Curve Information -----------------------------------------
DEPT  .FT    : Depth Curve
CALSED.IN    : CALIPER FROM SONIC LOG [ADJ.TO RESISTIVITY LOG]
CALWS .IN    : CALIPER [CALSED]
CILDED.MMHO  : CONDUCTIVITY FROM RESISTIVITY LOG
CONDWS.MMHO  : CONDUCTIVITY [1000/DRESWS]
DRESWS.OHMM  : DEEP RESISTIVITY [1000/CILDED IF ILDED <=5, ILDED]
DTED  .US/F  : DELTA-T FROM SONIC LOG [ADJ.TO RESISTIVITY LOG]
DTWS  .US/F  : COMPRESSIONAL SONIC [DTED]
GRSED .GAPI  : GAMMA RAY FROM SONIC LOG
GRWS  .GAPI  : GAMMA RAY [GRSED]
ILDED .OHMM  : DEEP INDUCTION FROM RESISTIVITY LOG
SNED  .OHMM  : SHORT NORMAL 16" FROM RESISTIVITY LOG
SPRED .MV    : SPONTANEOUS POTENTIAL FROM RESISTIVITY LOG
SPWS  .MV    : SPONTANEOUS POTENTIAL [BASELINE 0 MV, SPRED]
SRESWS.OHMM  : SHALLOW RESISTIVITY [SNED]
~Params ----------------------------------------------------
PD  .                     GL : PERMANENT DATUM
EPD .FT                 2327 : ELEVATION PERMANENT DATUM
LMF .                     KB : LOG MEASURED FROM
DAPD.FT                   13 : FEET ABOVE PERMANENT DATUM
EKB .FT                 2340 : KELLY BUSHING
EGL .FT                 2327 : GROUND LEVEL
DATE.               11/21/72 : RUN DATE
RUN .                      1 : RUN NUMBER
DD  .FT                 6940 : DEPTH DRILLER
DL  .FT                 6942 : DEPTH LOGGER
BLI .FT                 6941 : BOTTOM LOG INTERVAL
TLI .FT                  748 : TOP LOG INTERVAL
CBD .FT                  748 : CASING BOTTOM DRILLER
CBL .FT                  748 : CASING BOTTOM LOGGER
BS  .IN                7.875 : BIT SIZE
BSD .FT                 6940 : BIT SIZE AT DEPTH
DFT .               GEL CHEM : DRILLING FLUID TYPE
DFD .                    9.5 : DRILLING FLUID DENSITY
DFV .                     72 : DRILLING FLUID VISCOSITY
DFPH.                    9.5 : DRILLING FLUID PH
DFL .                     10 : DRILLING FLUID LOSS
RMS .OHMM                1.3 : RESISTIVITY MUD SAMPLE
MST .DEGF                 75 : MUD SAMPLE TEMPERATURE
RMF .OHMM               1.06 : RESISTIVITY MUD FILTRATE SAMPLE
MFST.DEGF                 70 : MUD FILTRATE SAMPLE TEMPERATURE
RMB .OHMM               0.69 : RESISTIVITY MUD AT BHT
TCS .HRS                   2 : TIME CIRCULATED STOPPED
LUN .                   7636 : LOGGING UNIT NUMBER
LUL .                    EDM : LOGGING UNIT LOCATION
ENGI.                CUTRESS : RECORDING ENGINEER
WITN.                PATMORE : WITNESSED BY
CLNT.                A2DTECH : CLIENT CODE
ORIG.            2" 5" PRINT : ORIGIN OF DATA
UWI .       100110905226W400 : UNIQUE WELL ID
DICO. A2D Technologies, Inc. : DIGITIZING COMPANY
~Other -----------------------------------------------------
~ASCII -----------------------------------------------------
# ...
 3150.00000    8.45710    8.45710  139.77240  139.67850    7.15930  102.18770  102.18770  158.91230  158.91230    7.15930   10.19010  -47.76580  -15.26350   10.19010
 3200.00000    8.42940    8.42940   70.23890   76.80850   13.01940  101.04410  101.04410  269.50380  269.50380   13.01940   21.03070  -47.04150  -14.61180   21.03070
 3250.00000    8.44790    8.44790  143.70860  144.45230    6.92270   99.30040   99.30040  192.45540  192.45540    6.92270    9.40420  -44.74210  -12.38450    9.40420
 3300.00000    9.58470    9.58470  205.69800  205.69800    4.86150   98.70910   98.70910  144.30310  144.30310    4.54060    5.75480  -43.38910  -11.10360    5.75480
 3350.00000   11.01820   11.01820  362.98930  362.98930    2.75490  100.70080  100.70080  102.15480  102.15480    2.46090    3.12340  -43.49130  -11.27830    3.12340
 3400.00000   11.53610   11.53610  443.73130  443.73130    2.25360  104.19420  104.19420  117.01550  117.01550    2.06030    2.56550  -34.06300   -1.92210    2.56550
 3450.00000   11.06860   11.06860  271.99660  271.99660    3.67650   92.76400   92.76400  111.47310  111.47310    3.45960    4.01140  -30.13400    2.66410    4.01140
 3500.00000    8.65730    8.65730  136.18970  140.87280    7.09860   80.47850   80.47850   92.90640   92.90640    7.09860    7.86110  -35.76490   -1.80650    7.86110
 3550.00000    9.30440    9.30440  131.20360  138.60970    7.21450   78.95960   78.95960   81.45110   81.45110    7.21450    8.00350  -44.94360   -9.82480    8.00350
 3600.00000   10.67200   10.67200  631.45240  631.45240    1.58370  113.88370  113.88370  111.09140  111.09140    1.40300    1.81840  -45.33410   -9.04730    1.81840
 3650.00000    9.27540    9.27540  123.08230  121.99440    8.19710   81.61770   81.61770   80.15920   80.15920    8.19710    7.41650  -56.40890  -18.96180    7.41650
 3700.00000    8.98940    8.98940  175.90060  188.45520    5.30630   80.00890   80.00890   77.71850   77.71850    5.30630    6.20820  -60.24990  -21.63480    6.20820
 3750.00000    9.29060    9.29060  158.84850  168.59430    5.93140   77.62990   77.62990   60.20720   60.20720    5.93140    8.23190  -71.41220  -31.63670    8.23190
 3800.00000    9.65030    9.65030  157.88160  162.95670    6.13660   82.12950   82.12950  100.22450  100.22450    6.13660    7.18640  -53.62160  -12.68570    7.18640
 3850.00000    9.41270    9.41270  163.69640  168.72800    5.92670   79.12070   79.12070   91.70160   91.70160    5.92670    6.84560  -59.15530  -17.05140    6.84560
 3900.00000    8.63500    8.63500   82.41490   89.23070   11.20690   59.03690   59.03690   56.75480   56.75480   11.20690   36.11150  -53.98140  -10.71720   36.11150
 3950.00000   10.10270   10.10270  152.24030  157.00310    6.36930   80.46180   80.46180  104.47900  104.47900    6.36930    6.85820  -48.22690   -3.79470    6.85820
 4000.00000    9.40580    9.40580  195.54840  195.54840    5.11380   80.43530   80.43530   89.27360   89.27360    4.87070    6.40810  -74.10210  -28.50950    6.40810
 4050.00000    9.90730    9.90730  191.82220  191.82220    5.21320   77.77560   77.77560   81.77010   81.77010    4.93600    6.15040  -67.99420  -21.24130    6.15040
 4100.00000    9.40420    9.40420  135.85680  143.57090    6.96520   78.88750   78.88750   98.57710   98.57710    6.96520    8.89900  -54.15400   -6.23310    8.89900
 4150.00000    8.92090    8.92090   36.58750   43.07130   23.21730   70.34230   70.34230   67.63440   67.63440   23.21730   40.01460  -54.15110   -5.06980   40.01460
 4200.00000    7.89320    7.89320   73.54630   78.73150   12.70140   76.40110   76.40110   53.44340   53.44340   12.70140   34.12590 -105.99960  -56.99680   34.12590
 4250.00000    7.74610    7.74610  258.44400  258.44400    3.86930   74.46280   74.46280   48.63330   48.63330    3.77370   23.78460 -122.36970  -73.55030   23.78460
 4300.00000    8.77190    8.77190  191.54750  189.37600    5.28050   74.88610   74.88610   76.82110   76.82110    5.28050   14.91800  -79.99190  -31.35580   14.91800
 4350.00000    7.84170    7.84170  284.37480  284.37480    3.51650   75.44290   75.44290   50.70230   50.70230    3.35970   22.80070 -128.60200  -80.15050   22.80070
 4400.00000    8.35140    8.35140    6.39650   11.49280   87.01090   60.01210   60.01210   49.16380   49.16380   87.01090  143.86540  -78.90450  -30.63640  143.86540
 4450.00000    8.72470    8.72470  121.64670  125.24420    7.98440   74.41100   74.41100  102.45200  102.45200    7.98440   11.16420  -64.80310  -16.71950   11.16420
 4500.00000    7.66990    7.66990  161.29680  161.31370    6.19910   56.10600   56.10600   17.74030   17.74030    6.19910   54.99420 -165.14120 -117.24100   54.99420
 4550.00000    7.86430    7.86430   40.11980   44.93800   22.25290   50.62970   50.62970   18.07580   18.07580   22.25290  256.29450 -142.72330  -95.00650  256.29450
 4600.00000    7.80530    7.80530   60.51880   67.05150   14.91390   50.59190   50.59190   13.28360   13.28360   14.91390  128.92800 -156.36580 -108.83350  128.92800
 4650.00000    7.78140    7.78140   83.58460   86.49920   11.56080   51.45870   51.45870   20.51430   20.51430   11.56080  133.34540 -160.94590 -113.59700  133.34540
 4700.00000    7.75240    7.75240   87.17380   84.20700   11.87550   50.04580   50.04580   16.59360   16.59360   11.87550  105.75690 -169.71570 -122.55140  105.75690
 4750.00000    8.01830    8.01830   10.46750   14.13400   70.75160   51.22880   51.22880   20.76590   20.76590   70.75160  552.22850 -138.71510  -91.73410  552.22850
 4800.00000    7.99300    7.99300  276.10850  276.10850    3.62180   63.36620   63.36620   55.41460   55.41460    3.51570   18.93880 -129.73500  -82.93740   18.93880
 4850.00000    7.85570    7.85570  142.28500  143.82900    6.95270   57.97190   57.97190   37.15190   37.15190    6.95270   44.72370 -137.99410  -91.38110   44.72370
 4900.00000    8.36460    8.36460  169.66170  167.23250    5.97970   57.26020   57.26020   45.99100   45.99100    5.97970   11.71750  -95.04780  -48.61810   11.71750
 4950.00000    8.22720    8.22720   32.88030   39.87260   25.07990   52.05740   52.05740   28.74570   28.74570   25.07990  119.49440 -134.16920  -87.92410  119.49440
 5000.00000    7.95240    7.95240   27.02740   32.02060   31.22990   48.73710   48.73710   33.10100   33.10100   31.22990  257.95140 -144.40680  -98.34510  257.95140
 5050.00000    7.79080    7.79080   56.80130   61.19880   16.34020   57.78890   57.78890   20.30880   20.30880   16.34020   59.00600 -158.97760 -113.09920   59.00600
 5100.00000    8.03210    8.03210  110.19540  112.47080    8.89120   55.95890   55.95890   15.67010   15.67010    8.89120   67.13100 -170.56920 -124.87540   67.13100
 5150.00000    8.21800    8.21800   65.64200   70.28200   14.22840   54.56170   54.56170   43.86600   43.86600   14.22840   25.02060  -62.19370  -16.68330   25.02060
 5200.00000    8.29820    8.29820   56.23580   59.34510   16.85060   64.67980   64.67980   76.01300   76.01300   16.85060   18.74500  -48.24420   -2.91840   18.74500
 5250.00000    8.27440    8.27440  154.67570  152.27650    6.56700   78.78910   78.78910  108.57330  108.57330    6.56700    8.12610  -46.67450   -1.53200    8.12610
 5300.00000    8.48570    8.48570  162.28950  170.14620    5.87730   73.72580   73.72580  104.21280  104.21280    5.87730    8.13850  -52.08440   -7.12530    8.13850
 5350.00000    8.13220    8.13220  122.78680  124.96410    8.00230   69.63400   69.63400   84.31670   84.31670    8.00230   10.19910  -50.90290   -6.12840   10.19910
 5400.00000    8.37710    8.37710  127.28730  130.13380    7.68440   73.99500   73.99500  108.65460  108.65460    7.68440   10.38290  -52.64260   -8.05140   10.38290
 5450.00000    8.14170    8.14170  144.47630  152.28120    6.56680   74.76070   74.76070  110.79830  110.79830    6.56680    9.24000  -50.15260   -5.74600    9.24000
 5500.00000    8.25150    8.25150  138.05970  141.34680    7.07480   75.08290   75.08290  116.87630  116.87630    7.07480   10.19070  -47.14100   -2.91780   10.19070
 5550.00000    8.02920    8.02920   93.79320   98.32940   10.16990   69.95070   69.95070   99.25860   99.25860   10.16990   14.38120  -46.80530   -2.76540   14.38120
