~Version ---------------------------------------------------
VERS. 2.0 : CWLS log ASCII Standard -VERSION 2.0
WRAP.  NO : ONE LINE PER DEPTH STEP
~Well ------------------------------------------------------
STRT.FT                        950.0 : START DEPTH
STOP.FT                       9550.0 : STOP DEPTH
STEP.FT                     50.00000 : STEP LENGTH
NULL.                        -999.25 : NULL VALUE
COMP.  TENNESSE GAS TRANSMISSION CO. : COMPANY
WELL. TGT CALSTAN A1 BENT N 6-4-41-1 : WELL
FLD .                                : FIELD
LOC .                                : LOCATION
CTRY.                         CANADA : COUNTRY
SRVC.                   Schlumberger : SERVICE COMPANY
DATE.                    20-Jan-1961 : LOGDATE
LOC1.                                : LOCATION 1
SECT.                                : SECTION
TOWN.                                : TOWNSHIP
RNGE.                                : RANGE
PDAT.                                : PERM DATUM
EPD .                                : ELEVATION
LMF .                                : LOG MEASURED FROM
DMF .                                : DRILL MEASURED FROM
APD .                                : ABOVE PERM DATUM
EKB .                        2916.25 : ELEV-KELLY BUSHING.
EDF .                                : ELEV-DRILL FLOOR
EGL .                           2904 : ELEV-GROUND LEVEL
PROV.                        Alberta : PROVINCE
UWI .               100060404101W500 : UNIQUE WELL ID
SLAT.WGS84                  52.50008 : SURFACE LATITUDE
SLON.WGS84                 -114.0878 : SURFACE LONGITUDE
~Curve Information -----------------------------------------
DEPT  .FT                                  : DEPTH FEET
CALWS .IN                                  : CALIPER [MCALED]
CILDED.MMHO                                : CONDUCTIVITY FROM RESISTIVITY LOG
CONDWS.MMHO :   CONDUCTIVITY [1000/DRESWS] : CONDUCTIVITY [CILDED]
DRESWS.OHMM                                : DEEP RESISTIVITY [IF ILDED<1;1000/CILDED]
DTED  .US/F                                : DELTA TIME FROM SONIC LOG
DTWS  .US/F                                : DELTA TIME [DTED]
GRSED .UGRA_EQ                             : GAMMA RAY FROM SONIC LOG
GRWS  .GAPI                                : GAMMA RAY [GRSED*16.50]
ILDED .OHMM                                : INDUCTION LOG DEEP RESISTIVITY
MCALED.IN                                  : CALIPER MICROLOG
SNED  .OHMM                                : 16 INCH SHORT NORMAL RESISTIVITY FROM IEL
SPRED .MV                                  : SPONTANEOUS POTENTIAL FROM RESISTIVITY LOG
SPWS  .MV                                  : SPONTANEOUS POTENTIAL [BASELINE 0 MV] [SPRED]
SRESWS.OHMM                                : SHALLOW RESISTIVITY [SNED]
~Params ----------------------------------------------------
~Other -----------------------------------------------------
1. ALL CURVES APPEAR ON DEPTH, MUD DENSITY 10.4 PPG. DATA FROM 2" AND 5" IMAGES.
~ASCII -----------------------------------------------------
# ...
 8300.00000    9.13560    8.99730    7.04620  141.91980   56.51150   56.51150    3.20140   52.82310  141.91980    9.13560  148.31190  -34.93510  -18.38070  148.31190
 8350.00000    9.47480    9.25990    7.38980  135.32210   66.69010   66.69010    2.82090   46.54480  135.32210    9.47480   79.84360  -35.45480  -24.98290   79.84360
 8400.00000    9.84230    8.41660    6.06230  164.95390   53.70850   53.70850    1.52930   25.23350  164.95390    9.84230  130.23770  -14.08970   -9.70030  130.23770
 8450.00000   11.28740    8.07030    6.79620  147.14100   50.34150   50.34150    1.49140   24.60810  147.14100   11.28740  115.61930  -11.44530  -13.13850  115.61930
 8500.00000   14.19290    4.20930    3.49320  286.27090   57.56390   57.56390    0.94280   15.55620  286.27090   14.19290  106.21310  -58.29090  -66.06660  106.21310
 8550.00000   11.54190   11.67840    9.43340  106.00610   49.82670   49.82670    0.69110   11.40320  106.00610   11.54190   88.29880  -66.89450  -80.75280   88.29880
 8600.00000    8.18530    8.18390    6.84870  146.01300   51.15760   51.15760    0.63940   10.55010  146.01300    8.18530   87.19910 -122.29060 -142.23140   87.19910
 8650.00000   15.03210    9.17080    8.93160  111.96210   59.46890   59.46890    0.85780   14.15370  111.96210   15.03210   93.03460  -68.92470  -94.94800   93.03460
 8700.00000   11.07610    7.92810    5.49870  181.86000   54.12580   54.12580    0.99900   16.48350  181.86000   11.07610   87.19980  -13.42610  -45.53200   87.19980
 8750.00000    9.36120   52.81010   49.39300   20.24580   62.14580   62.14580    3.11650   51.42220   20.24580    9.36120   28.18680    2.75020  -35.43820   28.18680
 8800.00000   10.59320   11.14260    8.98510  111.29530   57.75540   57.75540    1.94560   32.10240  111.29530   10.59320   77.35840   21.70860  -22.56230   77.35840
 8850.00000    9.26320   29.46770   25.59020   39.07740   59.83910   59.83910    2.45590   40.52240   39.07740    9.26320   38.35960   44.16000   -5.07030   38.35960
 8900.00000    9.13040   24.52250   23.91970   41.80650   59.56580   59.56580    2.96420   48.90930   41.80650    9.13040   40.46570   31.69720  -16.12770   40.46570
 8950.00000   11.25640   12.56230    8.78160  113.87420   55.81030   55.81030    1.35600   22.37400  113.87420   11.25640   70.50330   35.37820  -11.04120   70.50330
 9000.00000    9.33210   10.08330    8.22650  121.55780   52.82650   52.82650    1.74460   28.78590  121.55780    9.33210  106.73990   40.40470   -4.46210  106.73990
 9050.00000    9.79730   25.98350   21.92340   45.61330   55.32060   55.32060    0.88640   14.62560   45.61330    9.79730   41.47470   -5.07960  -47.87190   41.47470
 9100.00000   10.85860    9.17000    5.23030  191.19490   74.50020   74.50020    1.02000   16.83000  191.19490   10.85860   87.95740  -20.90540  -61.62310   87.95740
 9150.00000    9.05350   11.88590    9.41170  106.25060   51.92200   51.92200    1.85360   30.58440  106.25060    9.05350   53.78790   11.75910  -26.88410   53.78790
 9200.00000    9.06370   16.27830   13.33220   75.00630   62.10850   62.10850    2.10240   34.68960   75.00630    9.06370   61.94320   32.62810   -3.44990   61.94320
 9250.00000    9.16040    7.17250    5.75670  173.70970   52.56640   52.56640    2.42610   40.03070  173.70970    9.16040   76.34550   30.22450   -1.81630   76.34550
 9300.00000    8.93470   40.62140   39.97030   25.01860   57.93890   57.93890    1.67530   27.64250   25.01860    8.93470   22.75940   14.65030  -13.35330   22.75940
 9350.00000    9.02900   28.59290   23.24740   43.01560   56.21840   56.21840    -999.25    -999.25   43.01560    9.02900   46.22810   11.44490  -12.52150   46.22810
 9400.00000    8.95720  189.25200  190.39640    5.25220    -999.25    -999.25    -999.25    -999.25    5.25220    8.95720    8.92510  -57.09300  -77.02210    8.92510
 9450.00000    9.03860   76.69280   83.92360   11.91560    -999.25    -999.25    -999.25    -999.25   11.91560    9.03860   16.72960  -17.53190  -33.42380   16.72960
 9500.00000    8.94290   38.25540   36.78130   27.18770    -999.25    -999.25    -999.25    -999.25   27.18770    8.94290   20.69530  -35.94520  -47.79990   20.69530
 9550.00000    8.95330   35.32260   33.11310   30.19950    -999.25    -999.25    -999.25    -999.25   30.19950    8.95330   32.40200    5.22480   -3.03680   32.40200
