~Version ---------------------------------------------------
VERS.      2.0 : CWLS log ASCII Standard -VERSION 2.0
WRAP.       NO : One line per depth step
CREA. 07/27/17 : LAS Creation Date
~Well ------------------------------------------------------
STRT.FT                1200.0 : START DEPTH
STOP.FT               11450.0 : STOP DEPTH
STEP.FT              50.00000 : STEP LENGTH
NULL.                 -999.25 : NULL VALUE
COMP. TRIAD OIL COMPANY, LTD. : COMPANY
WELL.   TRIAD ANTE 11-2-66-25 : WELL
FLD .                         : FIELD
LOC .                         : LOCATION
CTRY.                  CANADA : COUNTRY
SRVC.  Schlumberger of Canada : SERVICE COMPANY
DATE.             07-Apr-1966 : LOGDATE
PROV.                 Alberta : PROVINCE
UWI .        100110206625W500 : UNIQUE WELL ID
SLAT.WGS84           54.68518 : SURFACE LATITUDE
SLON.WGS84           -117.671 : SURFACE LONGITUDE
~Curve Information -----------------------------------------
DEPT  .FT    : Depth Curve
CALWS .IN    : CALIPER [MCALED]
CILDED.MMHO  : DEEP INDUCTION CONDUCTIVITYFROM RESISTIVITY LOG
CONDWS.MMHO  : CONDUCTIVITY [1000/DRESWS]
DRESWS.OHMM  : DEEP RESISTIVITY [1000/CILDED IF ILDED<1.5, ILDED]
DTED  .US/F  : DELTA-T FROM SONIC LOG
DTWS  .US/F  : COMPRESSIONAL SONIC [DTED]
GRSED .GAPI  : GAMMA RAY FROM SONIC LOG
GRWS  .GAPI  : GAMMA RAY [GRSED]
ILDED .OHMM  : DEEP INDUCTIONFROM RESISTIVITY LOG
MCALED.IN    : CALIPER MICROLOG
SNED  .OHMM  : 16 INCH SHORT NORMAL RESISTIVITY FROM IEL
SPRED .MV    : SPONTANEOUS POTENTIALFROM RESISTIVITY LOG
SPWS  .MV    : SPONTANEOUS POTENTIAL [BASELINE 0 MV, SPRED]
SRESWS.OHMM  : SHALLOW RESISTIVITY [SNED]
~Params ----------------------------------------------------
PD  .                     GL : PERMANENT DATUM
EPD .FT               2586.5 : ELEVATION PERMANENT DATUM
LMF .                     KB : LOG MEASURED FROM
DAPD.FT                 13.5 : FEET ABOVE PERMANENT DATUM
EKB .FT               2600.3 : KELLY BUSHING
EGL .FT               2586.5 : GROUND LEVEL
DATE.               04/07/66 : RUN DATE
RUN .                      2 : RUN NUMBER
DD  .FT                11487 : DEPTH DRILLER
DL  .FT                11346 : DEPTH LOGGER
BLI .FT                11488 : BOTTOM LOG INTERVAL
TLI .FT                11485 : TOP LOG INTERVAL
CBD .FT                 1162 : CASING BOTTOM DRILLER
CBL .FT                 1158 : CASING BOTTOM LOGGER
BS  .IN                8.625 : BIT SIZE
BSD .FT                11487 : BIT SIZE AT DEPTH
DFT .               GEL CHEM : DRILLING FLUID TYPE
DFD .                    9.4 : DRILLING FLUID DENSITY
DFV .                     11 : DRILLING FLUID VISCOSITY
DFPH.                    8.5 : DRILLING FLUID PH
DFL .                     11 : DRILLING FLUID LOSS
RMS .OHMM                0.6 : RESISTIVITY MUD SAMPLE
MST .DEGF                 60 : MUD SAMPLE TEMPERATURE
RMF .OHMM               0.41 : RESISTIVITY MUD FILTRATE SAMPLE
MFST.DEGF                 63 : MUD FILTRATE SAMPLE TEMPERATURE
RMC .OHMM               0.66 : RESISTIVITY MUD CAKE
MCST.DEGF                 62 : MUD CAKE SAMPLE TEMPERATURE
RMB .OHMM              0.095 : RESISTIVITY MUD AT BHT
TCS .HRS                 3.5 : TIME CIRCULATED STOPPED
LUN .                   3705 : LOGGING UNIT NUMBER
LUL .                    EDM : LOGGING UNIT LOCATION
ENGI.              BLACKBURN : RECORDING ENGINEER
WITN.                  GOGAL : WITNESSED BY
CLNT.                A2DTECH : CLIENT CODE
ORIG.            2" 5" PRINT : ORIGIN OF DATA
UWI .       100110206625W500 : UNIQUE WELL ID
DICO. A2D Technologies, Inc. : DIGITIZING COMPANY
~Other -----------------------------------------------------
~ASCII -----------------------------------------------------
# ...
 8550.00000    9.78810   44.25540   47.00660   21.27360   56.50340   56.50340   34.27210   34.27210   21.27360    9.78810   29.34960  -72.60060  -51.93250   29.34960
 8600.00000    9.87190   15.29270   20.05740   49.85690   53.33010   53.33010   32.80640   32.80640   49.85690    9.87190   46.36570  -77.38740  -55.99450   46.36570
 8650.00000    9.68010   23.87470   24.94220   40.09270   55.32020   55.32020   36.88470   36.88470   40.09270    9.68010   37.12070  -81.75770  -59.64470   37.12070
 8700.00000    9.98250   30.98490   33.72280   29.65380   56.75270   56.75270   43.70090   43.70090   29.65380    9.98250   32.78440  -72.28110  -49.44100   32.78440
 8750.00000   10.22930   61.86360   66.32220   15.07790   61.84240   61.84240   66.26020   66.26020   15.07790   10.22930   21.47650  -71.97710  -48.41930   21.47650
 8800.00000   10.13130   42.27630   44.74110   22.35080   59.13430   59.13430   58.44620   58.44620   22.35080   10.13130   26.35380  -65.10890  -40.83100   26.35380
 8850.00000    9.92600   23.09380   25.46010   39.27720   55.36870   55.36870   37.96100   37.96100   39.27720    9.92600   41.26040  -63.53310  -38.53050   41.26040
 8900.00000   10.09730   17.87320   20.72420   48.25270   56.63830   56.63830   30.10150   30.10150   48.25270   10.09730   41.88870  -66.14620  -40.42350   41.88870
 8950.00000   13.74440   46.52530   49.39650   20.24840   54.22570   54.22570   18.81660   18.81660   20.24840   13.74440   34.47880  -97.89190  -71.44200   34.47880
 9000.00000   11.67490   16.38430   19.18730   52.11790   49.53990   49.53990   16.78120   16.78120   52.11790   11.67490   76.94790  -94.15510  -66.98760   76.94790
 9050.00000   10.32930    8.04190   10.13130   98.70400   48.80820   48.80820   13.30290   13.30290   98.70400   10.32930   65.77530 -102.09630  -74.20870   65.77530
 9100.00000   11.45640    7.20010    9.26660  107.91500   48.97450   48.97450   16.26660   16.26660  107.91500   11.45640   68.82860 -115.46370  -86.85130   68.82860
 9150.00000   11.01200    6.28690    8.07760  123.79950   49.35660   49.35660    9.57290    9.57290  123.79950   11.01200   68.48760 -122.06780  -92.73540   68.48760
 9200.00000   12.10450    8.11330   10.91060   91.66470   48.77820   48.77820    9.82260    9.82260   91.66470   12.10450   64.08700 -119.37450  -89.31490   64.08700
 9250.00000   12.07470    6.44320    7.94810  125.81670   50.08610   50.08610   14.61360   14.61360  125.81670   12.07470   56.84040 -132.75560 -101.97830   56.84040
 9300.00000    9.96090   15.95150   20.05100   49.87270   49.52460   49.52460    7.31800    7.31800   49.87270    9.96090   49.54360 -160.64950 -129.15220   49.54360
 9350.00000    9.89950   20.15570   22.50450   44.43550   49.42060   49.42060    8.01360    8.01360   44.43550    9.89950   46.88700 -170.82750 -138.60540   46.88700
 9400.00000   11.61500    7.29820    8.62810  115.90040   48.48860   48.48860   11.26580   11.26580  115.90040   11.61500   81.23120 -146.14690 -113.20470   81.23120
 9450.00000   10.24880    7.03140    8.30350  120.43320   48.91130   48.91130   10.61250   10.61250  120.43320   10.24880   61.92650 -126.36630  -92.69700   61.92650
 9500.00000   10.81440    5.94810    7.23400  138.23540   48.93800   48.93800   10.85330   10.85330  138.23540   10.81440   77.18700 -109.30500  -74.91800   77.18700
 9550.00000   11.06250    7.74390   10.04470   99.55460   48.97220   48.97220    9.40780    9.40780   99.55460   11.06250   78.92440 -117.85230  -82.74520   78.92440
 9600.00000   10.33010    5.91440    6.43090  155.49980   48.81070   48.81070    9.49270    9.49270  155.49980   10.33010   77.65590 -132.12600  -96.29410   77.65590
 9650.00000   10.44730    6.09900    6.43350  155.43740   49.24490   49.24490    8.32290    8.32290  155.43740   10.44730   79.78780 -158.78840 -122.23650   79.78780
 9700.00000    9.57140   14.99690   18.80480   53.22620   49.42780   49.42780   10.88670   10.88670   53.22620    9.57140   50.37780 -148.24540 -110.96630   50.37780
 9750.00000    8.97380   43.20410   44.97250   22.23580   50.77440   50.77440    7.86850    7.86850   22.23580    8.97380   39.31450 -153.25530 -115.25850   39.31450
 9800.00000    9.46310   20.17650   20.07520   49.81280   50.00600   50.00600    8.46620    8.46620   49.81280    9.46310   49.84560 -150.34480 -111.62800   49.84560
 9850.00000    8.69290   19.66080   21.68380   46.11740   49.04690   49.04690   13.70990   13.70990   46.11740    8.69290   44.07430 -182.59740 -143.15580   44.07430
 9900.00000    8.49400    6.13180    6.13800  162.91980   47.63650   47.63650   14.31290   14.31290  162.91980    8.49400   55.39400 -191.52400 -151.36230   55.39400
 9950.00000   11.92020   20.13610   23.17550   43.51530   49.48900   49.48900   11.35680   11.35680   43.51530   11.92020   39.75200 -185.17570 -144.28690   39.75200
 10000.00000   13.67420   64.76710   68.75830   14.54370   52.23340   52.23340   18.77840   18.77840   14.54370   13.67420   51.59300 -177.64180 -136.03530   51.59300
 10050.00000    9.52500   12.55570   15.37780   65.02860   50.19980   50.19980   21.79960   21.79960   65.02860    9.52500   49.07120 -148.84420 -106.51760   49.07120
 10100.00000   10.43790   11.04380   13.46330   74.27610   50.33550   50.33550   17.28170   17.28170   74.27610   10.43790   68.91770 -137.14910  -94.09770   68.91770
 10150.00000    9.47720    9.28470   12.04390   83.02940   50.70720   50.70720   17.92550   17.92550   83.02940    9.47720   60.13190 -139.91150  -96.14010   60.13190
 10200.00000    9.49020   10.48710   12.49570   80.04300   51.81050   51.81050   26.68310   26.68310   80.04300    9.49020   51.07720 -140.72590  -96.22730   51.07720
 10250.00000    9.59160   18.33750   19.81300   50.47390   53.52340   53.52340   29.52030   29.52030   50.47140    9.59160   49.54210 -130.86900  -85.65270   49.54210
 10300.00000    9.45270   21.88360   23.28660   42.94320   54.06780   54.06780   34.20790   34.20790   42.94320    9.45270   39.77710 -140.16110  -94.22480   39.77710
 10350.00000    9.50400   28.77110   30.71550   32.55680   55.76140   55.76140   27.76490   27.76490   32.55680    9.50400   37.28070 -146.33180  -99.67070   37.28070
 10400.00000    9.53110   21.26450   22.68220   44.08740   54.89510   54.89510   32.22350   32.22350   44.08740    9.53110   47.00900 -115.94800  -68.56680   47.00900
 10450.00000   10.72150  267.70420  275.30680    3.63820   73.57300   73.57300   85.80010   85.80010    3.63820   10.72150   13.44310 -132.41960  -84.31130   13.44310
 10500.00000   10.45840  282.07720  287.84430    3.47410   72.96400   72.96400   75.84620   75.84620    3.47410   10.45840   11.17080 -126.78890  -77.96290   11.17080
 10550.00000   13.75870  350.21480  355.56820    2.81240   74.20000   74.20000   64.03140   64.03140    2.81240   13.75870   10.27460 -140.57680  -91.03070   10.27460
 10600.00000   12.59930  376.06530  383.99510    2.60420   79.47710   79.47710   73.67010   73.67010    2.60420   12.59930   10.11180 -148.40030  -98.12940   10.11180
 10650.00000   10.49920  153.36520  158.17030    6.32230   63.11760   63.11760   53.72280   53.72280    6.32230   10.49920   13.91920 -156.58230 -105.59140   13.91920
 10700.00000   10.24880  140.34430  143.86270    6.95390   64.91740   64.91740   63.70150   63.70150    6.95390   10.24880   15.32000 -123.72010  -72.00200   15.32000
 10750.00000   11.13720  185.60140  192.47060    5.19560   69.21190   69.21190   86.81800   86.81800    5.19560   11.13720   13.10540 -120.15160  -67.71580   13.10540
 10800.00000   10.62820  217.81700  222.73700    4.48960   70.03150   70.03150   85.71790   85.71790    4.48960   10.62820   12.63700 -139.30940  -86.15360   12.63700
 10850.00000    9.98380  184.06990  187.03820    5.34650   67.94160   67.94160   76.75270   76.75270    5.34650    9.98380   13.52440 -141.88750  -88.00690   13.52440
 10900.00000   10.27840  303.29350  311.52650    3.21000   70.03830   70.03830   68.82860   68.82860    3.21000   10.27840   11.33530 -167.89900 -113.29830   11.33530
 10950.00000   12.39910  438.03280  446.57860    2.23960   79.93890   79.93890  102.62750  102.62750    2.23960   12.39910   10.24810 -151.44130  -96.11350   10.24810
