~Version ---------------------------------------------------
VERS.      2.0 : CWLS log ASCII Standard -VERSION 2.0
WRAP.       NO : One line per depth step
CREA. 12/20/17 : LAS Creation Date
~Well ------------------------------------------------------
STRT.FT                    300.0 : START DEPTH
STOP.FT                   9750.0 : STOP DEPTH
STEP.FT                 50.00000 : STEP LENGTH
NULL.                    -999.25 : NULL VALUE
COMP.     PHILLIPS PETROLEUM CO. : COMPANY
WELL. PHILLIPS KAYBOB 2-15-64-19 : WELL
FLD .                            : FIELD
LOC .                            : LOCATION
CTRY.                     CANADA : COUNTRY
SRVC.                    Unknown : SERVICE COMPANY
DATE.                28-Jul-1959 : LOGDATE
PROV.                    Alberta : PROVINCE
UWI .           100021506419W500 : UNIQUE WELL ID
SLAT.WGS84              54.53255 : SURFACE LATITUDE
SLON.WGS84             -116.7821 : SURFACE LONGITUDE
~Curve Information -----------------------------------------
DEPT  .FT    : Depth Curve
CALWS .IN    : CALIPER [MCALED]
CONDWS.MMHO  : CONDUCTIVITY [1000/DRESWS]
DRESWS.OHMM  : DEEP RESISTIVITY [LAT9ED]
GRED  .CU    : GAMMA RAY FROM GR LOG, DEPTH ADJUSTED WITH [SPRED]
GRNED .CPS   : GAMMA RAY FROM NEUTRON LOG, DEPTH ADJUSTED WITH [SPRED]
GRWS  .CPS   : GAMMA RAY [GRNED], SPLICED WITH [GRED] FROM TOP-1186'
LAT9ED.OHMM  : LATERAL 9' FROM RES. LOG
LT16ED.OHMM  : LATERAL 16' FROM RES. LOG
MCALED.IN    : CALIPER FROM MICROLOG
NEUTED.CPS   : NEUTRON FROM NEUTRON LOG, DEPTH ADJUSTED WITH [SPRED]
NEUTWS.CPS   : NEUTRON [NEUED]
SNED  .OHMM  : 16 INCH SHORT NORMAL RESISTIVITY FROM IEL
SPRED .MV    : SPONTANEOUS POTENTIAL FROM RESISTIVITY LOG
SPWS  .MV    : SPONTANEOUS POTENTIAL [BASELINE 0 MV] [SPRED]
SRESWS.OHMM  : SHALLOW RESISTIVITY [SNED]
~Params ----------------------------------------------------
PD  .                    CSG : PERMANENT DATUM
LMF .                     KB : LOG MEASURED FROM
DMF .                     KB : DRILLING MEASURED FROM
EKB .FT                 2446 : KELLY BUSHING
EDF .FT                 2443 : DRILLING FLOOR
EGL .FT                 2433 : GROUND LEVEL
DATE.               07/28/59 : RUN DATE
RUN .                      1 : RUN NUMBER
DD  .FT                 9800 : DEPTH DRILLER
DL  .FT                 9799 : DEPTH LOGGER
BLI .FT                 9798 : BOTTOM LOG INTERVAL
TLI .FT                 1276 : TOP LOG INTERVAL
CS  .IN                9.625 : CASING SIZE
CBD .FT                 1266 : CASING BOTTOM DRILLER
CBL .FT                 1276 : CASING BOTTOM LOGGER
BS  .IN                7.875 : BIT SIZE
BSD .FT                 9800 : BIT SIZE AT DEPTH
DFT .   OIL EMULSION AQUAGEL : DRILLING FLUID TYPE
DFD .                   10.7 : DRILLING FLUID DENSITY
DFV .                    110 : DRILLING FLUID VISCOSITY
DFPH.                   10.5 : DRILLING FLUID PH
DFL .                    4.6 : DRILLING FLUID LOSS
RMS .OHMM                2.6 : RESISTIVITY MUD SAMPLE
MST .DEGF                 58 : MUD SAMPLE TEMPERATURE
RMF .OHMM                2.1 : RESISTIVITY MUD FILTRATE SAMPLE
MFST.DEGF                 58 : MUD FILTRATE SAMPLE TEMPERATURE
RMC .OHMM                3.4 : RESISTIVITY MUD CAKE
MCST.DEGF                 58 : MUD CAKE SAMPLE TEMPERATURE
RMB .OHMM               0.84 : RESISTIVITY MUD AT BHT
LUN .                   6101 : LOGGING UNIT NUMBER
ENGI.                 FOWLER : RECORDING ENGINEER
WITN.        HANKINS JACKSON : WITNESSED BY
CLNT.                A2DTECH : CLIENT CODE
ORIG.            2" 5" PRINT : ORIGIN OF DATA
UWI .       100021506419W500 : UNIQUE WELL ID
DICO. A2D Technologies, Inc. : DIGITIZING COMPANY
~Other -----------------------------------------------------
~ASCII -----------------------------------------------------
# ...
 2600.00000    9.84430  157.45060    6.35120    -999.25   72.89900   72.89900    6.35120    6.29860    9.84430  328.95900  328.95900    3.09650  -98.34030   -6.45840    3.09650
 2650.00000    8.78990  121.15630    8.25380    -999.25   84.91230   84.91230    8.25380    6.43440    8.78990  320.49030  320.49030    8.60590  -99.69640   -7.73360    8.60590
 2700.00000    9.82540  239.91240    4.17060    -999.25   84.44700   84.44700    4.17060    4.15080    9.82540  327.51000  327.51000    3.37870  -97.82410   -5.78610    3.37870
 2750.00000   10.25310  115.77960    8.63710    -999.25   91.74000   91.74000    8.63710    7.38550   10.25310  301.21300  301.21300    4.86580 -102.24960  -10.37370    4.86580
 2800.00000   10.39860  119.44860    8.37180    -999.25   89.13390   89.13390    8.37180    7.39150   10.39860  284.19440  284.19440    4.90060 -102.69950  -10.98660    4.90060
 2850.00000   10.53630  124.16650    8.05370    -999.25  108.07760  108.07760    8.05370    7.41310   10.53630  283.38430  283.38430    4.98110 -100.40000   -8.85010    4.98110
 2900.00000    9.82170   89.19490   11.21140    -999.25  109.90490  109.90490   11.21140    8.02140    9.82170  323.77640  323.77640    8.25620 -101.21830   -9.83130    8.25620
 2950.00000   10.63030   94.04870   10.63400    -999.25  107.06910  107.06910   10.63400   10.21180   10.63030  293.86620  293.86620    6.02450 -100.42820   -9.20500    6.02450
 3000.00000   10.78520   94.10260   10.62670    -999.25   98.82190   98.82190   10.62670    8.26920   10.78520  296.52140  296.52140    5.64070 -101.14880  -10.08780    5.64070
 3050.00000   10.18900  151.93870    6.58160    -999.25   92.85660   92.85660    6.58160    5.71190   10.18900  294.36910  294.36910    4.66060 -102.51260  -11.61460    4.66060
 3100.00000    9.36680  123.28180    8.11150    -999.25   93.04950   93.04950    8.11150    7.07030    9.36680  310.90770  310.90770    7.50340 -102.97110  -12.23600    7.50340
 3150.00000   11.38250   66.22910   15.09910    -999.25   89.17740   89.17740   15.09910    8.51300   11.38250  322.51000  322.51000    7.28520 -102.77440  -12.20230    7.28520
 3200.00000   11.36330  128.04880    7.80990    -999.25  111.54870  111.54870    7.80990    7.16960   11.36330  308.52300  308.52300    4.94480 -101.73380  -11.32540    4.94480
 3250.00000   11.89270  121.16220    8.25340    -999.25  112.26880  112.26880    8.25340    7.49250   11.89270  301.90490  301.90490    3.88060 -102.04620  -11.80000    3.88060
 3300.00000   11.41560  152.52040    6.55650    -999.25  109.21560  109.21560    6.55650    5.62900   11.41560  319.81390  319.81390    4.04600 -102.53080  -12.44760    4.04600
 3350.00000   11.27220  117.74540    8.49290    -999.25  108.80360  108.80360    8.49290    8.12760   11.27220  318.66880  318.66880    4.80690 -103.06890  -13.14870    4.80690
 3400.00000   11.56360  141.63300    7.06050    -999.25  100.79040  100.79040    7.06050    6.38940   11.56360  343.73160  343.73160    5.54730 -103.50160  -13.74440    5.54730
 3450.00000   11.79550   77.34300   12.93270    -999.25  110.90240  110.90240   12.93270   11.42670   11.79550  308.27270  308.27270    6.54990 -101.55300  -11.95960    6.54990
 3500.00000   11.42310  102.51990    9.75420    -999.25  112.54520  112.54520    9.75420   10.97320   11.42310  311.56400  311.56400    6.21690 -101.96690  -12.53560    6.21690
 3550.00000   11.43560   98.89040   10.11220    -999.25   99.99690   99.99690   10.11220    8.61270   11.43560  293.65180  293.65180    5.37820 -102.73540  -13.46710    5.37820
 3600.00000   11.11580   98.91100   10.11010    -999.25  103.97910  103.97910   10.11010    9.05260   11.11580  280.62890  280.62890    5.13780 -102.45860  -13.35320    5.13780
 3650.00000   10.80250  136.66990    7.31690    -999.25  102.60770  102.60770    7.31690    6.15920   10.80250  297.60570  297.60570    4.98230  -99.67880  -10.73640    4.98230
 3700.00000   10.72720  125.50120    7.96810    -999.25  104.45490  104.45490    7.96810    6.44280   10.72720  412.84950  412.84950    4.88860  -96.78540   -8.00690    4.88860
 3750.00000   10.21530   97.65530   10.24010    -999.25  108.44980  108.44980   10.24010    8.15810   10.21530  387.41460  387.41460    6.37970  -97.32700   -8.71060    6.37970
 3800.00000    9.83230  108.16420    9.24520    -999.25  106.37840  106.37840    9.24520    7.57260    9.83230  417.45030  417.45030    6.44690  -96.89130   -8.43780    6.44690
 3850.00000    9.17840   83.55270   11.96850    -999.25  122.65130  122.65130   11.96850    8.70150    9.17840  422.29870  422.29870    9.16520  -96.90370   -8.61320    9.16520
 3900.00000    8.89030   93.83240   10.65730    -999.25  129.14670  129.14670   10.65730    9.07040    8.89030  456.91460  456.91460    8.95260  -97.61940   -9.49190    8.95260
 3950.00000    9.64110   93.56220   10.69060    -999.25  105.85550  105.85550   10.69060    8.78480    9.64110  387.02440  387.02440    6.47910  -97.99310  -10.02940    6.47910
 4000.00000    9.33010  101.67870    9.83490    -999.25  108.07970  108.07970    9.83490    5.37360    9.33010  387.79550  387.79550    6.22530  -97.80450  -10.00290    6.22530
 4050.00000    9.70930  150.30590    6.65310    -999.25   98.33770   98.33770    6.65310    4.50720    9.70930  400.58820  400.58820    6.05300  -97.10440   -9.46580    6.05300
 4100.00000    9.73370  105.41850    9.48600    -999.25  107.61750  107.61750    9.48600    7.96110    9.73370  403.17880  403.17880    4.52110  -95.01390   -7.53830    4.52110
 4150.00000    9.82470  137.68420    7.26300    -999.25  105.93450  105.93450    7.26300    5.86490    9.82470  323.92990  323.92990    5.18540  -95.15250   -7.83980    5.18540
 4200.00000    9.90270  138.49510    7.23870    -999.25  100.43000  100.43000    7.23870    5.20390    9.90270  456.89070  456.89070    5.94490  -94.88210   -7.73320    5.94490
 4250.00000   10.53930  135.89170    7.35880    -999.25  100.20140  100.20140    7.35880    6.52990   10.53930  406.39050  406.39050    4.70470  -96.50070   -9.51400    4.70470
 4300.00000   10.83300  235.82120    4.24050    -999.25   99.95690   99.95690    4.24050    3.10440   10.83300  370.78850  370.78850    2.61700  -97.13660  -10.31290    2.61700
 4350.00000   10.66560  208.37240    4.79910    -999.25   97.72050   97.72050    4.79910    3.99470   10.66560  317.31680  317.31680    3.73080  -97.67240  -11.01160    3.73080
 4400.00000   11.06990  178.66400    5.59710    -999.25  103.39910  103.39910    5.59710    4.11950   11.06990  397.79560  397.79560    3.07170  -96.10120   -9.60340    3.07170
 4450.00000   10.69800 1189.80640    0.87840    -999.25   93.49200   93.49200    0.87840    1.23370   10.69800  425.78640  425.78640    1.08000  -93.92000   -7.58600    1.08000
 4500.00000   10.59100  535.47520    1.86750    -999.25   94.85010   94.85010    1.86750    1.41880   10.59100  355.67870  355.67870    1.45400  -95.12790   -8.95600    1.45400
 4550.00000   10.87130  212.82030    4.69880    -999.25   94.58960   94.58960    4.69880    3.82900   10.87130  325.98400  325.98400    2.88340  -95.32580   -9.31690    2.88340
 4600.00000   11.02430  273.83010    3.65190    -999.25  101.19690  101.19690    3.65190    3.34190   11.02430  366.47310  366.47310    3.17090  -96.05640  -10.21050    3.17090
 4650.00000    9.99070   68.83020   14.52850    -999.25   89.27020   89.27020   14.52850   10.37680    9.99070  399.68780  399.68780   10.40470  -98.25250  -12.56960   10.40470
 4700.00000   10.28110  838.64320    1.19250    -999.25   88.65800   88.65800    1.19250    1.06940   10.28110  383.95290  383.95290    1.64510  -94.78400   -9.26480    1.64510
 4750.00000    9.83810  128.51650    7.78110    -999.25   90.13620   90.13620    7.78110   10.16130    9.83810  383.68890  383.68890   11.42220  -94.48930   -9.13230   11.42220
 4800.00000    9.86120   58.99910   16.94940    -999.25   92.79500   92.79500   16.94940   14.08900    9.86120  421.72840  421.72840    8.71230  -86.83990   -1.64590    8.71230
 4850.00000   10.04430   40.73350   24.54980    -999.25   95.16220   95.16220   24.54980   33.44490   10.04430  389.41420  389.41420   10.86200  -93.31910  -11.35550   10.86200
