~Version ---------------------------------------------------
VERS. 2.0 : CWLS log ASCII Standard -VERSION 2.0
WRAP.  NO : ONE LINE PER DEPTH STEP
~Well ------------------------------------------------------
STRT.F                             1150.0 : START DEPTH
STOP.F                            11550.0 : STOP DEPTH
STEP.F                           50.00000 : STEP LENGTH
NULL.                             -999.25 : NULL VALUE
COMP.    AMOCO CANADA PETROLEUM CO., LTD. : COMPANY
WELL. AMOCO HB FINA SOUTH FORK 10-8-59-19 : WELL
FLD .                                     : FIELD
LOC .                                     : LOCATION
CTRY.                              CANADA : COUNTRY
SRVC.                        Schlumberger : SERVICE COMPANY
DATE.                         10-Oct-1977 : LOGDATE
PROV.                             Alberta : PROVINCE
UWI .                    100100805919W500 : UNIQUE WELL ID
SLAT.WGS84                       54.08913 : SURFACE LATITUDE
SLON.WGS84                      -116.8085 : SURFACE LONGITUDE
~Curve Information -----------------------------------------
DEPT   .F                 : 
GRD    .GAPI 45 310 01 00 : GAMMA RAY FROM DENSITY LOG
CALD   .IN   45 280 60 00 : CALIPER FROM DENSITY LOG
DCOR   .G/C3 45 356 01 00 : DENSITY CORRECTION
NPHI_SS.DEC  42 890 03 00 : NEUTRON POROSITY SANDSTONE
DPHI_SS.DEC  45 890 12 00 : DENSITY POROSITY SANDSTONE
ILD    .OHMM 07 120 46 00 : INDUCTION DEEP RESISTIVITY
ILM    .OHMM 07 120 44 00 : INDUCTION MEDIUM RESISTIVITY
LL8    .OHMM 07 220 08 00 : LATEROLOG 8
SPR    .MV   07 010 01 00 : SPONTANEOUS POTENTIAL FROM RESISTIVITY LOG
GRS    .GAPI 60 310 01 00 : GAMMA RAY FROM SONIC LOG
DT     .US/F 60 500 00 00 : DELTA-T (INTERVAL TRANSIT TIME)
CALS   .IN   60 280 50 00 : CALIPER FROM SONIC LOG
RHOB   .G/C3 45 350 01 00 : BULK DENSITY
NPHI_LS.DEC  42 890 01 00 : NEUTRON POROSITY LIMESTONE
DPHI_LS.DEC  45 890 10 00 : DENSITY POROSITY LIMESTONE
~Params ----------------------------------------------------
PD  .                     GL : PERMANENT DATUM
EPD .FT                 2976 : ELEVATION PERMANENT DATUM
LMF .                     KB : LOG MEASURED FROM
DAPD.FT                 20.7 : FEET ABOVE PERMANENT DATUM
EKB .FT               2996.7 : KELLY BUSHING
EGL .FT                 2976 : GROUND LEVEL
DATE.               10/10/77 : RUN DATE
RUN .                      1 : RUN NUMBER
DD  .FT                11577 : DEPTH DRILLER
DL  .FT                11569 : DEPTH LOGGER
BLI .FT                11563 : BOTTOM LOG INTERVAL
TLI .FT                 1534 : TOP LOG INTERVAL
CBD .FT                 1535 : CASING BOTTOM DRILLER
CBL .FT                 1534 : CASING BOTTOM LOGGER
BS  .IN                 8.75 : BIT SIZE
BSD .FT                11577 : BIT SIZE AT DEPTH
DFT .                    GEL : DRILLING FLUID TYPE
DFD .                      9 : DRILLING FLUID DENSITY
DFV .                     80 : DRILLING FLUID VISCOSITY
DFPH.                    8.5 : DRILLING FLUID PH
DFL .                    8.8 : DRILLING FLUID LOSS
MSS .               FLOWLINE : MUD SAMPLE SOURCE
RMS .OHMM               2.24 : RESISTIVITY MUD SAMPLE
MST .DEGF                 54 : MUD SAMPLE TEMPERATURE
RMF .OHMM               1.98 : RESISTIVITY MUD FILTRATE SAMPLE
MFST.DEGF                 64 : MUD FILTRATE SAMPLE TEMPERATURE
TCS .HRS                   3 : TIME CIRCULATED STOPPED
LUN .                   7772 : LOGGING UNIT NUMBER
LUL .                    EDM : LOGGING UNIT LOCATION
ENGI.         BERNISKY TRACY : RECORDING ENGINEER
WITN.                 NEWELL : WITNESSED BY
CLNT.                A2DTECH : CLIENT CODE
ORIG.            2" 5" PRINT : ORIGIN OF DATA
UWI .       100100805919W500 : UNIQUE WELL ID
DICO. A2D Technologies, Inc. : DIGITIZING COMPANY
~Other -----------------------------------------------------
~ASCII -----------------------------------------------------
# ...
 3450.00000   61.02840    9.27400    0.11670    0.33920    0.14780    7.98260    8.61340    8.24820 -102.87880   76.83690   82.74380    8.97920    2.48510    -999.25    -999.25
 3500.00000   60.18270    9.52640    0.19700    0.30100    0.22290    8.92170    9.89350    8.33560 -107.22220   58.00320   80.87160    9.19870    2.34320    -999.25    -999.25
 3550.00000   86.21450   11.09200    0.08550    0.38850    0.20010    4.14770    4.61350    4.36390 -108.60820   86.62250   95.85100    9.17050    2.33410    -999.25    -999.25
 3600.00000   81.01600   10.27320    0.14000    0.42100    0.15390    5.30970    5.86410    5.63570 -103.84840   77.95750   94.39400    9.10060    2.38320    -999.25    -999.25
 3650.00000   54.65760    8.96450    0.00350    0.27280    0.14230   11.71930   12.52540   13.06980 -103.35640   51.50380   77.48210    9.29100    2.41170    -999.25    -999.25
 3700.00000   50.90020    9.18550    0.02740    0.31350    0.13070   13.89700   14.14040   15.54620 -104.80170   63.70080   77.69000    9.07830    2.43220    -999.25    -999.25
 3750.00000   85.93990   10.54860    0.25110    0.42700    0.30550    5.65160    6.03090    5.24760 -101.97400   82.07000   92.51810    9.23270    2.14450    -999.25    -999.25
 3800.00000   64.55100   10.23470    0.26610    0.28420    0.26120    6.91440    7.41360    6.75230 -101.63090   61.94910   80.19410    9.26080    2.30310    -999.25    -999.25
 3850.00000   57.60360    9.22070    0.09800    0.38710    0.08200    7.38250    7.73150    6.96330 -105.40260   67.47810   85.33000    8.61410    2.54340    -999.25    -999.25
 3900.00000   80.58900    9.46630    0.15370    0.39200    0.06430    5.59700    5.87170    5.16490 -107.42480   72.04630   90.32250    8.41370    2.52180    -999.25    -999.25
 3950.00000   84.16540    9.59900    0.13930    0.40840    0.13170    5.54190    6.10220    5.82650 -108.88250   81.09630   84.06140    8.85590    2.37860    -999.25    -999.25
 4000.00000   37.14920    9.00220    0.13930    0.25750    0.08660   37.13870   40.51120   43.41100 -128.07160   35.84030   74.85210    8.68750    2.49910    -999.25    -999.25
 4050.00000   46.47250    8.62090    0.08830    0.28290    0.15630   20.66030   21.51750   19.79340 -127.61840   37.55500   80.61650    8.23030    2.42430    -999.25    -999.25
 4100.00000   78.91900   10.52360    0.13730    0.39450    0.21800    7.03610    7.96100    7.56670 -113.28510   82.67330   88.91090    9.04050    2.38090    -999.25    -999.25
 4150.00000   82.34920   11.20330    0.16830    0.34310    0.16740    7.58720    8.16350    8.94730 -111.54810   76.36580   86.11170    9.03810    2.44670    -999.25    -999.25
 4200.00000   40.77120    9.09080    0.11750    0.23160    0.04120   41.05310   33.46510   60.00720 -127.19860   35.43130   70.36290    8.72110    2.53630    -999.25    -999.25
 4250.00000   70.05780    9.89410    0.06100    0.26440    0.03830   13.46930   14.19700   17.40820 -105.61390   61.76350   74.27530    9.14410    2.62580    -999.25    -999.25
 4300.00000   55.49300    8.74170    0.09120    0.29380    0.09510   18.77760   20.04410   23.32950 -117.90770   43.75610   78.96400    8.21970    2.47320    -999.25    -999.25
 4350.00000   90.30810   10.20410    -999.25    0.36280    0.25130    7.96330    8.34620    8.84820  -99.68900   88.57830   84.68990    9.78530    2.27570    -999.25    -999.25
 4400.00000  104.92470   10.42410    0.24580    0.33450    0.28960    8.94450    9.54820   10.35130  -95.17810   99.60580   81.89360    9.94290    2.17460    -999.25    -999.25
 4450.00000  106.98650   10.01310    0.15100    0.33710    0.19540    9.63630   10.01130   11.15290  -91.42120  105.29160   79.90390    9.75880    2.27550    -999.25    -999.25
 4500.00000  110.46510    9.75580    0.23010    0.36710    0.17580    9.96560   10.70360   11.47420  -88.03920  115.14950   82.13170    9.04300    2.40920    -999.25    -999.25
 4550.00000  119.25960    9.62590    0.16690    0.38280    0.06780    8.61360    9.22190   10.20090  -87.87980  125.46230   85.28520    9.22330    2.55700    -999.25    -999.25
 4600.00000  136.55890    9.33930    0.05650    0.37100    0.05550   13.36540   14.21820   18.81730  -90.67360  149.67120   84.24680    9.11040    2.59500    -999.25    -999.25
 4650.00000  113.65300    9.72390    0.07260    0.40220    0.02240   11.16480   12.12590   13.82530  -93.05600  115.76410   83.89880    9.78170    2.59540    -999.25    -999.25
 4700.00000  108.06720    9.79190    0.09220    0.35360    0.02040   11.06580   11.62270   13.38260  -92.39160  118.89230   81.53620    9.63890    2.65230    -999.25    -999.25
 4750.00000  116.08020    9.36150    0.14620    0.38170    0.02540    7.94160    8.46470    9.01250  -91.47450  113.85660   82.33240    9.72230    2.59540    -999.25    -999.25
 4800.00000  111.45640    9.11060    0.15580    0.41650    0.02280    7.72520    8.23440    8.78620  -94.86190  110.26760   85.33410    9.21330    2.58250    -999.25    -999.25
 4850.00000  106.14020    9.66570    0.13010    0.30430    0.00920   10.60480   11.16630   12.10970  -99.60520  106.53750   77.33490    9.63570    2.62700    -999.25    -999.25
 4900.00000   88.31160    9.63670    0.06750    0.22970    0.02030   15.07890   15.70930   16.82520  -99.39120   86.56400   72.05450    9.29200    2.59250    -999.25    -999.25
 4950.00000   96.87780   10.69000    0.11280    0.27990    0.09280    9.31590    9.80310   10.94150  -88.89740  109.45080   76.52690    9.21660    2.55160    -999.25    -999.25
 5000.00000  113.99370   10.77220    0.26530    0.33410    0.22600    8.13750    8.47880    9.04340  -80.66650  113.84840   80.15870    9.28490    2.26930    -999.25    -999.25
 5050.00000  122.00790   11.14770    0.26620    0.35930    0.26370    7.06860    7.37020    8.16020  -77.11130  135.73120   85.03440    9.29910    2.20030    -999.25    -999.25
 5100.00000  118.03870    9.99610    0.26630    0.35130    0.25810    8.00830    8.61330    9.33260  -77.44920  123.50770   79.63580    9.16970    2.29130    -999.25    -999.25
 5150.00000  118.78850   10.61730    0.26440    0.31870    0.23850    9.58900   10.01750   10.58470  -92.78520  117.48900   79.18780    8.98290    2.23150    -999.25    -999.25
 5200.00000   97.05040    9.97510    -999.25    0.22510    0.07950   16.21570   17.16720   19.36920  -87.93050  103.19710   73.15570    8.95090    2.48690    -999.25    -999.25
 5250.00000  117.53730   11.06750    0.24660    0.30880    0.21740   11.47900   12.03360   13.85210  -85.44980  121.72620   76.59720    9.15170    2.24760    -999.25    -999.25
 5300.00000  105.54490   10.20760    -999.25    0.27450    0.19090   12.65530   13.18760   15.15170  -86.08310  116.40110   76.90640    9.14880    2.33210    -999.25    -999.25
 5350.00000  114.14840   10.27830    0.26590    0.31900    0.28910   10.31870   10.89440   11.00610  -90.40770  111.40310   78.36450    9.29560    2.31690    -999.25    -999.25
 5400.00000  124.17550   10.08760    -999.25    0.33530    0.23380    9.03350    9.78290   10.82620  -93.59450  120.75690   81.95870    9.08470    2.24740    -999.25    -999.25
 5450.00000  122.80110   10.79360    -999.25    0.31800    0.24950    9.23440    9.87470   11.35170  -96.03160  125.13870   82.15020    9.01730    2.23850    -999.25    -999.25
 5500.00000  122.05630   10.19150    -999.25    0.34790    0.21850   10.34500   10.99550   13.55980  -95.87380  133.12570   82.04750    9.06550    2.29500    -999.25    -999.25
 5550.00000  129.05490   10.20280    -999.25    0.34900    0.29630    9.38720    9.93890   11.74010  -87.61990  134.44520   86.40090    9.13380    2.26300    -999.25    -999.25
 5600.00000  142.13560   10.40060    -999.25    0.33170    0.19250   13.23020   13.96110   17.66490  -83.10490  134.81860   84.80880    9.05070    2.33910    -999.25    -999.25
 5650.00000  139.07510    8.74240    0.05470    0.37190    0.04360   11.42130   11.89560   14.75820  -83.00000  132.14240   84.35720    9.24590    2.61430    -999.25    -999.25
 5700.00000  139.00880    8.87330    0.03960    0.33880   -0.00880   20.17470   22.88850   33.30060  -79.64820  130.80920   80.42320    8.58060    2.64550    -999.25    -999.25
