~Version ---------------------------------------------------
VERS.      2.0 : CWLS log ASCII Standard -VERSION 2.0
WRAP.       NO : One line per depth step
CREA. 07/27/13 : LAS Creation Date
~Well ------------------------------------------------------
STRT.M                   300.0 : START DEPTH
STOP.M                  3250.0 : STOP DEPTH
STEP.M                50.00000 : STEP LENGTH
NULL.                  -999.25 : NULL VALUE
COMP.        SUNCOR ENERGY INC : COMPANY
WELL. SUNCOR CARROT 9-34-53-14 : WELL
FLD .                          : FIELD
LOC .                          : LOCATION
CTRY.                   CANADA : COUNTRY
SRVC.             Schlumberger : SERVICE COMPANY
DATE.              15-Sep-1998 : LOGDATE
PROV.                  Alberta : PROVINCE
UWI .         100093405314W500 : UNIQUE WELL ID
SLAT.WGS84            53.62161 : SURFACE LATITUDE
SLON.WGS84           -115.9717 : SURFACE LONGITUDE
~Curve Information -----------------------------------------
DEPT    .M      : DEPTH METER
AT10ED  .OHMM   : 10 INCH RESISTIVITY TWO FOOT RESOLUTION FROM RESISTIVITY LOG
AT20ED  .OHMM   : 20 INCH RESISTIVITY TWO FOOT RESOLUTION FROM RESISTIVITY LOG
AT30ED  .OHMM   : 30 INCH RESISTIVITY TWO FOOT RESOLUTION FROM RESISTIVITY LOG
AT60ED  .OHMM   : 60 INCH RESISTIVITY TWO FOOT RESOLUTION FROM RESISTIVITY LOG
AT90ED  .OHMM   : 90 INCH RESISTIVITY TWO FOOT RESOLUTION FROM RESISTIVITY LOG
CAL2ED  .MM     : CALIPER 2 FROM DENSITY LOG
CALSED  .MM     : CALIPER FROM SONIC LOG [ADJ. TO RESISTIVITY LOG]
CALWS   .MM     : CALIPER [HCALSED]
CONDWS  .MMHO   : CONDUCTIVITY [1000/DRESWS]
DCORWS  .KG/M3  : DENSITY CORRECTION [HDRAED]
DENWS   .KG/M3  : FROMATION BULK DENSITY [CALC FROM DPOSSWS, M=2650,F=1000]
DPHISSED.V/V    : DENSITY POROSITY SANDSTONE [M=2650,F=1000] FROM DENSITY LOG
DPHZSSED.V/V    : DENSITY POROSITY SANDSTONE [M=2650,F=1000] FROM DENSITY LOG
DPOSSWS .V/V    : DENSITY POROSITY SANDSTONE [DPHZSSED]
DRESWS  .OHMM   : DEEP RESISTIVITY [AT90ED]
DRHOED  .KG/M3  : DENSITY CORRECTION FROM DENSITY LOG
DTED    .US/M   : DELTA TIME FROM SONIC LOG [ADJ. TO RESISTIVITY LOG]
DTWS    .US/M   : COMPRESSIONAL SONIC [DTED]
GRED    .GAPI   : GAMMA RAY FROM CBL LOG [ADJ. TO RESISTIVITY LOG]
GRRED   .GAPI   : GAMMA RAY FROM RESISTIVITY LOG
GRSED   .GAPI   : GAMMA RAY FROM SONIC LOG [ADJ. TO RESISTIVITY LOG]
GRWS    .GAPI   : GAMMA RAY [GRED SPL. TO GRRED @ 385M AND SPL. TO GRSED @ 3248.2M]
HCALSED .MM     : HRCC CALIPER FROM SONIC LOG [ADJ. TO RESISTIVITY LOG]
HDRAED  .KG/M3  : DENSITY CORRECTION FROM DENSITY LOG
MRESWS  .OHMM   : MEDIUM RESISTIVITY [AT30ED]
NPORSSED.V/V    : NEUTRON POROSITY SANDSTONE FROM DENSITY LOG
NPOSSWS .V/V    : NEUTRON POROSITY SANDSTONE [NPORSSED]
PEFED   .B/E    : PHOTOELECTRIC FACTOR FROM DENSITY LOG
PEFWS   .B/E    : PHOTOELECTRIC FACTOR [PEFZED]
PEFZED  .B/E    : PHOTOELECTRIC FACTOR FROM DENSITY LOG
RHOBED  .KG/M3  : BULK DENSITY FROM DENSITY LOG [ADJ. TO DPHISSED]
RHOZED  .KG/M3  : BULK DENSITY HRDD STANDARD RESOLUTION FROM DENSITY LOG [DPHZSSED]
SPRED   .MV     : SPONTANEOUS POTENTIAL FROM RESISTIVITY LOG
SPWS    .MV     : SPONTANEOUS POTENTIAL [SPRED]
SRESWS  .OHMM   : SHALLOW RESISTIVITY [AT10ED]
TENRED  .N      : TENSION FROM RESISTIVITY LOG
TENSED  .N      : TENSION FROM SONIC LOG [ADJ. TO RESISTIVITY LOG]
~Params ----------------------------------------------------
PD  .                       GL : PERMANENT DATUM
EPD .M                   870.3 : ELEVATION PERMANENT DATUM
LMF .                       KB : LOG MEASURED FROM
DAPD.M                     6.3 : FEET ABOVE PERMANENT DATUM
DMF .                       KB : DRILLING MEASURED FROM
EKB .M                   876.6 : KELLY BUSHING
EDF .M                   876.3 : DRILLING FLOOR
EGL .M                   870.3 : GROUND LEVEL
DATE.                 09/15/98 : RUN DATE
RUN .                        2 : RUN NUMBER
DD  .M                    3262 : DEPTH DRILLER
DL  .M                  3262.7 : DEPTH LOGGER
BLI .M                  3260.3 : BOTTOM LOG INTERVAL
TLI .M                    2235 : TOP LOG INTERVAL
CS  .MM                  177.8 : CASING SIZE
CBD .M                    2233 : CASING BOTTOM DRILLER
CBL .M                    2235 : CASING BOTTOM LOGGER
BS  .MM                  155.6 : BIT SIZE
BSD .M                    3262 : BIT SIZE AT DEPTH
DFT .              GEL POLYMER : DRILLING FLUID TYPE
DFD .                     1155 : DRILLING FLUID DENSITY
DFV .                       77 : DRILLING FLUID VISCOSITY
DFPH.                      6.5 : DRILLING FLUID PH
DFL .                     10.5 : DRILLING FLUID LOSS
MSS .                 FLOWLINE : MUD SAMPLE SOURCE
RMS .OHMM                0.827 : RESISTIVITY MUD SAMPLE
MST .DEGC                   14 : MUD SAMPLE TEMPERATURE
RMF .OHMM                0.648 : RESISTIVITY MUD FILTRATE SAMPLE
MFST.DEGC                   13 : MUD FILTRATE SAMPLE TEMPERATURE
RMC .OHMM                 1.18 : RESISTIVITY MUD CAKE
MCST.DEGC                   10 : MUD CAKE SAMPLE TEMPERATURE
MFSS.                     MEAS : MUD FILTRATE SAMPLE SOURCE
MCSS.                     MEAS : MUD CAKE SAMPLE SOURCE
RMB .OHMM                0.225 : RESISTIVITY MUD AT BHT
TCS .HRS                   200 : TIME CIRCULATED STOPPED
TLAB.HRS                     5 : TIME LOGGER AT BOTTOM
LUN .                     2111 : LOGGING UNIT NUMBER
LUL .                NISKU F S : LOGGING UNIT LOCATION
ENGI.            HARVEY KAZEMI : RECORDING ENGINEER
WITN.                PATTERSON : WITNESSED BY
CLNT.                  A2DTECH : CLIENT CODE
ORIG. 6.5"/100M 16"/100M PRINT : ORIGIN OF DATA
UWI .         100093405314W500 : UNIQUE WELL ID
DICO.   A2D Technologies, Inc. : DIGITIZING COMPANY
~Other -----------------------------------------------------
AIT-CNT-LDT RAN IN COMBO & BHC & CBL TOOL RUN
RHOZ & RHOB FROM SMALL SCALE SECTION
POOR PEF DUE TO BARITE IN MUD
SP RELOGGED FROM BRIDGE @ 1963 M
~ASCII -----------------------------------------------------
# ...
 2300.00000  898.38130  494.17070 1288.31570 1136.90110  426.46700  176.29910  172.69300  180.72550    2.34480  119.08680 2716.66000   -0.05040   -0.04040   -0.04040  426.46700   83.81350  169.64920  169.64920    -999.25   33.75410   23.74070   33.75410  180.72550  119.08680 1288.31570    0.04620    0.04620    4.90370    5.57060    5.57060 2735.34790 2702.34500  132.81300 -123.38940  898.38130 17743.02930 13660.29790
 2350.00000   74.42640   57.64690   54.61290   50.38490   46.31550  149.03470  150.23190  152.25200   21.59100   -3.10730 2715.67000   -0.01300   -0.03980   -0.03980   46.31550    8.83110  177.21150  177.21150    -999.25   62.49650   56.11930   62.49650  152.25200   -3.10730   54.61290    0.06310    0.06310    2.89420    2.78410    2.78410 2679.23290 2714.18140  149.89820  -73.27950   74.42640 17908.52340 13769.94140
 2400.00000  168.56040  137.89850  125.57830  119.05980  104.70510  151.10030  151.61010  152.55430    9.55060   -3.84440 2749.82500   -0.05510   -0.06050   -0.06050  104.70510    1.51130  172.88730  172.88730    -999.25   49.71650   44.08650   49.71650  152.55430   -3.84440  125.57830    0.06700    0.06700    4.37190    4.08080    4.08080 2748.98680 2757.95900  117.38910  -72.76390  168.56040 18314.02150 13966.31150
 2450.00000  200.61370   68.64380   94.30710   77.07110   75.92170  152.63350  153.12680  154.07060   13.17150   -5.30090 2738.11000   -0.04150   -0.05340   -0.05340   75.92170    6.18600  173.91230  173.91230    -999.25   41.79510   42.89720   41.79510  154.07060   -5.30090   94.30710    0.07880    0.07880    4.35490    4.38490    4.38490 2719.02370 2738.33740  153.52000   -3.60820  200.61370 18805.30080 14190.84380
 2500.00000 2008.18850 1980.25870 1805.18590 1442.83970 1110.99290  179.17390  179.38500  170.00470    0.90010  312.30270 2773.09000   -0.07980   -0.07460   -0.07460 1110.99290  251.67010  160.09410  160.09410    -999.25   17.24410   16.03020   17.24410  170.00470  312.30270 1805.18590    0.03710    0.03710    4.93700    5.79630    5.79630 2774.86770 2770.56470  122.18150  -32.61400 2008.18850 18985.75590 14754.07810
 2550.00000  177.90450  191.59450  225.69470 1794.28220 1201.35380  222.37990  216.71360  151.09310    0.83240   -7.35270 2746.19500    0.18890   -0.05830   -0.05830 1201.35380  196.09900  158.08900  158.08900    -999.25   12.17380    9.13730   12.17380  151.09310   -7.35270  225.69470    0.05700    0.05700    5.21240    4.63200    4.63200 2337.46630 2742.83030   98.46000  -61.13250  177.90450 19184.78320 14891.28520
 2600.00000  265.61150   90.74580   97.25510   88.23050   74.08420  152.13380  149.75290  154.88330   13.49820   41.68270 2748.83500   -0.06670   -0.05990   -0.05990   74.08420   10.79650  159.36010  159.36010    -999.25    8.34700    8.46590    8.34700  154.88330   41.68270   97.25510    0.06360    0.06360    4.13230    4.55600    4.55600 2757.51320 2754.03270   97.35200  -67.03760  265.61150 19243.08980 14467.16990
 2650.00000  254.60190  509.58230  294.14770  425.01420  359.57520  198.34810  185.82570  151.30880    2.78110   -8.25360 2711.21500   -0.01770   -0.03710   -0.03710  359.57520  241.66940  168.72180  168.72180    -999.25   11.03790    9.00670   11.03790  151.30880   -8.25360  294.14770    0.03350    0.03350    5.33260    4.95100    4.95100 2686.53150 2670.44120   83.00460  -86.18210  254.60190 19325.71290 14906.51170
 2700.00000 1930.44590 1488.80880 1196.40110 1028.35290  827.26920  162.67920  158.14200  155.82700    1.20880   80.59520 2852.45500   -0.14620   -0.12270   -0.12270  827.26920  132.21210  152.09890  152.09890    -999.25   22.37100   20.33160   22.37100  155.82700   80.59520 1196.40110    0.05980    0.05980    3.63750    3.83940    3.83940 2828.63940 2908.14550   96.17350  -77.81020 1930.44590 19548.98630 15281.37400
 2750.00000   72.15810   82.35840   94.93680  243.13000  188.47580  186.09370  186.21520  153.58380    5.30570   27.25480 2837.27500    0.05450   -0.11350   -0.11350  188.47580  286.49300  159.07750  159.07750    -999.25   24.86290   25.49990   24.86290  153.58380   27.25480   94.93680    0.09570    0.09570    4.12250    3.36980    3.36980 2568.76270 2845.36250   61.75290 -117.02790   72.15810 20182.32230 15732.81050
 2800.00000   17.86830   16.51330   16.05570   15.86410   14.60330  152.53820  152.67940  153.62230   68.47770    0.34250 2730.19000   -0.04200   -0.04860   -0.04860   14.60330   15.00800  203.91280  203.91280    -999.25   83.86880   76.25180   83.86880  153.62230    0.34250   16.05570    0.15570    0.15570    4.44200    4.39800    4.39800 2714.50880 2730.02220  127.40140  -56.17640   17.86830 20321.76560 16253.35840
 2850.00000   25.18540   24.38570   23.72520   23.25630   22.59480  152.33770  152.86270  153.80640   44.25800   -2.77360 2709.56500   -0.02540   -0.03610   -0.03610   22.59480   13.78860  215.08060  215.08060    -999.25  109.20350  106.23200  109.20350  153.80640   -2.77360   23.72520    0.19810    0.19810    3.68590    3.82580    3.82580 2729.47660 2694.94070  163.06180  -14.44790   25.18540 20572.28710 16341.41110
 2900.00000   18.66100   17.69920   16.65600   16.09470   14.99760  151.80490  152.24330  154.60050   66.67730  122.09270 2738.27500   -0.03980   -0.05350   -0.05350   14.99760   17.58610  200.32730  200.32730    -999.25   81.36420   77.39920   81.36420  154.60050  122.09270   16.65600    0.16450    0.16450    4.50240    4.84090    4.84090 2715.62940 2742.10690  143.09990  -14.78620   18.66100 20893.86520 16480.45310
 2950.00000   14.45190   11.70690   11.36700   11.08690   10.31970  151.60550  151.62640  153.96380   96.90200    4.49690 2760.22000   -0.05570   -0.06680   -0.06680   10.31970    8.06520  223.36100  223.36100    -999.25  126.36910  115.97890  126.36910  153.96380    4.49690   11.36700    0.20430    0.20430    3.93510    4.13180    4.13180 2749.35640 2760.18800  148.87430   -8.34980   14.45190 21464.08590 16751.90630
 3000.00000   14.90990   15.23760   12.53270   12.16150   11.25930  147.71050  148.94100  144.33820   88.81550    7.55590 2725.40500   -0.05020   -0.04570   -0.04570   11.25930    0.69090  226.65330  226.65330    -999.25  119.23140  106.28060  119.23140  144.33820    7.55590   12.53270    0.19970    0.19970    3.93260    4.26180    4.26180 2729.16140 2732.36470  150.15480   -6.08900   14.90990 22132.82420 16901.47270
 3050.00000    8.59840    8.12840    7.51380    7.43820    6.79630  149.44860  150.76650  152.21440  147.13890   36.15730 2717.48500   -0.05830   -0.04090   -0.04090    6.79630   65.03200  238.28110  238.28110    -999.25  127.60170  123.59470  127.60170  152.21440   36.15730    7.51380    0.22420    0.22420    4.01500    4.21240    4.21240 2747.35990 2713.91720  153.45330   -1.08880    8.59840 22651.83590 16828.07230
 3100.00000   10.30940   11.43780    9.16840    9.00450    8.06240  201.56400  203.83050  189.81880  124.03250  152.94920 2657.75500   -0.00930   -0.00470   -0.00470    8.06240  185.04770  270.74670  270.74670    -999.25  151.77080  143.20690  151.77080  189.81880  152.94920    9.16840    0.25560    0.25560    3.54140    4.38540    4.38540 2657.05710 2677.68630   97.19190  -55.33100   10.30940 22228.06640 17640.47660
 3150.00000   22.22450   19.23390   17.84740   17.63610   16.34410  147.41700  147.40220  150.17190   61.18420   -4.74530 2732.33500   -0.05280   -0.04990   -0.04990   16.34410    9.39720  202.29540  202.29540    -999.25  100.40530   94.14120  100.40530  150.17190   -4.74530   17.84740    0.15320    0.15320    4.20040    4.26600    4.26600 2740.97510 2735.46850   99.72910  -46.92560   22.22450 22368.47660 17832.39260
 3200.00000   91.14560   38.93220   35.22200   30.04140   28.73700  146.17870  146.88390  149.71640   34.79830   -0.79530 2700.32500   -0.03710   -0.03050   -0.03050   28.73700   54.29670  170.17000  170.17000    -999.25    8.68260    5.79320    8.68260  149.71640   -0.79530   35.22200    0.05920    0.05920    4.38300    4.44980    4.44980 2701.70340 2707.49370   82.35800  -60.45610   91.14560 22783.49800 18138.85550
 3250.00000  251.05650  491.93300  108.23670   69.15960   62.62320    -999.25   62.57200  144.23110   15.96850   50.66820 2722.76500    -999.25   -0.04410   -0.04410   62.62320    -999.25  160.15100  160.15100    -999.25    -999.25   10.48090   10.48090  144.23110   50.66820  108.23670    0.04430    0.04430    -999.25    4.57710    4.57710    -999.25 2705.72920   67.05740  -75.75670  251.05650 22827.83010 18494.27930
