~Version ---------------------------------------------------
VERS.      2.0 : CWLS log ASCII Standard -VERSION 2.0
WRAP.       NO : One line per depth step
CREA. 08/22/13 : LAS Creation Date
~Well ------------------------------------------------------
STRT.M                          450.0 : START DEPTH
STOP.M                         2800.0 : STOP DEPTH
STEP.M                       50.00000 : STEP LENGTH
NULL.                         -999.25 : NULL VALUE
COMP. W & M MIDWEST CONSTRUCTION LTD. : COMPANY
WELL.  297344 AMOCO SUNSET 6-14-69-20 : WELL
FLD .                                 : FIELD
LOC .                                 : LOCATION
CTRY.                          CANADA : COUNTRY
SRVC.                         Unknown : SERVICE COMPANY
DATE.                     12-Jul-1983 : LOGDATE
PROV.                         Alberta : PROVINCE
UWI .                100061406920W500 : UNIQUE WELL ID
SLAT.WGS84                   54.97113 : SURFACE LATITUDE
SLON.WGS84                  -116.9372 : SURFACE LONGITUDE
~Curve Information -----------------------------------------
DEPT   .M      : DEPTH METER
CALWS  .MM     : CALIPER [CALXSED SPL. TO CALXDED @ 2835M]
CALXDED.MM     : CALIPER X FROM DENSITY LOG [ADJ. TO RESISTIVITY LOG]
CALXED .MM     : CALIPER X FROM GR LOG [ADJ. TO RESISTIVITY LOG]
CALXSED.MM     : CALIPER X FROM SONIC LOG
CALYDED.MM     : CALIPER Y FROM DENSITY LOG [ADJ. TO RESISTIVITY LOG]
CALYED .MM     : CALIPER Y FROM GR LOG [ADJ. TO RESISTIVITY LOG]
CDLLSED.V/V    : DENSITY POROSITY LIMESTONE [M=2710,F=1000] FROM DENSITY LOG [ADJ. TO RESISTIVITY LOG]
CDLSSED.V/V    : DENSITY POROSITY SANDSTONE [M=2650,F=1000] FROM DENSITY LOG [ADJ. TO RESISTIVITY LOG]
CNSLSED.V/V    : NEUTRON POROSITY LIMESTONE FROM DENSITY LOG [ADJ. TO RESISTIVITY LOG]
CNSSSED.V/V    : NEUTRON PORISITY SANDSTONE FROM DENSITY LOG [ADJ. TO RESISTIVITY LOG]
CONDWS .MMHO   : CONDUCTIVITY [1000/DRESWS]
DCORWS .KG/M3  : DENSITY CORRECTION [DRHOED]
DENWS  .KG/M3  : FORMATION BULK DENSITY [CALC FROM DPOLSWS, M=2710,F=1000]
DPOLSWS.V/V    : DENSITY POROSITY LIMESTONE [CDLSSED CONVERTED TO LIMESTONE MATRIX, M=2710,F=1000, SPL. TO CDLLSED @ 2627.8M]
DRESWS .OHMM   : DEEP RESISTIVITY [RILDED]
DRHOED .KG/M3  : DENSITY CORRECTION FROM DENSITY LOG [ADJ. TO RESISTIVITY LOG]
DTED   .US/M   : DELTA TIME FROM SONIC LOG
DTWS   .US/M   : COMPRESSIONAL SONIC [DTED]
GRDED  .GAPI   : GAMMA RAY FROM DENSITY LOG [ADJ. TO RESISTIVITY LOG]
GRED   .GAPI   : GAMMA RAY FROM GR LOG [ADJ. TO RESISTIVITY LOG]
GRRED  .GAPI   : GAMMA RAY FROM RESISTIVITY LOG
GRWS   .GAPI   : GAMMA RAY [GRRED SPL. TO GRDED @ 2836M]
MRESWS .OHMM   : MEDIUM RESISTIVITY [RILMED]
NPOLSWS.V/V    : NEUTRON POROSITY LIMESTONE [CNSSSED MATRIX CONVERSION FOR LIMESTONE (COMPUTALOG), SPL. TO CNSLSED @ 2627.8M]
RHOBED .KG/M3  : BULK DENSITY FROM DENSITY LOG [ADJ. TO RESISTIVITY LOG]
RILDED .OHMM   : DEEP INDUCTION RESISTIVITY FROM RESISTIVITY LOG
RILMED .OHMM   : MEDIUM INDUCTION RESISTIVITY FROM RESISTIVITY LOG
RLLED  .OHMM   : RAW LATEROLOG FROM RESISTIVITY LOG
SPRED  .MV     : SPONTANEOUS POTENTIAL FROM RESISTIVITY LOG
SPWS   .MV     : SPONTANEOUS POTENTIAL [BASELINE 0 MV, SPRED]
SRESWS .OHMM   : SHALLOW RESISTIVITY [RLLED]
~Params ----------------------------------------------------
PD  .                         GL : PERMANENT DATUM
EPD .M                     702.2 : ELEVATION PERMANENT DATUM
LMF .                         KB : LOG MEASURED FROM
DAPD.M                       6.5 : FEET ABOVE PERMANENT DATUM
EKB .M                     708.7 : KELLY BUSHING
EGL .M                     702.2 : GROUND LEVEL
DATE.                   07/12/83 : RUN DATE
RUN .                          1 : RUN NUMBER
DD  .M                      2850 : DEPTH DRILLER
DL  .M                    2849.5 : DEPTH LOGGER
BLI .M                      2849 : BOTTOM LOG INTERVAL
TLI .M                       421 : TOP LOG INTERVAL
CBD .M                       421 : CASING BOTTOM DRILLER
CBL .M                       421 : CASING BOTTOM LOGGER
BS  .MM                      222 : BIT SIZE
BSD .M                      2850 : BIT SIZE AT DEPTH
DFT .                   GEL CHEM : DRILLING FLUID TYPE
DFD .                       1140 : DRILLING FLUID DENSITY
DFV .                         82 : DRILLING FLUID VISCOSITY
DFPH.                        9.5 : DRILLING FLUID PH
DFL .                        7.4 : DRILLING FLUID LOSS
RMS .OHMM                    2.0 : RESISTIVITY MUD SAMPLE
MST .DEGC                     22 : MUD SAMPLE TEMPERATURE
RMF .OHMM                    1.8 : RESISTIVITY MUD FILTRATE SAMPLE
MFST.DEGC                     24 : MUD FILTRATE SAMPLE TEMPERATURE
RMB .OHMM                   0.79 : RESISTIVITY MUD AT BHT
TCS .HRS                     3.5 : TIME CIRCULATED STOPPED
LUN .                        306 : LOGGING UNIT NUMBER
LUL .             GRANDE PRAIRIE : LOGGING UNIT LOCATION
ENGI.                     HUDSON : RECORDING ENGINEER
WITN.                LICHPENBELT : WITNESSED BY
CLNT.                    A2DTECH : CLIENT CODE
ORIG. 6.5"/100M 16.5"/100M PRINT : ORIGIN OF DATA
UWI .           100061406920W500 : UNIQUE WELL ID
DICO.     A2D Technologies, Inc. : DIGITIZING COMPANY
~Other -----------------------------------------------------
DLL-BHC RUN IN COMBO & CDT-CNT LOG RUN
RHOB,DRHO,GR,CALX AND CALY FROM SMALL SCALE SECTION
~ASCII -----------------------------------------------------
  450.00000  253.79100    -999.25  129.89010  253.79100    -999.25  131.20390    -999.25    -999.25    -999.25    -999.25  221.40060    -999.25    -999.25    -999.25    4.51670    -999.25  387.04930  387.04930    -999.25   65.41520   66.09390   66.09390    4.20960    -999.25    -999.25    4.51670    4.20960    5.06330 -104.80240   -1.41400    5.06330
  500.00000  345.53940    -999.25  170.50120  345.53940    -999.25  165.59910    -999.25    -999.25    -999.25    -999.25   73.55160    -999.25    -999.25    -999.25   13.59590    -999.25  240.26760  240.26760    -999.25   49.57190   48.20170   48.20170   13.43800    -999.25    -999.25   13.59590   13.43800   11.82240 -109.80420   -6.87650   11.82240
  550.00000  234.42870    -999.25  118.96820  234.42870    -999.25  121.33670    -999.25    -999.25    -999.25    -999.25  152.54370    -999.25    -999.25    -999.25    6.55550    -999.25  389.60780  389.60780    -999.25  125.46000  120.24360  120.24360    6.13150    -999.25    -999.25    6.55550    6.13150    6.82510 -105.25650   -2.82740    6.82510
  600.00000  352.36240    -999.25  174.79240  352.36240    -999.25  176.67840    -999.25    -999.25    -999.25    -999.25  142.90610    -999.25    -999.25    -999.25    6.99760    -999.25  381.30530  381.30530    -999.25   93.09570   91.89310   91.89310    6.38660    -999.25    -999.25    6.99760    6.38660    6.09700 -106.42500   -4.49440    6.09700
  650.00000  314.53660    -999.25  161.35190  314.53660    -999.25  159.71380    -999.25    -999.25    -999.25    -999.25  141.40070    -999.25    -999.25    -999.25    7.07210    -999.25  519.93740  519.93740    -999.25   95.96090   93.91870   93.91870    5.86540    -999.25    -999.25    7.07210    5.86540    5.65310 -104.81830   -3.38630    5.65310
  700.00000  307.88670    -999.25  154.04050  307.88670    -999.25  156.08080    -999.25    -999.25    -999.25    -999.25  121.48010    -999.25    -999.25    -999.25    8.23180    -999.25  461.28940  461.28940    -999.25  101.52110   96.64250   96.64250    6.96610    -999.25    -999.25    8.23180    6.96610    6.72850 -104.46160   -3.52820    6.72850
  750.00000  305.22500    -999.25  151.30470  305.22500    -999.25  150.42170    -999.25    -999.25    -999.25    -999.25  167.57720    -999.25    -999.25    -999.25    5.96740    -999.25  429.48620  429.48620    -999.25  114.06360  117.66230  117.66230    6.51280    -999.25    -999.25    5.96740    6.51280    6.74700 -103.79220   -3.35730    6.74700
  800.00000  278.05350    -999.25  136.89710  278.05350    -999.25  139.84210    -999.25    -999.25    -999.25    -999.25  135.16620    -999.25    -999.25    -999.25    7.39830    -999.25  358.31130  358.31130    -999.25  134.00810  134.26920  134.26920    7.76840    -999.25    -999.25    7.39830    7.76840    8.45140  -97.75250   -1.32590    8.45140
  850.00000  279.79680    -999.25  141.09150  279.79680    -999.25  143.86430    -999.25    -999.25    -999.25    -999.25  166.20130    -999.25    -999.25    -999.25    6.01680    -999.25  331.28350  331.28350    -999.25  103.94750  102.91770  102.91770    5.86690    -999.25    -999.25    6.01680    5.86690    6.28780  -98.08890   -4.41700    6.28780
  900.00000  281.57650    -999.25  138.87440  281.57650    -999.25  141.70860    -999.25    -999.25    -999.25    -999.25  231.49760    -999.25    -999.25    -999.25    4.31970    -999.25  338.87770  338.87770    -999.25  115.15070  113.54300  113.54300    4.48290    -999.25    -999.25    4.31970    4.48290    5.22250  -94.04470   -3.12740    5.22250
  950.00000  270.10170    -999.25  134.47760  270.10170    -999.25  135.82230    -999.25    -999.25    -999.25    -999.25  212.18360    -999.25    -999.25    -999.25    4.71290    -999.25  328.78200  328.78200    -999.25  121.87450  116.94390  116.94390    4.91890    -999.25    -999.25    4.71290    4.91890    5.59680  -91.30080   -3.13820    5.59680
 1000.00000  310.88130    -999.25  149.36690  310.88130    -999.25  154.00420    -999.25    -999.25    -999.25    -999.25  451.06000    -999.25    -999.25    -999.25    2.21700    -999.25  422.78200  422.78200    -999.25  113.49430  113.11180  113.11180    2.27160    -999.25    -999.25    2.21700    2.27160    3.30800  -89.60680   -3.60280    3.30800
 1050.00000  236.45810    -999.25  116.99980  236.45810    -999.25  117.58660    -999.25    -999.25    -999.25    -999.25  196.82330    -999.25    -999.25    -999.25    5.08070    -999.25  335.96560  335.96560    -999.25  180.69360  174.17060  174.17060    5.23330    -999.25    -999.25    5.08070    5.23330    6.06700  -87.63810   -2.89080    6.06700
 1100.00000  225.79450    -999.25  112.55790  225.79450    -999.25  113.10980    -999.25    -999.25    -999.25    -999.25  204.39450    -999.25    -999.25    -999.25    4.89250    -999.25  288.62740  288.62740    -999.25   71.43840   65.93600   65.93600    5.26760    -999.25    -999.25    4.89250    5.26760    7.29560 -105.21990  -21.72950    7.29560
 1150.00000  226.96440    -999.25  113.70970  226.96440    -999.25  113.96590    -999.25    -999.25    -999.25    -999.25  195.86340    -999.25    -999.25    -999.25    5.10560    -999.25  293.36800  293.36800    -999.25   67.64320   74.68800   74.68800    5.61670    -999.25    -999.25    5.10560    5.61670    7.11910  -97.02620  -14.79270    7.11910
 1200.00000  211.41640    -999.25  103.46870  211.41640    -999.25  105.58030    -999.25    -999.25    -999.25    -999.25  193.22550    -999.25    -999.25    -999.25    5.17530    -999.25  287.43340  287.43340    -999.25   66.58850   68.68150   68.68150    7.21130    -999.25    -999.25    5.17530    7.21130   10.24930 -127.77790  -46.80120   10.24930
 1250.00000  213.60570    -999.25  104.43410  213.60570    -999.25  107.94290    -999.25    -999.25    -999.25    -999.25  159.39560    -999.25    -999.25    -999.25    6.27370    -999.25  290.61470  290.61470    -999.25   58.19230   59.06390   59.06390    8.40660    -999.25    -999.25    6.27370    8.40660   13.25000 -119.15290  -39.43310   13.25000
 1300.00000  217.22930    -999.25  108.48300  217.22930    -999.25  106.92100    -999.25    -999.25    -999.25    -999.25  115.02850    -999.25    -999.25    -999.25    8.69350    -999.25  242.78790  242.78790    -999.25   75.45250   74.40070   74.40070   12.11180    -999.25    -999.25    8.69350   12.11180   23.27110 -108.13730  -29.67430   23.27110
 1350.00000  264.32280    -999.25  131.59560  264.32280    -999.25  131.55210    -999.25    -999.25    -999.25    -999.25  269.57810    -999.25    -999.25    -999.25    3.70950    -999.25  308.44590  308.44590    -999.25  102.08600  104.09540  104.09540    4.16300    -999.25    -999.25    3.70950    4.16300    5.19900  -79.74400   -3.18560    5.19900
 1400.00000  344.75020    -999.25  173.80180  344.75020    -999.25  165.75680    -999.25    -999.25    -999.25    -999.25  363.41170    -999.25    -999.25    -999.25    2.75170    -999.25  340.07350  340.07350    -999.25  106.65320  104.08120  104.08120    2.60140    -999.25    -999.25    2.75170    2.60140    3.99960  -80.36770   -5.08620    3.99960
 1450.00000  225.89780  230.74950  111.99080  225.89780  233.90370  113.37800    -999.25    0.20740    -999.25    0.36340   10.12980  -10.75670 2303.39820    0.23780   98.71860  -10.75670  324.23320  324.23320  246.89230  262.58690  269.00090  269.00090  149.73880    0.35390 2303.39820   98.71860  149.73880  377.68900  -61.76170   -3.61180  377.68900
 1500.00000  254.65760  259.25770  127.15280  254.65760  256.83610  124.72340    -999.25    0.09140    -999.25    0.24580  234.67020  232.94120 2485.87400    0.13110    4.26130  232.94120  241.51440  241.51440   87.08760   90.26930   96.84500   96.84500    5.16790    0.19610 2485.87400    4.26130    5.16790    7.00260  -86.80530  -37.45410    7.00260
 1550.00000  209.73120  210.41510  103.57950  209.73120  214.39980  104.88700    -999.25    0.26100    -999.25    0.28510 2018.97840  137.75390 2222.52860    0.28510    0.49530  137.75390  288.34820  288.34820   20.98740   15.57390   17.13860   17.13860    0.55570    0.23610 2222.52860    0.49530    0.55570    3.68500 -153.87150 -112.36590    3.68500
