~Version ---------------------------------------------------
VERS.      2.0 : CWLS log ASCII Standard -VERSION 2.0
WRAP.       NO : One line per depth step
CREA. 12/11/17 : LAS Creation Date
~Well ------------------------------------------------------
STRT.FT                        300.0 : START DEPTH
STOP.FT                      10150.0 : STOP DEPTH
STEP.FT                     50.00000 : STEP LENGTH
NULL.                        -999.25 : NULL VALUE
COMP.           PETROFINA CANADA LTD : COMPANY
WELL. FINA AMOCO HB PASSCK 7-2-62-17 : WELL
FLD .                                : FIELD
LOC .                                : LOCATION
CTRY.                         CANADA : COUNTRY
SRVC.                   Schlumberger : SERVICE COMPANY
DATE.                    14-Mar-1978 : LOGDATE
PROV.                        Alberta : PROVINCE
UWI .               100070206217W500 : UNIQUE WELL ID
SLAT.WGS84                  54.33347 : SURFACE LATITUDE
SLON.WGS84                 -116.4328 : SURFACE LONGITUDE
~Curve Information -----------------------------------------
DEPT    .FT    : Depth Curve
CALDED  .IN    : CALIPER FROM DENSITY LOG [ADJ. TO RESISTIVITY LOG]
CALSED  .IN    : CALIPER FROM SONIC LOG
CALWS   .IN    : CALIPER [CALDED SPL. TO CALSED FROM 1027'-2457']
CILDED  .MMHO  : CONDUCTIVITY FROM RESISTIVITY LOG
CONDWS  .MMHO  : CONDUCTIVITY [1000/DRESWS]
DCORWS  .G/C3  : DENSITY CORRECTION [DRHOED]
DENWS   .G/C3  : FORMATION BULK DENSITY [CALC. FROM DPOLSWS, M=2.71, F=1.00]
DPHILSED.V/V   : DENSITY POROSITY LIMESTONE [M=2.71, F=1.00] FROM DENSITY LOG [ADJ. TO RESISTIVITY LOG]
DPHISSED.V/V   : DENSITY POROSITY SANDSTONE [M=2.65, F=1.00] FROM DENSITY LOG [ADJ. TO RESISTIVITY LOG]
DPOLSWS .V/V   : DENSITY POROSITY LIMESTONE [DPHISSED CONVERTED TO LIMESTONE MATRIX, M=2.71, F=1.00 SPL.TO DPHILSED @ 6300']
DRESWS  .OHMM  : DEEP RESISTIVITY [ILDED]
DRHOED  .G/C3  : DENSITY CORRECTION FROM DENSITY LOG [ADJ. TO RESISTIVITY LOG]
DTED    .US/F  : DELTA TIME FROM SONIC LOG
DTWS    .US/F  : COMPRESSIONAL SONIC [DTED]
GRDED   .GAPI  : GAMMA RAY FROM DENSITY LOG [ADJ. TO RESISTIVITY LOG]
GRSED   .GAPI  : GAMMA RAY FROM SONIC LOG
GRWS    .GAPI  : GAMM RAY [GRDED SPL. TO GRSED @ 35'] GRWS IN CSG. (+25 GAPI) FROM (994'-1027')
ILDED   .OHMM  : DEEP INDUCTION LOG RESISTIVITY FROM RESISTIVITY LOG
ILMED   .OHMM  : MEDIUM INDUCTION LOG RESISTIVITY FROM RESISTIVITY LOG
LL8ED   .OHMM  : 8 INCH LATEROLOG RESISTIVITY FROM RESISTIVITY LOG
MRESWS  .OHMM  : MEDIUM RESISTIVITY [ILMED]
NPHILSED.V/V   : NEUTRON POROSITY LIMESTONE FROM DENSITY LOG [ADJ. TO RESISTIVITY LOG]
NPHISSED.V/V   : NEUTRON POROSITY SANDSTONE FROM DENSITY LOG [ADJ. TO RESISTIVITY LOG]
NPOLSWS .V/V   : NEUTRON POROSITY LIMESTONE [NPHISSED MATRIX (SLB) CONVERSION FOR LIMESTONE, SPL.TO NPHILSED @ 6300']
RHOBED  .G/C3  : BULK DENSITY FROM DENSITY LOG [ADJ. TO RESISTIVITY LOG]
SPRED   .MV    : SPONTANEOUS POTENTIAL FROM RESISTIVITY LOG
SPWS    .MV    : SPONTANEOUS POTENTIAL [BASELINE 0 MV, SPRED]
SRESWS  .OHMM  : SHALLOW RESISTIVITY [LL8ED]
~Params ----------------------------------------------------
PD  .                     GL : PERMANENT DATUM
EPD .FT               2914.3 : ELEVATION PERMANENT DATUM
LMF .                     KB : LOG MEASURED FROM
DAPD.FT                 17.6 : FEET ABOVE PERMANENT DATUM
EKB .FT               2931.9 : KELLY BUSHING
EGL .FT               2914.3 : GROUND LEVEL
DATE.               03/14/78 : RUN DATE
RUN .                      2 : RUN NUMBER
DD  .FT                10155 : DEPTH DRILLER
DL  .FT                10163 : DEPTH LOGGER
BLI .FT                10157 : BOTTOM LOG INTERVAL
TLI .FT                 1027 : TOP LOG INTERVAL
CBD .FT                 1028 : CASING BOTTOM DRILLER
CBL .FT                 1027 : CASING BOTTOM LOGGER
BS  .IN                 8.75 : BIT SIZE
BSD .FT                10155 : BIT SIZE AT DEPTH
DFT .               GEL CHEM : DRILLING FLUID TYPE
DFD .                    9.3 : DRILLING FLUID DENSITY
DFV .                     90 : DRILLING FLUID VISCOSITY
DFPH.                     11 : DRILLING FLUID PH
DFL .                    9.0 : DRILLING FLUID LOSS
MSS .               FLOWLINE : MUD SAMPLE SOURCE
RMS .OHMM               1.87 : RESISTIVITY MUD SAMPLE
MST .DEGF                 74 : MUD SAMPLE TEMPERATURE
RMF .OHMM               1.52 : RESISTIVITY MUD FILTRATE SAMPLE
MFST.DEGF                 72 : MUD FILTRATE SAMPLE TEMPERATURE
RMB .OHMM               0.62 : RESISTIVITY MUD AT BHT
TCS .HRS                 3.5 : TIME CIRCULATED STOPPED
LUN .                   7730 : LOGGING UNIT NUMBER
LUL .                    EDM : LOGGING UNIT LOCATION
ENGI.               ACKERMAN : RECORDING ENGINEER
WITN.                 DAVIES : WITNESSED BY
CLNT.                A2DTECH : CLIENT CODE
ORIG.            2" 5" PRINT : ORIGIN OF DATA
UWI .       100070206217W500 : UNIQUE WELL ID
DICO. A2D Technologies, Inc. : DIGITIZING COMPANY
~Other -----------------------------------------------------
DIL-CNFD-BHC TOOLS RUN
DIL AND BHC TOOL CURVES FROM 1024' TO 2452' FROM 2" SCALE SECTION
~ASCII -----------------------------------------------------
# ...
 5300.00000   10.63090    9.25570   10.63090    -999.25  616.02910    0.05090    2.26260    -999.25    0.23480    0.26160    1.62330    0.05090  121.84460  121.84460  109.58750  116.82730  116.82730    1.62330    1.43860    2.32970    1.43860    -999.25    0.47350    0.43260    2.26860  -44.17050   -1.90100    2.32970
 5350.00000    9.90940    9.73180    9.90940    -999.25   93.97700    0.00860    2.47990    -999.25    0.10310    0.13460   10.64090    0.00860   76.44850   76.44850   85.97860   95.59110   95.59110   10.64090   11.70940   10.31130   11.70940    -999.25    0.31040    0.26650    2.47920  -48.46840   -6.45910   10.31130
 5400.00000   10.64700   10.26860   10.64700    -999.25  124.87360    0.25040    2.35940    -999.25    0.17610    0.20500    8.00810    0.25040   80.80530   80.80530   92.84750   93.33900   93.33900    8.00810    8.43600    9.28010    8.43600    -999.25    0.34620    0.30250    2.41970  -44.59710   -2.84620    9.28010
 5450.00000   10.21750   10.16530   10.21750    -999.25   89.53740    0.02880    2.57800    -999.25    0.04370    0.07720   11.17120    0.02880   75.97930   75.97930   75.08780   79.11250   79.11250   11.17120   11.66890   14.41200   11.66890    -999.25    0.27680    0.23290    2.56980  -48.50640   -7.01570   14.41200
 5500.00000   11.66890   11.02370   11.66890    -999.25  112.47580    0.19030    2.24240    -999.25    0.24700    0.27340    8.89080    0.19030   83.17940   83.17940   98.27090  107.47010  107.47010    8.89080    8.26240   13.26830    8.26240    -999.25    0.48030    0.43960    2.19690  -44.56700   -3.22910   13.26830
 5550.00000   10.72990   10.31480   10.72990    -999.25  117.60420    0.01770    2.48620    -999.25    0.09930    0.13090    8.50310    0.01770   76.57700   76.57700   55.03720   62.42540   62.42540    8.50310    8.99400   10.14820    8.99400    -999.25    0.24380    0.19990    2.49210  -59.50500  -18.10940   10.14820
 5600.00000   11.96170   10.79960   11.96170    -999.25   50.79520    0.19260    2.33780    -999.25    0.18920    0.21760   19.68690    0.19260   66.95790   66.95790   83.66460   84.69380   84.69380   19.68690   17.67400   21.23540   17.67400    -999.25    0.26720    0.22320    2.36160  -44.98290   -3.52920   21.23540
 5650.00000    9.99660   10.10970    9.99660    -999.25   89.34000    0.03250    2.63000    -999.25    0.01210    0.04680   11.19320    0.03250   73.37970   73.37970   87.24870   97.51400   97.51400   11.19320   11.87620   13.21270   11.87620    -999.25    0.27310    0.22910    2.61680  -50.68860   -9.17710   13.21270
 5700.00000    9.78020    9.89890    9.78020    -999.25   98.62950    0.02910    2.58630    -999.25    0.03860    0.07230   10.13890    0.02910   72.93650   72.93650   85.67090   91.52240   91.52240   10.13890   11.36250   13.59310   11.36250    -999.25    0.30020    0.25620    2.59370  -58.97330  -17.40370   13.59310
 5750.00000    9.06250    9.47040    9.06250    -999.25   96.26860    0.09370    2.51960    -999.25    0.07900    0.11130   10.38760    0.09370   67.14320   67.14320   65.07780   69.08950   69.08950   10.38760   12.81510   18.84170   12.81510    -999.25    0.24170    0.19780    2.51550  -76.80650  -35.17920   18.84170
 5800.00000    9.30140    9.59470    9.30140    -999.25   87.24020    0.12070    2.51670    -999.25    0.08080    0.11310   11.46260    0.12070   70.42850   70.42850   55.08400   60.34010   60.34010   11.46260   14.10270   20.39730   14.10270    -999.25    0.23750    0.19370    2.51840  -84.62530  -42.94030   20.39730
 5850.00000    9.92260    9.99200    9.92260    -999.25  141.78560    0.04300    2.62640    -999.25    0.01430    0.04890    7.05290    0.04300   75.76530   75.76530   79.82810   84.67210   84.67210    7.05290    7.53790    7.98810    7.53790    -999.25    0.27190    0.22790    2.62100  -49.56590   -8.15770    7.98810
 5900.00000    9.80820    9.99930    9.80820    -999.25  141.53680    0.00460    2.57760    -999.25    0.04390    0.07740    7.06530    0.00460   70.55660   70.55660   67.66930   71.94020   71.94020    7.06530    7.56410    9.91630    7.56410    -999.25    0.26520    0.22120    2.57830  -56.34650  -16.69870    9.91630
 5950.00000   11.57490   10.58620   11.57490    -999.25  134.90050    0.23110    2.25310    -999.25    0.24050    0.26720    7.42360    0.23110   86.97350   86.97350   90.55550  107.60540  107.60540    7.42360    7.85700    9.64890    7.85700    -999.25    0.35660    0.31300    2.25690  -41.36870   -3.49280    9.64890
 6000.00000   12.51470   10.24100   12.51470    -999.25  116.81560    0.23190    2.23520    -999.25    0.25140    0.27770    8.56050    0.23190   78.44910   78.44910   91.79640   92.27530   92.27530    8.56050    8.98600   10.58030    8.98600    -999.25    0.36380    0.32030    2.23940  -39.30550   -3.19000   10.58030
 6050.00000    9.34590    9.58160    9.34590    -999.25   40.67360    0.05040    2.63810    -999.25    0.00720    0.04200   24.58600    0.05040   68.76530   68.76530   65.10050   67.00110   67.00110   24.58600   26.56160   30.73410   26.56160    -999.25    0.18720    0.14400    2.63460  -44.06130   -9.70620   30.73410
 6100.00000    9.31390    9.61470    9.31390    -999.25   67.91590    0.01580    2.55780    -999.25    0.05590    0.08900   14.72410    0.01580   68.06630   68.06630   56.10960   52.61800   52.61800   14.72410   15.61070   19.99780   15.61070    -999.25    0.20200    0.15850    2.55690  -58.00010  -24.69460   19.99780
 6150.00000    9.98570    9.97350    9.98570    -999.25  257.04960    0.02520    2.51270    -999.25    0.08320    0.11540    3.89030    0.02520   76.08780   76.08780   57.57180   64.40700   64.40700    3.89030    5.24000    6.95280    5.24000    -999.25    0.23400    0.19020    2.50060  -84.53750  -51.77230    6.95280
 6200.00000   14.50970   12.31820   14.50970    -999.25  246.01840    0.20620    2.06320    -999.25    0.35570    0.37830    4.06470    0.20620   85.49230   85.49230   96.19300   97.33240   97.33240    4.06470    4.21820    5.99280    4.21820    -999.25    0.46310    0.42180    2.05220  -39.72600   -7.50470    5.99280
 6250.00000    9.87980    9.80130    9.87980    -999.25   61.38770    0.03790    2.57990    -999.25    0.04250    0.07610   16.28990    0.03790   74.72640   74.72640  106.80690  102.94750  102.94750   16.28990   18.58360   35.15910   18.58360    -999.25    0.27590    0.23190    2.58600  -35.42330   -3.74230   35.15910
 6300.00000   12.23410   11.50300   12.23410    -999.25  121.74040    0.18020    2.03220    0.39640    -999.25    0.39640    8.21420    0.18020   83.91330   83.91330   90.78650   96.48640   96.48640    8.21420    8.77770   11.31970    8.77770    0.37560    -999.25    0.37560    2.02680  -39.28390   -8.09180   11.31970
 6350.00000   10.85630   12.02120   10.85630    -999.25  114.57120    0.17020    2.39980    0.18140    -999.25    0.18140    8.72820    0.17020   95.19200   95.19200   94.26890   98.88950   98.88950    8.72820    8.92120   14.66650    8.92120    0.36290    -999.25    0.36290    2.35100  -39.39120   -8.68330   14.66650
 6400.00000    8.76950    8.95310    8.76950    -999.25    2.22340    0.01760    2.63730    0.04250    -999.25    0.04250  449.75900    0.01760   59.29100   59.29100   63.61270   69.49470   69.49470  449.75900  361.83420  382.48520  361.83420    0.11160    -999.25    0.11160    2.63530  -63.47130  -33.24450  382.48520
 6450.00000    9.75080    9.70160    9.75080    -999.25  145.39030    0.03800    2.60520    0.06130    -999.25    0.06130    6.88180    0.03800   64.04360   64.04360   75.37780   85.87770   85.87770    6.88180    6.31930    6.09950    6.31930    0.13240    -999.25    0.13240    2.60440  -64.76950  -35.02690    6.09950
 6500.00000    9.71500   10.26470    9.71500    -999.25   63.09550    0.00720    2.60210    0.06310    -999.25    0.06310   15.84900    0.00720   64.19990   64.19990   84.91550   82.46130   82.46130   15.84900   16.99870   19.25990   16.99870    0.12500    -999.25    0.12500    2.59990  -61.09490  -31.83340   19.25990
