~Version ---------------------------------------------------
VERS. 2.0 : CWLS log ASCII Standard -VERSION 2.0
WRAP.  NO : ONE LINE PER DEPTH STEP
~Well ------------------------------------------------------
STRT.M                       300.0 : START DEPTH
STOP.M                      1750.0 : STOP DEPTH
STEP.M                    50.00000 : STEP LENGTH
NULL.                      -999.25 : NULL VALUE
COMP. HUSKY OIL OPERATIONS LIMITED : COMPANY
WELL. HUSKY ET AL NIPISI 5-34-80-9 : WELL
FLD .                              : FIELD
LOC .                              : LOCATION
CTRY.                       CANADA : COUNTRY
SRVC.                Dresser Atlas : SERVICE COMPANY
DATE.                  16-Aug-1979 : LOGDATE
PROV.                      Alberta : PROVINCE
UWI .             100053408009W500 : UNIQUE WELL ID
SLAT.WGS84           55.9757626554 : SURFACE LATITUDE
SLON.WGS84         -115.3261442308 : SURFACE LONGITUDE
~Curve Information -----------------------------------------
DEPT    .M      : DEPTH METERS
ACED    .US/M   : ACOUSTIC FROM SONIC LOG [DEPTH SHIFTED TO RES.]
CALDED  .MM     : CALIPER FROM DENSITY LOG [DEPTH SHIFTED TO RES.]
CALWS   .MM     : CALIPER [CALDED]
CONDWS  .MMHO   : CONDUCTIVITY [1000/DRESWS]
CORRED  .KG/M3  : DENSITY CORRECTION [DEPTH SHIFTED TO RES.]
DCORWS  .KG/M3  : DENSITY CORRECTION [CORRED]
DENWS   .KG/M3  : BULK DENSITY [M=2710, F=1000. CALCULATED FROM DPOLSWS]
DPHILSED.V/V    : DENSITY POROSITY LIMESTONE FROM DENSITY LOG [DEPTH SHIFTED TO RES.]
DPOLSWS .V/V    : DENSITY POROSITY LIMESTONE [DPHILSED]
DRESWS  .OHMM   : DEEP RESISTIVITY [ILDED]
DTWS    .US/M   : DELTA TIME [ACED]
GRSED   .GAPI   : GAMMA RAY FROM SONIC LOG [DEPTH SHIFTED TO RES.]
GRWS    .GAPI   : GAMMA RAY [GRSED]
ILDED   .OHMM   : INDUCTION LOG DEEP RESISTIVITY
ILMED   .OHMM   : INDUCTION LOG MEDIUM RESISTIVITY
MRESWS  .OHMM   : MEDIUM RESISTIVITY [ILMED]
NPHILSED.V/V    : NEUTRON POROSITY LIMESTONE FROM DENSITY LOG [DEPTH SHIFTED TO RES.]
NPOLSWS .V/V    : NEUTRON POROSITY LIMESTONE [NPHILSED]
RHOBED  .KG/M3  : BULK DENSITY [DEPTH SHIFTED TO RES.]
SFLED   .OHMM   : SPHERICALLY FOCUSED LOG RESISTIVITY
SPRED   .MV     : SPONTANEOUS POTENTIAL FROM RESISTIVITY LOG
SPWS    .MV     : SPONTANEOUS POTENTIAL [BASELINE 0 MV] [SPRED]
SRESWS  .OHMM   : SHALLOW RESISTIVITY [SFLED]
~Params ----------------------------------------------------
PD  .                         GL : PERMANENT DATUM
EPD .M                     644.9 : ELEVATION PERMANENT DATUM
LMF .                         KB : LOG MEASURED FROM
DAPD.M                       4.1 : FEET ABOVE PERMANENT DATUM
DMF .                         KB : DRILLING MEASURED FROM
EKB .M                       649 : KELLY BUSHING
EGL .M                     644.9 : GROUND LEVEL
DATE.                   08/16/79 : RUN DATE
RUN .                          1 : RUN NUMBER
DD  .M                      1800 : DEPTH DRILLER
DL  .M                      1799 : DEPTH LOGGER
BLI .M                      1799 : BOTTOM LOG INTERVAL
TLI .M                       210 : TOP LOG INTERVAL
CS  .MM                      245 : CASING SIZE
CBD .M                       211 : CASING BOTTOM DRILLER
CBL .M                       210 : CASING BOTTOM LOGGER
BS  .MM                      222 : BIT SIZE
BSD .M                      1800 : BIT SIZE AT DEPTH
DFT .                  GEL BENEX : DRILLING FLUID TYPE
DFD .                       1140 : DRILLING FLUID DENSITY
DFV .                         72 : DRILLING FLUID VISCOSITY
DFPH.                          9 : DRILLING FLUID PH
DFL .                        9.8 : DRILLING FLUID LOSS
MSS .                   FLOWLINE : MUD SAMPLE SOURCE
RMS .OHMM                    0.5 : RESISTIVITY MUD SAMPLE
MST .DEGC                     19 : MUD SAMPLE TEMPERATURE
RMF .OHMM                   0.35 : RESISTIVITY MUD FILTRATE SAMPLE
MFST.DEGC                     19 : MUD FILTRATE SAMPLE TEMPERATURE
MFSS.                       MEAS : MUD FILTRATE SAMPLE SOURCE
MCSS.                       MEAS : MUD CAKE SAMPLE SOURCE
RMB .OHMM                   0.19 : RESISTIVITY MUD AT BHT
TCS .HRS                       7 : TIME CIRCULATED STOPPED
LUN .                    HL 6162 : LOGGING UNIT NUMBER
LUL .                        EDM : LOGGING UNIT LOCATION
ENGI.                       STEC : RECORDING ENGINEER
WITN.                   NIAWCHUK : WITNESSED BY
CLNT.                    A2DTECH : CLIENT CODE
ORIG. 6.5"/100M 16.5"/100M PRINT : ORIGIN OF DATA
UWI .           100053408009W500 : UNIQUE WELL ID
DICO.     A2D Technologies, Inc. : DIGITIZING COMPANY
~Other -----------------------------------------------------
~ASCII -----------------------------------------------------
  300.00000  450.60220  386.98830  386.98830  289.23470   90.81940   90.81940 2228.12210    0.28180    0.28180    3.45740  450.60220   81.37730   81.37730    3.45740    3.26090    3.26090    0.43810    0.43810 2219.48220    6.67640  -83.92490  -14.00270    6.67640
  350.00000  353.68290  243.98750  243.98750  153.51550   96.78640   96.78640 2084.65310    0.36570    0.36570    6.51400  353.68290   64.27730   64.27730    6.51400    8.21360    8.21360    0.33310    0.33310 2077.92480    8.49520 -100.93450  -33.92120    8.49520
  400.00000  597.20470  391.78360  391.78360  305.45540  -23.92630  -23.92630 1481.36500    0.71850    0.71850    3.27380  597.20470   56.42860   56.42860    3.27380    2.91980    2.91980    0.45740    0.45740 1493.17870    5.59510  -82.37800  -18.27370    5.59510
  450.00000  389.87190  332.77830  332.77830  164.82070  110.83050  110.83050 2255.48190    0.26580    0.26580    6.06720  389.87190   61.04850   61.04850    6.06720    6.64790    6.64790    0.39050    0.39050 2245.32030    7.52670  -96.44200  -35.24660    7.52670
  500.00000  374.06790  400.14990  400.14990  214.70290  114.49230  114.49230 2157.84110    0.32290    0.32290    4.65760  374.06790   61.66000   61.66000    4.65760    5.02600    5.02600    0.45940    0.45940 2036.10940    6.04230  -81.77800  -23.49150    6.04230
  550.00000  225.93240  291.49330  291.49330    7.64770   94.09970   94.09970 2518.82200    0.11180    0.11180  130.75750  225.93240   16.13080   16.13080  130.75750   57.09650   57.09650    0.18150    0.18150 2504.78660  104.62470  -99.42780  -44.05020  104.62470
  600.00000  226.88610  343.15920  343.15920   80.35740   83.15480   83.15480 2601.41500    0.06350    0.06350   12.44440  226.88610   40.95050   40.95050   12.44440    9.48970    9.48970    0.25370    0.25370 2588.87260   17.26350  -86.70360  -34.23490   17.26350
  650.00000  184.07570  325.64430  325.64430   57.05610   76.52940   76.52940 2584.99900    0.07310    0.07310   17.52660  184.07570   23.69000   23.69000   17.52660   18.53360   18.53360    0.10630    0.10630 2561.15480   43.98680  -77.86330  -28.30350   43.98680
  700.00000  193.01360  303.10220  303.10220   49.29900   67.40500   67.40500 2692.89990    0.01000    0.01000   20.28440  193.01360   31.48120   31.48120   20.28440   20.73960   20.73960    0.07190    0.07190 2673.37480   29.54670  -66.23130  -19.58040   29.54670
  750.00000  281.37580  355.51500  355.51500  160.33860  111.71260  111.71260 2318.06790    0.22920    0.22920    6.23680  281.37580   37.92610   37.92610    6.23680    6.42960    6.42960    0.28410    0.28410 2292.01220    8.26710  -50.73160   -6.98970    8.26710
  800.00000  196.60120  284.42520  284.42520   50.76320   63.85860   63.85860 2660.58110    0.02890    0.02890   19.69930  196.60120   23.60570   23.60570   19.69930   20.93950   20.93950    0.08490    0.08490 2642.87380   35.48540  -61.31450  -19.61990   35.48540
  850.00000  186.80940  285.75230  285.75230   27.32260  213.93870  213.93870 2586.70900    0.07210    0.07210   36.59980  186.80940   24.41570   24.41570   36.59980   56.87510   56.87510    0.12410    0.12410 2567.14770   92.05630  -94.60810  -29.91960   92.05630
  900.00000  184.06920  268.35220  268.35220   19.01890  173.23350  173.23350 2704.01490    0.00350    0.00350   52.57920  184.06920   21.54850   21.54850   52.57920   76.35150   76.35150    0.07970    0.07970 2684.38550  138.37170 -101.50820  -35.45740  138.37170
  950.00000  210.76960  267.70480  267.70480   39.26470  149.53340  149.53340 2431.78300    0.16270    0.16270   25.46820  210.76960   20.21870   20.21870   25.46820   56.17290   56.17290    0.17910    0.17910 2417.30400   54.18720 -115.34830  -47.93520   54.18720
 1000.00000  181.90140  275.08210  275.08210   20.82900   91.21420   91.21420 2673.40600    0.02140    0.02140   48.00990  181.90140   17.49430   17.49430   48.00990   58.71650   58.71650    0.07420    0.07420 2651.53320  104.54520  -95.86490  -27.08950  104.54520
 1050.00000  174.42330  273.80080  273.80080   15.28180   74.71600   74.71600 2717.01100   -0.00410   -0.00410   65.43710  174.42330   12.53660   12.53660   65.43710   59.56200   59.56200    0.04040    0.04040 2701.72290  138.98300  -94.23320  -24.09550  138.98300
 1100.00000  192.48930  263.30870  263.30870   55.39920   83.15270   83.15270 2610.82010    0.05800    0.05800   18.05080  192.48930   16.55570   16.55570   18.05080   21.74820   21.74820    0.16740    0.16740 2589.24540   27.92490 -106.96800  -35.46790   27.92490
 1150.00000  176.50270  276.67000  276.67000   35.59780  125.28390  125.28390 2627.23610    0.04840    0.04840   28.09160  176.50270   29.29920   29.29920   28.09160   36.68830   36.68830    0.20230    0.20230 2610.26390   29.13800 -115.83500  -42.97260   29.13800
 1200.00000  187.21370  257.79540  257.79540   75.08690  119.87580  119.87580 2671.86690    0.02230    0.02230   13.31790  187.21370   39.37650   39.37650   13.31790   19.01300   19.01300    0.18020    0.18020 2653.94360   13.55300  -90.07450  -15.84980   13.55300
 1250.00000  331.88830  322.38070  322.38070  299.88600  127.51970  127.51970 2124.15410    0.34260    0.34260    3.33460  331.88830   83.46790   83.46790    3.33460    3.10400    3.10400    0.36460    0.36460 2132.83540    4.31130  -77.00850  -10.99900    4.31130
 1300.00000  290.41420  313.13570  313.13570  235.90470  133.17860  133.17860 2491.97510    0.12750    0.12750    4.23900  290.41420   74.20810   74.20810    4.23900    4.47000    4.47000    0.33980    0.33980 2478.34230    5.47600  -76.10770  -11.99820    5.47600
 1350.00000  333.72700  400.00000  400.00000  356.15070  163.32080  163.32080 2346.45410    0.21260    0.21260    2.80780  333.72700   93.95590   93.95590    2.80780    2.93550    2.93550    0.42410    0.42410 2337.60990    4.14290  -72.54500  -10.33560    4.14290
 1400.00000  208.79840  264.33200  264.33200   83.98280   81.36070   81.36070 2705.38310    0.00270    0.00270   11.90720  208.79840   43.29910   43.29910   11.90720   13.43820   13.43820    0.11850    0.11850 2689.91850   12.90740  -64.32200   -4.01260   12.90740
 1450.00000  229.41020  275.87820  275.87820  123.08600   76.77340   76.77340 2690.16410    0.01160    0.01160    8.12440  229.41020   53.49530   53.49530    8.12440    8.55050    8.55050    0.18090    0.18090 2672.48440    9.50630  -62.05960   -3.65030    9.50630
 1500.00000  345.70040  307.93100  307.93100  429.92260  107.20040  107.20040 2165.70700    0.31830    0.31830    2.32600  345.70040  114.24840  114.24840    2.32600    2.37960    2.37960    0.38170    0.38170 2161.18240    3.49120  -75.64050  -19.13120    3.49120
 1550.00000  261.55560  319.31720  319.31720  222.48920   38.96480   38.96480 1859.95900    0.49710    0.49710    4.49460  261.55560   61.50590   61.50590    4.49460    5.56400    5.56400    0.31850    0.31850 1881.93210    6.72970  -69.72540  -15.11620    6.72970
 1600.00000  248.46760  288.40290  288.40290  148.92250  129.51000  129.51000 2610.99100    0.05790    0.05790    6.71490  248.46760   75.01160   75.01160    6.71490    7.77400    7.77400    0.22300    0.22300 2596.13260    9.93480  -58.00430   -5.29510    9.93480
 1650.00000  243.85550  269.04650  269.04650  133.98000   64.46880   64.46880 2698.71410    0.00660    0.00660    7.46380  243.85550   65.86170   65.86170    7.46380    8.23630    8.23630    0.18670    0.18670 2672.26930    9.33030  -54.63430   -3.82520    9.33030
 1700.00000  248.07590  243.72890  243.72890  346.11660  156.52540  156.52540 2381.67990    0.19200    0.19200    2.88920  248.07590  103.92100  103.92100    2.88920    3.57920    3.57920    0.16830    0.16830 2360.46310    6.94350 -104.37030  -50.50960    6.94350
 1750.00000  177.50190  243.68840  243.68840  122.82150   78.96620   78.96620 2794.47410   -0.04940   -0.04940    8.14190  177.50190   63.82340   63.82340    8.14190   24.22500   24.22500    0.11530    0.11530 2791.08890   32.36510  -69.95030  -13.61400   32.36510
