~Version ---------------------------------------------------
VERS.      2.0 : CWLS log ASCII Standard -VERSION 2.0
WRAP.       NO : One line per depth step
CREA. 10/07/14 : LAS Creation Date
~Well ------------------------------------------------------
STRT.M                           300.0 : START DEPTH
STOP.M                          2200.0 : STOP DEPTH
STEP.M                        50.00000 : STEP LENGTH
NULL.                          -999.25 : NULL VALUE
COMP.         ANDERSON EXPLORATION LTD : COMPANY
WELL. ANDERSON ESSO WESTLOCK 7-19-61-1 : WELL
FLD .                                  : FIELD
LOC .                                  : LOCATION
CTRY.                           CANADA : COUNTRY
SRVC.                     Schlumberger : SERVICE COMPANY
DATE.                      27-Dec-1979 : LOGDATE
PROV.                          Alberta : PROVINCE
UWI .                 100071906101W500 : UNIQUE WELL ID
SLAT.WGS84                    54.28987 : SURFACE LATITUDE
SLON.WGS84                   -114.1324 : SURFACE LONGITUDE
~Curve Information -----------------------------------------
DEPT    .M      : DEPTH METER
CALDED  .MM     : CALIPER FROM DENSITY LOG [ADJ. TO RESISTIVITY LOG]
CALSED  .MM     : CALIPER FROM SONIC LOG [ADJ. TO RESISTIVITY LOG]
CALWS   .MM     : CALIPER [CALSED]
CONDWS  .MMHO   : CONDUCTIVITY [1000/DRESWS]
DCORED  .KG/M3  : DENSITY CORRECTION FROM DENSITY LOG [ADJ. TO RESISTIVITY LOG]
DCORWS  .KG/M3  : DENSITY CORRECTION [DCORED]
DENWS   .KG/M3  : FORMATION BULK DENSITY [RHOBED]
DPHILSED.V/V    : DENSITY POROSITY LIMESTONE [M=2710,F=1000] FROM DENSITY LOG [ADJ. TO RESISTIVITY LOG]
DPHISSED.V/V    : DENSITY POROSITY SANDSTONE [M=2650,F=1000] FROM DENSITY LOG [ADJ. TO RESISTIVITY LOG]
DPOLSWS .V/V    : DENSITY POROSITY LIMESTONE [CALC. FROM DENWS M=2710,F=1000]
DRESWS  .OHMM   : DEEP RESISTIVITY [ILDED]
DTED    .US/M   : DELTA-T FROM SONIC LOG [ADJ. TO RESISTIVITY LOG]
DTWS    .US/M   : COMPRESSIONAL SONIC [DTED]
GRDED   .GAPI   : GAMMA RAY FROM DENSITY LOG [ADJ. TO RESISTIVITY LOG]
GRSED   .GAPI   : GAMMA RAY FROM SONIC LOG [ADJ. TO RESISTIVITY LOG]
GRWS    .GAPI   : GAMMA RAY [GRSED SPL. TO GRDED @ 2238.3 M]
ILDED   .OHMM   : DEEP INDUCTIONRESISTIVITY FROM RESISTIVITY LOG
ILMED   .OHMM   : MEDIUM INDUCTION RESISTIVITY FROM RESISTIVITY LOG
MRESWS  .OHMM   : MEDIUM RESISTIVITY [ILMED]
NPHILSED.V/V    : NEUTRON POROSITY LIMESTONE FROM DENSITY LOG [ADJ. TO RESISTIVITY LOG]
NPHISSED.V/V    : NEUTRON POROSITY SANDSTONE FROM DENSITY LOG [ADJ. TO RESISTIVITY LOG]
NPOLSWS .V/V    : NEUTRON POROSITY LIMESTONE [NPHISSED (SCHUL.) MATRIX CONVERSION FOR LIMESTONE, SPL. TO NPHILSED @ 948.6M]
RHOBED  .KG/M3  : BULK DENSITY FROM DENSITY LOG [ADJ. TO RESISTIVITY LOG]
SFLED   .OHMM   : SPHERICALLY FOCUSED LOG FROM RESISTIVITY LOG
SPHILSED.V/V    : SONIC POROSITY LIMESTONE FROM SONIC LOG [ADJ. TO RESISTIVITY LOG]
SPHISSED.V/V    : SONIC POROSITY SANDSTONE FROM SONIC LOG [ADJ. TO RESISTIVITY LOG]
SPOLSWS .V/V    : SONIC POROSITY [SPHISSED SPL. TO SPHILSED @ 998M]
SPRED   .MV     : SPONTANEOUS POTENTIAL FROM RESISTIVITY LOG
SPWS    .MV     : SPONTANEOUS POTENTIAL [BASELINE 0MV, SPRED]
SRESWS  .OHMM   : SHALLOW RESISTIVITY [SFLED]
~Params ----------------------------------------------------
PD  .                         GL : PERMANENT DATUM
EPD .M                    635.73 : ELEVATION PERMANENT DATUM
LMF .                         KB : LOG MEASURED FROM
DAPD.M                       4.4 : FEET ABOVE PERMANENT DATUM
DMF .                         KB : DRILLING MEASURED FROM
EKB .M                    640.13 : KELLY BUSHING
EGL .M                    635.73 : GROUND LEVEL
DATE.                   12/27/79 : RUN DATE
RUN .                          1 : RUN NUMBER
DD  .M                      2250 : DEPTH DRILLER
DL  .M                      2250 : DEPTH LOGGER
BLI .M                      2247 : BOTTOM LOG INTERVAL
TLI .M                       216 : TOP LOG INTERVAL
CS  .MM                      219 : CASING SIZE
CBD .M                     216.4 : CASING BOTTOM DRILLER
CBL .M                       216 : CASING BOTTOM LOGGER
BS  .MM                      200 : BIT SIZE
BSD .M                      2250 : BIT SIZE AT DEPTH
DFT .                   GEL CHEM : DRILLING FLUID TYPE
DFD .                       1140 : DRILLING FLUID DENSITY
DFV .                         92 : DRILLING FLUID VISCOSITY
DFPH.                         10 : DRILLING FLUID PH
DFL .                        7.8 : DRILLING FLUID LOSS
MSS .                   FLOWLINE : MUD SAMPLE SOURCE
RMS .OHMM                  0.858 : RESISTIVITY MUD SAMPLE
MST .DEGC                    7.2 : MUD SAMPLE TEMPERATURE
RMF .OHMM                  0.596 : RESISTIVITY MUD FILTRATE SAMPLE
MFST.DEGC                   13.9 : MUD FILTRATE SAMPLE TEMPERATURE
MFSS.                      WATER : MUD FILTRATE SAMPLE SOURCE
MCSS.                       LOSS : MUD CAKE SAMPLE SOURCE
RMB .OHMM                  0.325 : RESISTIVITY MUD AT BHT
TCS .HRS                    2200 : TIME CIRCULATED STOPPED
TLAB.HRS                     430 : TIME LOGGER AT BOTTOM
LUN .                       7767 : LOGGING UNIT NUMBER
LUL .                        EDM : LOGGING UNIT LOCATION
ENGI.                WALTERHOUSE : RECORDING ENGINEER
WITN.                     BRAZEL : WITNESSED BY
CLNT.                    A2DTECH : CLIENT CODE
ORIG. 6.5"/100M 16.5"/100M PRINT : ORIGIN OF DATA
UWI .           100071906101W500 : UNIQUE WELL ID
DICO.     A2D Technologies, Inc. : DIGITIZING COMPANY
~Other -----------------------------------------------------
DIL-SFL-BHC-FDC-CNL LOG RUN.
~ASCII -----------------------------------------------------
  300.00000  301.47030  236.30320  236.30320  288.42550   34.80000   34.80000 2273.22410    -999.25    0.23410    0.25540    3.46710  411.87230  411.87230   74.01320   81.97140   81.97140    3.46710    3.20530    3.20530    -999.25    0.46210    0.42080 2273.22410    3.81850    -999.25    0.54160    0.54160  -94.65200   -2.86180    3.81850
  350.00000  311.62020  249.45180  249.45180  166.84190   27.90000   27.90000 2213.01900    -999.25    0.26750    0.29060    5.99370  383.33170  383.33170   97.84390  108.85670  108.85670    5.99370    5.38670    5.38670    -999.25    0.47670    0.43590 2213.01900    5.63760    -999.25    0.48060    0.48060  -93.90820   -2.92450    5.63760
  400.00000  261.10340  230.92850  230.92850  163.54030   45.90000   45.90000 2195.16260    -999.25    0.27570    0.30110    6.11470  374.71190  374.71190  105.71670  109.77170  109.77170    6.11470    5.57310    5.57310    -999.25    0.47770    0.43690 2195.16260    6.02170    -999.25    0.45860    0.45860  -98.53050   -5.57230    6.02170
  450.00000  369.87640  208.89740  208.89740  198.55060   94.80000   94.80000 2293.49410    -999.25    0.21800    0.24360    5.03650  381.47760  381.47760  131.30730  136.57950  136.57950    5.03650    4.51740    4.51740    -999.25    0.45330    0.41170 2293.49410    4.87070    -999.25    0.47210    0.47210 -100.32470   -5.39420    4.87070
  500.00000  375.00000  204.50680  204.50680  150.45290   42.80000   42.80000 2339.42110    -999.25    0.19460    0.21670    6.64660  362.79510  362.79510  112.23700  122.28220  122.28220    6.64660    5.98710    5.98710    -999.25    0.35020    0.30660 2339.42110    5.79110    -999.25    0.43490    0.43490 -103.49510   -6.59280    5.79110
  550.00000  375.00000  203.62190  203.62190  139.62970  143.00000  143.00000 2353.30350    -999.25    0.18570    0.20860    7.16180  317.60710  317.60710  113.96550  122.95220  122.95220    7.16180    6.77390    6.77390    -999.25    0.30660    0.26260 2353.30350    6.57660    -999.25    0.34290    0.34290 -105.43040   -6.55630    6.57660
  600.00000  341.52180  239.99530  239.99530  169.17900   91.10000   91.10000 2394.76340    -999.25    0.15730    0.18430    5.91090  369.73690  369.73690  125.96890  130.29570  130.29570    5.91090    5.66450    5.66450    -999.25    0.41240    0.36980 2394.76340    6.24750    -999.25    0.45020    0.45020 -100.67660   -4.25190    6.24750
  650.00000  330.54330  222.78050  222.78050  169.26490   73.60000   73.60000 2353.53540    -999.25    0.18210    0.20850    5.90790  341.64650  341.64650  108.19950  118.96830  118.96830    5.90790    5.45710    5.45710    -999.25    0.38290    0.33970 2353.53540    5.63230    -999.25    0.39080    0.39080  -99.06630   -5.75160    5.63230
  700.00000  301.02440  235.31850  235.31850  312.37310   72.50000   72.50000 2455.83420    -999.25    0.11340    0.14860    3.20130  365.80150  365.80150  113.40540  128.32250  128.32250    3.20130    3.11810    3.11810    -999.25    0.40230    0.35950 2455.83420    3.12890    -999.25    0.44480    0.44480  -94.17790   -3.71860    3.12890
  750.00000  287.99400  224.59860  224.59860  308.88030   80.30000   80.30000 2299.66580    -999.25    0.20580    0.24000    3.23750  347.56610  347.56610   98.86420  111.87800  111.87800    3.23750    3.14440    3.14440    -999.25    0.38800    0.34490 2299.66580    3.46720    -999.25    0.40320    0.40320  -95.83210   -5.04230    3.46720
  800.00000  246.81330  216.09570  216.09570  203.52510   26.90000   26.90000 2454.89060    -999.25    0.12340    0.14920    4.91340  309.36890  309.36890   85.75090   89.10540   89.10540    4.91340    5.08010    5.08010    -999.25    0.37190    0.32850 2454.89060    6.52820    -999.25    0.32330    0.32330 -101.44790  -10.32750    6.52820
  850.00000  209.19330  205.75810  205.75810  386.29430   99.60000   99.60000 2323.44970    -999.25    0.20160    0.22610    2.58870  322.66220  322.66220   71.90650   83.51230   83.51230    2.58870    3.04250    3.04250    -999.25    0.34910    0.30550 2323.44970    4.47020    -999.25    0.34910    0.34910 -113.57100  -22.12000    4.47020
  900.00000  231.88150  216.10260  216.10260  281.39690    7.10000    7.10000 2466.61910    -999.25    0.11170    0.14230    3.55370  295.65640  295.65640   83.39350   92.57960   92.57960    3.55370    3.84320    3.84320    -999.25    0.34400    0.30030 2466.61910    4.45100    -999.25    0.28810    0.28810 -103.72420  -11.94270    4.45100
  950.00000  215.54990  208.16140  208.16140   94.41360    2.20000    2.20000 2461.80050    0.12960    0.11540    0.14510   10.59170  250.14160  250.14160   77.96240   78.41090   78.41090   10.59170   11.22910   11.22910    0.20820    0.24540    0.20820 2461.80050   19.84390    -999.25    0.19090    0.19090 -110.30280  -19.38030   19.84390
 1000.00000  211.08550  210.52960  210.52960  236.10520    8.70000    8.70000 2530.53710    0.11000    -999.25    0.10490    4.23540  265.87330  265.87330  103.14760  119.38680  119.38680    4.23540    4.30830    4.30830    0.22260    -999.25    0.22260 2530.53710    4.98890    0.25160    -999.25    0.25160 -111.15960  -21.63070    4.98890
 1050.00000  194.10960  194.73570  194.73570  256.38400  108.30000  108.30000 2607.02220    0.06700    -999.25    0.06020    3.90040  216.83080  216.83080   16.04440   21.22070   21.22070    3.90040    5.65190    5.65190    0.21450    -999.25    0.21450 2607.02220   14.82230    0.14890    -999.25    0.14890 -162.99830  -74.86290   14.82230
 1100.00000  199.13550  196.62920  196.62920  227.76450   33.10000   33.10000 2516.46260    0.12040    -999.25    0.11320    4.39050  237.53710  237.53710   13.94330   14.45010   14.45010    4.39050    5.67110    5.67110    0.24590    -999.25    0.24590 2516.46260   12.48160    0.19050    -999.25    0.19050 -161.43830  -74.69640   12.48160
 1150.00000  202.67640  198.28500  198.28500  579.30710   34.70000   34.70000 2507.51880    0.13050    -999.25    0.11840    1.72620  228.64900  228.64900   15.44790   18.75180   18.75180    1.72620    2.11690    2.11690    0.31130    -999.25    0.31130 2507.51880    5.06320    0.17400    -999.25    0.17400 -162.21520  -76.86690    5.06320
 1200.00000  196.22940  196.41490  196.41490  161.88560   64.00000   64.00000 2562.86280    0.08010    -999.25    0.08600    6.17720  196.13340  196.13340   20.53300   22.36360   22.36360    6.17720    9.19000    9.19000    0.24820    -999.25    0.24820 2562.86280   30.36780    0.10110    -999.25    0.10110 -158.68020  -74.72540   30.36780
 1250.00000  218.61990  223.04690  223.04690   21.17630   20.00000   20.00000 2712.34350   -0.00240    -999.25   -0.00140   47.22260  177.10190  177.10190   26.47360   24.93330   24.93330   47.22260   50.20790   50.20790    0.05900    -999.25    0.05900 2712.34350   46.90600    0.05760    -999.25    0.05760 -118.53830  -35.97700   46.90600
 1300.00000  247.00980  238.31930  238.31930  137.60840  246.50000  246.50000 2524.83980    0.10090    -999.25    0.10830    7.26700  250.32420  250.32420   69.88180   79.33610   79.33610    7.26700    6.89290    6.89290    0.23380    -999.25    0.23380 2524.83980    8.39430    0.21850    -999.25    0.21850  -96.13560  -14.96790    8.39430
 1350.00000  363.25710  303.34430  303.34430  175.93860  185.30000  185.30000 2379.88790    0.19840    -999.25    0.19300    5.68380  267.75170  267.75170   66.50620   74.29970   74.29970    5.68380    5.54920    5.54920    0.28740    -999.25    0.28740 2379.88790    5.64340    0.25370    -999.25    0.25370  -94.55380  -14.77960    5.64340
 1400.00000  235.64520  233.02640  233.02640   78.60710   16.70000   16.70000 2688.22360    0.01460    -999.25    0.01270   12.72150  209.03030  209.03030   47.01210   51.16140   51.16140   12.72150   13.55610   13.55610    0.12360    -999.25    0.12360 2688.22360   14.79920    0.12740    -999.25    0.12740  -87.45990   -9.05150   14.79920
 1450.00000  262.65910  249.76530  249.76530   89.00440  179.90000  179.90000 2462.71440    0.14520    -999.25    0.14460   11.23540  213.84480  213.84480   49.62230   56.57510   56.57510   11.23540   14.51140   14.51140    0.13200    -999.25    0.13200 2462.71440   13.48440    0.14480    -999.25    0.14480  -82.50070   -5.40190   13.48440
