~Version ---------------------------------------------------
VERS.      2.0 : CWLS log ASCII Standard -VERSION 2.0
WRAP.       NO : One line per depth step
CREA. 12/15/17 : LAS Creation Date
~Well ------------------------------------------------------
STRT.FT                  1000.0 : START DEPTH
STOP.FT                  9550.0 : STOP DEPTH
STEP.FT                50.00000 : STEP LENGTH
NULL.                   -999.25 : NULL VALUE
COMP.      THE PURE OIL COMPANY : COMPANY
WELL. PURE SAKWATAMAU 7-7-63-14 : WELL
FLD .                           : FIELD
LOC .                           : LOCATION
CTRY.                    CANADA : COUNTRY
SRVC.              Schlumberger : SERVICE COMPANY
DATE.               26-Dec-1963 : LOGDATE
PROV.                   Alberta : PROVINCE
UWI .          100070706314W500 : UNIQUE WELL ID
SLAT.WGS84              54.4354 : SURFACE LATITUDE
SLON.WGS84            -116.1027 : SURFACE LONGITUDE
~Curve Information -----------------------------------------
DEPT  .FT    : Depth Curve
CALDED.IN    : CALIPER FROM DENSITY LOG
CALWS .IN    : CALIPER [MCALED]
CILDED.MMHO  : CONDUCTIVITY FROM RESISTIVITY LOG
CONDWS.MMHO  : CONDUCTIVITY [1000/DRESWS]
DENED .SCPS  : BULK DENSITY FROM DENSITY LOG
DRESWS.OHMM  : DEEP RESISTIVITY [1000/CILDED IF ILDED<2, ILDED]
DT1ED .US/F  : DELTA TIME [BOTTOM SECTION] SPAN 1 FT [ADJ. TO DTED]
DTED  .US/F  : DELTA TIME 3 FT SPACING 3 FT PICKUP SPAN FROM SONIC LOG
DTWS  .US/F  : COMPRESSIONAL SONIC [DTED]
GRSED .GAPI  : GAMMA RAY FROM SONIC LOG
GRWS  .GAPI  : GAMMA RAY [GRSED]
ILDED .OHMM  : DEEP INDUCTION FROM RESISTIVITY LOG
MCALED.IN    : CALIPER FROM MICROLOG [ADJ. TO RESISTIVITY LOG]
SNED  .OHMM  : 16 INCH SHORT NORMAL RESISTIVITY FROM RESISTIVITY LOG
SPRED .MV    : SPONTANEOUS POTENTIAL FROM RESISTIVITY LOG
SPWS  .MV    : SPONTANEOUS POTENTIAL [BASELINE 0 MV, SPRED]
SRESWS.OHMM  : SHALLOW RESISTIVITY [SNED]
~Params ----------------------------------------------------
PD  .                     GL : PERMANENT DATUM
EPD .FT                  329 : ELEVATION PERMANENT DATUM
LMF .                     KB : LOG MEASURED FROM
DAPD.FT                   15 : FEET ABOVE PERMANENT DATUM
EKB .FT                 3044 : KELLY BUSHING
EGL .FT                 3029 : GROUND LEVEL
DATE.               12/26/63 : RUN DATE
RUN .                      1 : RUN NUMBER
DD  .FT                 9580 : DEPTH DRILLER
DL  .FT                 9563 : DEPTH LOGGER
BLI .FT                 9562 : BOTTOM LOG INTERVAL
TLI .FT                  994 : TOP LOG INTERVAL
CBD .FT                  994 : CASING BOTTOM DRILLER
CBL .FT                  994 : CASING BOTTOM LOGGER
BS  .IN                    9 : BIT SIZE
BSD .FT                 9580 : BIT SIZE AT DEPTH
DFT .               GEL CHEM : DRILLING FLUID TYPE
DFD .                    9.8 : DRILLING FLUID DENSITY
DFV .                    205 : DRILLING FLUID VISCOSITY
DFPH.                    9.5 : DRILLING FLUID PH
DFL .                    3.8 : DRILLING FLUID LOSS
RMS .OHMM               1.37 : RESISTIVITY MUD SAMPLE
MST .DEGF                 79 : MUD SAMPLE TEMPERATURE
RMF .OHMM               0.95 : RESISTIVITY MUD FILTRATE SAMPLE
MFST.DEGF                 73 : MUD FILTRATE SAMPLE TEMPERATURE
RMC .OHMM               1.63 : RESISTIVITY MUD CAKE
MCST.DEGF                 77 : MUD CAKE SAMPLE TEMPERATURE
RMB .OHMM               0.67 : RESISTIVITY MUD AT BHT
TCS .HRS                 2.5 : TIME CIRCULATED STOPPED
LUN .                   3704 : LOGGING UNIT NUMBER
LUL .                     VV : LOGGING UNIT LOCATION
ENGI.                  MILLS : RECORDING ENGINEER
WITN.                  SMITH : WITNESSED BY
CLNT.                A2DTECH : CLIENT CODE
ORIG.            2" 5" PRINT : ORIGIN OF DATA
UWI .       100070706314W500 : UNIQUE WELL ID
DICO. A2D Technologies, Inc. : DIGITIZING COMPANY
~Other -----------------------------------------------------
~ASCII -----------------------------------------------------
# ...
 5100.00000    -999.25   10.55850  122.13940  119.67880    -999.25    8.35570    -999.25   79.51510   79.51510   78.42840   78.42840    8.35570   10.55850   11.67150  -60.96690   -5.59050   11.67150
 5150.00000    -999.25   13.05670   98.62200   93.50780    -999.25   10.69430    -999.25   60.88050   60.88050   65.07810   65.07810   10.69430   13.05670   13.94100  -65.99810  -10.17720   13.94100
 5200.00000    -999.25   11.58630  108.58260  105.20230    -999.25    9.50550    -999.25   74.24260   74.24260   67.56280   67.56280    9.50550   11.58630   13.84450  -66.84930  -10.63220   13.84450
 5250.00000    -999.25   11.91790  107.62250  106.55190    -999.25    9.38510    -999.25   88.01230   88.01230   74.31480   74.31480    9.38510   11.91790   12.76310  -63.56270   -6.94940   12.76310
 5300.00000    -999.25   10.84010  145.44640  140.73640    -999.25    7.10550    -999.25   77.96600   77.96600   58.48050   58.48050    7.10550   10.84010   16.35150 -112.68150  -55.67410   16.35150
 5350.00000    -999.25   10.58430  114.19440  111.69690    -999.25    8.95280    -999.25   80.19520   80.19520   70.75350   70.75350    8.95280   10.58430   11.42900  -62.17020   -4.76460   11.42900
 5400.00000    -999.25   10.30960  102.16880   97.89720    -999.25   10.21480    -999.25   77.42520   77.42520   43.02270   43.02270   10.21480   10.30960   14.96130 -101.72300  -43.92120   14.96130
 5450.00000    -999.25   11.71820  115.40290  113.40570    -999.25    8.81790    -999.25   77.86330   77.86330   83.58470   83.58470    8.81790   11.71820   10.02540  -62.28970   -4.09170   10.02540
 5500.00000    -999.25   13.57550  214.89650  201.86520    -999.25    4.95380    -999.25   69.14100   69.14100   70.91300   70.91300    4.95380   13.57550    6.38950  -64.14070   -5.54650    6.38950
 5550.00000    -999.25   13.84040  258.14700  249.59950    -999.25    4.00880    -999.25   75.54860   75.54860   71.29080   71.29080    4.00880   13.84040    6.59200  -80.97740  -21.98900    6.59200
 5600.00000    -999.25   10.22210   29.74130   29.73740    -999.25   33.62770    -999.25   65.16380   65.16380   42.68090   42.68090   33.62770   10.22210   36.81420  -71.79060  -12.40410   36.81420
 5650.00000    -999.25   15.04360  288.93300  266.29740    -999.25    3.75520    -999.25   87.39140   87.39140   72.71120   72.71120    3.75520   15.04360    5.37960  -72.70560  -12.92290    5.37960
 5700.00000    -999.25   10.09100  119.34360  116.14670    -999.25    8.60980    -999.25   84.28400   84.28400   67.85250   67.85250    8.60980   10.09100   11.98940  -65.11490   -4.93600   11.98940
 5750.00000    -999.25   11.69420  114.10360  114.78420    -999.25    8.71200    -999.25   73.54110   73.54110   60.74840   60.74840    8.71200   11.69420   11.53780  -68.53790   -7.96280   11.53780
 5800.00000    -999.25   14.93180  148.22670  139.18620    -999.25    7.18950    -999.25   93.42200   93.42200   78.27540   78.27540    7.18950   14.93180    7.64840  -69.86370   -8.89440    7.64840
 5850.00000    -999.25    9.70600    3.79280    3.81110    -999.25  262.39130    -999.25   63.92680   63.92680   57.92760   57.92760  262.39130    9.70600  100.79420  -76.35620  -14.98880  100.79420
 5900.00000    -999.25    9.53630    7.50710    5.81760    -999.25  171.89330    -999.25   63.99080   63.99080   77.27590   77.27590  171.89330    9.53630  157.08230  -93.50800  -31.74440  157.08230
 5950.00000    -999.25    9.11870   58.92690   58.55860    -999.25   17.07690    -999.25   54.16270   54.16270   19.80970   19.80970   17.07690    9.11870   38.17310 -133.66770  -71.50790   38.17310
 6000.00000    -999.25    9.28520  163.82700  151.30880    -999.25    6.60900    -999.25   58.83710   58.83710   40.44600   40.44600    6.60900    9.28520   20.10310 -132.32600  -69.77000   20.10310
 6050.00000    -999.25    9.35050   21.29690   19.01550    -999.25   52.81230    -999.25   56.57820   56.57820   67.43500   67.43500   52.81230    9.35050   75.91450  -79.68750  -16.73740   75.91450
 6100.00000    -999.25   10.00490    2.85490    2.44140    -999.25  409.59720    -999.25   48.74210   48.74210   31.77910   31.77910  409.59720   10.00490  212.88540 -128.46730  -65.11900  212.88540
 6150.00000    -999.25    8.73220   25.10580   24.38690    -999.25   41.00560    -999.25   49.49220   49.49220   21.18160   21.18160   41.00560    8.73220  112.20730 -185.72010 -121.97560  112.20730
 6200.00000    -999.25    9.78730   10.42630    8.93270    -999.25  111.94850    -999.25   49.57270   49.57270   18.74390   18.74390  111.94850    9.78730  154.14120 -161.65580  -97.51510  154.14120
 6250.00000    -999.25   10.12640  294.68390  275.61120    -999.25    3.62830    -999.25   67.01790   67.01790   63.39250   63.39250    3.62830   10.12640    7.46990  -96.40100  -31.86410    7.46990
 6300.00000    -999.25    9.55320  271.32170  249.17880    -999.25    4.01780    -999.25   64.29290   64.29290   39.79420   39.79420    4.01780    9.55320   10.40560 -118.25590  -53.32480   10.40560
 6350.00000    -999.25    9.56310   79.28400   79.04890    -999.25   12.65040    -999.25   63.18090   63.18090   71.41920   71.41920   12.65040    9.56310   20.23370  -68.90150   -4.57290   20.23370
 6400.00000    -999.25    9.59420   21.72690   20.43400    -999.25   48.93810    -999.25   54.48680   54.48680   30.17730   30.17730   48.93810    9.59420   67.63110  -87.83630  -24.72560   67.63110
 6450.00000    -999.25    9.36360   16.91840   15.88100    -999.25   62.96830    -999.25   54.02340   54.02340   36.79680   36.79680   62.96830    9.36360   74.80460  -82.39850  -20.50560   74.80460
 6500.00000    -999.25    9.25130    8.96510    8.65510    -999.25  115.53840    -999.25   52.63200   52.63200   22.96990   22.96990  115.53840    9.25130   88.84810  -96.54170  -35.86660   88.84810
 6550.00000    -999.25    9.35270   17.86180   16.11440    -999.25   62.05680    -999.25   55.05610   55.05610   35.81070   35.81070   62.05680    9.35270   59.76540  -88.31700  -28.85360   59.76540
 6600.00000    -999.25    9.36760   20.32780   19.08730    -999.25   52.39090    -999.25   54.69010   54.69010   32.24560   32.24560   52.39090    9.36760   47.98940  -89.40420  -31.16470   47.98940
 6650.00000    -999.25    9.35570   20.83640   20.59980    -999.25   48.54410    -999.25   54.07060   54.07060   38.63000   38.63000   48.54410    9.35570   48.30890  -92.02020  -34.99850   48.30890
 6700.00000    -999.25    9.08110   18.68840   16.63730    -999.25   60.10590    -999.25   54.72850   54.72850   36.84120   36.84120   60.10590    9.08110   67.94280  -75.89400  -20.09020   67.94280
 6750.00000    -999.25    9.74690   36.49530   36.64780    -999.25   27.28680    -999.25   78.34410   78.34410  109.45170  109.45170   27.28680    9.74690   36.99760  -56.88250   -2.29650   36.99760
 6800.00000    -999.25    9.26610   69.65740   69.32540    -999.25   14.42490    -999.25   61.52380   61.52380   80.83410   80.83410   14.42490    9.26610   20.21430  -86.03180  -31.95280   20.21430
 6850.00000    -999.25    9.23120    7.77770    5.03890    -999.25  198.45530    -999.25   51.16620   51.16620   37.90990   37.90990  198.45530    9.23120  131.67280  -82.59420  -28.99750  131.67280
 6900.00000    -999.25    9.38510    4.22730    3.04640    -999.25  328.26120    -999.25   49.88150   49.88150   20.02350   20.02350  328.26120    9.38510  157.68440 -125.60950  -72.49270  157.68440
 6950.00000    -999.25    9.33520    2.89000    1.99880    -999.25  500.29130    -999.25   49.39620   49.39620   18.66320   18.66320  500.29130    9.33520  174.61680 -124.80100  -72.16410  174.61680
 7000.00000    -999.25    9.24200   14.28190   12.90540    -999.25   77.48670    -999.25   51.62250   51.62250   11.44560   11.44560   77.48670    9.24200  131.82470 -158.04450 -105.88750  131.82470
 7050.00000    -999.25    9.30680   20.29920   16.80580    -999.25   59.60020    -999.25   50.54590   50.54590   12.99970   12.99970   59.60020    9.30680   96.64520 -154.17600 -102.49650   96.64520
 7100.00000    -999.25    8.70580   41.58120   39.07060    -999.25   25.59470    -999.25   53.05780   53.05780   13.92290   13.92290   25.59470    8.70580  107.24180 -187.27800 -136.08090  107.24180
