~Version ---------------------------------------------------
VERS. 2.0 : CWLS log ASCII Standard -VERSION 2.0
WRAP.  NO : ONE LINE PER DEPTH STEP
~Well ------------------------------------------------------
STRT.F                           1500.0 : START DEPTH
STOP.F                          11900.0 : STOP DEPTH
STEP.F                         50.00000 : STEP LENGTH
NULL.                           -999.25 : NULL VALUE
COMP.  AMOCO CANADA PETROLEUM CO., LTD. : COMPANY
WELL. AMOCO HB FINA FIR S-I  7-26-59-20 : WELL
FLD .                                   : FIELD
LOC .                                   : LOCATION
CTRY.                            CANADA : COUNTRY
SRVC.            Schlumberger of Canada : SERVICE COMPANY
DATE.                       07-Jan-1978 : LOGDATE
PROV.                           Alberta : PROVINCE
UWI .                  100072605920W500 : UNIQUE WELL ID
SLAT.WGS84                     54.12779 : SURFACE LATITUDE
SLON.WGS84                    -116.8825 : SURFACE LONGITUDE
~Curve Information -----------------------------------------
DEPT   .F                 : 
GRS    .GAPI 60 310 01 01 : GAMMA RAY FROM SONIC LOG
CALS   .IN   60 280 50 00 : CALIPER FROM SONIC LOG
DT     .US/F 60 520 00 00 : DELTA TIME FROM SONIC LOG
GRD    .GAPI 45 310 01 01 : GAMMA RAY FROM DENSITY LOG
RHOB   .G/C3 45 350 01 00 : BULK DENSITY
CALD   .IN   45 280 60 00 : CALIPER FROM DENSITY LOG
DCOR   .G/C3 45 356 01 00 : DENSITY CORRECTION
NPHI_SS.DEC  42 890 03 00 : NEUTRON POROSITY SANDSTONE
DPHI_SS.DEC  45 890 12 00 : DENSITY POROSITY SANDSTONE
DPHI_LS.DEC  45 890 10 00 : DENSITY POROSITY
NPHI_LS.DEC  42 890 01 00 : NEUTRON POROSITY LIMESTONE
ILD    .OHMM 06 121 12 00 : INDUCTION LOG RESISTIVITY
ILM    .OHMM 07 120 44 00 : INDUCTION LOG MEDIUM RESISTIVITY
LL8    .OHMM 07 220 01 00 : DIGITAL FOCUSED LATEROLOG
SPR    .MV   07 010 01 01 : SELF POTENTIAL
~Params ----------------------------------------------------
PD  .                     GL : PERMANENT DATUM
EPD .FT              3289.04 : ELEVATION PERMANENT DATUM
LMF .                     KB : LOG MEASURED FROM
DAPD.FT                 21.2 : FEET ABOVE PERMANENT DATUM
EKB .FT              3310.24 : KELLY BUSHING
EGL .FT              3289.04 : GROUND LEVEL
DATE.               01/07/78 : RUN DATE
RUN .                      1 : RUN NUMBER
DD  .FT                11910 : DEPTH DRILLER
DL  .FT                11919 : DEPTH LOGGER
BLI .FT                11913 : BOTTOM LOG INTERVAL
TLI .FT                 1534 : TOP LOG INTERVAL
CBD .FT                 1534 : CASING BOTTOM DRILLER
CBL .FT                 1534 : CASING BOTTOM LOGGER
BS  .IN                 8.75 : BIT SIZE
BSD .FT                11910 : BIT SIZE AT DEPTH
DFT .                    GEL : DRILLING FLUID TYPE
DFD .                    9.5 : DRILLING FLUID DENSITY
DFV .                    105 : DRILLING FLUID VISCOSITY
DFPH.                    9.5 : DRILLING FLUID PH
DFL .                    9.0 : DRILLING FLUID LOSS
MSS .               FLOWLINE : MUD SAMPLE SOURCE
RMS .OHMM               1.78 : RESISTIVITY MUD SAMPLE
MST .DEGF                 85 : MUD SAMPLE TEMPERATURE
RMF .OHMM               1.74 : RESISTIVITY MUD FILTRATE SAMPLE
MFST.DEGF                 54 : MUD FILTRATE SAMPLE TEMPERATURE
TCS .HRS                   5 : TIME CIRCULATED STOPPED
LUN .                   7730 : LOGGING UNIT NUMBER
LUL .                    EDM : LOGGING UNIT LOCATION
ENGI.   ACKERMAN STEENBERGEN : RECORDING ENGINEER
CLNT.                A2DTECH : CLIENT CODE
ORIG.            2" 5" PRINT : ORIGIN OF DATA
UWI .       100072605920W500 : UNIQUE WELL ID
DICO. A2D Technologies, Inc. : DIGITIZING COMPANY
~Other -----------------------------------------------------
~ASCII -----------------------------------------------------
# ...
 6100.00000  146.18860    9.68640   88.51900  108.59470    2.26220   10.46180    0.25580    0.38460    0.27530    -999.25    -999.25    8.44640    9.13940   11.57570 -105.52480
 6150.00000  157.53060    9.74210  102.48210  131.52490    2.47370    9.51810    0.00820    0.42360    0.09870    -999.25    -999.25   15.60700   16.96660   24.05760 -105.13080
 6200.00000  124.38550   10.71170   78.78150   98.05500    2.57940   10.02720    0.07880    0.29820    0.03650    -999.25    -999.25    7.07970    7.52060    8.83520 -107.10100
 6250.00000  131.02620   10.47510   80.39130  109.09160    2.63670   10.40910    0.12360    0.32590    0.01210    -999.25    -999.25    6.35630    6.65870    7.77830 -105.68250
 6300.00000  115.73780    9.83620   74.52660  102.54410    2.60090    9.51320    0.05070    0.26600    0.03030    -999.25    -999.25    9.22570   10.25810   12.06220 -107.92160
 6350.00000  105.17540    9.78050   71.19900   88.30770    2.57550    9.86240    0.03880    0.20250    0.02100    -999.25    -999.25   11.23040   12.28070   13.20080 -109.76070
 6400.00000  141.84080   11.36290   79.12090  105.37740    2.59500   11.25480    0.09250    0.34120    0.03570    -999.25    -999.25    6.92330    7.26130    8.60340 -103.83140
 6450.00000  141.16080   11.16970   82.16250  104.86070    2.50730   12.58250    0.07610    0.35900    0.07320    -999.25    -999.25    5.94010    6.29740    7.31490 -103.01030
 6500.00000  125.37510   10.75400   83.88050  103.29240    2.45890   15.55960    0.10420    0.29930    0.09850    -999.25    -999.25    5.68880    5.96990    7.07870 -102.78220
 6550.00000  170.42040    8.64660   88.70100  142.62490    2.39670    -999.25    0.08460    0.34910    0.14940    -999.25    -999.25    5.51500    5.85160    7.22000 -108.25970
 6600.00000  120.78280    8.62200   90.50890   97.97700    2.36360    -999.25    0.13080    0.32280    0.17360    -999.25    -999.25    3.47360    3.23300    4.05460 -107.41440
 6650.00000  128.64270    8.27180   89.18310  103.82870    2.38620    -999.25    0.09240    0.32100    0.16460    -999.25    -999.25    4.79860    4.46790    5.25300 -107.56870
 6700.00000  134.59090   11.55040   86.74690  104.65170    2.36920   13.43790    0.15180    0.29410    0.16670    -999.25    -999.25    6.31240    6.77430    8.07860 -106.92630
 6750.00000   56.28810    9.31800   68.04020   46.17540    2.55760    9.34840    0.03130    0.12890    0.04350    -999.25    -999.25   41.73840   44.70330   68.84240 -128.58520
 6800.00000  111.05680   11.07240   70.26560   81.44960    2.58130   10.43810    0.05130    0.17800    0.03760    -999.25    -999.25   14.28290   15.58600   17.20520 -107.17480
 6850.00000  106.04240   10.83060   71.02070   58.88560    2.40760   10.69770    0.07280    0.20380    0.13380    -999.25    -999.25    9.35090    9.90390   11.52840 -112.77660
 6900.00000   86.60020   11.00420   77.44610   70.43400    2.60210   10.82450    0.02450    0.19640    0.04590    -999.25    -999.25   14.65230   15.81710   23.92440 -108.30300
 6950.00000  132.43530   11.56010   91.73240   79.32980    2.37780   13.54070    0.08950    0.52220    0.32430    -999.25    -999.25    5.85050    6.14370    7.23450 -110.70190
 7000.00000   60.16570   11.62040   73.59230   65.44510    2.30660   12.03890    0.20450    0.26210    0.16650    -999.25    -999.25   14.04450   14.30120   16.01450 -117.49410
 7050.00000   82.30890   10.94690   69.12900   59.39250    2.63560   10.88740    0.09600    0.18430    0.02210    -999.25    -999.25    9.22260   10.01100   11.62130 -113.36470
 7100.00000   77.57450   11.64770   94.65170   45.89730    1.48580   13.39880    0.04870    0.65130    0.60010    -999.25    -999.25   24.32350   30.39540   86.60010 -108.88090
 7150.00000   78.82530   13.09820  124.03870   80.43010    2.41420   12.75770    0.18110    0.57650    0.28300    -999.25    -999.25   17.25240   19.96050   28.20940 -107.41110
 7200.00000   79.03530   11.25550  110.09400   74.49080    2.49510   11.63950    0.22090    0.33580    0.13940    -999.25    -999.25   13.57870   19.28450   36.24220 -117.93280
 7250.00000  102.80840   10.85160   72.71300   58.86980    2.58630   10.56310    0.06600    0.19360    0.05010    -999.25    -999.25   14.05500   15.77610   22.56680 -107.04030
 7300.00000   95.57400   10.78950   70.52670   68.70870    2.55960   11.03920    0.10760    0.20850    0.05400    -999.25    -999.25   10.97510   11.48180   12.37450 -103.72270
 7350.00000   90.37060   10.64470   69.38510   74.58490    2.47130   10.40400    0.15500    0.25850    0.06240    -999.25    -999.25   12.76740   12.24140   15.27110 -105.48000
 7400.00000  108.73590    9.88800   66.92110   64.85830    2.62570    9.70930    0.09830    0.19180    0.00160    -999.25    -999.25   18.35820   22.45600   26.91930 -108.55190
 7450.00000  121.18780   10.02820   69.24220   91.39570    2.67920    9.60910    0.20790    0.22300    0.00510    -999.25    -999.25   19.22680   21.08090   25.10350 -108.82480
 7500.00000  114.68060    9.94560   67.80390   98.35120    2.62110    9.61430    0.12840    0.21170    0.06970    -999.25    -999.25   16.99270   21.22270   25.38650 -107.17040
 7550.00000  113.57370   10.17200   76.11770   98.59420    2.43290   10.55180    0.19830    0.29110    0.11490    -999.25    -999.25   11.25340   11.61140   16.67490 -104.10640
 7600.00000  122.33850   10.65620   84.37580   69.34250    2.33930   11.37140    0.26010    0.32190    0.28460    -999.25    -999.25   13.06850   11.66040   16.12580 -102.53880
 7650.00000  117.21930    9.52650   64.68100   86.90150    2.64090    9.05780    0.03260    0.22150   -0.00790    -999.25    -999.25   29.86710   37.41640   41.92080 -103.04770
 7700.00000   54.18900   10.27780   66.00460   34.37390    2.42380   10.33450    0.13760    0.18630    0.12460    -999.25    -999.25   35.88560   37.46530   44.67880 -128.32000
 7750.00000   79.02610    9.72510   66.50210   53.96340    2.26750    9.28940    0.22720    0.20880    0.16000    -999.25    -999.25   18.67340   20.03650   22.94930 -117.89870
 7800.00000  128.54710   10.80940   76.55480   94.32200    2.13390   11.07500    0.19550    0.40240    0.27440    -999.25    -999.25   11.57490   12.60820   16.89060  -99.09360
 7850.00000  118.71970   11.60790  102.82630   81.23380    1.56470   12.11690    0.05630    0.54600    -999.25    -999.25    -999.25    4.54740    4.64590    5.65320 -103.13230
 7900.00000  112.57420   11.57530   91.50780   89.90930    1.59020   12.78950    0.12860    0.49470    0.59980    -999.25    -999.25    6.54460    5.75020    7.54640 -100.29780
 7950.00000   88.36710   13.92190  183.03820   64.92580    1.47170    -999.25    0.03370    0.63140    -999.25    -999.25    -999.25    2.73680    2.02210    4.34980 -101.73300
 8000.00000  141.30620   10.86600   77.29180   77.89190    2.52750    8.39270    0.07980    0.19230    0.09860    -999.25    -999.25   42.33320  440.39050   89.20670 -108.57080
 8050.00000    -999.25    9.51370   72.19910  282.13160    2.47410    8.69210    0.02310    0.21520    0.05320    -999.25    -999.25  157.77980  774.09870  203.72040 -124.67740
 8100.00000   93.10560    9.14910   61.67720   75.28730    2.59060    8.60200    0.02430    0.13720    0.03110    0.05520    0.09370   44.05130   50.24030   51.58240 -118.98570
 8150.00000  103.25430    9.32140   60.79100   71.18650    2.57610    8.46120    0.10280    -999.25    -999.25    0.06670    0.09810   55.14770   68.82630   74.19050 -115.97900
 8200.00000  108.82420    9.37380   58.57770   87.92720    2.60670    8.50020    0.04010    -999.25    -999.25    0.04650    0.08450   32.37770   39.10970   41.91470 -107.70270
 8250.00000  134.83190    9.16170   60.19390   96.23390    2.45780   10.49000    0.26110    -999.25    -999.25    0.11720    0.08780   26.59130   28.54280   36.57310 -117.56070
 8300.00000   72.24300    9.39640   55.91750   19.14670    2.64230    8.15270    0.13840    -999.25    -999.25    0.03610    0.12110   31.87740   36.73440   36.99950 -127.77470
 8350.00000   86.07240    9.20750   54.82900   72.63420    2.76010    8.42700    0.05710    -999.25    -999.25   -0.03560    0.08650   30.65520   34.32520   40.81150 -111.48350
