~Version ---------------------------------------------------
VERS. 2.0 : CWLS log ASCII Standard -VERSION 2.0
WRAP.  NO : ONE LINE PER DEPTH STEP
~Well ------------------------------------------------------
STRT.M                         400.0 : START DEPTH
STOP.M                        2600.0 : STOP DEPTH
STEP.M                      50.00000 : STEP LENGTH
NULL.                        -999.25 : NULL VALUE
COMP.            WESTCOAST PETROLEUM : COMPANY
WELL. WESTCOAST ET AL MCGOWAN 10-20- : WELL
FLD .                                : FIELD
LOC .                                : LOCATION
CTRY.                         CANADA : COUNTRY
SRVC.                        Unknown : SERVICE COMPANY
DATE.                    23-Mar-1982 : LOGDATE
PROV.                        Alberta : PROVINCE
UWI .               100102007016W500 : UNIQUE WELL ID
SLAT.WGS84                  55.07847 : SURFACE LATITUDE
SLON.WGS84                 -116.3983 : SURFACE LONGITUDE
~Curve Information -----------------------------------------
DEPT   .M     0   1   0  0 : 1 MEASURED DEPTH
GRD    .GAPI  45 310 01 00 : GAMMA RAY FROM DENSITY LOG
NPHI_SS.DEC   42 890 03 00 : NEUTRON POROSITY SANDSTONE
DPHI_SS.DEC   45 890 12 00 : DENSITY POROSITY SANDSTONE
CALD   .MM    45 280 60 00 : CALIPER FROM DENSITY LOG
NPHI_LS.DEC   42 890 01 00 : NEUTRON POROSITY LIMESTONE
DPHI_LS.DEC   45 890 10 00 : DENSITY POROSITY LIMESTONE
DRHO   .KG/M3 45 356 01 00 : BULK DENSITY CORRECTION
RHOB   .KG/M3 45 350 01 00 : BULK DENSITY
ILM    .OHMM  07 120 44 00 : INDUCTION MEDIUM RESISTIVITY
ILD    .OHMM  07 120 46 00 : INDUCTION DEEP RESISTIVITY
SFLU   .OHMM  07 220 01 00 : SHALLOW FOCUSED RESISTIVITY (UNAVERAGED)
SPR    .MV    07 010 01 00 : SPONTANEOUS POTENTIAL FROM RESISTIVITY LOG
CILD   .MMHO  07 110 46 00 : INDUCTION DEEP CONDUCTIVITY
~Params ----------------------------------------------------
PD  .                         GL : PERMANENT DATUM
EPD .M                     792.8 : ELEVATION PERMANENT DATUM
LMF .                         KB : LOG MEASURED FROM
DAPD.M                       4.5 : FEET ABOVE PERMANENT DATUM
DMF .                         KB : DRILLING MEASURED FROM
EKB .M                     797.3 : KELLY BUSHING
EGL .M                     792.8 : GROUND LEVEL
DATE.                   03/23/82 : RUN DATE
RUN .                          1 : RUN NUMBER
DD  .M                      2619 : DEPTH DRILLER
DL  .M                      2619 : DEPTH LOGGER
BLI .M                      2618 : BOTTOM LOG INTERVAL
TLI .M                       402 : TOP LOG INTERVAL
CS  .MM                      244 : CASING SIZE
CBD .M                       402 : CASING BOTTOM DRILLER
CBL .M                       402 : CASING BOTTOM LOGGER
BS  .MM                      222 : BIT SIZE
BSD .M                      2619 : BIT SIZE AT DEPTH
DFT .                   GEL CHEM : DRILLING FLUID TYPE
DFD .                       1185 : DRILLING FLUID DENSITY
DFV .                         59 : DRILLING FLUID VISCOSITY
DFPH.                          9 : DRILLING FLUID PH
DFL .                          8 : DRILLING FLUID LOSS
MSS .                   FLOWLINE : MUD SAMPLE SOURCE
RMS .OHMM                   1.22 : RESISTIVITY MUD SAMPLE
MST .DEGC                   28.8 : MUD SAMPLE TEMPERATURE
RMF .OHMM                    1.2 : RESISTIVITY MUD FILTRATE SAMPLE
MFST.DEGC                   23.3 : MUD FILTRATE SAMPLE TEMPERATURE
RMC .OHMM                  0.603 : RESISTIVITY MUD CAKE
MCST.DEGC                   67.7 : MUD CAKE SAMPLE TEMPERATURE
MFSS.                      PRESS : MUD FILTRATE SAMPLE SOURCE
MCSS.                      PRESS : MUD CAKE SAMPLE SOURCE
RMB .OHMM                  0.689 : RESISTIVITY MUD AT BHT
TCS .HRS                    1500 : TIME CIRCULATED STOPPED
TLAB.HRS                    2130 : TIME LOGGER AT BOTTOM
LUN .                       8196 : LOGGING UNIT NUMBER
LUL .                        EDM : LOGGING UNIT LOCATION
ENGI.                NIGHTINGALE : RECORDING ENGINEER
WITN.                      JONES : WITNESSED BY
CLNT.                    A2DTECH : CLIENT CODE
ORIG. 6.5"/100M 16.5"/100M PRINT : ORIGIN OF DATA
UWI .           100102007016W500 : UNIQUE WELL ID
DICO.     A2D Technologies, Inc. : DIGITIZING COMPANY
~Other -----------------------------------------------------
~ASCII -----------------------------------------------------
  400.00000   31.69050    0.50700    -999.25    -999.25    -999.25    -999.25    -999.25    -999.25    -999.25    -999.25    -999.25    -999.25    -999.25
  450.00000   80.03420    0.39380    0.20550  364.71970    -999.25    -999.25   33.74240 2312.03420    4.29490    4.44860    4.01160  -38.20390    -999.25
  500.00000   99.02800    0.44670    0.36450  244.80650    -999.25    -999.25   27.10130 2047.92460    5.07120    5.73080    5.46830  -44.54540    -999.25
  550.00000   64.18360    0.54570    0.59360  379.55050    -999.25    -999.25   64.12610 1682.74610    4.83930    5.69210    4.67310  -50.06620    -999.25
  600.00000   93.18780    0.42200    0.50040  298.01930    -999.25    -999.25   52.27890 1799.59400    5.01080    5.65310    4.81050  -50.73180    -999.25
  650.00000   76.59670    0.49520    0.58040  416.87360    -999.25    -999.25   76.69710 1674.59770    4.72060    5.56400    4.52440  -50.12980    -999.25
  700.00000   94.76090    0.41560    0.37780  293.43470    -999.25    -999.25   98.20520 2021.72790    4.82250    5.25230    4.98690  -46.75750    -999.25
  750.00000   86.61530    0.40490    0.60530  325.30940    -999.25    -999.25    2.92850 1887.80740    4.93870    5.11180    4.50360  -48.13940    -999.25
  800.00000   97.82160    0.40110    0.47580  341.73000    -999.25    -999.25   81.96460 1881.76030    3.22680    3.30740    3.44900  -41.79130    -999.25
  850.00000   98.29220    0.41020    0.27060  293.18230    -999.25    -999.25  142.70440 2207.32520    3.70580    3.84610    4.05710  -44.27960    -999.25
  900.00000   79.73980    0.39300    0.29300  319.08270    -999.25    -999.25  101.82490 2170.37350    2.81390    3.01820    3.08340  -43.08240    -999.25
  950.00000   78.51070    0.46620    0.43650  356.72720    -999.25    -999.25   71.74690 1933.26660    1.75330    1.71500    1.99450  -38.77030    -999.25
 1000.00000   49.50180    0.31910    0.29430  238.70950    -999.25    -999.25   -6.47070 2164.92940    5.45810    3.29000    7.25860 -100.95900    -999.25
 1050.00000   67.01890    0.39210    0.29920  232.84960    -999.25    -999.25   60.35850 2139.31030    2.42350    1.98280    2.25420  -62.16240    -999.25
 1100.00000   53.15320    0.31150    0.29620  222.79010    -999.25    -999.25   16.29630 2170.87450    2.45290    1.43640    5.74000 -123.16370    -999.25
 1150.00000   85.86880    0.30160    0.13730  281.53890    -999.25    -999.25   39.05550 2421.56130    3.59860    3.47880    3.98980  -51.03290    -999.25
 1200.00000   84.25610    0.20790    0.07790  299.99450    -999.25    -999.25   20.37500 2512.19260    6.79270    6.27030    7.26800  -54.37670    -999.25
 1250.00000   77.76180    0.20550    0.10030  295.34920    -999.25    -999.25   17.96930 2484.39210   10.48990    9.61980   12.76880  -56.34100    -999.25
 1300.00000   51.14550    0.13190    0.05080  248.40530    0.13040    0.08490    1.61020 2563.02730   19.89500   18.07460   27.35500  -64.40350    -999.25
 1350.00000   20.60570    -999.25    -999.25  247.40740    0.16600    0.04580   89.54550 2631.95240   13.48930    8.76290   41.89320 -140.85720    -999.25
 1400.00000   70.17570    -999.25    -999.25  268.48170    0.05470    0.04180    6.85040 2633.28690   14.43760   13.92420   18.16720  -41.16870    -999.25
 1450.00000   41.95250    -999.25    -999.25  268.70250    0.16180    0.06710   16.08940 2597.95650    5.25740    5.10690    5.88700  -67.93120    -999.25
 1500.00000   20.83640    -999.25    -999.25  245.64200    0.08870    0.11040   26.09060 2518.85010   12.47340    7.82340   44.34440 -135.45760    -999.25
 1550.00000   74.35880    -999.25    -999.25  264.80370    0.12350    0.09380   13.11390 2564.92870    4.22630    3.74010   12.30950  -59.04500    -999.25
 1600.00000   46.64790    -999.25    -999.25  245.46010    0.11730    0.05610   14.88360 2610.20120    5.92880    5.72760    7.23430  -55.45130    -999.25
 1650.00000   31.66000    -999.25    -999.25  246.32520    0.05090    0.01530   31.01510 2679.95510   11.74050   10.27650   40.46410  -71.49620    -999.25
 1700.00000   31.38920    -999.25    -999.25  237.48860    0.03230    0.02940    8.42720 2662.48660   22.19010   21.13330   31.54260  -45.58720    -999.25
 1750.00000   74.53480    -999.25    -999.25  283.36060    0.09240    0.05870   25.98230 2608.00850    5.97050    5.75040    6.11790  -39.99400    -999.25
 1800.00000   15.82390    -999.25    -999.25  264.28880    0.00000    0.00440    1.64830 2700.25710   67.92240  103.77150  110.61940  -72.74170    -999.25
 1850.00000   14.32720    -999.25    -999.25  251.56850    0.00200    0.00880   13.45440 2695.19900   91.11510  126.95700  159.99260 -104.22700    -999.25
 1900.00000   16.49620    -999.25    -999.25  259.25670    0.02160    0.06810   16.41720 2598.31350   36.24870   33.15030  140.19340 -105.62350    -999.25
 1950.00000   13.97210    -999.25    -999.25  272.28030   -0.00550    0.00820   12.72450 2691.09420  272.65720 2029.75170  714.89120  -81.70890    -999.25
 2000.00000   17.25300    -999.25    -999.25  240.69600   -0.00070   -0.02060    5.23520 2753.63180  181.37060  143.39180  845.90840  -84.96940    -999.25
 2050.00000   16.73300    -999.25    -999.25  233.98660    0.06920   -0.06830   88.51520 2825.95950   53.13790   45.80800  148.12950 -107.33930    -999.25
 2100.00000   10.75230    -999.25    -999.25  232.58950    0.00090   -0.01210   13.84500 2730.78660  150.08470  248.22980  391.54190  -54.14580    -999.25
 2150.00000  108.72240    -999.25    -999.25  365.03780    0.26680    0.08690   96.89170 2560.41670    3.36020    3.24800    3.71890  -33.47070    -999.25
 2200.00000  101.72810    -999.25    -999.25  563.76790    0.23160    0.21780  209.95950 2332.85740    3.32680    3.57410    3.83770  -52.13820    -999.25
 2250.00000  102.00670    -999.25    -999.25  564.45360    0.24030    0.05540  176.96830 2615.58670    3.11150    3.23840    3.76420  -43.09610    -999.25
 2300.00000   78.50710    -999.25    -999.25  239.76940    0.17590    0.01620   91.71510 2683.93070    7.93540    7.40100    9.33710  -28.09960    -999.25
 2350.00000   83.41240    -999.25    -999.25  250.45680    0.21840    0.04100  160.52330 2639.96530    6.60220    6.11240    7.64530  -24.57280    -999.25
 2400.00000   91.62070    -999.25    -999.25  265.27000    0.23030    0.02650  136.47740 2664.71290    5.31010    5.20130    6.23920  -20.82000    -999.25
 2450.00000  105.24160    -999.25    -999.25  240.74310    0.24480    0.08680   20.04080 2561.19800   10.74690   10.39990   19.53470    1.08880    -999.25
 2500.00000   43.70930    -999.25    -999.25  232.99350    0.08760    0.01140   22.77200 2686.76930   16.65820   19.66780   20.99430    2.69370    -999.25
 2550.00000   71.38880    0.12580    0.57010  248.55970    0.12580    0.00330    7.88750 2702.58740   10.44350   10.10470   13.90700  -40.57120    -999.25
 2600.00000  208.51210    0.17710    0.60400  236.36580    0.17740    0.04230  128.50610 2627.80490    4.36540    2.88880   10.16460  -71.81080    -999.25
