~Version ---------------------------------------------------
VERS.      2.0 : CWLS log ASCII Standard -VERSION 2.0
WRAP.       NO : One line per depth step
CREA. 12/18/17 : LAS Creation Date
~Well ------------------------------------------------------
STRT.FT                           300.0 : START DEPTH
STOP.FT                          8400.0 : STOP DEPTH
STEP.FT                        50.00000 : STEP LENGTH
NULL.                           -999.25 : NULL VALUE
COMP.     HUDSON'S BAY OIL & GAS CO LTD : COMPANY
WELL. HUDSONS BAY EAST VIRGINIA HILLS 1 : WELL
FLD .                                   : FIELD
LOC .                                   : LOCATION
CTRY.                            CANADA : COUNTRY
SRVC.  Schlumberger Well Surveying Corp : SERVICE COMPANY
DATE.                       16-Jul-1957 : LOGDATE
PROV.                           Alberta : PROVINCE
UWI .                  100053106506W500 : UNIQUE WELL ID
SLAT.WGS84                     54.66668 : SURFACE LATITUDE
SLON.WGS84                    -114.9047 : SURFACE LONGITUDE
~Curve Information -----------------------------------------
DEPT     .FT         : Depth Curve
CALWS    .IN         : CALIPER [MCALED]
CONDWS   .MMHO       : CONDUCTIVITY [1000/DRESWS]
DRESWS   .OHMM       : DEEP RESISTIVITY [LNED]
GRN1ED   .CPS        : GAMMA RAY FROM CNL LOG
GRN2ED   .CPS        : GAMMA RAY FROM CNL LOG
GRNED    .UgRa-Eq/T  : GAMMA RAY FROM GRN LOG
GRWS     .GAPI       : GAMMA RAY [GRNED SPL. TO GRN2ED @ (6722'-7414') & GRN1ED @ 7214'TO FR] [GRNED*16.5]
LNED     .OHMM       : LONG NORMAL RESISTIVITY FROM RESISTIVITY LOG
LT18ED   .OHMM       : LATERAL 18' RESISTIVITY FROM RESISTIVITY LOG
MCALED   .IN         : MLT CALIPER FROM MICRO LOG
NEUTED   .CU         : NEUTRON FROM GRN LOG
NEUTWS   .CU         : NEUTRON [NEUTED]
NPHISS1ED.V/V        : NEUTRON POROSITY SANDSTONE FROM CNL LOG
NPHISSED .V/V        : NEUTRON POROSITY SANDSTONE FROM CNL LOG
NPOSSWS  .V/V        : NEUTRON POROSITY SANDSTONE [NPHISSED SPL. TO NPHISS1ED @ 7420']
SNED     .OHMM       : SHORT NORMAL RESISTIVITY FROM RESISTIVITY LOG
SPRED    .MV         : SPONTANEOUS POTENTIAL FROM RESISTIVITY LOG
SPWS     .MV         : SPONTANEOUS POTENTIAL [BASELINE 0 MV,SPRED]
SRESWS   .OHMM       : SHALLOW RESISTIVITY [SNED]
~Params ----------------------------------------------------
LMF .                     KB : LOG MEASURED FROM
DMF .                     KB : DRILLING MEASURED FROM
EKB .FT                 2615 : KELLY BUSHING
EGL .FT                 2602 : GROUND LEVEL
DATE.               07/16/57 : RUN DATE
RUN .                      1 : RUN NUMBER
DD  .FT                 8422 : DEPTH DRILLER
DL  .FT                 8418 : DEPTH LOGGER
TCS .HRS                   2 : TIME CIRCULATED STOPPED
LUL .                    EDM : LOGGING UNIT LOCATION
ENGI.                  JAMES : RECORDING ENGINEER
WITN.              PINNNACLE : WITNESSED BY
CLNT.                A2DTECH : CLIENT CODE
ORIG.            2" 5" PRINT : ORIGIN OF DATA
UWI .       100053106506W500 : UNIQUE WELL ID
DICO. A2D Technologies, Inc. : DIGITIZING COMPANY
~Other -----------------------------------------------------
~ASCII -----------------------------------------------------
# ...
 2150.00000    -999.25  186.46630    5.36290    -999.25    -999.25    8.43080  139.10820    5.36290    7.37120    -999.25  271.49630  271.49630    -999.25    -999.25    -999.25    5.05900  -90.03920   -6.51040    5.05900
 2200.00000    -999.25  168.21420    5.94480    -999.25    -999.25    8.80000  145.20000    5.94480    6.43580    -999.25  258.16930  258.16930    -999.25    -999.25    -999.25    4.29740  -90.19720   -6.79220    4.29740
 2250.00000    -999.25  153.35540    6.52080    -999.25    -999.25    8.19350  135.19270    6.52080    7.86780    -999.25  288.54210  288.54210    -999.25    -999.25    -999.25    4.50190  -90.19790   -6.91600    4.50190
 2300.00000    -999.25  179.16010    5.58160    -999.25    -999.25    8.52370  140.64110    5.58160    6.02120    -999.25  245.65210  245.65210    -999.25    -999.25    -999.25    3.92530  -90.44930   -7.29040    3.92530
 2350.00000    -999.25  204.65800    4.88620    -999.25    -999.25    8.19390  135.19930    4.88620    5.96570    -999.25  266.59940  266.59940    -999.25    -999.25    -999.25    3.61660  -88.58140   -5.54640    3.61660
 2400.00000    -999.25  173.83750    5.75250    -999.25    -999.25    8.99860  148.47690    5.75250    6.58080    -999.25  242.59530  242.59530    -999.25    -999.25    -999.25    4.52110  -84.84110   -1.92910    4.52110
 2450.00000    -999.25  148.87380    6.71710    -999.25    -999.25    9.18710  151.58710    6.71710    5.95930    -999.25  199.12070  199.12070    -999.25    -999.25    -999.25    4.99860  -86.65240   -3.86430    4.99860
 2500.00000    -999.25  100.97640    9.90330    -999.25    -999.25   12.83990  211.85840    9.90330    2.06120    -999.25  246.60820  246.60820    -999.25    -999.25    -999.25    8.43430  -85.15980   -2.49470    8.43430
 2550.00000    -999.25  187.59260    5.33070    -999.25    -999.25    8.08030  133.32500    5.33070    5.84220    -999.25  266.27580  266.27580    -999.25    -999.25    -999.25    4.06710  -85.05540   -3.01650    4.06710
 2600.00000    -999.25  161.04620    6.20940    -999.25    -999.25    7.20710  118.91710    6.20940    4.75430    -999.25  358.14380  358.14380    -999.25    -999.25    -999.25    6.54180  -94.95270  -13.68710    6.54180
 2650.00000    -999.25  199.01290    5.02480    -999.25    -999.25    7.81430  128.93590    5.02480    4.21230    -999.25  243.75980  243.75980    -999.25    -999.25    -999.25    4.01980  -85.73820   -5.35540    4.01980
 2700.00000    -999.25  153.32480    6.52210    -999.25    -999.25    8.01910  132.31510    6.52210    5.16130    -999.25  289.38820  289.38820    -999.25    -999.25    -999.25    5.10360  -88.14590   -8.65170    5.10360
 2750.00000    -999.25  207.33980    4.82300    -999.25    -999.25    7.46050  123.09820    4.82300    5.23300    -999.25  284.06070  284.06070    -999.25    -999.25    -999.25    4.05420  -82.79470   -4.18330    4.05420
 2800.00000    -999.25  262.41900    3.81070    -999.25    -999.25    9.23390  152.35940    3.81070    5.64800    -999.25  282.13290  282.13290    -999.25    -999.25    -999.25    4.19440  -85.46140   -7.73280    4.19440
 2850.00000    -999.25 1062.47340    0.94120    -999.25    -999.25    9.77160  161.23140    0.94120    3.80600    -999.25  315.76280  315.76280    -999.25    -999.25    -999.25    1.70320  -80.41480   -3.57480    1.70320
 2900.00000    -999.25 1525.32030    0.65560    -999.25    -999.25    8.28970  136.78000    0.65560    3.11370    -999.25  213.12480  213.12480    -999.25    -999.25    -999.25    1.65200  -82.81230   -6.85510    1.65200
 2950.00000    -999.25  663.30590    1.50760    -999.25    -999.25    7.54680  124.52220    1.50760    2.74130    -999.25  257.56770  257.56770    -999.25    -999.25    -999.25    2.29490  -77.91020   -2.84160    2.29490
 3000.00000   11.93870  526.34350    1.89990    -999.25    -999.25    8.49510  140.16920    1.89990    3.09280   11.93870  223.37350  223.37350    -999.25    -999.25    -999.25    2.72120  -77.55780   -3.37200    2.72120
 3050.00000   11.94580  323.22710    3.09380    -999.25    -999.25    9.76130  161.06150    3.09380    5.54430   11.94580  333.68660  333.68660    -999.25    -999.25    -999.25    4.02270  -77.97140   -4.66830    4.02270
 3100.00000   11.87490 3966.67990    0.25210    -999.25    -999.25    7.36780  121.56870    0.25210    2.77120   11.87490  245.96000  245.96000    -999.25    -999.25    -999.25    1.03700  -74.88740   -2.47290    1.03700
 3150.00000    9.47230  301.08690    3.32130    -999.25    -999.25    4.97080   82.01820    3.32130    1.94220    9.47230  358.93770  358.93770    -999.25    -999.25    -999.25    7.84380 -116.33260  -43.68590    7.84380
 3200.00000    9.04540  224.88590    4.44670    -999.25    -999.25    5.83850   96.33530    4.44670    2.76740    9.04540  509.42830  509.42830    -999.25    -999.25    -999.25    7.93230 -104.69660  -29.60610    7.93230
 3250.00000    8.86170  233.11650    4.28970    -999.25    -999.25    4.08060   67.32990    4.28970    2.97660    8.86170  417.80150  417.80150    -999.25    -999.25    -999.25    9.09330 -140.69920  -63.18100    9.09330
 3300.00000    9.92760  232.31500    4.30450    -999.25    -999.25    6.94090  114.52490    4.30450    6.68120    9.92760  436.75960  436.75960    -999.25    -999.25    -999.25    9.62820  -85.74010   -7.18870    9.62820
 3350.00000   10.40750  251.95260    3.96900    -999.25    -999.25    5.46330   90.14450    3.96900    2.94700   10.40750  442.72490  442.72490    -999.25    -999.25    -999.25    4.90820  -91.94450  -13.75690    4.90820
 3400.00000    8.91620  236.17770    4.23410    -999.25    -999.25    6.38550  105.36080    4.23410    1.95890    8.91620  342.77900  342.77900    -999.25    -999.25    -999.25    8.46350 -128.14240  -50.31630    8.46350
 3450.00000    8.97460  248.01590    4.03200    -999.25    -999.25    4.13010   68.14660    4.03200    2.66380    8.97460  511.05110  511.05110    -999.25    -999.25    -999.25    9.02570 -152.52080  -75.05850    9.02570
 3500.00000    9.64160  420.64530    2.37730    -999.25    -999.25    5.47190   90.28630    2.37730    3.59270    9.64160  478.05090  478.05090    -999.25    -999.25    -999.25    5.38690 -102.12230  -25.02150    5.38690
 3550.00000    9.06570  303.84050    3.29120    -999.25    -999.25    6.44530  106.34740    3.29120    2.35740    9.06570  451.97700  451.97700    -999.25    -999.25    -999.25    8.16490 -142.79060  -66.05120    8.16490
 3600.00000    9.82740  259.88200    3.84790    -999.25    -999.25    8.06520  133.07580    3.84790    3.78530    9.82740  295.43490  295.43490    -999.25    -999.25    -999.25    7.21180  -94.18150  -17.80600    7.21180
 3650.00000   10.42990  507.74310    1.96950    -999.25    -999.25    7.35160  121.30140    1.96950    5.06560   10.42990  177.42470  177.42470    -999.25    -999.25    -999.25    3.02450  -82.97510   -6.96100    3.02450
 3700.00000   11.11750  310.68440    3.21870    -999.25    -999.25    7.29230  120.32300    3.21870    5.97570   11.11750  258.12970  258.12970    -999.25    -999.25    -999.25    4.03900  -80.03650   -4.59400    4.03900
 3750.00000    8.93060  176.81590    5.65560    -999.25    -999.25    6.52080  107.59320    5.65560    5.10850    8.93060  280.59080  280.59080    -999.25    -999.25    -999.25   12.94690 -101.95380  -27.13160   12.94690
 3800.00000    9.64970   70.93910   14.09660    -999.25    -999.25    5.83720   96.31380   14.09660   18.31170    9.64970  536.67410  536.67410    -999.25    -999.25    -999.25   15.17460  -81.15460   -6.95270   15.17460
 3850.00000    9.11180  155.44120    6.43330    -999.25    -999.25    8.55750  141.19870    6.43330    9.29170    9.11180  325.83630  325.83630    -999.25    -999.25    -999.25   12.71320 -117.01250  -43.43500   12.71320
 3900.00000    8.80020  163.13750    6.12980    -999.25    -999.25    4.72430   77.95100    6.12980    2.65480    8.80020  353.63580  353.63580    -999.25    -999.25    -999.25   12.86420 -139.84980  -66.89260   12.86420
 3950.00000    8.79660  384.48230    2.60090    -999.25    -999.25    3.76700   62.15550    2.60090    1.95290    8.79660  449.31170  449.31170    -999.25    -999.25    -999.25    7.64950 -150.81740  -78.48460    7.64950
