~Version ---------------------------------------------------
VERS.      2.0 : CWLS log ASCII Standard -VERSION 2.0
WRAP.       NO : One line per depth step
CREA. 11/16/17 : LAS Creation Date
~Well ------------------------------------------------------
STRT.FT                        300.0 : START DEPTH
STOP.FT                      11100.0 : STOP DEPTH
STEP.FT                     50.00000 : STEP LENGTH
NULL.                        -999.25 : NULL VALUE
COMP.         PACIFIC PETROLEUMS LTD : COMPANY
WELL. PACIFIC ET AL TONY 10-18-63-21 : WELL
FLD .                     TONY TOWER : FIELD
LOC .                                : LOCATION
CTRY.                         CANADA : COUNTRY
SRVC.                   Schlumberger : SERVICE COMPANY
DATE.                    24-Sep-1975 : LOGDATE
PROV.                        Alberta : PROVINCE
UWI .               100101806321W500 : UNIQUE WELL ID
SLAT.WGS84                  54.45338 : SURFACE LATITUDE
SLON.WGS84                 -117.1585 : SURFACE LONGITUDE
~Curve Information -----------------------------------------
DEPT    .FT    : Depth Curve
CALDED  .IN    : CALIPER FROM DENSITY LOG
CALWS   .IN    : CALIPER [CALDED]
CONDWS  .MMHO  : CONDUCTIVITY [1000/DRESWS]
DCORED  .G/C3  : DENSITY CORRECTION FROM DENSITY LOG [ADJ. TO DPHILSED/DPHILSED]
DCORWS  .G/C3  : DENSITY CORRECTION [DCORED]
DENWS   .G/C3  : FORMATION BULK DENSITY [CALC. FROM DPOLSWS,M=2710,F=1000]
DPHILSED.V/V   : DENSITY POROSITY LIMESTONE [M=2.71,F=1.0] FROM DENSITY LOG
DPHISSED.V/V   : DENSITY POROSITY SANDSTONE [M=2.65,F=1.0] FROM DENSITY LOG
DPOLSWS .V/V   : DENSITY POROSITY LIMESTONE [DPHISSED CONVERTED TO LIMESTONE (M=2.71,F=1.00), SPL. TO DPHILSED @ 6860']
DRESWS  .OHMM  : DEEP RESISTIVITY [ILDED]
GRDED   .GAPI  : GAMMA RAY FROM DENSITY LOG
GRWS    .GAPI  : GAMMA RAY [GRDED]
ILDED   .OHMM  : DEEP INDUCTION FROM RESISTIVITY LOG
ILMED   .OHMM  : MEDIUM INDUCTION FROM RESISTIVITY LOG
LL8ED   .OHMM  : LATEROLOG FROM RESISTIVITY LOG
MRESWS  .OHMM  : MEDIUM RESISTIVITY [ILMED]
NPHILSED.V/V   : NEUTRON POROSITY LIMESTONE FROM DENSITY LOG
NPHISSED.V/V   : NEUTRON POROSITY SANDSTONE FROM DENSITY LOG
NPOLSWS .V/V   : NEUTRON POROSITY LIMESTONE [NPHISSED MATRIX CONVERSION FOR LIMESTONE SPL. TO NPHILSED @6860']
RHOBED  .G/C3  : BULK DENSITY FROM DENSITY LOG [ADJ. TO DPHILSED/DPHILSED]
SPRED   .MV    : SPONTANEOUS POTENTIAL FROM RESISTIVITY LOG
SPWS    .MV    : SPONTANEOUS POTENTIAL [BASELINE 0 MV,SPRED]
SRESWS  .OHMM  : SHALLOW RESISTIVITY [LL8ED]
~Params ----------------------------------------------------
PD  .                     GL : PERMANENT DATUM
EPD .FT                 2714 : ELEVATION PERMANENT DATUM
LMF .                     KB : LOG MEASURED FROM
DAPD.FT                 13.7 : FEET ABOVE PERMANENT DATUM
EKB .FT               2727.7 : KELLY BUSHING
EGL .FT                 2714 : GROUND LEVEL
DATE.               09/24/75 : RUN DATE
RUN .                      1 : RUN NUMBER
DD  .FT                11125 : DEPTH DRILLER
DL  .FT                11121 : DEPTH LOGGER
BLI .FT                11115 : BOTTOM LOG INTERVAL
TLI .FT                 1125 : TOP LOG INTERVAL
CBD .FT                 1125 : CASING BOTTOM DRILLER
CBL .FT                 1125 : CASING BOTTOM LOGGER
BS  .IN                 8.75 : BIT SIZE
BSD .FT                11125 : BIT SIZE AT DEPTH
DFT .               GEL CHEM : DRILLING FLUID TYPE
DFD .                    9.3 : DRILLING FLUID DENSITY
DFV .                    147 : DRILLING FLUID VISCOSITY
DFPH.                    9.5 : DRILLING FLUID PH
DFL .                    9.2 : DRILLING FLUID LOSS
MSS .               FLOWLINE : MUD SAMPLE SOURCE
RMS .OHMM               1.62 : RESISTIVITY MUD SAMPLE
MST .DEGF                 72 : MUD SAMPLE TEMPERATURE
RMF .OHMM               1.26 : RESISTIVITY MUD FILTRATE SAMPLE
MFST.DEGF                 68 : MUD FILTRATE SAMPLE TEMPERATURE
RMB .OHMM               0.41 : RESISTIVITY MUD AT BHT
TCS .HRS                 3.5 : TIME CIRCULATED STOPPED
LUN .                   7691 : LOGGING UNIT NUMBER
LUL .                    EDM : LOGGING UNIT LOCATION
ENGI.              CROCKFORD : RECORDING ENGINEER
WITN.                   ROSS : WITNESSED BY
CLNT.                A2DTECH : CLIENT CODE
ORIG.            2" 5" PRINT : ORIGIN OF DATA
UWI .       100101806321W500 : UNIQUE WELL ID
DICO. A2D Technologies, Inc. : DIGITIZING COMPANY
~Other -----------------------------------------------------
~ASCII -----------------------------------------------------
# ...
 4950.00000   11.07850   11.07850  119.91990    0.16230    0.16230    2.50020    -999.25    0.09080    0.12270    8.33890   98.66610   98.66610    8.33890    7.84040    9.28490    7.84040    -999.25    0.21350    0.16990    2.51010  -46.73380   -6.87440    9.28490
 5000.00000   11.07460   11.07460  132.43380    0.18100    0.18100    2.61090    -999.25    0.02370    0.05800    7.55100  107.22740  107.22740    7.55100    7.09330    9.41370    7.09330    -999.25    0.23470    0.19090    2.62140  -44.48200   -5.05220    9.41370
 5050.00000   10.74030   10.74030  140.62670    0.18960    0.18960    2.56550    -999.25    0.05120    0.08450    7.11260  111.88180  111.88180    7.11260    6.64310    9.61250    6.64310    -999.25    0.26760    0.22360    2.57320  -45.12540   -6.12520    9.61250
 5100.00000   10.76730   10.76730  162.80810    0.14140    0.14140    2.60830    -999.25    0.02530    0.05950    6.14220  111.97510  111.97510    6.14220    5.55350    6.53330    5.55350    -999.25    0.31350    0.26960    2.60620  -44.06600   -5.49820    6.53330
 5150.00000   10.54960   10.54960  172.27420    0.13000    0.13000    2.61490    -999.25    0.02130    0.05560    5.80470  112.56440  112.56440    5.80470    5.30440    6.56970    5.30440    -999.25    0.29420    0.25030    2.61170  -43.53300   -5.39470    6.56970
 5200.00000   10.83480   10.83480  165.99710    0.06480    0.06480    2.60880    -999.25    0.02500    0.05920    6.02420  111.97030  111.97030    6.02420    5.56400    6.99830    5.56400    -999.25    0.28200    0.23800    2.61310  -43.15640   -5.45050    6.99830
 5250.00000   10.94490   10.94490  132.40020    0.09240    0.09240    2.59890    -999.25    0.03090    0.06500    7.55290  100.84030  100.84030    7.55290    6.75270    8.12000    6.75270    -999.25    0.23640    0.19260    2.61230  -42.24160   -4.96530    8.12000
 5300.00000   11.74560   11.74560  188.79530    0.17980    0.17980    2.30920    -999.25    0.20650    0.23440    5.29670  105.35610  105.35610    5.29670    4.56020    6.25940    4.56020    -999.25    0.33580    0.29200    2.32620  -40.83880   -3.99200    6.25940
 5350.00000   10.72520   10.72520  235.01760    0.07680    0.07680    2.56110    -999.25    0.05390    0.08710    4.25500  118.89400  118.89400    4.25500    3.87300    5.14400    3.87300    -999.25    0.32840    0.28460    2.57330  -39.06590   -2.65150    5.14400
 5400.00000   11.97150   11.97150  291.46140    0.12760    0.12760    2.32450    -999.25    0.19730    0.22550    3.43170  102.54210  102.54210    3.43170    2.67370    3.85850    2.67370    -999.25    0.39050    0.34740    2.34070  -40.23630   -3.91520    3.85850
 5450.00000   11.82250   11.82250  238.94860    0.14900    0.14900    2.51260    -999.25    0.08330    0.11550    4.18500  106.77920  106.77920    4.18500    3.65240    4.16560    3.65240    -999.25    0.36530    0.32180    2.45570  -41.18130   -4.86020    4.16560
 5500.00000   10.73250   10.73250  165.07510    0.11950    0.11950    2.53020    -999.25    0.07260    0.10510    6.05820  112.71270  112.71270    6.05820    5.55090    7.14940    5.55090    -999.25    0.24180    0.19790    2.53720  -40.61370   -4.29260    7.14940
 5550.00000    9.67870    9.67870  109.85590    0.12270    0.12270    2.62410    -999.25    0.01570    0.05020    9.10350  115.51350  115.51350    9.10350    8.60020   12.05530    8.60020    -999.25    0.25370    0.20980    2.62790  -40.76430   -4.44320   12.05530
 5600.00000   10.53420   10.53420  123.12090    -999.25    -999.25    2.43750    -999.25    0.12880    0.15940    8.12210   82.12500   82.12500    8.12210    7.56610    9.50480    7.56610    -999.25    0.20050    0.15710    2.45260  -40.85180   -4.53070    9.50480
 5650.00000    9.51960    9.51960  100.90110    0.08020    0.08020    2.41640    -999.25    0.14160    0.17170    9.91730   56.13790   56.13790    9.91730    7.68800    8.85160    7.68800    -999.25    0.27390    0.22990    2.39980  -54.53390  -18.71470    8.85160
 5700.00000    9.79660    9.79660   82.29500    0.01510    0.01510    2.67010    -999.25   -0.01220    0.02330   12.15140   82.61430   82.61430   12.15140   11.45840   14.30290   11.45840    -999.25    0.24010    0.19630    2.68460  -40.66960   -5.73300   14.30290
 5750.00000    9.76120    9.76120   76.03350    0.04910    0.04910    2.68280    -999.25   -0.01150    0.01590   13.15210   67.90710   67.90710   13.15210   11.97090   15.35370   11.97090    -999.25    0.23630    0.19250    2.68280  -43.10880   -9.04900   15.35370
 5800.00000   10.31410   10.31410   95.39970    0.15190    0.15190    2.54980    -999.25    0.06070    0.09370   10.48480  100.20100  100.20100   10.48480    9.22900   12.34710    9.22900    -999.25    0.27320    0.22920    2.56520  -40.42300   -7.24010   12.34710
 5850.00000    9.89590    9.89590   69.11660    0.02030    0.02030    2.67050    -999.25   -0.01240    0.02310   14.46830   71.47170   71.47170   14.46830   13.15540   16.91090   13.15540    -999.25    0.21700    0.17340    2.66720  -41.26150   -8.96120   16.91090
 5900.00000   10.33850   10.33850   79.61990    0.04570    0.04570    2.63740    -999.25    0.01020    0.04250   12.56520   75.60800   75.60800   12.56520   11.81160   15.78910   11.81160    -999.25    0.18490    0.14170    2.63740  -39.68820   -8.21100   15.78910
 5950.00000   11.32470   11.32470   68.78290    0.03250    0.03250    2.59540    -999.25    0.03310    0.06700   14.53850   55.67220   55.67220   14.53850   12.94410   17.70630   12.94410    -999.25    0.18520    0.14200    2.60290  -61.53710  -30.48590   17.70630
 6000.00000   11.10410   11.10410   59.55040    0.05580    0.05580    2.66940    -999.25   -0.00930    0.02370   16.79550   89.97360   89.97360   16.79550   14.92140   22.98200   14.92140    -999.25    0.23790    0.19410    2.66940  -41.38780  -10.75990   22.98200
 6050.00000   10.32920   10.32920   69.70890    0.00930    0.00930    2.57710    -999.25    0.04780    0.07770   14.34580   62.49020   62.49020   14.34580   12.83170   16.69420   12.83170    -999.25    0.19520    0.15180    2.57710  -69.37550  -39.17080   16.69420
 6100.00000   10.34940   10.34940   61.03740    0.02900    0.02900    2.67260    -999.25   -0.00590    0.02190   16.38340   75.52330   75.52330   16.38340   14.45240   19.22360   14.45240    -999.25    0.20620    0.16270    2.67260  -54.27670  -24.49800   19.22360
 6150.00000   10.38050   10.38050   43.22130   -0.01810   -0.01810    2.24880    -999.25    0.20020    0.26970   23.28320   51.11880   51.11880   23.28320   18.03870   27.68410   18.03870    -999.25    0.33880    0.29520    2.28400  -58.17410  -28.81860   27.68410
 6200.00000   10.03190   10.03190   70.08590    0.03720    0.03720    2.64590    -999.25    0.00460    0.03750   14.26820   77.39710   77.39710   14.26820   12.59530   16.83580   12.59530    -999.25    0.19260    0.14930    2.64590  -58.53640  -29.60690   16.83580
 6250.00000   10.21680   10.21680   92.02330    0.02130    0.02130    2.52230    -999.25    0.07740    0.10980   10.86710   53.60020   53.60020   10.86710   11.72660   16.50550   11.72660    -999.25    0.17060    0.12770    2.53970  -88.94500  -60.43870   16.50550
 6300.00000   10.45350   10.45350   62.55280    0.03580    0.03580    2.64740    -999.25   -0.00020    0.03660   15.98650   87.41500   87.41500   15.98650   14.37230   19.84900   14.37230    -999.25    0.20190    0.15840    2.64740  -62.38320  -34.30020   19.84900
 6350.00000   10.26990   10.26990   52.79830    0.02270    0.02270    2.69500    -999.25   -0.01270    0.00880   18.94000   94.89830   94.89830   18.94000   16.38920   22.47790   16.38920    -999.25    0.17110    0.12810    2.69500  -49.78010  -22.12310   22.47790
 6400.00000   10.06900   10.06900   65.66350    0.05770    0.05770    2.67680    -999.25   -0.00810    0.01940   15.22940   85.99200   85.99200   15.22940   13.39490   15.30260   13.39490    -999.25    0.19180    0.14850    2.67680  -52.55160  -25.31780   15.30260
 6450.00000    9.84140    9.84140   37.57560    0.03030    0.03030    2.65360    -999.25   -0.00660    0.03300   26.61300   78.07310   78.07310   26.61300   23.66670   33.61950   23.66670    -999.25    0.16160    0.11880    2.65360  -56.07590  -29.26810   33.61950
