~Version ---------------------------------------------------
VERS.      2.0 : CWLS log ASCII Standard -VERSION 2.0
WRAP.       NO : One line per depth step
CREA. 09/25/17 : LAS Creation Date
~Well ------------------------------------------------------
STRT.FT                      300.0 : START DEPTH
STOP.FT                    10650.0 : STOP DEPTH
STEP.FT                   50.00000 : STEP LENGTH
NULL.                      -999.25 : NULL VALUE
COMP.     CHEVRON STANDARD LIMITED : COMPANY
WELL. CHEVRON BA KAYBOBS 6-6-62-19 : WELL
FLD .                              : FIELD
LOC .                              : LOCATION
CTRY.                       CANADA : COUNTRY
SRVC.                     P.G.A.C. : SERVICE COMPANY
DATE.                  16-Mar-1967 : LOGDATE
PROV.                      Alberta : PROVINCE
UWI .             100060606219W500 : UNIQUE WELL ID
SLAT.WGS84                54.33243 : SURFACE LATITUDE
SLON.WGS84               -116.8409 : SURFACE LONGITUDE
~Curve Information -----------------------------------------
DEPT  .FT    : Depth Curve
CALWS .IN    : CALIPER [MCALED]
CILDED.MMHO  : CONDUCTIVITY FROM RESISTIVITY LOG
CONDWS.MMHO  : CONDUCTIVITY [1000/DRESWS]
DRESWS.OHMM  : DEEP RESISTIVITY [1000/CILDED IF ILDED<1, ILDED]
DT1ED .US/F  : DELTA TIME (DUAL RECIEVER R1R2=1') FROM SONIC LOG [ADJ. TO RESISTIVITY LOG]
DT22ED.US/F  : DELTA TIME (DUAL RECIEVER R1R2=1') FROM SONIC LOG [ADJ. TO RESISTIVITY LOG]
DTED  .US/F  : DELTA TIME (DUAL RECIEVER R1R2=3') FROM SONIC LOG [ADJ. TO RESISTIVITY LOG]
DTWS  .US/F  : COMPRESSIONAL SONIC [DTED SPL. TO DT2ED @2148.11M]
GRED  .GAPI  : GAMMA RAY FROM CBL LOG [ADJ. TO RESISTIVITY LOG]
GRSED .GAPI  : GAMMA RAY FROM SONIC LOG [ADJ. TO RESISTIVITY LOG]
GRWS  .GAPI  : GAMMA RAY [GRED SPL. TO GRSED @ (118' and 1099')
ILDED .OHMM  : DEEP INDUCTION RESISTIVITY FROM RESISTIVITY LOG
MCALED.IN    : CALIPER FROM MICROLOG [ADJ. TO RESISTIVITY LOG]
SNED  .OHMM  : 16 INCH SHORT NORMAL RESISTIVITY FROM RESISTIVITY LOG
SPRED .MV    : SPONTANEOUS POTENTIAL FROM RESISTIVITY LOG
SPWS  .MV    : SPONTANEOUS POTENTIAL [BASELINE 0 MV, SPRED]
SRESWS.OHMM  : SHALLOW RESISTIVITY [SNED]
~Params ----------------------------------------------------
PD  .                     GL : PERMANENT DATUM
EPD .FT               1839.3 : ELEVATION PERMANENT DATUM
LMF .                    KDB : LOG MEASURED FROM
DAPD.FT                 16.7 : FEET ABOVE PERMANENT DATUM
DMF .                    KDB : DRILLING MEASURED FROM
EKB .FT                 2856 : KELLY BUSHING
EGL .FT               2839.3 : GROUND LEVEL
DATE.               03/16/67 : RUN DATE
RUN .                      1 : RUN NUMBER
DD  .FT                10641 : DEPTH DRILLER
DL  .FT                10655 : DEPTH LOGGER
BLI .FT                10649 : BOTTOM LOG INTERVAL
TLI .FT                 1121 : TOP LOG INTERVAL
CS  .IN                10.75 : CASING SIZE
CBD .FT                 1120 : CASING BOTTOM DRILLER
CBL .FT                 1121 : CASING BOTTOM LOGGER
BS  .IN                    9 : BIT SIZE
BSD .FT                10641 : BIT SIZE AT DEPTH
DFT .     SUPER COL CHEM MUD : DRILLING FLUID TYPE
DFD .                   10.1 : DRILLING FLUID DENSITY
DFV .                     72 : DRILLING FLUID VISCOSITY
DFPH.                     10 : DRILLING FLUID PH
DFL .                    9.9 : DRILLING FLUID LOSS
MSS .             CIRCULATED : MUD SAMPLE SOURCE
RMS .OHMM               1.53 : RESISTIVITY MUD SAMPLE
MST .DEGF                 40 : MUD SAMPLE TEMPERATURE
RMF .OHMM                1.4 : RESISTIVITY MUD FILTRATE SAMPLE
MFST.DEGF                 40 : MUD FILTRATE SAMPLE TEMPERATURE
RMC .OHMM                2.3 : RESISTIVITY MUD CAKE
MCST.DEGF                 40 : MUD CAKE SAMPLE TEMPERATURE
MFSS.                      M : MUD FILTRATE SAMPLE SOURCE
MCSS.                      M : MUD CAKE SAMPLE SOURCE
RMB .OHMM                1.2 : RESISTIVITY MUD AT BHT
TCS .HRS                   4 : TIME CIRCULATED STOPPED
LUN .                 ES 131 : LOGGING UNIT NUMBER
LUL .                     RD : LOGGING UNIT LOCATION
ENGI.                  MANLY : RECORDING ENGINEER
WITN.        MCMILLAN KLCIAK : WITNESSED BY
CLNT.                A2DTECH : CLIENT CODE
ORIG.            2" 5" PRINT : ORIGIN OF DATA
UWI .       100060606219W500 : UNIQUE WELL ID
DICO. A2D Technologies, Inc. : DIGITIZING COMPANY
~Other -----------------------------------------------------
~ASCII -----------------------------------------------------
# ...
 6450.00000   12.12430  130.17540  128.48520    7.78300    -999.25    -999.25   78.09180   78.09180   56.15050  100.07850  100.07850    7.78300   12.12430   10.18170  -43.94040   -4.81080   10.18170
 6500.00000   11.49220   82.63910   82.63100   12.10200    -999.25    -999.25   86.93680   86.93680   66.01490   92.44680   92.44680   12.10200   11.49220   18.12040  -46.18320   -7.47000   18.12040
 6550.00000   12.74240   87.88460   70.91240   14.10190    -999.25    -999.25   84.49890   84.49890   57.72100   97.63250   97.63250   14.10190   12.74240   14.65100  -47.04720   -8.75040   14.65100
 6600.00000   10.49330   69.93230   67.35680   14.84630    -999.25    -999.25   79.75670   79.75670   58.69840   97.23610   97.23610   14.84630   10.49330   22.68850  -47.29700   -9.41930   22.68850
 6650.00000   13.83190  125.11750  121.57020    8.22570    -999.25    -999.25   91.33670   91.33670   56.24690   86.08970   86.08970    8.22570   13.83190    9.97280  -45.90640   -8.44510    9.97280
 6700.00000   13.10670  253.28870  253.70410    3.94160    -999.25    -999.25   76.46100   76.46100   55.52970   80.41270   80.41270    3.94160   13.10670    5.88810  -44.96830   -7.92610    5.88810
 6750.00000   14.35210  235.35530  199.89610    5.00260    -999.25    -999.25   91.54760   91.54760   47.79840   82.80050   82.80050    5.00260   14.35210    6.18160  -43.12510   -6.49930    6.18160
 6800.00000    9.67800   42.80410   45.33560   22.05770    -999.25    -999.25   77.01690   77.01690   77.67080  114.54870  114.54870   22.05770    9.67800   31.67820  -46.72970  -10.52030   31.67820
 6850.00000    9.46540   61.75020   61.74100   16.19670    -999.25    -999.25   84.24180   84.24180   66.75910  103.81150  103.81150   16.19670    9.46540   23.68040  -48.55420  -12.76390   23.68040
 6900.00000   10.35990   77.69780   77.69590   12.87070    -999.25    -999.25   61.79740   61.79740   50.57210   79.89160   79.89160   12.87070   10.35990   15.29480  -56.34290  -20.96900   15.29480
 6950.00000    9.98510   37.30600   37.79280   26.46010    -999.25    -999.25   61.99370   61.99370   51.15870   84.01910   84.01910   26.46010    9.98510   35.88890  -50.90630  -15.95150   35.88890
 7000.00000    9.79110   36.55350   37.24010   26.85280    -999.25    -999.25   62.30580   62.30580   57.82460   87.90670   87.90670   26.85280    9.79110   34.51070  -53.33100  -18.79260   34.51070
 7050.00000    9.81540   61.99780   63.30160   15.79740   55.63970   54.94360   61.60350   54.94360   51.83110   81.14140   81.14140   15.79740    9.81540   21.87910  -56.77950  -22.65750   21.87910
 7100.00000   13.50940   49.76240   49.30260   20.28290   56.99170   57.12790    -999.25   57.12790   35.59320   27.07020   27.07020   20.28290   13.50940   29.75580  -85.60140  -51.89850   29.75580
 7150.00000   13.99660   63.32310   62.43330   16.01710   67.36330   65.47470    -999.25   65.47470   24.37800   36.26650   36.26650   16.01710   13.99660   36.12610 -116.90930  -83.62280   36.12610
 7200.00000    9.33080   94.50890   87.68780   11.40410   73.88800  107.53180    -999.25  107.53180   28.18230   35.93020   35.93020   11.40410    9.33080   28.19810 -142.52800 -109.66060   28.19810
 7250.00000   13.52400   17.53870   17.54440   56.99840   53.84670   54.20640    -999.25   54.20640   22.30000   42.68510   42.68510   56.99840   13.52400   76.79050  -66.27880  -33.82780   76.79050
 7300.00000   10.07970  121.52570  121.38130    8.23850   56.97540   57.59810    -999.25   57.59810   33.52960   44.31080   44.31080    8.23850   10.07970   20.69880  -99.12500  -67.09040   20.69880
 7350.00000   11.06900   95.53820   95.49820   10.47140   66.89830   64.65340    -999.25   64.65340   20.16150   42.36720   42.36720   10.47140   11.06900   31.91980 -102.15310  -70.53760   31.91980
 7400.00000    9.37650  105.08220   75.94920   13.16670   59.90620   60.56970    -999.25   60.56970   36.19410   59.13400   59.13400   13.16670    9.37650   34.00250  -96.29390  -65.09480   34.00250
 7450.00000   10.36630   17.56980   17.57790   56.88960   53.11070   53.58020    -999.25   53.58020   14.35440   19.82870   19.82870   56.88960   10.36630   89.96800 -110.26040  -79.48040   89.96800
 7500.00000    8.48210  135.99010  126.51340    7.90430   53.99400   54.39120    -999.25   54.39120    9.67430   22.69820   22.69820    7.90430    8.48210   33.65760 -171.03070 -140.66710   33.65760
 7550.00000    9.69710   40.75150   41.28290   24.22310   50.65500   51.16560    -999.25   51.16560    8.97910   18.25560   18.25560   24.22310    9.69710   64.91870 -169.05780 -139.11050   64.91870
 7600.00000    9.96990  380.78980  322.12340    3.10440   67.18500   67.15420    -999.25   67.15420   50.86490   77.31590   77.31590    3.10440    9.96990    6.04520  -75.72920  -46.20110    6.04520
 7650.00000    9.64500  110.66330  107.32840    9.31720   61.02520   61.39830    -999.25   61.39830   55.88440   85.36870   85.36870    9.31720    9.64500   17.39560  -65.71360  -36.60190   17.39560
 7700.00000    9.67400   70.31680   68.41960   14.61570   56.51400   56.95760    -999.25   56.95760   16.67230   38.32280   38.32280   14.61570    9.67400   36.70590  -81.50920  -52.81660   36.70590
 7750.00000    9.83950   84.91130   84.91630   11.77630   62.54540   62.66450    -999.25   62.66450    -999.25   58.96680   58.96680   11.77630    9.83950   25.29730  -57.14680  -28.87060   25.29730
 7800.00000   10.13990   32.66380   33.41720   29.92470   61.68950   61.84820    -999.25   61.84820    -999.25   29.98680   29.98680   29.92470   10.13990   38.27200  -51.00720  -23.14730   38.27200
 7850.00000   10.61280   32.11620   33.12960   30.18450   56.02630   56.52620    -999.25   56.52620    -999.25   21.02640   21.02640   30.18450   10.61280   39.84430  -40.78300  -13.34230   39.84430
 7900.00000   10.34460   38.21880   39.11220   25.56750   50.42410   51.43130    -999.25   51.43130    -999.25   33.52070   33.52070   25.56750   10.34460   39.78580  -46.77780  -19.75340   39.78580
 7950.00000   11.11290   35.69640   35.72440   27.99210   59.28290   59.45480    -999.25   59.45480    -999.25   29.73710   29.73710   27.99210   11.11290   40.51840  -39.06020  -12.45500   40.51840
 8000.00000    9.90460   29.81130   30.77750   32.49130   58.19480   58.38140    -999.25   58.38140    -999.25   42.58550   42.58550   32.49130    9.90460   53.20100  -42.33920  -16.15040   53.20100
 8050.00000    9.30340   26.13120   26.34420   37.95900   56.72670   56.94500    -999.25   56.94500    -999.25   42.98130   42.98130   37.95900    9.30340   52.21400  -35.04180   -9.26930   52.21400
 8100.00000    9.36600   20.68330   21.05140   47.50270   58.29850   58.49490    -999.25   58.49490    -999.25   54.91960   54.91960   47.50270    9.36600   62.66240  -34.35170   -8.99840   62.66240
 8150.00000    9.33730   13.94840   14.53180   68.81440   58.69550   58.93220    -999.25   58.93220    -999.25   46.03230   46.03230   68.81440    9.33730  123.69670  -48.50510  -23.56810  123.69670
 8200.00000    9.59510   71.01010   71.01620   14.08130   63.34760   63.23800    -999.25   63.23800    -999.25   86.71760   86.71760   14.08130    9.59510   18.46990  -40.53510  -16.01730   18.46990
 8250.00000   11.78940   12.51570   13.88770   72.00640   51.42640   51.75060    -999.25   51.75060    -999.25   21.52180   21.52180   72.00640   11.78940  105.18390  -62.38030  -37.97700  105.18390
 8300.00000   12.47480   12.40810   12.53590   79.77120   55.02250   55.52750    -999.25   55.52750    -999.25   21.11530   21.11530   79.77120   12.47480   85.90800  -93.14440  -68.76870   85.90800
 8350.00000   12.34920   12.33760   12.06680   82.87190   51.39520   51.61970    -999.25   51.61970    -999.25   19.97300   19.97300   82.87190   12.34920  112.10590 -110.75810  -86.41010  112.10590
 8400.00000   10.90510   13.33150   13.71130   72.93240   54.18350   54.42760    -999.25   54.42760    -999.25   17.81920   17.81920   72.93240   10.90510   83.82070 -121.38210  -97.06170   83.82070
 8450.00000   11.93750   15.95850   16.80570   59.50370   51.21530   51.62580    -999.25   51.62580    -999.25   17.78850   17.78850   59.50370   11.93750   79.98240 -120.08700  -95.79440   79.98240
