~Version ---------------------------------------------------
VERS.      2.0 : CWLS log ASCII Standard -VERSION 2.0
WRAP.       NO : One line per depth step
CREA. 08/30/13 : LAS Creation Date
~Well ------------------------------------------------------
STRT.M                            350.0 : START DEPTH
STOP.M                           3500.0 : STOP DEPTH
STEP.M                         50.00000 : STEP LENGTH
NULL.                           -999.25 : NULL VALUE
COMP. HUDSONS BAY OIL & GAS COMPANY LTD : COMPANY
WELL.    HB DEB ET AL CARROT CREEK 8-18 : WELL
FLD .                                   : FIELD
LOC .                                   : LOCATION
CTRY.                            CANADA : COUNTRY
SRVC.                      Schlumberger : SERVICE COMPANY
DATE.                       04-Apr-1981 : LOGDATE
PROV.                           Alberta : PROVINCE
UWI .                  100081805214W500 : UNIQUE WELL ID
SLAT.WGS84                     53.48753 : SURFACE LATITUDE
SLON.WGS84                    -116.0458 : SURFACE LONGITUDE
~Curve Information -----------------------------------------
DEPT    .M      : DEPTH METER
CALDED  .MM     : CALIPER FROM DENSITY LOG [ADJ. TO RESISTIVITY LOG]
CALSED  .MM     : CALIPER FROM SONIC LOG
CALWS   .MM     : CALIPER [CALDED]
CILDED  .MMHO   : CONDUCTIVITY FROM RESISTIVITY LOG
CONDWS  .MMHO   : CONDUCTIVITY [1000/DRESWS]
DCORED  .KG/M3  : DENSITY CORRECTION FROM DENSITY LOG [ADJ. TO RESISTIVITY LOG]
DCORWS  .KG/M3  : DENSITY CORRECTION [DCORED]
DENWS   .KG/M3  : FORMATION BULK DENSITY [CALC. FROM DPOLSWS,M=2710,F=1000]
DPHILSED.V/V    : DENSITY POROSITY LIMESTONE [M=2710,F=1000] FROM DENSITY LOG [ADJ. TO RESISTIVITY LOG]
DPHISSED.V/V    : DENSITY POROSITY SANDSTONE [M=2650,F=1000] FROM DENSITY LOG [ADJ. TO RESISTIVITY LOG]
DPOLSWS .V/V    : DENSITY POROSITY LIMESTONE [DPHISSED CONVERTED TO LIMESTONE MATRIX,M=2710,F=1000,SPL. TO DPHILSED @ 2436M]
DRESWS  .OHMM   : DEEP RESISTIVITY [ILDED]
DTED    .US/M   : DELTA-T FROM SONIC LOG
DTWS    .US/M   : COMPRESSIONAL SONIC [DTED]
GRDED   .GAPI   : GAMMA RAY FROM DENSITY LOG [ADJ. TO RESISTIVITY LOG]
GRSED   .GAPI   : GAMMA RAY FROM SONIC LOG
GRWS    .GAPI   : GAMMA RAY [GRSED SPL. TO GRDED @ 3512M]
ILDED   .OHMM   : DEEP INDUCTION FROM RESISTIVITY LOG
ILMED   .OHMM   : MEDIUM INDUCTION FROM RESISTIVITY LOG
MRESWS  .OHMM   : MEDIUM RESISTIVITY [ILMED]
NPHILSED.V/V    : NEUTRON POROSITY LIMESTONE FROM DENSITY LOG [ADJ. TO RESISTIVITY LOG]
NPHISSED.V/V    : NEUTRON POROSITY SANDSTONE FROM DENSITY LOG [ADJ. TO RESISTIVITY LOG]
NPOLSWS .V/V    : NEUTRON POROSITY LIMESTONE [NPHISSED MATRIX CONVERSION FOR LIMESTONE,SPL. TO NPHILSED @ 2736M]
RHOBED  .KG/M3  : BULK DENSITY FROM DENSITY LOG [ADJ. TO RESISTIVITY LOG/DPHILSED]
SFLED   .OHMM   : SPHERICALLY FOCUSED FROM RESISTIVITY LOG
SPRED   .MV     : SPONTANEOUS POTENTIAL FROM RESISTIVITY LOG
SPWS    .MV     : SPONTANEOUS POTENTIAL [BASELINE 0 MV,SPRED]
SRESWS  .OHMM   : SHALLOW RESISTIVITY [SFLED]
~Params ----------------------------------------------------
PD  .                         GL : PERMANENT DATUM
EPD .M                     956.7 : ELEVATION PERMANENT DATUM
LMF .                         KB : LOG MEASURED FROM
DAPD.M                         7 : FEET ABOVE PERMANENT DATUM
DMF .                         KB : DRILLING MEASURED FROM
EKB .M                     963.7 : KELLY BUSHING
EGL .M                     956.7 : GROUND LEVEL
DATE.                   04/04/81 : RUN DATE
RUN .                          1 : RUN NUMBER
DD  .M                      3532 : DEPTH DRILLER
DL  .M                    3532.7 : DEPTH LOGGER
BLI .M                    3531.8 : BOTTOM LOG INTERVAL
TLI .M                     361.7 : TOP LOG INTERVAL
CS  .MM                      244 : CASING SIZE
CBD .M                       362 : CASING BOTTOM DRILLER
CBL .M                     361.7 : CASING BOTTOM LOGGER
BS  .MM                      222 : BIT SIZE
BSD .M                      3532 : BIT SIZE AT DEPTH
DFT .                   GEL CHEM : DRILLING FLUID TYPE
DFD .                       1115 : DRILLING FLUID DENSITY
DFV .                         93 : DRILLING FLUID VISCOSITY
DFPH.                         10 : DRILLING FLUID PH
DFL .                       10.8 : DRILLING FLUID LOSS
MSS .                CIRCULATION : MUD SAMPLE SOURCE
RMS .OHMM                   1.35 : RESISTIVITY MUD SAMPLE
MST .DEGC                  17.22 : MUD SAMPLE TEMPERATURE
RMF .OHMM                   1.09 : RESISTIVITY MUD FILTRATE SAMPLE
MFST.DEGC                  15.55 : MUD FILTRATE SAMPLE TEMPERATURE
MFSS.                      PRESS : MUD FILTRATE SAMPLE SOURCE
MCSS.                       MEAS : MUD CAKE SAMPLE SOURCE
RMB .OHMM                  0.415 : RESISTIVITY MUD AT BHT
TCS .HRS                     445 : TIME CIRCULATED STOPPED
TLAB.HRS                    1330 : TIME LOGGER AT BOTTOM
LUN .                       8218 : LOGGING UNIT NUMBER
LUL .                      EDSON : LOGGING UNIT LOCATION
ENGI.                        PAO : RECORDING ENGINEER
WITN.                       KYBA : WITNESSED BY
CLNT.                    A2DTECH : CLIENT CODE
ORIG. 6.5"/100M 16.5"/100M PRINT : ORIGIN OF DATA
UWI .           100081805214W500 : UNIQUE WELL ID
DICO.     A2D Technologies, Inc. : DIGITIZING COMPANY
~Other -----------------------------------------------------
DIL-SFL-BHC RUN IN COMBO & CNFD LOG RAN.
RHOB & DCOR ARE FROM SMALL SCALE.
NEUTRON MATRIX CONVERSION: SCHLUMBERGER.
~ASCII -----------------------------------------------------
# ...
 1600.00000  265.58470  261.83630  265.58470    -999.25   76.30490  239.01970  239.01970 2281.88500    -999.25    0.22310    0.25040   13.10550  270.72880  270.72880  113.66320  112.22730  112.22730   13.10550   12.57630   12.57630    -999.25    0.31170    0.26760 2286.37460   13.66070  -45.75460   -3.71960   13.66070
 1650.00000  295.06590  255.40970  295.06590    -999.25  102.85040  157.94970  157.94970 2205.32500    -999.25    0.26950    0.29510    9.72300  256.94160  256.94160  101.31960  104.13090  104.13090    9.72300    9.38290    9.38290    -999.25    0.31100    0.26930 2211.23180    9.03170  -47.44990   -6.14060    9.03170
 1700.00000  272.59560  245.77110  272.59560    -999.25   84.14820  164.59390  164.59390 2187.83500    -999.25    0.28010    0.30540   11.88380  242.67510  242.67510   95.87320  101.17020  101.17020   11.88380   11.54610   11.54610    -999.25    0.25050    0.21240 2184.49240   12.79660  -46.70060   -5.49740   12.79660
 1750.00000  284.07830  264.62570  284.07830    -999.25  110.65010  210.88190  210.88190 2222.32000    -999.25    0.25920    0.28520    9.03750  257.16870  257.16870  110.88030  108.22830  108.22830    9.03750    8.89540    8.89540    -999.25    0.30490    0.26090 2235.49340    9.26020  -45.09470   -3.99760    9.26020
 1800.00000  287.84670  239.95230  287.84670    -999.25   35.37860  153.09380  153.09380 2180.74000    -999.25    0.28440    0.30950   28.26570  227.38040  227.38040   64.67950   60.38220   60.38220   28.26570   25.61250   25.61250    -999.25    0.13960    0.09740 2138.88960   34.50600  -56.22850  -15.71950   34.50600
 1850.00000  298.38890  260.20920  298.38890    -999.25   83.52330  154.12950  154.12950 2041.15000    -999.25    0.36900    0.39110   11.97270  247.71910  247.71910  112.09160  108.70340  108.70340   11.97270   11.54360   11.54360    -999.25    0.25240    0.20980 2042.76560   11.44310  -43.87030   -4.79560   11.44310
 1900.00000  295.70870  245.60420  295.70870    -999.25   75.65840  167.48330  167.48330 2110.45000    -999.25    0.32700    0.35060   13.21730  294.11730  294.11730  111.49230  114.47990  114.47990   13.21730   13.93740   13.93740    -999.25    0.33040    0.28470 2107.46240   14.42790  -42.05340   -4.00720   14.42790
 1950.00000  232.85810  252.69050  232.85810    -999.25   54.30650    6.60650    6.60650 2622.94000    -999.25    0.01640    0.05090   18.41400  252.54350  252.54350   99.26210   98.04100   98.04100   18.41400   19.21110   19.21110    -999.25    0.30320    0.25920 2617.98710   25.04250  -40.91980   -3.12130   25.04250
 2000.00000  277.82680  245.29160  277.82680    -999.25   78.50030  179.78460  179.78460 2275.45000    -999.25    0.22700    0.25410   12.73880  283.33380  283.33380  107.90520  103.64710  103.64710   12.73880   13.17020   13.17020    -999.25    0.33390    0.29010 2273.53320   15.81930  -41.20900   -3.65820   15.81930
 2050.00000  359.22820  248.20300  359.22820    -999.25  117.21130  136.03900  136.03900 2428.40500    -999.25    0.13430    0.16470    8.53160  272.26100  272.26100  107.22120   98.09180   98.09180    8.53160    8.14540    8.14540    -999.25    0.28880    0.24480 2432.08470    8.68010  -42.50310   -5.19990    8.68010
 2100.00000  376.72410  268.13210  376.72410    -999.25  113.68640   97.63620   97.63620 2372.30500    -999.25    0.16830    0.19750    8.79980  288.23780  288.23780  128.87910  119.92900  119.92900    8.79980    8.60550    8.60550    -999.25    0.29010    0.24680 2368.21010   10.16970  -39.90120   -8.39420   10.16970
 2150.00000  259.06660  263.24790  259.06660    -999.25   51.99190    8.95160    8.95160 2605.86250    -999.25    0.02680    0.06090   19.23540  226.34080  226.34080   74.52560   76.44280   76.44280   19.23540   19.71430   19.71430    -999.25    0.15830    0.11580 2605.78190   20.84370  -43.06900  -19.91970   20.84370
 2200.00000  283.39940  274.19050  283.39940    -999.25   69.40300    9.07050    9.07050 2620.54750    -999.25    0.01790    0.05230   14.43260  219.29000  219.29000   83.07040   81.36380   81.36380   14.43260   17.08160   17.08160    -999.25    0.22340    0.16400 2623.80200   19.05110  -41.11200  -20.40320   19.05110
 2250.00000  266.54190  286.63460  266.54190    -999.25   59.07830  169.87440  169.87440 2478.31750    -999.25    0.10410    0.13550   16.95070  260.58690  260.58690   79.32570   82.06950   82.06950   16.95070   14.40980   14.40980    -999.25    0.30870    0.28310 2451.68270   20.10160  -40.11770  -21.84930   20.10160
 2300.00000  256.61130  249.50110  256.61130    -999.25   46.79330    6.28020    6.28020 2586.80500    -999.25    0.03830    0.07200   21.37060  241.67790  241.67790   81.31710   78.00800   78.00800   21.37060   20.65870   20.65870    -999.25    0.23300    0.18920 2584.60400   22.54850  -48.31780  -32.48990   22.54850
 2350.00000  243.59050  258.40890  243.59050    -999.25   21.33450   21.03980   21.03980 2638.12000    -999.25    0.00720    0.04200   46.87250  187.98770  187.98770   44.07170   44.67780   44.67780   46.87250   40.17210   40.17210    -999.25    0.10760    0.06580 2639.74630  133.75160  -34.65840  -21.27100  133.75160
 2400.00000  229.21570  246.99320  229.21570    -999.25   11.37170   24.74340   24.74340 2573.77000    -999.25    0.04620    0.07970   87.93790  215.23130  215.23130   39.25100   34.20980   34.20980   87.93790   63.63160   63.63160    -999.25    0.11600    0.07390 2572.14990   68.77600  -33.21870  -22.27170   68.77600
 2450.00000  230.15100  232.38890  230.15100    -999.25    3.84440    6.42920    6.42920 2624.32900    0.05010    0.01810    0.05010  260.11590  188.24070  188.24070   57.58360   50.83950   50.83950  260.11590  304.93980  304.93980    0.03910    0.07680    0.03910 2617.41020  701.15150  -62.53860  -51.80260  701.15150
 2500.00000  247.96730  242.53150  247.96730    -999.25    0.67020   -5.20820   -5.20820 2482.91200    0.13280    0.10090    0.13280 1492.06200  230.53260  230.53260  263.79590  259.42810  259.42810 1492.06200 1368.04920 1368.04920    0.16310    0.22400    0.16310 2481.60330 1828.34740  -44.80650  -25.89450 1828.34740
 2550.00000  252.50320  244.28780  252.50320    -999.25    0.57950   51.95640   51.95640 2928.36700   -0.12770    -999.25   -0.12770 1725.76110  164.03930  164.03930   14.94180   14.05950   14.05950 1725.76110 2005.63130 2005.63130    0.00130    -999.25    0.00130 2940.44170 1931.98850 -100.87400  -73.78590 1931.98850
 2600.00000  238.66860  243.17360  238.66860    -999.25   62.66800   -2.48970   -2.48970 2676.48400    0.01960    -999.25    0.01960   15.95710  185.50620  185.50620   30.32630   27.48010   27.48010   15.95710   18.25090   18.25090    0.06220    -999.25    0.06220 2674.42820   36.93640  -78.31530  -55.46890   36.93640
 2650.00000  236.50070  238.44040  236.50070    -999.25    8.78480   -1.24290   -1.24290 2713.07800   -0.00180    -999.25   -0.00180  113.92310  175.85960  175.85960   29.03280   29.21740   29.21740  113.92310  141.25330  141.25330    0.02720    -999.25    0.02720 2712.88140  149.11270  -30.34660  -20.01970  149.11270
 2700.00000  237.21250  237.73890  237.21250    -999.25   13.83630   -5.56810   -5.56810 2678.02300    0.01870    -999.25    0.01870   72.27600  188.44640  188.44640   50.02180   43.98510   43.98510   72.27600   83.47580   83.47580    0.04510    -999.25    0.04510 2674.79930   88.43810  -26.77820   -8.75790   88.43810
 2750.00000  278.37860  248.04370  278.37860    -999.25    0.50000  178.26600  178.26600 2675.54350    0.02020    -999.25    0.02020 2000.00000  160.68790  160.68790   13.70040   15.57540   15.57540 2000.00000 1992.22650 1992.22650   -0.00360    -999.25   -0.00360 2698.96840 1883.74310  -95.95850  -77.00890 1883.74310
 2800.00000  360.61570  247.73220  360.61570    -999.25    0.58070  188.34560  188.34560 2494.88200    0.12580    -999.25    0.12580 1725.37220  162.38610  162.38610   12.91360   10.10920   10.10920 1725.37220  751.16990  751.16990    0.00150    -999.25    0.00150 2443.58750 1830.16280 -108.05200  -89.59810 1830.16280
