~Version ---------------------------------------------------
VERS. 2.0 : CWLS log ASCII Standard -VERSION 2.0
WRAP.  NO : ONE LINE PER DEPTH STEP
~Well ------------------------------------------------------
STRT.M                          300.0 : START DEPTH
STOP.M                         1750.0 : STOP DEPTH
STEP.M                       50.00000 : STEP LENGTH
NULL.                         -999.25 : NULL VALUE
COMP.        VERMILION RESOURCES LTD. : COMPANY
WELL. VERMILION RES NIPISI 2-36-80-10 : WELL
FLD .                                 : FIELD
LOC .                                 : LOCATION
CTRY.                          CANADA : COUNTRY
SRVC.                      Computalog : SERVICE COMPANY
DATE.                     09-Nov-1996 : LOGDATE
PROV.                         Alberta : PROVINCE
UWI .                100023608010W500 : UNIQUE WELL ID
SLAT.WGS84               55.971209927 : SURFACE LATITUDE
SLON.WGS84            -115.4174202394 : SURFACE LONGITUDE
~Curve Information -----------------------------------------
DEPT  .M      : DEPTH METERS
GRR   .GAPI   : GAMMA RAY FROM RESISTIVITY LOG
ILD   .OHMM   : INDUCTION LOG DEEP RESISTIVITY
SFL   .OHMM   : SPHERICALLY FOCUSED LOG RESISTIVITY
SPR   .MV     : SPONTANEOUS POTENTIAL FROM RESISTIVITY LOG
ILM   .OHMM   : INDUCTION LOG MEDIUM RESISTIVITY
DPORSS.V/V    : DENSITY POROSITY SANDSTONE FROM DENSITY LOG
NPORSS.V/V    : NEUTRON POROSITY SANDSTONE FROM DENSITY LOG
PE    .B/E    : PHOTOELECTRIC FACTOR FROM DENSITY LOG
DRHO  .KG/M3  : DENSITY CORRECTION FROM DENSITY LOG
CALY  .MM     : CALIPER Y FROM DENSITY LOG
DPORLS.V/V    : DENSITY POROSITY LIMESTONE FROM DENSITY LOG
NPORLS.V/V    : NEUTRON POROSITY LIMESTONE FROM DENSITY LOG
RHOB  .KG/M3  : BULK DENSITY FROM DENSITY LOG
DT    .US/M   : DELTA TIME FROM SONIC LOG
~Params ----------------------------------------------------
PD  .                         GL : PERMANENT DATUM
EPD .M                     656.5 : ELEVATION PERMANENT DATUM
LMF .                         KB : LOG MEASURED FROM
DAPD.M                       4.5 : FEET ABOVE PERMANENT DATUM
EKB .M                       661 : KELLY BUSHING
EGL .M                     656.5 : GROUND LEVEL
DATE.                   11/09/96 : RUN DATE
RUN .                          1 : RUN NUMBER
DD  .M                      1768 : DEPTH DRILLER
DL  .M                    1761.1 : DEPTH LOGGER
BLI .M                      1759 : BOTTOM LOG INTERVAL
TLI .M                     311.8 : TOP LOG INTERVAL
CS  .MM                    219.1 : CASING SIZE
CBD .M                       312 : CASING BOTTOM DRILLER
CBL .M                     311.8 : CASING BOTTOM LOGGER
BS  .MM                      200 : BIT SIZE
BSD .M                      1768 : BIT SIZE AT DEPTH
DFT .                   GEL CHEM : DRILLING FLUID TYPE
DFD .                       1100 : DRILLING FLUID DENSITY
DFV .                         72 : DRILLING FLUID VISCOSITY
DFPH.                          9 : DRILLING FLUID PH
DFL .                          8 : DRILLING FLUID LOSS
MSS .                   FLOWLINE : MUD SAMPLE SOURCE
RMS .OHMM                    1.1 : RESISTIVITY MUD SAMPLE
MST .DEGC                     18 : MUD SAMPLE TEMPERATURE
RMF .OHMM                      1 : RESISTIVITY MUD FILTRATE SAMPLE
MFST.DEGC                     19 : MUD FILTRATE SAMPLE TEMPERATURE
RMC .OHMM                    1.2 : RESISTIVITY MUD CAKE
MCST.DEGC                     21 : MUD CAKE SAMPLE TEMPERATURE
RMB .OHMM                    0.5 : RESISTIVITY MUD AT BHT
TCS .HRS                       3 : TIME CIRCULATED STOPPED
LUN .                        352 : LOGGING UNIT NUMBER
LUL .                   EDMONTON : LOGGING UNIT LOCATION
ENGI.                     GRAHAM : RECORDING ENGINEER
WITN.                  GILCHRIST : WITNESSED BY
CLNT.                    A2DTECH : CLIENT CODE
ORIG. 6.5"/100M 16.5"/100M PRINT : ORIGIN OF DATA
UWI .           100023608010W500 : UNIQUE WELL ID
DICO.     A2D Technologies, Inc. : DIGITIZING COMPANY
~Other -----------------------------------------------------
~ASCII -----------------------------------------------------
  300.00000   65.62920    -999.25    -999.25    -999.25    -999.25    -999.25    -999.25    -999.25    -999.25    -999.25    -999.25    -999.25    -999.25    -999.25
  350.00000   56.67590    7.59640   10.30980    9.16320   10.77310    -999.25    -999.25    -999.25    -999.25  198.84480    -999.25    -999.25    -999.25  368.49140
  400.00000    -999.25    4.45950    3.27610   35.35870    4.27800    -999.25    -999.25    -999.25    -999.25  317.51650    -999.25    -999.25    -999.25  424.79330
  450.00000   75.94260    6.77760    5.82610   36.21980    6.27640    -999.25    -999.25    -999.25    -999.25  204.54170    -999.25    -999.25    -999.25  388.04820
  500.00000   72.35360    4.89100    5.01070   44.75500    5.05570    -999.25    -999.25    -999.25    -999.25  208.90750    -999.25    -999.25    -999.25  381.88780
  550.00000   91.69650    3.51110    3.63110   50.97060    3.46170    -999.25    -999.25    -999.25    -999.25  222.19910    -999.25    -999.25    -999.25  368.10310
  600.00000   23.87170   37.94330   43.65040   57.64020   35.58040    -999.25    -999.25    -999.25    -999.25  207.30880    -999.25    -999.25    -999.25  230.09420
  650.00000   51.60310    9.87280   34.38150   39.82480    6.87870    -999.25    -999.25    -999.25    -999.25  214.84990    -999.25    -999.25    -999.25  290.36430
  700.00000   50.21090    7.44410   10.11600    9.88070    8.34080    -999.25    -999.25    -999.25    -999.25  229.96010    -999.25    -999.25    -999.25  269.35420
  750.00000   26.12470   19.22980   31.17550    8.54350   20.59770    -999.25    -999.25    -999.25    -999.25  210.12150    -999.25    -999.25    -999.25  188.52690
  800.00000   22.08900   24.15870   25.91150   14.18300   23.82180    -999.25    -999.25    -999.25    -999.25  207.76850    -999.25    -999.25    -999.25  199.19990
  850.00000   42.27350    6.91600    8.84970   23.10290    7.29050    -999.25    -999.25    -999.25    -999.25  225.20700    -999.25    -999.25    -999.25  248.66320
  900.00000   16.41920   26.01180   47.57010  -14.99040   39.33370    -999.25    -999.25    -999.25    -999.25  238.47960    -999.25    -999.25    -999.25  184.16410
  950.00000   13.99270   57.56560   79.30180  -26.41660   53.09520    -999.25    -999.25    -999.25    -999.25  235.26190    -999.25    -999.25    -999.25  179.65820
 1000.00000   14.21050   19.83770   54.48090  -37.48180   21.91850    -999.25    -999.25    -999.25    -999.25  223.56290    -999.25    -999.25    -999.25  187.53580
 1050.00000   13.68290   22.12110   53.38890  -34.99170   22.88180    -999.25    -999.25    -999.25    -999.25  230.54300    -999.25    -999.25    -999.25  184.21220
 1100.00000   14.65220  202.84880  187.91750  -23.87560  308.06640    -999.25    -999.25    -999.25    -999.25  231.06110    -999.25    -999.25    -999.25  169.76970
 1150.00000   11.54060   39.35360  143.34300  -36.11090   75.60150    -999.25    -999.25    -999.25    -999.25  226.40520    -999.25    -999.25    -999.25  171.67950
 1200.00000   22.91330   19.09990   55.82240  -13.44090   23.40770    -999.25    -999.25    -999.25    -999.25  222.09300    -999.25    -999.25    -999.25  164.95350
 1250.00000   20.52230   30.40100   34.39840  -16.03450   36.75030    -999.25    -999.25    -999.25    -999.25  205.95450    -999.25    -999.25    -999.25  185.02740
 1300.00000   93.07430    2.46760    2.56360   -8.88160    2.41400    -999.25    -999.25    -999.25    -999.25  292.46250    -999.25    -999.25    -999.25  377.41670
 1350.00000   78.99570    4.17730    4.64270    1.31040    4.37200    -999.25    -999.25    -999.25    -999.25  201.37710    -999.25    -999.25    -999.25  282.41570
 1400.00000   86.63710    3.05220    3.41830   -4.26850    3.17260    -999.25    -999.25    -999.25    -999.25  242.10560    -999.25    -999.25    -999.25  313.04030
 1450.00000  100.01270    2.76630    2.81410   -2.19000    2.54340    -999.25    -999.25    -999.25    -999.25  278.00740    -999.25    -999.25    -999.25  338.14420
 1500.00000   61.51980    7.13650    8.56230   19.40210    7.63790    -999.25    -999.25    -999.25    -999.25  200.13580    -999.25    -999.25    -999.25  238.04500
 1550.00000   57.85100    9.23840   10.89530   16.46110   10.12990    -999.25    -999.25    -999.25    -999.25  200.36880    -999.25    -999.25    -999.25  231.57940
 1600.00000   44.68380   10.93080   11.98610   19.19460   12.39350    -999.25    -999.25    -999.25    -999.25  199.25570    -999.25    -999.25    -999.25  206.73870
 1650.00000   79.98960    6.84470    8.15280   22.11980    7.18180   -0.01440    0.25290    4.06650   19.57840  202.32510    -999.25    -999.25 2671.39040  246.16100
 1700.00000   33.32330   34.88870   39.70410  -30.86590   32.67440   -0.01040    0.09890    5.37900   43.60150  199.45370    0.02470    0.06110 2649.51860  179.86130
 1750.00000  145.16100   21.67860  148.33520    0.74510   29.87670    0.02170    0.06150    2.77570   12.69100  199.52460    0.05710    0.02680 2612.16580    -999.25
