~Version ---------------------------------------------------
VERS.      2.0 : CWLS log ASCII Standard -VERSION 2.0
WRAP.       NO : One line per depth step
CREA. 08/02/17 : LAS Creation Date
~Well ------------------------------------------------------
STRT.FT                     950.0 : START DEPTH
STOP.FT                   10050.0 : STOP DEPTH
STEP.FT                  50.00000 : STEP LENGTH
NULL.                     -999.25 : NULL VALUE
COMP. SHELL CANADA RESOURCES LTD. : COMPANY
WELL.     ISH MAHASKA 11-32-56-13 : WELL
FLD .                             : FIELD
LOC .                             : LOCATION
CTRY.                      CANADA : COUNTRY
SRVC.                Schlumberger : SERVICE COMPANY
DATE.                 17-Nov-1977 : LOGDATE
PROV.                     Alberta : PROVINCE
UWI .            100113205613W500 : UNIQUE WELL ID
SLAT.WGS84               53.88366 : SURFACE LATITUDE
SLON.WGS84              -115.9002 : SURFACE LONGITUDE
~Curve Information -----------------------------------------
DEPT    .FT    : Depth Curve
CALDED  .IN    : CALIPER FROM DENSITY LOG [ADJ. TO GRRED]
CALSED  .IN    : CALIPER FROM SONIC LOG [ADJ. TO GRRED]
CALWS   .IN    : CALIPER [CALSED]
CONDWS  .MMHO  : CONDUCTIVITY [1000/DRESWS]
DCORWS  .G/C3  : DENSITY CORRECTION [DRHOED]
DENWS   .G/C3  : FORMATION BULK DENSITY [RHOBED]
DPHILSED.V/V   : DENSITY POROSITY LIME [M=2.71, F=1.00] FROM DENSITY LOG [ADJ. TO GRRED]
DPHISSED.V/V   : DENSITY POROSITY SAND [M=2.65, F=1.00] FROM DENSITY LOG [ADJ. TO GRRED]
DPOLSWS .V/V   : DENSITY POROSITY LIME [CALC FROM DENWS M=2.71, F=1.00]
DRESWS  .OHMM  : DEEP RESISTIVITY [LLDED]
DRHOED  .G/C3  : BULK DENSITY CORRECTION FROM DENSITY LOG [ADJ. TO GRRED]
DTED    .US/F  : DELTA-T FROM SONIC LOG [ADJ. TO GRRED]
DTWS    .US/F  : COMPRESSIONAL SONIC [DTED]
GRDED   .GAPI  : GAMMA RAY FROM DENSITY LOG [ADJ. TO GRRED]
GRRED   .GAPI  : GAMMA RAY FROM RESISTIVITY LOG
GRSED   .GAPI  : GAMMA RAY FROM SONIC LOG [ADJ. TO GRRED]
GRWS    .GAPI  : GAMMA RAY [GRSED]
LLDED   .OHMM  : LATEROLOG DEEP RESISTIVITY FROM RESISTIVITY LOG
LLSED   .OHMM  : LATEROLOG SHALLOW RESISTIVITY FROM RESISTIVITY LOG
MLLED   .OHMM  : MICRO FOCUSED LATERO RESISTIVITY FROM RESISTIVITY LOG
NPHILSED.V/V   : NEUTRON POROSITY LIME FROM DENSITY LOG [ADJ. TO GRRED]
NPHISSED.V/V   : NEUTRON POROSITY SAND FROM DENSITY LOG [ADJ. TO GRRED]
NPOLSWS .V/V   : NEUTRON POROSITY LIME [SS MATRIX CONVERTS TO LS SPL. TO LS @ 6450']
RHOBED  .G/C3  : BULK DENSITY FROM DENSITY LOG [ADJ. TO GRRED]
SRESWS  .OHMM  : SHALLOW RESISTIVITY [LLSED]
~Params ----------------------------------------------------
PD  .                     GL : PERMANENT DATUM
EPD .FT               2734.7 : ELEVATION PERMANENT DATUM
LMF .                     KB : LOG MEASURED FROM
DAPD.FT                   13 : FEET ABOVE PERMANENT DATUM
DMF .                     KB : DRILLING MEASURED FROM
EKB .FT               2747.7 : KELLY BUSHING
EGL .FT               2734.7 : GROUND LEVEL
DATE.               11/17/77 : RUN DATE
RUN .                      1 : RUN NUMBER
DD  .FT                10070 : DEPTH DRILLER
DL  .FT                10075 : DEPTH LOGGER
BLI .FT                10074 : BOTTOM LOG INTERVAL
TLI .FT                 4250 : TOP LOG INTERVAL
CBD .FT                 1066 : CASING BOTTOM DRILLER
BS  .IN                 8.75 : BIT SIZE
BSD .FT                10070 : BIT SIZE AT DEPTH
DFT .                    KCL : DRILLING FLUID TYPE
DFD .                    9.3 : DRILLING FLUID DENSITY
DFV .                     85 : DRILLING FLUID VISCOSITY
DFPH.                   10.5 : DRILLING FLUID PH
RMS .OHMM               0.33 : RESISTIVITY MUD SAMPLE
MST .DEGF                 64 : MUD SAMPLE TEMPERATURE
RMF .OHMM               0.47 : RESISTIVITY MUD FILTRATE SAMPLE
MFST.DEGF                 61 : MUD FILTRATE SAMPLE TEMPERATURE
TCS .HRS                 700 : TIME CIRCULATED STOPPED
LUN .                   7730 : LOGGING UNIT NUMBER
LUL .                    EDM : LOGGING UNIT LOCATION
ENGI.                PERKINS : RECORDING ENGINEER
WITN.                  FUCHS : WITNESSED BY
CLNT.                A2DTECH : CLIENT CODE
ORIG.               5" PRINT : ORIGIN OF DATA
UWI .       100113205613W500 : UNIQUE WELL ID
DICO. A2D Technologies, Inc. : DIGITIZING COMPANY
~Other -----------------------------------------------------
~ASCII -----------------------------------------------------
# ...
 3750.00000    -999.25    9.90620    9.90620  128.26270    -999.25    -999.25    -999.25    -999.25    -999.25    7.79650    -999.25   86.70200   86.70200    -999.25  114.41790   99.40530   99.40530    7.79650    8.88980    -999.25    -999.25    -999.25    -999.25    -999.25    8.88980
 3800.00000    -999.25    9.32210    9.32210  112.11520    -999.25    -999.25    -999.25    -999.25    -999.25    8.91940    -999.25   87.71890   87.71890    -999.25  115.97960  106.89720  106.89720    8.91940   10.18320    -999.25    -999.25    -999.25    -999.25    -999.25   10.18320
 3850.00000    -999.25    9.39210    9.39210  106.58140    -999.25    -999.25    -999.25    -999.25    -999.25    9.38250    -999.25   91.21240   91.21240    -999.25  123.77790  115.03760  115.03760    9.38250   10.27750    -999.25    -999.25    -999.25    -999.25    -999.25   10.27750
 3900.00000    -999.25    9.10480    9.10480   88.38690    -999.25    -999.25    -999.25    -999.25    -999.25   11.31390    -999.25   93.30630   93.30630    -999.25  182.34170  158.62610  158.62610   11.31390   13.35310    -999.25    -999.25    -999.25    -999.25    -999.25   13.35310
 3950.00000    -999.25    9.23700    9.23700   98.47660    -999.25    -999.25    -999.25    -999.25    -999.25   10.15470    -999.25   92.21600   92.21600    -999.25  119.04590  110.55300  110.55300   10.15470   11.48430    -999.25    -999.25    -999.25    -999.25    -999.25   11.48430
 4000.00000    -999.25    9.97350    9.97350  130.39510    -999.25    -999.25    -999.25    -999.25    -999.25    7.66900    -999.25   91.06520   91.06520    -999.25  119.36770  105.56210  105.56210    7.66900    8.92510    -999.25    -999.25    -999.25    -999.25    -999.25    8.92510
 4050.00000    -999.25   10.00920   10.00920  143.88280    -999.25    -999.25    -999.25    -999.25    -999.25    6.95010    -999.25   87.47910   87.47910    -999.25  109.51960   98.64720   98.64720    6.95010    7.44490    -999.25    -999.25    -999.25    -999.25    -999.25    7.44490
 4100.00000    -999.25    9.76010    9.76010  131.95400    -999.25    -999.25    -999.25    -999.25    -999.25    7.57840    -999.25   83.89770   83.89770    -999.25  116.06540  104.30990  104.30990    7.57840    8.40870    -999.25    -999.25    -999.25    -999.25    -999.25    8.40870
 4150.00000    -999.25   10.43020   10.43020  134.35620    -999.25    -999.25    -999.25    -999.25    -999.25    7.44290    -999.25   83.58050   83.58050    -999.25  110.05220  103.53470  103.53470    7.44290    8.28720    -999.25    -999.25    -999.25    -999.25    -999.25    8.28720
 4200.00000    -999.25    9.98560    9.98560  117.17560    -999.25    -999.25    -999.25    -999.25    -999.25    8.53420    -999.25   84.65050   84.65050    -999.25  109.43500  108.64760  108.64760    8.53420    9.45640    -999.25    -999.25    -999.25    -999.25    -999.25    9.45640
 4250.00000    9.85980    9.68390    9.68390  135.17530    0.11820    2.44610    -999.25    0.11950    0.15430    7.39780    0.11820   84.76420   84.76420  122.10740  114.17300  104.98060  104.98060    7.39780    8.81300    4.58620    -999.25    0.32450    0.28060    2.44610    8.81300
 4300.00000   11.66700   10.05850   10.05850  146.40860    0.19300    2.00200    -999.25    0.41510    0.41400    6.83020    0.19300   87.43560   87.43560  117.12410  113.22800  109.42960  109.42960    6.83020    7.49520    0.87540    -999.25    0.36150    0.31800    2.00200    7.49520
 4350.00000   12.27640   10.08640   10.08640  129.13060    0.17210    1.96470    -999.25    0.42800    0.43580    7.74410    0.17210   83.98930   83.98930  109.22640  118.45840  101.60090  101.60090    7.74410    8.68150    2.50390    -999.25    0.37690    0.33360    1.96470    8.68150
 4400.00000   11.75020    9.84210    9.84210  126.47660    0.18430    2.08100    -999.25    0.36650    0.36780    7.90660    0.18430   83.13740   83.13740  115.24620  113.71840   97.07830   97.07830    7.90660    8.72290    1.42570    -999.25    0.32530    0.28140    2.08100    8.72290
 4450.00000    9.76390    9.88510    9.88510   93.77960    0.19160    2.29340    -999.25    0.22030    0.24360   10.66330    0.19160   81.75480   81.75480  110.58120  112.48450  104.55630  104.55630   10.66330   12.18620    1.97300    -999.25    0.28450    0.24050    2.29340   12.18620
 4500.00000    9.66770    9.87470    9.87470   91.20760    0.07770    2.51820    -999.25    0.07620    0.11220   10.96400    0.07770   79.49170   79.49170  116.75200  125.93750  111.81880  111.81880   10.96400   11.95500   11.94960    -999.25    0.27690    0.23290    2.51820   11.95500
 4550.00000   10.21170    9.66420    9.66420  107.93310    0.14580    2.33010    -999.25    0.17800    0.22220    9.26500    0.14580   80.25800   80.25800  116.33790  122.84980  113.43080  113.43080    9.26500   10.52950    3.44440    -999.25    0.29760    0.25360    2.33010   10.52950
 4600.00000   11.44490   10.45370   10.45370  104.57300    0.22710    2.26720    -999.25    0.23010    0.25890    9.56270    0.22710   83.44900   83.44900  113.89120  125.16220  109.40130  109.40130    9.56270   10.43290    1.60370    -999.25    0.31480    0.27090    2.26720   10.43290
 4650.00000   12.04510    9.83610    9.83610  138.10060    0.17540    2.14770    -999.25    0.29660    0.32880    7.24110    0.17540   85.48030   85.48030  122.08350  124.74890  118.06710  118.06710    7.24110    8.24160    1.04760    -999.25    0.35520    0.31160    2.14770    8.24160
 4700.00000   10.44010    9.83890    9.83890  144.32510   -0.00070    2.43010    -999.25    0.14050    0.16370    6.92880   -0.00070   91.80310   91.80310  132.62330  132.17990  126.16240  126.16240    6.92880    8.07920    4.53020    -999.25    0.39740    0.35450    2.43010    8.07920
 4750.00000    9.85850    9.61230    9.61230   96.91240    0.00380    2.47060    -999.25    0.11750    0.14000   10.31860    0.00380   90.66820   90.66820  135.20120  152.42940  133.73110  133.73110   10.31860   12.33830   11.86760    -999.25    0.39530    0.35230    2.47060   12.33830
 4800.00000    9.37380    9.15200    9.15200  114.16700    0.00610    2.49180    -999.25    0.10560    0.12760    8.75910    0.00610   89.51640   89.51640  130.16190  134.78170  130.10970  130.10970    8.75910   10.67040   12.06660    -999.25    0.35140    0.30780    2.49180   10.67040
 4850.00000    9.27900    9.16270    9.16270   93.19230    0.00650    2.49650    -999.25    0.10130    0.12490   10.73050    0.00650   90.14690   90.14690  150.27410  136.29980  136.10460  136.10460   10.73050   13.01850   14.08350    -999.25    0.36920    0.32580    2.49650   13.01850
 4900.00000    9.10870    9.09120    9.09120   67.03850    0.01470    2.47150    -999.25    0.10970    0.13950   14.91680    0.01470   90.67750   90.67750  142.89070  142.73550  139.33100  139.33100   14.91680   16.64100   18.07350    -999.25    0.36850    0.32510    2.47150   16.64100
 4950.00000    9.55570    9.35180    9.35180   89.04480    0.01560    2.50800    -999.25    0.06900    0.11810   11.23030    0.01560   89.55190   89.55190  133.58010  141.67530  126.92860  126.92860   11.23030   13.05760   14.56820    -999.25    0.34940    0.30580    2.50800   13.05760
 5000.00000    9.85600    9.42620    9.42620   84.26020    0.01390    2.45410    -999.25    0.12660    0.14960   11.86800    0.01390   98.20060   98.20060  156.53920  159.29350  144.34560  144.34560   11.86800   14.93090   17.56720    -999.25    0.39870    0.35580    2.45410   14.93090
 5050.00000   10.73410   10.11350   10.11350  121.85020    0.16630    2.45890    -999.25    0.10620    0.14680    8.20680    0.16630   82.44760   82.44760  111.94210  123.68590  113.02140  113.02140    8.20680    9.76910    3.96480    -999.25    0.29430    0.25030    2.45890    9.76910
 5100.00000   12.37030   10.09940   10.09940  173.19920    0.20370    2.19140    -999.25    0.25700    0.30330    5.77370    0.20370   89.66410   89.66410  122.73750  131.98640  124.45020  124.45020    5.77370    6.83180    2.10540    -999.25    0.37210    0.32870    2.19140    6.83180
