~Version ---------------------------------------------------
VERS.      2.0 : CWLS log ASCII Standard -VERSION 2.0
WRAP.       NO : One line per depth step
CREA. 06/26/13 : LAS Creation Date
~Well ------------------------------------------------------
STRT.M                    300.0 : START DEPTH
STOP.M                   2650.0 : STOP DEPTH
STEP.M                 50.00000 : STEP LENGTH
NULL.                   -999.25 : NULL VALUE
COMP. PETRO CANADA INCORPORATED : COMPANY
WELL.    PCI COSWAY 16-11-30-25 : WELL
FLD .                           : FIELD
LOC .                           : LOCATION
CTRY.                    CANADA : COUNTRY
SRVC.            Atlas Wireline : SERVICE COMPANY
DATE.               11-Nov-1988 : LOGDATE
PROV.                   Alberta : PROVINCE
UWI .          100161103025W400 : UNIQUE WELL ID
SLAT.WGS84             51.55831 : SURFACE LATITUDE
SLON.WGS84            -113.4081 : SURFACE LONGITUDE
~Curve Information -----------------------------------------
DEPT    .M      : DEPTH METER
ACED    .US/M   : ACOUSTIC FROM SONIC LOG [ADJ. TO RESISTIVITY LOG]
C13ED   .MM     : CALIPER 13 FROM  DENSITY LOG [ADJ. TO RESISTIVITY LOG]
C24ED   .MM     : CALIPER 24 FROM DENSITY LOG [ADJ. TO RESISTIVITY LOG]
CALSED  .MM     : CALIPER FROM SONIC LOG [ADJ. TO RESISTIVITY LOG]
CALWS   .MM     : CALIPER [C13ED]
CNCLSED .V/V    : NEUTRON PORISITY LIMESTONE FROM DENSITY LOG [ADJ. TO RESISTIVITY LOG]
CNCSSED .V/V    : NEUTRON POROSITY SANDSTONE FROM DENSITY LOG [ADJ. TO RESISTIVITY LOG]
CONDWS  .MMHO   : CONDUCTIVITY [1000/DRESWS]
DCORWS  .KG/M3  : DENSITY CORRECTION [ZDENED]
DENWS   .KG/M3  : FORMATION BULK DENSITY [CALC. FROM DPOLSWS, M=2710, F-=1000]
DPOLSWS .V/V    : DENSITY POROSITY LIMESTONE [PORZSSED CONVERTED TO LIMESTONE MATRIX, M=2710, M=1000, SPL. TO PORZLSED @ 1668 M]
DRESWS  .OHMM   : DEEP RESISTIVITY [RDED]
DTWS    .US/M   : COMPRESSIONAL SONIC [ACED]
GRDED   .GAPI   : GAMMA RAY FROM DENSITY LOG [ADJ. TO RESISTIVITY LOG]
GRRED   .GAPI   : GAMMA RAY FROM RESISTIVITY LOG
GRSED   .GAPI   : GAMMA RAY FROM SONIC LOG [ADJ. TO RESISTIVITY LOG]
GRWS    .GAPI   : GAMMA RAY [GRSED SPL. TO GRRED @ 460 M]
NPOLSWS .V/V    : NEUTRON POROSITY LIMESTONE [CNCSSED MATRIX CONVERSION FOR LIMESTONE, SPL.TO CNCLSED @ 1698 M]
PEED    .B/E    : PHOTOELECTRIC FACTOR FROM DENSITY LOG [ADJ. TO RESISTIVITY LOG]
PEFWS   .B/E    : PHOTOELECTRIC FACTOR [PEED]
PORZLSED.V/V    : DENSITY POROSITY LIMESTONE [M=2710, F=1000] FROM DENSITY LOG [ADJ. TO RESISTIVITY LOG]
PORZSSED.V/V    : DENSITY POROSITY SANDSTONE [M=2650, F=1000] FROM DENSITY LOG [ADJ. TO RESISTIVITY LOG]
RDED    .OHMM   : DEEP RESISTIVITY FROM RESISTIVITY LOG
RSED    .OHMM   : SHALLOW RESISTIVITY FROM RESISTIVITY LOG
SPRED   .MV     : SPONTANEOUS POTENTIAL FROM RESISTIVITY LOG
SPWS    .MV     : SPONTANEOUS POTENTIAL [BASELINE 0 MV, SPRED]
SRESWS  .OHMM   : SHALLOW RESISTIVITY [RSED]
TENDED  .N      : TENSION FROM DENSITY LOG [ADJ. TO RESISTIVITY LOG]
TENRED  .N      : TOTAL TENSION FROM RESISTIVITY LOG
TENSED  .N      : TENSION FROM SONIC LOG [ADJ. TO RESISTIVITY LOG]
ZCORED  .KG/M3  : DENSITY CORRECTION FROM DENSITY LOG [ADJ. TO RESISTIVITY LOG]
ZDENED  .KG/M3  : BULK DENSITY FROM DENSITY LOG [ADJ. TO RESISTIVITY LOG/POZSSED/PORZLSED]
~Params ----------------------------------------------------
PD  .                         GL : PERMANENT DATUM
EPD .M                     878.2 : ELEVATION PERMANENT DATUM
LMF .                         KB : LOG MEASURED FROM
DAPD.M                       6.9 : FEET ABOVE PERMANENT DATUM
DMF .                         KB : DRILLING MEASURED FROM
EKB .M                     885.1 : KELLY BUSHING
EGL .M                     878.2 : GROUND LEVEL
DATE.                   11/11/88 : RUN DATE
RUN .                          1 : RUN NUMBER
DD  .M                    2691.6 : DEPTH DRILLER
DL  .M                    2691.4 : DEPTH LOGGER
BLI .M                    2681.0 : BOTTOM LOG INTERVAL
TLI .M                       405 : TOP LOG INTERVAL
CS  .MM                    244.5 : CASING SIZE
CBD .M                       406 : CASING BOTTOM DRILLER
CBL .M                       405 : CASING BOTTOM LOGGER
BS  .MM                      222 : BIT SIZE
BSD .M                    2691.6 : BIT SIZE AT DEPTH
DFT .                GYPSON  NCD : DRILLING FLUID TYPE
DFD .                       1110 : DRILLING FLUID DENSITY
DFV .                         57 : DRILLING FLUID VISCOSITY
DFPH.                         11 : DRILLING FLUID PH
DFL .                        8.5 : DRILLING FLUID LOSS
MSS .                   FLOWLINE : MUD SAMPLE SOURCE
RMS .OHMM                    0.9 : RESISTIVITY MUD SAMPLE
MST .DEGC                     16 : MUD SAMPLE TEMPERATURE
RMF .OHMM                   0.75 : RESISTIVITY MUD FILTRATE SAMPLE
MFST.DEGC                     16 : MUD FILTRATE SAMPLE TEMPERATURE
RMC .OHMM                    1.1 : RESISTIVITY MUD CAKE
MCST.DEGC                     16 : MUD CAKE SAMPLE TEMPERATURE
MFSS.                    MEASURE : MUD FILTRATE SAMPLE SOURCE
MCSS.                    MEASURE : MUD CAKE SAMPLE SOURCE
RMB .OHMM                   0.36 : RESISTIVITY MUD AT BHT
TCS .HRS                       7 : TIME CIRCULATED STOPPED
LUN .                    HL 6438 : LOGGING UNIT NUMBER
LUL .                   RED DEER : LOGGING UNIT LOCATION
ENGI.                   FRENETTE : RECORDING ENGINEER
WITN.                      MEZEI : WITNESSED BY
CLNT.                    A2DTECH : CLIENT CODE
ORIG. 6.5"/100M 16.5"/100M PRINT : ORIGIN OF DATA
UWI .           100161103025W400 : UNIQUE WELL ID
DICO.     A2D Technologies, Inc. : DIGITIZING COMPANY
~Other -----------------------------------------------------
DLL-ZDL-CNL-BHC LOG RAN
RHOB FROM SMALL SCALE SECTION
~ASCII -----------------------------------------------------
  300.00000    -999.25    -999.25    -999.25    -999.25    -999.25    -999.25    -999.25    -999.25    -999.25    -999.25    -999.25    -999.25    -999.25    -999.25    -999.25   49.78820   49.78820    -999.25    -999.25    -999.25    -999.25    -999.25    -999.25    -999.25    -999.25    -999.25    -999.25    -999.25    -999.25    -999.25    -999.25    -999.25
  350.00000    -999.25    -999.25    -999.25    -999.25    -999.25    -999.25    -999.25    -999.25    -999.25    -999.25    -999.25    -999.25    -999.25    -999.25    -999.25   51.97430   51.97430    -999.25    -999.25    -999.25    -999.25    -999.25    -999.25    -999.25    -999.25    -999.25    -999.25    -999.25    -999.25    -999.25    -999.25    -999.25
  400.00000    -999.25    -999.25    -999.25    -999.25    -999.25    -999.25    0.58890    -999.25    -999.25    -999.25    -999.25    -999.25    -999.25   39.82740   41.27710   40.82050   40.82050    0.55400    -999.25    -999.25    -999.25    -999.25    -999.25    -999.25    -999.25    -999.25    -999.25    -999.25    -999.25    -999.25    -999.25    -999.25
  450.00000  333.01990  268.33900  398.96630  338.84350  268.33900    -999.25    0.35570  232.78550   31.40000 2352.83500    0.20890    4.29580  333.01990   61.80220   64.84460   66.26950   66.26950    0.31570    2.38360    2.38360    -999.25    0.18010    4.29580    3.70660  -34.84180   -1.72460    3.70660 -9063.95220 -11155.55820 -10711.25770   31.40000 2349.40000
  500.00000  288.42780  282.00980  324.64800  335.80730  282.00980    -999.25    0.27430  167.02300   24.80000 2479.39000    0.13490    5.98720  288.42780   54.29350   54.13390   55.04060   54.13390    0.23430    2.93190    2.93190    -999.25    0.10340    5.98720    5.60640  -35.33380   -1.81380    5.60640 -7859.15100 -11428.62430 -11342.46380   24.80000 2483.60000
  550.00000  325.48820  270.39710  382.13420  324.69450  270.39710    -999.25    0.32040  218.40260   -2.30000 2439.13000    0.15840    4.57870  325.48820   59.42930   63.20740   63.38890   63.20740    0.28040    3.33840    3.33840    -999.25    0.12780    4.57870    4.27040  -35.53050   -1.60760    4.27040 -9768.71890 -10762.34870 -10576.08970   -2.30000 2438.90000
  600.00000  314.77840  295.67400  393.90620  363.53400  295.67400    -999.25    0.36640  351.56800   80.40000 2373.95500    0.19650    2.84440  314.77840   64.20410   66.60400   66.85110   66.60400    0.32640    2.58600    2.58600    -999.25    0.16730    2.84440    3.19490  -35.60100   -1.27530    3.19490 -10014.99570 -10947.61090 -10909.25440   80.40000 2373.60000
  650.00000  284.70750  303.69370  326.89810  341.73800  303.69370    -999.25    0.27240  141.74550   40.00000 2399.53000    0.18160    7.05490  284.70750   49.66020   48.94140   49.37540   48.94140    0.23240    2.54800    2.54800    -999.25    0.15180    7.05490    9.72480  -37.45740   -2.72890    9.72480 -10474.12320 -11143.86530 -11089.33470   40.00000 2398.40000
  700.00000  324.80750  315.35240  306.82580  339.73010  315.35240    -999.25    0.44900  270.59940  229.70000 2016.07000    0.40580    3.69550  324.80750   63.43160   65.73370   65.60580   65.73370    0.40900    1.56580    1.56580    -999.25    0.38420    3.69550    4.18570  -36.28340   -1.15200    4.18570 -10631.54530 -8166.90050 -8517.16440  229.70000 2029.60000
  750.00000  362.19810  325.02110  340.19100  357.45910  325.02110    -999.25    0.55590  339.01750   71.10000 1794.14500    0.53560    2.94970  362.19810   52.16910   53.54120   54.73100   53.54120    0.51920    2.10040    2.10040    -999.25    0.51870    2.94970    3.53390  -36.86690   -1.33260    3.53390 -7494.92220 -11491.24650 -11008.01480   71.10000 1801.20000
  800.00000  304.52830  262.19400  260.62760  297.26340  262.19400    -999.25    0.36510  287.79460  247.50000 2311.42000    0.23310    3.47470  304.52830   58.16410   53.08060   54.19940   53.08060    0.32510    3.31730    3.31730    -999.25    0.20520    3.47470    4.32180  -36.93660   -1.38980    4.32180 -12644.62440 -11076.77980 -10942.64450  247.50000 2313.00000
  850.00000  348.40270  238.88720  305.37340  295.13370  238.88720    -999.25    0.41870  374.08350  128.60000 2294.75500    0.24280    2.67320  348.40270   63.10450   66.60810   66.91240   66.60810    0.37870    3.09020    3.09020    -999.25    0.21530    2.67320    3.43480  -36.46790   -1.35590    3.43480 -9301.85000 -10760.46280 -11098.85420  128.60000 2291.30000
  900.00000  310.00670  236.12630  349.42470  297.34160  236.12630    -999.25    0.40310  257.08260  131.70000 2451.01000    0.15150    3.88980  310.00670   55.09680   57.94370   58.57000   57.94370    0.36310    3.01150    3.01150    -999.25    0.12060    3.88980    4.91260  -36.66410   -1.98680    4.91260 -10127.35280 -12776.99040 -12530.49810  131.70000 2452.40000
  950.00000  286.50080  265.43530  296.95280  321.26830  265.43530    -999.25    0.37010  178.88450   96.60000 2350.69000    0.21010    5.59020  286.50080   74.96750   82.90840   83.06430   82.90840    0.33010    2.13040    2.13040    -999.25    0.18140    5.59020    7.27190  -36.46210   -2.21960    7.27190 -12502.44250 -10593.70980 -10596.24230   96.60000 2346.40000
 1000.00000  273.60310  282.67620  298.96100  315.88810  282.67620    -999.25    0.33860  142.93880  251.10000 2294.26000    0.24310    6.99600  273.60310   79.06670   82.33380   81.04580   82.33380    0.29860    2.97110    2.97110    -999.25    0.21560    6.99600    8.81300  -36.37650   -2.56880    8.81300 -7819.86060 -10390.16300 -10419.92490  251.10000 2268.80000
 1050.00000  290.19870  250.96730  295.51610  306.38040  250.96730    -999.25    0.34360  102.16900   16.90000 2549.18500    0.09400    9.78770  290.19870  104.35730  101.00020  101.99850  101.00020    0.30360    3.39410    3.39410    -999.25    0.06110    9.78770   12.94110  -36.44010   -3.06720   12.94110 -9388.11830 -11149.13700 -10922.52790   16.90000 2551.60000
 1100.00000  290.36560  241.54750  336.75180  305.90540  241.54750    -999.25    0.41810  188.60810   86.30000 2501.66500    0.12180    5.30200  290.36560   89.43400   87.89970   88.57430   87.89970    0.37810    2.92180    2.92180    -999.25    0.08990    5.30200    6.91450  -35.95380   -3.01560    6.91450 -9133.39070 -11542.71470 -11596.45500   86.30000 2513.00000
 1150.00000  280.01490  251.56250  335.07970  305.84700  251.56250    -999.25    0.30710  179.97910   75.70000 2546.21500    0.09580    5.55620  280.01490   82.42680   85.97330   86.18930   85.97330    0.26710    2.91140    2.91140    -999.25    0.06290    5.55620    7.23810  -34.66770   -2.16430    7.23810 -10701.81900 -9921.64170 -9539.22700   75.70000 2547.80000
 1200.00000  291.09600  253.91460  320.04300  314.94340  253.91460    -999.25    0.40720  209.38900  135.90000 2493.91000    0.12640    4.77580  291.09600   88.36530   88.33260   88.57640   88.33260    0.36720    3.13680    3.13680    -999.25    0.09460    4.77580    6.50290  -35.42790   -3.35920    6.50290 -11541.42140 -10926.47940 -11161.32380  135.90000 2497.50000
 1250.00000  271.03880  258.47120  266.10990  287.41420  258.47120    -999.25    0.27550  171.80060  148.10000 2538.46000    0.10030    5.82070  271.03880   88.69860   94.87180   94.94790   94.87180    0.23550    2.79810    2.79810    -999.25    0.06760    5.82070    7.49290  -36.48760   -5.23510    7.49290 -9978.15700 -10944.13530 -11123.00330  148.10000 2538.20000
 1300.00000  285.38230  252.86460  243.25460  272.87830  252.86460    -999.25    0.29100  165.75230  246.10000 2279.41000    0.25180    6.03310  285.38230   99.13480  101.44880  101.13480  101.44880    0.25100    2.75310    2.75310    -999.25    0.22460    6.03310    8.27890  -32.59110   -3.94010    8.27890 -9899.47740 -10891.18530 -10994.49890  246.10000 2520.20000
 1350.00000  287.20130  250.60960  236.96860  258.72680  250.60960    -999.25    0.31180   75.51900   35.00000 2556.94000    0.08950   13.24170  287.20130  114.00780  116.25500  116.13850  116.25500    0.27180    3.69260    3.69260    -999.25    0.05640   13.24170   18.11340  -30.51010   -4.44040   18.11340 -10658.49630 -10689.39880 -10935.03790   35.00000 2567.30000
