~Version ---------------------------------------------------
VERS.      2.0 : CWLS log ASCII Standard -VERSION 2.0
WRAP.       NO : One line per depth step
CREA. 08/31/17 : LAS Creation Date
~Well ------------------------------------------------------
STRT.FT                          1500.0 : START DEPTH
STOP.FT                         11900.0 : STOP DEPTH
STEP.FT                        50.00000 : STEP LENGTH
NULL.                           -999.25 : NULL VALUE
COMP.  AMOCO CANADA PETROLEUM CO., LTD. : COMPANY
WELL. AMOCO HB FINA FIR S-I  7-26-59-20 : WELL
FLD .                                   : FIELD
LOC .                                   : LOCATION
CTRY.                            CANADA : COUNTRY
SRVC.            Schlumberger of Canada : SERVICE COMPANY
DATE.                       07-Jan-1978 : LOGDATE
PROV.                           Alberta : PROVINCE
UWI .                  100072605920W500 : UNIQUE WELL ID
SLAT.WGS84                     54.12779 : SURFACE LATITUDE
SLON.WGS84                    -116.8825 : SURFACE LONGITUDE
~Curve Information -----------------------------------------
DEPT    .FT    : Depth Curve
CALDED  .IN    : CALIPER FROM CNFD LOG
CALSED  .IN    : CALIPER FROM BCS LOG [ADJ. TO GRDED]
CALWS   .IN    : CALIPER [CALSED]
CONDWS  .MMHO  : CONDUCTIVITY [1000/DRESWS]
DCORED  .G/C3  : DENSITY CORRECTION FROM CNFD LOG
DCORWS  .G/C3  : DENSITY CORRECTION [DCORED]
DENWS   .G/C3  : FORMATION BULK DENSITY [RHOBED]
DPHILSED.V/V   : DENSITY POROSITY LIMESTONE [M=2.71, F=1.0] FROM CNFD LOG [ADJ. TO RHOBED]
DPHISSED.V/V   : DENSITY POROSITY SANDSTONE [M=2.65, F=1.0] FROM CNFD LOG [ADJ. TO RHOBED]
DPOLSWS .V/V   : DENSITY POROSITY LIMESTONE [CALCULATED FROM DENWS, M=2.71, F=1.0]
DRESWS  .OHMM  : DEEP RESISTIVITY [ILDED]
DTED    .US/F  : ACOUSTIC TRANSIT TIME SLOWNESS, DELTA T FROM BCS LOG [ADJ. TO GRDED]
DTWS    .US/F  : COMPRESSIONAL SONIC [DTED]
GRDED   .GAPI  : GAMMA RAY FROM CNFD LOG
GRSED   .GAPI  : GAMMA RAY FROM BCS LOG [ADJ. TO GRDED]
GRWS    .GAPI  : GAMMA RAY [GRSED]
ILDED   .OHMM  : DEEP INDUCTION FROM DILL LOG
ILMED   .OHMM  : MEDIUM INDUCTION FROM DILL LOG
LL8ED   .OHMM  : LATEROLOG RESISTIVITY FROM DILL LOG
MRESWS  .OHMM  : MEDIUM RESISTIVITY [ILMED]
NPHILSED.V/V   : NEUTRON POROSITY LIMESTONE FROM CNFD LOG [ADJ. TO RHOBED]
NPHISSED.V/V   : NEUTRON POROSITY SANDSTONE FROM CNFD LOG [ADJ. TO RHOBED]
NPOLSWS .V/V   : NEUTRON POROSITY LIMESTONE [NPHISSED CONVERTED TO LIMESTONE MATRIX, SPL. TO NPHILSED @ 2468.27M]
RHOBED  .G/C3  : HRDD HIGH RESOLUTION FORMATION DENSITY FROM CNFD LOG
SPRED   .MV    : SPONTANEOUS POTENTIAL FROM DILL LOG
SRESWS  .OHMM  : SHALLOW RESISTIVITY [LL8ED]
~Params ----------------------------------------------------
PD  .                     GL : PERMANENT DATUM
EPD .FT              3289.04 : ELEVATION PERMANENT DATUM
LMF .                     KB : LOG MEASURED FROM
DAPD.FT                 21.2 : FEET ABOVE PERMANENT DATUM
EKB .FT              3310.24 : KELLY BUSHING
EGL .FT              3289.04 : GROUND LEVEL
DATE.               01/07/78 : RUN DATE
RUN .                      1 : RUN NUMBER
DD  .FT                11910 : DEPTH DRILLER
DL  .FT                11919 : DEPTH LOGGER
BLI .FT                11913 : BOTTOM LOG INTERVAL
TLI .FT                 1534 : TOP LOG INTERVAL
CBD .FT                 1534 : CASING BOTTOM DRILLER
CBL .FT                 1534 : CASING BOTTOM LOGGER
BS  .IN                 8.75 : BIT SIZE
BSD .FT                11910 : BIT SIZE AT DEPTH
DFT .                    GEL : DRILLING FLUID TYPE
DFD .                    9.5 : DRILLING FLUID DENSITY
DFV .                    105 : DRILLING FLUID VISCOSITY
DFPH.                    9.5 : DRILLING FLUID PH
DFL .                    9.0 : DRILLING FLUID LOSS
MSS .               FLOWLINE : MUD SAMPLE SOURCE
RMS .OHMM               1.78 : RESISTIVITY MUD SAMPLE
MST .DEGF                 85 : MUD SAMPLE TEMPERATURE
RMF .OHMM               1.74 : RESISTIVITY MUD FILTRATE SAMPLE
MFST.DEGF                 54 : MUD FILTRATE SAMPLE TEMPERATURE
TCS .HRS                   5 : TIME CIRCULATED STOPPED
LUN .                   7730 : LOGGING UNIT NUMBER
LUL .                    EDM : LOGGING UNIT LOCATION
ENGI.   ACKERMAN STEENBERGEN : RECORDING ENGINEER
CLNT.                A2DTECH : CLIENT CODE
ORIG.            2" 5" PRINT : ORIGIN OF DATA
UWI .       100072605920W500 : UNIQUE WELL ID
DICO. A2D Technologies, Inc. : DIGITIZING COMPANY
~Other -----------------------------------------------------
~ASCII -----------------------------------------------------
# ...
 5550.00000   10.11960   10.11220   10.11220   99.16650    0.08710    0.08710    2.56560    -999.25    0.01780    0.08440   10.08480   77.44900   77.44900  108.99720  141.17880  141.17880   10.72820   10.72820   12.13030   10.72820    -999.25    0.27900    0.23500    2.56560 -113.11660   12.13030
 5600.00000   10.75710    9.93550    9.93550  101.04070    0.11330    0.11330    2.54980    -999.25    0.08140    0.09370    9.89700   77.82730   77.82730  107.83670  140.07430  140.07430   10.30460   10.30460   10.97140   10.30460    -999.25    0.26460    0.22060    2.54980 -112.81660   10.97140
 5650.00000   11.30480   10.18940   10.18940  111.22860    0.10520    0.10520    2.57180    -999.25    0.07170    0.08080    8.99100   80.65900   80.65900  105.13930  140.98570  140.98570    9.84420    9.84420   10.08080    9.84420    -999.25    0.25640    0.21250    2.57180 -110.38950   10.08080
 5700.00000   11.75010   10.12590   10.12590  110.99760    0.09120    0.09120    2.53640    -999.25    0.09900    0.10150    9.00920   80.35040   80.35040  115.57510  136.18110  136.18110    9.49470    9.49470   11.07130    9.49470    -999.25    0.29820    0.25420    2.53640 -109.37540   11.07130
 5750.00000   11.79630   10.36190   10.36190  108.46100    0.21370    0.21370    2.40640    -999.25    0.13020    0.17750    9.21990   83.00380   83.00380  110.04310  143.08220  143.08220    9.98430    9.98430   12.32270    9.98430    -999.25    0.30830    0.26440    2.40640 -111.63640   12.32270
 5800.00000   10.97960   10.08530   10.08530  115.31650    0.19940    0.19940    2.47290    -999.25    0.11730    0.13870    8.67220   87.02640   87.02640  115.12380  150.73100  150.73100    9.31190    9.31190   10.97270    9.31190    -999.25    0.33820    0.29450    2.47290 -112.09960   10.97270
 5850.00000   10.50300    9.78430    9.78430   61.62570    0.24520    0.24520    2.52250    -999.25    0.07660    0.10960   16.22700   82.86510   82.86510  121.74240  163.38730  163.38730   17.26640   17.26640   19.04840   17.26640    -999.25    0.34630    0.30260    2.52250 -110.93970   19.04840
 5900.00000   10.92600    9.81020    9.81020   95.46500    0.14960    0.14960    2.43890    -999.25    0.14080    0.15850   10.47510   85.23280   85.23280  115.67730  151.47810  151.47810   11.43200   11.43200   14.11280   11.43200    -999.25    0.32780    0.28390    2.43890 -110.66210   14.11280
 5950.00000    9.84850    9.70330    9.70330   56.89060    0.15420    0.15420    2.49150    -999.25    0.08820    0.12780   17.57760   86.46240   86.46240  123.27650  149.78450  149.78450   18.88970   18.88970   24.54570   18.88970    -999.25    0.33490    0.29110    2.49150 -106.52750   24.54570
 6000.00000   10.63850    9.97840    9.97840   77.44430    0.21160    0.21160    2.36770    -999.25    0.15730    0.20020   12.91250   87.99820   87.99820  125.61590  148.92330  148.92330   14.03050   14.03050   17.81460   14.03050    -999.25    0.37150    0.32810    2.36770 -105.98510   17.81460
 6050.00000    9.40760    9.67430    9.67430   62.27500    0.02670    0.02670    2.58630    -999.25    0.03860    0.07240   16.07320   86.62770   86.62770  117.30920  145.86430  145.86430   17.18080   17.18080   24.54780   17.18080    -999.25    0.29510    0.25110    2.58630 -106.16110   24.54780
 6100.00000   10.46180    9.67750    9.67750  118.39360    0.25580    0.25580    2.26220    -999.25    0.24400    0.26190    8.44640   89.15430   89.15430  108.59470  146.91260  146.91260    9.13940    9.13940   11.57570    9.13940    -999.25    0.37200    0.32860    2.26220 -105.52480   11.57570
 6150.00000    9.51530    9.72520    9.72520   64.07860    0.00890    0.00890    2.47840    -999.25    0.09250    0.13540   15.60580  101.67240  101.67240  132.06870  173.41860  173.41860   16.91750   16.91750   24.09850   16.91750    -999.25    0.42470    0.38240    2.47840 -105.06310   24.09850
 6200.00000   10.02720   10.21990   10.21990  141.24890    0.07880    0.07880    2.57940    -999.25    0.02730    0.07640    7.07970   79.20530   79.20530   98.05500  129.72800  129.72800    7.52060    7.52060    8.83520    7.52060    -999.25    0.29770    0.25370    2.57940 -107.10100    8.83520
 6250.00000   10.40910    9.73850    9.73850  157.32420    0.12360    0.12360    2.63670    -999.25   -0.00060    0.04290    6.35630   82.61770   82.61770  109.09160  147.24130  147.24130    6.65870    6.65870    7.77830    6.65870    -999.25    0.32300    0.27910    2.63670 -105.68250    7.77830
 6300.00000    9.51700    9.78100    9.78100  107.46920    0.06070    0.06070    2.60100    -999.25    0.01950    0.06380    9.30570   75.01530   75.01530  102.71660  128.42730  128.42730   10.32300   10.32300   12.03570   10.32300    -999.25    0.26630    0.22230    2.60100 -107.88690   12.03570
 6350.00000    9.86240    9.79120    9.79120   89.04400    0.03880    0.03880    2.57550    -999.25    0.03490    0.07870   11.23040   71.97520   71.97520   88.30770  108.52590  108.52590   12.28070   12.28070   13.20080   12.28070    -999.25    0.20250    0.15900    2.57550 -109.76070   13.20080
 6400.00000   11.28510   11.32730   11.32730  143.12830    0.09050    0.09050    2.59520    -999.25    0.03980    0.06710    6.98730   80.70490   80.70490  106.69130  137.43030  137.43030    7.34270    7.34270    8.66850    7.34270    -999.25    0.33800    0.29420    2.59520 -103.79550    8.66850
 6450.00000   12.58250   11.77250   11.77250  168.34730    0.07610    0.07610    2.50730    -999.25    0.08100    0.11850    5.94010   84.34110   84.34110  104.86070  145.41450  145.41450    6.29740    6.29740    7.31490    6.29740    -999.25    0.37280    0.32950    2.50730 -103.01030    7.31490
 6500.00000   15.55960   10.04320   10.04320  175.78400    0.10420    0.10420    2.45890    -999.25    0.10160    0.14680    5.68880   83.30630   83.30630  103.29240  138.08320  138.08320    5.96990    5.96990    7.07870    5.96990    -999.25    0.29620    0.25220    2.45890 -102.78220    7.07870
 6550.00000    -999.25    8.42770    8.42770  178.96360    0.08520    0.08520    2.40100    -999.25    0.14980    0.18070    5.58870   89.33940   89.33940  141.42380  184.76060  184.76060    5.94160    5.94160    7.34980    5.94160    -999.25    0.36270    0.31920    2.40100 -108.20740    7.34980
 6600.00000    -999.25    7.95840    7.95840  287.88580    0.13080    0.13080    2.36360    -999.25    0.16690    0.20260    3.47360   92.68420   92.68420   97.97700  128.25880  128.25880    3.23300    3.23300    4.05460    3.23300    -999.25    0.30190    0.25790    2.36360 -107.41440    4.05460
 6650.00000    -999.25    8.76000    8.76000  210.38460    0.09950    0.09950    2.38470    -999.25    0.16390    0.19030    4.75360   96.67080   96.67080  104.48430  138.16730  138.16730    4.45980    4.45980    5.16260    4.45980    -999.25    0.28680    0.24280    2.38470 -107.58970    5.16260
 6700.00000   13.43790   11.17060   11.17060  158.41840    0.15180    0.15180    2.36920    -999.25    0.16370    0.19930    6.31240   83.29330   83.29330  104.65170  138.69980  138.69980    6.77430    6.77430    8.07860    6.77430    -999.25    0.30170    0.25770    2.36920 -106.92630    8.07860
 6750.00000    9.34840    9.29660    9.29660   23.95880    0.03130    0.03130    2.55760    -999.25    0.03800    0.08910   41.73840   68.96220   68.96220   46.17540   52.18510   52.18510   44.70330   44.70330   68.84240   44.70330    -999.25    0.15090    0.10830    2.55760 -128.58520   68.84240
 6800.00000   10.44700   10.98700   10.98700   70.25860    0.05370    0.05370    2.58340    -999.25    0.03960    0.07400   14.23330   70.18830   70.18830   81.09770  106.83620  106.83620   15.49980   15.49980   17.11240   15.49980    -999.25    0.17720    0.13410    2.58340 -107.17040   17.11240
 6850.00000   10.69770   10.73080   10.73080  106.94160    0.07280    0.07280    2.40760    -999.25    0.14170    0.17680    9.35090   74.18400   74.18400   58.88560   78.26050   78.26050    9.90390    9.90390   11.52840    9.90390    -999.25    0.19630    0.15290    2.40760 -112.77660   11.52840
