~Version ---------------------------------------------------
VERS.      2.0 : CWLS log ASCII Standard -VERSION 2.0
WRAP.       NO : One line per depth step
CREA. 12/07/17 : LAS Creation Date
~Well ------------------------------------------------------
STRT.FT                           800.0 : START DEPTH
STOP.FT                          7200.0 : STOP DEPTH
STEP.FT                        50.00000 : STEP LENGTH
NULL.                           -999.25 : NULL VALUE
COMP.     WESTERN DECALTA PETROLEUM LTD : COMPANY
WELL. DECALTA P.O.R. E. SARAH 4-36-65-7 : WELL
FLD .                                   : FIELD
LOC .                                   : LOCATION
CTRY.                            CANADA : COUNTRY
SRVC.                        Lane Wells : SERVICE COMPANY
DATE.                       20-Jan-1965 : LOGDATE
PROV.                           Alberta : PROVINCE
UWI .                  100043606507W500 : UNIQUE WELL ID
SLAT.WGS84                     54.66307 : SURFACE LATITUDE
SLON.WGS84                    -114.9298 : SURFACE LONGITUDE
~Curve Information -----------------------------------------
DEPT  .FT    : Depth Curve
ACED  .US/F  : ACOUSTIC TIME FROM SONIC LOG [ADJ. TO RESISTIVITY LOG]
CILDED.MMHO  : DEEP INDUCTION CONDUCTIVITY FROM RESISTIVITY LOG [ADJ. TO ILDED]
CONDWS.MMHO  : CONDUCTIVITY [1000/DRESWS]
DRESWS.OHMM  : DEEP RESISTIVITY [1000/CILDED,IF ILDED<3,ILDED]
DTWS  .US/F  : COMPRESSIONAL SONIC [ACED]
GRSED .GAPI  : GAMMA RAY FROM SONIC LOG [ADJ. TO RESISTIVITY LOG]
GRWS  .GAPI  : GAMMA RAY [GRSED]
ILDED .OHMM  : DEEP INDUCTION RESISTIVITY FROM RESISTIVITY LOG
SNED  .OHMM  : 16 INCH  SHORT NORMAL FROM RESISTIVITY LOG
SPRED .MV    : SPONTANEOUS POTENTIAL FROM RESISTIVITY LOG
SPWS  .MV    : SPONTANEOUS POTENTIAL [BASELINE 0MV,SPRED]
SRESWS.OHMM  : SHALLOW RESISTIVITY [SNED]
~Params ----------------------------------------------------
PD  .                     GL : PERMANENT DATUM
EPD .FT               2639.1 : ELEVATION PERMANENT DATUM
LMF .                     KB : LOG MEASURED FROM
DAPD.FT                 12.4 : FEET ABOVE PERMANENT DATUM
DMF .                     KB : DRILLING MEASURED FROM
EKB .FT               2651.5 : KELLY BUSHING
EGL .FT               2639.1 : GROUND LEVEL
DATE.               01/20/65 : RUN DATE
RUN .                      1 : RUN NUMBER
DD  .FT                 7230 : DEPTH DRILLER
DL  .FT                 7234 : DEPTH LOGGER
BLI .FT                 7230 : BOTTOM LOG INTERVAL
TLI .FT                  763 : TOP LOG INTERVAL
CS  .IN                8.625 : CASING SIZE
CBD .FT                  763 : CASING BOTTOM DRILLER
CBL .FT                  763 : CASING BOTTOM LOGGER
BS  .IN                7.875 : BIT SIZE
BSD .FT                 7230 : BIT SIZE AT DEPTH
DFT .                MUD GEL : DRILLING FLUID TYPE
DFD .                    9.7 : DRILLING FLUID DENSITY
DFV .                    105 : DRILLING FLUID VISCOSITY
DFPH.                    8.5 : DRILLING FLUID PH
DFL .                     11 : DRILLING FLUID LOSS
MSS .                   CIRC : MUD SAMPLE SOURCE
RMS .OHMM                2.1 : RESISTIVITY MUD SAMPLE
MST .DEGF                 52 : MUD SAMPLE TEMPERATURE
RMF .OHMM                1.6 : RESISTIVITY MUD FILTRATE SAMPLE
MFST.DEGF                 64 : MUD FILTRATE SAMPLE TEMPERATURE
RMC .OHMM                2.4 : RESISTIVITY MUD CAKE
MCST.DEGF                 52 : MUD CAKE SAMPLE TEMPERATURE
MFSS.                   MEAS : MUD FILTRATE SAMPLE SOURCE
MCSS.                   MEAS : MUD CAKE SAMPLE SOURCE
RMB .OHMM                0.8 : RESISTIVITY MUD AT BHT
TCS .HRS                   4 : TIME CIRCULATED STOPPED
LUN .                   8034 : LOGGING UNIT NUMBER
LUL .                    R D : LOGGING UNIT LOCATION
ENGI.                FADZEAN : RECORDING ENGINEER
WITN.                 HARMAN : WITNESSED BY
CLNT.                A2DTECH : CLIENT CODE
ORIG.            2" 5" PRINT : ORIGIN OF DATA
UWI .       100043606507W500 : UNIQUE WELL ID
DICO. A2D Technologies, Inc. : DIGITIZING COMPANY
~Other -----------------------------------------------------
IEL-ACOUSTIC LOG RUN
~ASCII -----------------------------------------------------
# ...
 3600.00000    -999.25  260.00870  218.40260    4.57870    -999.25    -999.25    -999.25    4.57870   16.60150 -125.44820  -63.94540   16.60150
 3650.00000    -999.25  274.54590  230.56460    4.33740    -999.25    -999.25    -999.25    4.33740    6.33900  -81.08770  -19.44870    6.33900
 3700.00000    -999.25  173.43530  148.09550    6.75240    -999.25    -999.25    -999.25    6.75240    9.93110  -73.15540  -11.37880    9.93110
 3750.00000    -999.25  306.42030  249.78770    4.00340    -999.25    -999.25    -999.25    4.00340    5.97370  -68.98530   -7.07180    5.97370
 3800.00000    -999.25  300.68330  243.46640    4.11420    -999.25    -999.25    -999.25    4.11420    6.05240  -71.01910   -8.96940    6.05240
 3850.00000    -999.25  189.86350  164.80710    6.06770    -999.25    -999.25    -999.25    6.06770    9.75150  -72.08980   -9.90250    9.75150
 3900.00000    -999.25  123.21440  111.16160    9.00720    -999.25    -999.25    -999.25    9.00720   14.42480  -90.87240  -28.54890   14.42480
 3950.00000    -999.25  194.81020  169.09600    5.91380    -999.25    -999.25    -999.25    5.91380   21.54530 -128.16080  -65.69970   21.54530
 4000.00000    -999.25  212.79610  182.26890    5.48640    -999.25    -999.25    -999.25    5.48640   10.45960 -103.66780  -41.06980   10.45960
 4050.00000    -999.25  228.01310  193.45660    5.16920    -999.25    -999.25    -999.25    5.16920   13.39030  -97.32770  -34.59350   13.39030
 4100.00000    -999.25  203.97420  173.69860    5.75710    -999.25    -999.25    -999.25    5.75710   13.05240  -98.44710  -35.57530   13.05240
 4150.00000    -999.25  106.87950   99.79950   10.02030    -999.25    -999.25    -999.25   10.02030   14.68680  -84.08840  -21.08050   14.68680
 4200.00000    -999.25   71.40980   70.01090   14.28350    -999.25    -999.25    -999.25   14.28350   22.53020  -66.97120   -3.82560   22.53020
 4250.00000    -999.25  102.01170   93.67680   10.67500    -999.25    -999.25    -999.25   10.67500   18.57610  -67.40960   -4.28230   18.57610
 4300.00000    -999.25  293.45310  231.01670    4.43660    -999.25    -999.25    -999.25    4.43660   17.91280 -104.07770  -40.99570   17.91280
 4350.00000    -999.25   16.01670   18.70340   53.46610    -999.25    -999.25    -999.25   53.46610  115.54130 -188.29420 -125.25810  115.54130
 4400.00000    -999.25  234.16130  182.03980    5.54060    -999.25    -999.25    -999.25    5.54060   36.92420 -140.37810  -77.38740   36.92420
 4450.00000    -999.25   60.39630   60.21960   16.60590    -999.25    -999.25    -999.25   16.60590  116.84110 -183.44670 -120.50180  116.84110
 4500.00000    -999.25   66.06320   64.31780   15.54780    -999.25    -999.25    -999.25   15.54780   88.41490 -174.84790 -111.94860   88.41490
 4550.00000    -999.25   90.02520   86.99800   11.49490    -999.25    -999.25    -999.25   11.49490  102.15280 -193.73530 -130.88140  102.15280
 4600.00000    -999.25   51.75070   54.45760   18.36290    -999.25    -999.25    -999.25   18.36290  114.74500 -186.12620 -123.31810  114.74500
 4650.00000    -999.25  432.90760  358.97030    2.78570    -999.25    -999.25    -999.25    2.78570   46.94060 -191.38440 -128.62170   46.94060
 4700.00000    -999.25  193.55940  169.68710    5.89320    -999.25    -999.25    -999.25    5.89320   81.91520 -190.80230 -128.08540   81.91520
 4750.00000    -999.25  208.38370  183.74920    5.44220    -999.25    -999.25    -999.25    5.44220   66.76190 -190.47410 -127.80290   66.76190
 4800.00000    -999.25   85.20350   83.38060   11.99330    -999.25    -999.25    -999.25   11.99330   99.59290 -192.83870 -130.21280   99.59290
 4850.00000    -999.25    6.28150    8.24770  121.24650    -999.25    -999.25    -999.25  121.24650  116.49260 -140.72640  -78.14640  116.49260
 4900.00000    -999.25   31.47440   30.59440   32.76380    -999.25    -999.25    -999.25   32.76380  107.71560 -175.75280 -113.21810  107.71560
 4950.00000    -999.25   76.24290   62.54100   15.98950    -999.25    -999.25    -999.25   15.98950  118.02890 -189.21790 -126.72910  118.02890
 5000.00000    -999.25   80.55950   78.32450   12.76740    -999.25    -999.25    -999.25   12.76740   90.42000 -189.39830 -126.95510   90.42000
 5050.00000    -999.25  352.94790  319.89160    3.12750    -999.25    -999.25    -999.25    3.37540   29.81710 -163.50560 -101.10770   29.81710
 5100.00000    -999.25   52.96650   51.99720   19.23180    -999.25    -999.25    -999.25   19.23180   85.94230 -146.80170  -84.44970   85.94230
 5150.00000    -999.25   73.02420   80.50630   12.42700    -999.25    -999.25    -999.25   12.42700   61.76210 -191.06320 -128.75660   61.76210
 5200.00000    -999.25   97.54750  106.30610    9.40680    -999.25    -999.25    -999.25    9.40680   47.90600 -166.29590 -104.03510   47.90600
 5250.00000    -999.25  118.07190  131.81480    7.58640    -999.25    -999.25    -999.25    7.58640   14.09400  -93.91120  -31.69600   14.09400
 5300.00000    -999.25  244.22790  258.31850    3.88700    -999.25    -999.25    -999.25    3.88700    7.85210  -88.26850  -26.78150    7.85210
 5350.00000    -999.25   26.61380   29.53690   33.85600    -999.25    -999.25    -999.25   33.85600   61.30340 -120.70030  -60.09090   61.30340
 5400.00000    -999.25   21.06120   28.05030   35.68000    -999.25    -999.25    -999.25   35.68000   71.60510 -137.44120  -77.70060   71.60510
 5450.00000    -999.25   71.39770   75.58290   13.23050    -999.25    -999.25    -999.25   13.23050   14.89810  -75.84420  -16.98120   14.89810
 5500.00000    -999.25  124.10750  122.38400    8.17100    -999.25    -999.25    -999.25    8.17100   12.89120  -61.43150   -3.44160   12.89120
 5550.00000    -999.25  323.27060  323.85010    3.08790    -999.25    -999.25    -999.25    3.08790    4.89100  -78.38960  -21.40720    4.89100
 5600.00000    -999.25  365.03830  365.03830    2.73940    -999.25    -999.25    -999.25    2.80140    4.73360  -77.92110  -22.23200    4.73360
 5650.00000    -999.25  292.40780  305.50650    3.27370    -999.25    -999.25    -999.25    3.27370    5.25990  -78.02420  -23.61550    5.25990
 5700.00000    -999.25  343.98940  343.98940    2.90710    -999.25    -999.25    -999.25    2.90300    4.44140  -75.78720  -22.67190    4.44140
 5750.00000    -999.25  325.55550  327.60030    3.05250    -999.25    -999.25    -999.25    3.05250    4.63580  -73.33050  -21.50210    4.63580
 5800.00000    -999.25  195.88250  189.79110    5.26890    -999.25    -999.25    -999.25    5.26890    8.32860  -63.25410  -12.70630    8.32860
 5850.00000    -999.25  384.73270  384.73270    2.59920    -999.25    -999.25    -999.25    2.66810    4.32870  -66.32740  -17.07290    4.32870
 5900.00000    -999.25  392.53070  392.53070    2.54760    -999.25    -999.25    -999.25    2.54430    4.05990  -71.75660  -23.78250    4.05990
 5950.00000    -999.25  375.85700  375.85700    2.66060    -999.25    -999.25    -999.25    2.68960    4.58790  -69.66120  -22.98050    4.58790
 6000.00000    -999.25   85.30380   98.33330   10.16950    -999.25    -999.25    -999.25   10.16950   16.56010  -51.23970   -5.84590   16.56010
 6050.00000    -999.25  109.67800  113.61170    8.80400    -999.25    -999.25    -999.25    8.80400   16.11930  -50.03180   -5.91850   16.11930
 6100.00000    -999.25  229.40460  234.71970    4.26040    -999.25    -999.25    -999.25    4.26040    8.43720  -56.01430  -13.19430    8.43720
 6150.00000    -999.25  101.76060  111.37950    8.98230    -999.25    -999.25    -999.25    8.98230   15.27200  -58.93840  -17.39890   15.27200
 6200.00000    -999.25   28.29530   32.46480   30.80260    -999.25   36.61210   36.61210   30.80260   40.71390  -48.35810   -8.11190   40.71390
 6250.00000   59.30180   92.49530   99.63430   10.03670   59.30180   42.20440   42.20440   10.03670   16.35130  -50.38720   -9.63360   16.35130
 6300.00000   59.96300   96.72230  104.29550    9.58810   59.96300   46.31870   46.31870    9.58810   16.41330  -52.49360  -11.10080   16.41330
 6350.00000   75.95190  221.68570  226.00910    4.42460   75.95190   65.95050   65.95050    4.42460    8.96640  -51.70730   -9.66880    8.96640
