~Version ---------------------------------------------------
VERS. 2.0 : CWLS log ASCII Standard -VERSION 2.0
WRAP.  NO : ONE LINE PER DEPTH STEP
~Well ------------------------------------------------------
STRT.F                            650.0 : START DEPTH
STOP.F                           9200.0 : STOP DEPTH
STEP.F                         50.00000 : STEP LENGTH
NULL.                           -999.25 : NULL VALUE
COMP.                DENISON MINES LTD. : COMPANY
WELL. DENISON ET AL VIRGHILLS 2-6-65-12 : WELL
FLD .                                   : FIELD
LOC .                                   : LOCATION
CTRY.                            CANADA : COUNTRY
SRVC.                      Schlumberger : SERVICE COMPANY
DATE.                       14-Mar-1976 : LOGDATE
PROV.                           Alberta : PROVINCE
UWI .                  100020606512W500 : UNIQUE WELL ID
SLAT.WGS84                     54.59091 : SURFACE LATITUDE
SLON.WGS84                    -115.7994 : SURFACE LONGITUDE
~Curve Information -----------------------------------------
DEPT.F    0   1   0  0 : 1 MEASURED DEPTH
SPR .MV   07 010 01 00 : SPONTANEOUS POTENTIAL FROM RESISTIVITY LOG
ILD .OHMM 07 120 46 00 : INDUCTION DEEP RESISTIVITY
ILM .OHMM 07 120 44 00 : INDUCTION MEDIUM RESISTIVITY
LL8 .OHMM 07 220 08 00 : LATEROLOG 8
CILD.MMHO 07 110 46 00 : INDUCTION DEEP CONDUCTIVITY
DT  .US/F 60 500 00 00 : DELTA-T (INTERVAL TRANSIT TIME)
CALS.IN   60 280 50 00 : CALIPER FROM SONIC LOG
GRS .GAPI 60 310 01 00 : GAMMA RAY FROM SONIC LOG
~Params ----------------------------------------------------
PD  .                     GL : PERMANENT DATUM
EPD .FT               3411.5 : ELEVATION PERMANENT DATUM
LMF .                     KB : LOG MEASURED FROM
DAPD.FT                 14.2 : FEET ABOVE PERMANENT DATUM
EKB .FT               3425.7 : KELLY BUSHING
EGL .FT               3411.5 : GROUND LEVEL
DATE.               03/14/76 : RUN DATE
RUN .                      1 : RUN NUMBER
DD  .FT                 9226 : DEPTH DRILLER
DL  .FT                 9229 : DEPTH LOGGER
BLI .FT                 9223 : BOTTOM LOG INTERVAL
TLI .FT                  637 : TOP LOG INTERVAL
CBD .FT                  639 : CASING BOTTOM DRILLER
CBL .FT                  637 : CASING BOTTOM LOGGER
BS  .IN                7.875 : BIT SIZE
BSD .FT                 9226 : BIT SIZE AT DEPTH
DFT .               GEL CHEM : DRILLING FLUID TYPE
DFD .                    9.4 : DRILLING FLUID DENSITY
DFV .                    120 : DRILLING FLUID VISCOSITY
DFPH.                    9.5 : DRILLING FLUID PH
DFL .                    7.8 : DRILLING FLUID LOSS
MSS .             CIRCULATED : MUD SAMPLE SOURCE
RMS .OHMM               2.51 : RESISTIVITY MUD SAMPLE
MST .DEGF                 54 : MUD SAMPLE TEMPERATURE
RMF .OHMM               1.99 : RESISTIVITY MUD FILTRATE SAMPLE
MFST.DEGF                 50 : MUD FILTRATE SAMPLE TEMPERATURE
RMC .OHMM               2.94 : RESISTIVITY MUD CAKE
MCST.DEGF                 50 : MUD CAKE SAMPLE TEMPERATURE
RMB .OHMM               0.56 : RESISTIVITY MUD AT BHT
TCS .HRS                 3.5 : TIME CIRCULATED STOPPED
LUN .                   7691 : LOGGING UNIT NUMBER
LUL .                    EDM : LOGGING UNIT LOCATION
ENGI.              CROCKFORD : RECORDING ENGINEER
WITN.             CARRINGTON : WITNESSED BY
CLNT.                A2DTECH : CLIENT CODE
ORIG.            2" 5" PRINT : ORIGIN OF DATA
UWI .       100020606512W500 : UNIQUE WELL ID
DICO. A2D Technologies, Inc. : DIGITIZING COMPANY
~Other -----------------------------------------------------
~ASCII -----------------------------------------------------
# ...
 4650.00000  -49.54850    1.05830    1.13590    1.82800    -999.25  179.04480   10.59850   61.78020
 4700.00000  -53.32920    2.08660    1.83080    2.68990    -999.25  134.30190   10.08230   61.62170
 4750.00000  -55.20820    5.55640    5.94790    5.80870    -999.25   85.45660    9.73390   76.11160
 4800.00000  -54.66500    7.01420    7.43180    7.37720    -999.25   88.82680   10.96140   64.22080
 4850.00000  -56.98040   12.21240   16.01170   59.23920    -999.25  109.23110    9.61000   46.42840
 4900.00000  -50.41180    4.39470    4.55700    5.23720    -999.25   81.31870   10.02850   65.93310
 4950.00000  -86.90240    5.94600    6.30840    8.71150    -999.25   83.56570   10.53280   49.93540
 5000.00000  -57.53440    5.77490    6.12550    7.68470    -999.25   81.49610    9.95450   71.28090
 5050.00000  -93.32450    6.54250    7.73430   11.00270    -999.25   80.30940    9.26200   58.87400
 5100.00000  -57.25650    4.98240    5.06730    6.29240    -999.25   82.63010   10.33250   74.17720
 5150.00000  -86.00010    5.66180    6.26160   10.11120    -999.25   80.99650   10.40890   56.48280
 5200.00000  -59.93500    4.94150    5.19010    7.28880    -999.25   81.04670    9.48990   76.65100
 5250.00000  -53.02570    6.53210    6.99700    7.77030    -999.25   78.68840    9.45000   81.05100
 5300.00000  -49.35120    5.75400    5.48730    6.83670    -999.25   77.07580    9.50640   75.79780
 5350.00000  -53.63750    5.13730    5.31730    5.69010    -999.25   87.04830   11.20460   86.26520
 5400.00000  -79.24420   14.16700   16.53260   34.78360    -999.25   72.07210    8.41780   41.29030
 5450.00000  -53.83090   11.21490   10.81490   13.05180    -999.25   76.29820    9.06920   85.80240
 5500.00000  -59.32730    8.84650   10.04590   10.57320    -999.25   71.05210    9.17100   73.10170
 5550.00000  -51.64410    7.14120    7.60170    8.64420    -999.25   75.60940    9.66520  105.48490
 5600.00000 -121.43420    5.92110    8.06270   41.28040    -999.25   55.81660    8.99660   27.97790
 5650.00000  -66.82780   12.08680   13.00820   26.04270    -999.25   57.80640    9.28390   40.69490
 5700.00000 -172.35710   10.97240   21.11810   57.13320    -999.25   60.43200    8.37300   12.11150
 5750.00000 -166.70320   23.83040   39.07320  204.44460    -999.25   52.02680    8.26400   14.78520
 5800.00000 -172.00140   37.42240   56.40090  433.24900    -999.25   51.74900    8.56880   15.43380
 5850.00000  -80.27760    2.28910    2.46240    3.59090    -999.25   73.04340    9.81720   64.75460
 5900.00000 -127.43950    3.38300    4.47850   14.55910    -999.25   66.03530    8.42530   49.54600
 5950.00000  -66.71620   18.51850   20.44440  106.74040    -999.25   53.58540    8.57550   31.79640
 6000.00000  -77.64570  227.30970  299.21810  620.43700    -999.25   50.06260    8.43100   13.49860
 6050.00000  -54.91360   94.07670  113.60550  246.37550    -999.25   52.86700    8.34750   21.52160
 6100.00000  -72.88730   30.90930   32.91730   51.60490    -999.25   55.78350    8.29740   25.09190
 6150.00000  -54.53760   28.19070   29.32830   37.25160    -999.25   56.76580    8.15520   34.59630
 6200.00000  -58.91030   30.65580   31.87550   39.71100    -999.25   56.65340    8.07680   33.34820
 6250.00000  -69.74510   30.43580   31.89060   39.97180    -999.25   56.59670    8.05890   28.16590
 6300.00000  -45.98370    6.89570    7.56000    8.34940    -999.25   72.26650    8.91780   84.26740
 6350.00000  -47.47960    5.78330    6.10870    7.18590    -999.25   76.64390    8.79960  104.78500
 6400.00000  -60.94710   31.90810   37.06360   53.89860    -999.25   55.56100    8.31610   47.15680
 6450.00000  -54.52470   36.69360   43.54910  111.93200    -999.25   90.28610    8.16840  274.32760
 6500.00000 -105.62460  127.36740  184.74400  720.49900    -999.25   50.77490    8.24980   14.94700
 6550.00000  -66.95340  253.58150  319.97920  616.57530    -999.25   49.91800    8.31980   14.20680
 6600.00000  -78.79170  604.13850  675.09480  888.96610    -999.25   50.33310    8.32430   14.06810
 6650.00000 -110.29930  326.30440  347.27460  847.23110    -999.25   49.08820    8.43530    9.70200
 6700.00000  -91.21420   93.58060  108.46940  112.40700    -999.25   50.31690    8.25260   19.95120
 6750.00000 -166.69120   37.38580   62.91750  162.49280    -999.25   56.10490    7.82940   11.79460
 6800.00000 -167.39790   23.03340   32.11940   97.27930    -999.25   49.61210    8.25320   12.31950
 6850.00000 -176.37780   26.92700   43.07160  247.88750    -999.25   52.94200    7.97430   13.90280
 6900.00000 -157.71500   24.83100   31.09980  133.92400    -999.25   51.64840    8.54330   11.85000
 6950.00000 -129.86540  137.55140  157.88380  193.46210    -999.25   49.74020    8.45190   12.83190
 7000.00000 -127.78550  335.60030  599.11630  940.48880    -999.25   48.43170    8.66700   15.17020
 7050.00000 -164.08580   63.49460  112.09130  514.22650    -999.25   48.93750    8.68010   13.44010
 7100.00000 -166.22860   44.50680   51.13670  225.54200    -999.25   51.16600    8.70110   11.69200
 7150.00000 -199.80910   35.53120   51.02100  299.46580    -999.25   50.52260    8.64160   13.51570
 7200.00000 -136.21060  108.32590  194.41750  954.97900    -999.25   48.23950    8.32830   22.21940
 7250.00000 -101.59050    7.46530    7.83550    7.99210    -999.25   57.40490    8.69150   44.91630
 7300.00000 -176.51910   22.54410   25.65180   88.56270    -999.25   48.85850    7.05920   20.30440
 7350.00000 -115.99300   20.89050   23.81100   20.51460    -999.25   52.24660    8.38020   32.53490
 7400.00000 -120.77700   11.44440   11.96200   14.54470    -999.25   53.52820    8.58570   26.40630
 7450.00000  -61.56680   42.73860   45.85450   49.83380    -999.25   53.56570    8.40970   33.96140
 7500.00000  -57.89430   16.05700   16.96900   18.90120    -999.25   59.57600    8.50560   46.88380
 7550.00000  -52.10220   11.97950   12.39800   14.91220    -999.25   61.60820    8.79210   49.01650
 7600.00000  -76.51350    5.56620    6.36570    7.30230    -999.25   73.88170   10.59640   73.16580
 7650.00000  -69.61510    3.75130    4.05380    4.75340    -999.25   81.16290   13.47220   83.51020
 7700.00000  -58.79870    4.19560    4.34930    5.22660    -999.25   78.60500   11.63110   76.71170
 7750.00000  -57.81850    4.91390    5.10280    6.29730    -999.25   75.10230    9.99590   71.50740
 7800.00000  -50.70960    6.30560    6.59020    8.02300    -999.25   70.95770    8.77770   67.63960
 7850.00000  -50.94600    9.91850   10.93250    9.20880    -999.25   65.29080    8.40600   60.62730
 7900.00000  -62.84160    6.16860    6.23290    7.03810    -999.25   72.17120    9.48580   65.60440
 7950.00000  -78.51940    3.78920    4.16930    5.18540    -999.25   79.52070   12.17860   72.79010
 8000.00000  -72.42240    4.00460    4.10970    5.36730    -999.25   79.46280   11.92070   73.89170
 8050.00000  -65.69700    4.20600    4.52580    5.94260    -999.25   78.28480   11.32090   66.77870
 8100.00000  -48.39860    7.74100    8.16560    8.80800    -999.25   77.19650    8.61990   63.97200
 8150.00000  -58.32960    5.50780    5.79230    6.57570    -999.25   72.11060    9.20610   74.93620
 8200.00000  -46.03000    7.56330    7.89000   10.14910    -999.25   70.33280    8.53870   78.11110
 8250.00000  -48.95290    7.95220    8.56280    9.18210    -999.25   69.56990    8.34700   71.01940
 8300.00000  -68.44090    4.85380    5.09640    6.84050    -999.25   77.62610    9.95360   90.18540
 8350.00000  -57.75670    5.36740    5.63370    7.44340    -999.25   76.11480    9.62680   90.60430
 8400.00000  -54.20630    4.68990    4.89360    6.78930    -999.25   75.19380    9.28740   84.37960
 8450.00000  -60.83770    4.03030    4.21270    5.10150    -999.25   78.69420   10.58940   85.13290
 8500.00000  -59.81470    3.21460    3.49950    4.36670    -999.25   85.47970   10.66970  100.85500
 8550.00000  -34.97920    8.27570    8.91630   12.73880    -999.25   76.45670    8.16110  121.33290
 8600.00000  -32.78440   17.21590   17.98860   24.62990    -999.25   61.10960    8.08320   41.64360
