~Version ---------------------------------------------------
VERS.      2.0 : CWLS log ASCII Standard -VERSION 2.0
WRAP.       NO : One line per depth step
CREA. 08/31/17 : LAS Creation Date
~Well ------------------------------------------------------
STRT.FT                            1150.0 : START DEPTH
STOP.FT                           11550.0 : STOP DEPTH
STEP.FT                          50.00000 : STEP LENGTH
NULL.                             -999.25 : NULL VALUE
COMP.    AMOCO CANADA PETROLEUM CO., LTD. : COMPANY
WELL. AMOCO HB FINA SOUTH FORK 10-8-59-19 : WELL
FLD .                                     : FIELD
LOC .                                     : LOCATION
CTRY.                              CANADA : COUNTRY
SRVC.                        Schlumberger : SERVICE COMPANY
DATE.                         10-Oct-1977 : LOGDATE
PROV.                             Alberta : PROVINCE
UWI .                    100100805919W500 : UNIQUE WELL ID
SLAT.WGS84                       54.08913 : SURFACE LATITUDE
SLON.WGS84                      -116.8085 : SURFACE LONGITUDE
~Curve Information -----------------------------------------
DEPT    .FT    : Depth Curve
CALDED  .IN    : CALIPER FROM CNT-CFD LOG [ADJ. TO ILDED]
CALSED  .IN    : CALIPER FROM BCS LOG [ADJ. TO ILDED]
CALWS   .IN    : CALIPER [CALDED]
CONDWS  .MMHO  : CONDUCTIVITY [1000/DRESWS]
DCORED  .G/C3  : DENSITY CORRECTION FROM CNT-CFD LOG [ADJ. TO ILDED]
DCORWS  .G/C3  : DENSITY CORRECTION [DCORED]
DENWS   .G/C3  : FORMATION BULK DENSITY [RHOBED]
DPHILSED.V/V   : DENSITY POROSITY LIMESTONE [M=2.71,F=1.0] FROM CNT-CFD LOG [ADJ. TO ILDED]
DPHISSED.V/V   : DENSITY POROSITY SANDSTONE [M=2.65,F=1.0] FROM CNT-CFD LOG [ADJ. TO ILDED]
DPOLSWS .V/V   : DENSITY POROSITY LIMESTONE [CALCULATED FROM DENWS, M=2.71, F=1.0]
DRESWS  .OHMM  : DEEP RESISTIVITY [ILDED]
DTED    .US/F  : DELTA-T (INTERVAL TRANSIT TIME) FROM BCS LOG [ADJ. TO ILDED]
DTWS    .US/F  : COMPRESSIONAL  SONIC [DTED]
GRDED   .GAPI  : GAMMA RAY FROM CNT-CFD LOG [ADJ. TO ILDED]
GRSED   .GAPI  : GAMMA RAY FROM BCS LOG [ADJ. TO ILDED]
GRWS    .GAPI  : GAMMA RAY [GRSED]
ILDED   .OHMM  : DEEP INDUCTION FROM DILL LOG
ILMED   .OHMM  : MEDIUM INDUCTION FROM DILL LOG
LL8ED   .OHMM  : LATEROLOG 8 FROM DILL LOG
MRESWS  .OHMM  : MEDIUM RESISTIVITY [ILMED]
NPHILSED.V/V   : NEUTRON POROSITY LIMESTONE FROM CNT-CFD LOG [ADJ. TO ILDED]
NPHISSED.V/V   : NEUTRON POROSITY SANDSTONE FROM CNT-CFD LOG [ADJ. TO ILDED]
NPOLSWS .V/V   : NEUTRON POROSITY LIMESTONE [NPHISSED CONVERTED TO LIMESTONE MATRIX, SPL. TO NPHILSED @7662.5']
RHOBED  .G/C3  : BULK DENSITY FROM CNT-CFD LOG [ADJ. TO ILDED]
SPRED   .MV    : SPONTANEOUS POTENTIAL FROM DILL LOG
SPWS    .MV    : SPONTANEOUS POTENTIAL [BASELINE 0 MV, SPRED]
SRESWS  .OHMM  : SHALLOW RESISTIVITY [LL8ED]
~Params ----------------------------------------------------
PD  .                     GL : PERMANENT DATUM
EPD .FT                 2976 : ELEVATION PERMANENT DATUM
LMF .                     KB : LOG MEASURED FROM
DAPD.FT                 20.7 : FEET ABOVE PERMANENT DATUM
EKB .FT               2996.7 : KELLY BUSHING
EGL .FT                 2976 : GROUND LEVEL
DATE.               10/10/77 : RUN DATE
RUN .                      1 : RUN NUMBER
DD  .FT                11577 : DEPTH DRILLER
DL  .FT                11569 : DEPTH LOGGER
BLI .FT                11563 : BOTTOM LOG INTERVAL
TLI .FT                 1534 : TOP LOG INTERVAL
CBD .FT                 1535 : CASING BOTTOM DRILLER
CBL .FT                 1534 : CASING BOTTOM LOGGER
BS  .IN                 8.75 : BIT SIZE
BSD .FT                11577 : BIT SIZE AT DEPTH
DFT .                    GEL : DRILLING FLUID TYPE
DFD .                      9 : DRILLING FLUID DENSITY
DFV .                     80 : DRILLING FLUID VISCOSITY
DFPH.                    8.5 : DRILLING FLUID PH
DFL .                    8.8 : DRILLING FLUID LOSS
MSS .               FLOWLINE : MUD SAMPLE SOURCE
RMS .OHMM               2.24 : RESISTIVITY MUD SAMPLE
MST .DEGF                 54 : MUD SAMPLE TEMPERATURE
RMF .OHMM               1.98 : RESISTIVITY MUD FILTRATE SAMPLE
MFST.DEGF                 64 : MUD FILTRATE SAMPLE TEMPERATURE
TCS .HRS                   3 : TIME CIRCULATED STOPPED
LUN .                   7772 : LOGGING UNIT NUMBER
LUL .                    EDM : LOGGING UNIT LOCATION
ENGI.         BERNISKY TRACY : RECORDING ENGINEER
WITN.                 NEWELL : WITNESSED BY
CLNT.                A2DTECH : CLIENT CODE
ORIG.            2" 5" PRINT : ORIGIN OF DATA
UWI .       100100805919W500 : UNIQUE WELL ID
DICO. A2D Technologies, Inc. : DIGITIZING COMPANY
~Other -----------------------------------------------------
~ASCII -----------------------------------------------------
# ...
 3750.00000   11.91960    9.13420   11.91960  176.94100    0.26490    0.26490    2.17610    -999.25    0.29460    0.31220    5.65160   92.12770   92.12770   81.90700   80.02610   80.02610    5.65160    6.03090    5.24760    6.03090    -999.25    0.41810    0.37560    2.17610 -458.97400   -9.03160    5.24760
 3800.00000   11.58290    9.65150   11.58290  144.62570    0.26580    0.26580    2.21030    -999.25    0.27980    0.29220    6.91440   80.19410   80.19410   64.69090   61.94910   61.94910    6.91440    7.41360    6.75230    7.41360    -999.25    0.27910    0.23510    2.21030 -458.63090   -9.55920    6.75230
 3850.00000    9.09800    8.75760    9.09800  131.97110    0.05560    0.05560    2.52210    -999.25    0.08610    0.10990    7.58270   83.98430   83.98430   66.84510   65.31970   65.31970    7.58270    8.13430    7.16750    8.13430    -999.25    0.39140    0.34840    2.52210 -462.56440  -14.36910    7.16750
 3900.00000    9.47450    9.05850    9.47450  178.66710    0.09440    0.09440    2.53810    -999.25    0.07550    0.10050    5.59700   90.32250   90.32250   77.63230   72.04630   72.04630    5.59700    5.87170    5.16490    5.87170    -999.25    0.38320    0.34000    2.53810 -464.42480  -17.10020    5.16490
 3950.00000    9.59380    8.71520    9.59380  182.34520    0.18740    0.18740    2.44660    -999.25    0.13260    0.15400    5.48470   85.13940   85.13940   78.96920   82.14060   82.14060    5.48470    6.03460    5.77010    6.03460    -999.25    0.40500    0.36220    2.44660 -465.78210  -19.33390    5.77010
 4000.00000    9.00830    8.70960    9.00830   26.92610    0.16230    0.16230    2.51590    -999.25    0.08930    0.11350   37.13870   74.63290   74.63290   36.18270   36.85720   36.85720   37.13870   40.51120   43.41100   40.51120    -999.25    0.25460    0.21070    2.51590 -485.07160  -39.49410   43.41100
 4050.00000    8.62400    8.20780    8.62400   48.40200    0.08090    0.08090    2.37330    -999.25    0.17290    0.19690   20.66030   80.60040   80.60040   39.81880   36.57350   36.57350   20.66030   21.51750   19.79340   21.51750    -999.25    0.28740    0.24340    2.37330 -484.61840  -39.91160   19.79340
 4100.00000   10.83650    9.03410   10.83650  145.55660    0.18330    0.18330    2.32360    -999.25    0.20660    0.22600    6.87400   88.42730   88.42730   79.41820   82.53510   82.53510    6.87400    7.75210    7.32620    7.75210    -999.25    0.39910    0.35620    2.32360 -470.32310  -26.49270    7.32620
 4150.00000   10.36880    8.99940   10.36880  131.80090    0.07580    0.07580    2.37020    -999.25    0.18100    0.19870    7.58720   86.11170   86.11170   78.97450   76.36580   76.36580    7.58720    8.16350    8.94730    8.16350    -999.25    0.33670    0.29290    2.37020 -468.54810  -25.58840    8.94730
 4200.00000    8.98680    8.71940    8.98680   25.87180    0.09890    0.09890    2.59120    -999.25    0.03590    0.06950   38.78480   71.44240   71.44240   38.75530   35.64050   35.64050   38.78480   32.83630   50.39920   32.83630    -999.25    0.22320    0.17950    2.59120 -484.15200  -42.06870   50.39920
 4250.00000    9.96100    9.15040    9.96100   74.24290    0.03420    0.03420    2.58560    -999.25    0.04730    0.07270   13.46930   74.52690   74.52690   64.82660   62.92280   62.92280   13.46930   14.19700   17.40820   14.19700    -999.25    0.26740    0.22340    2.58560 -462.61390  -21.40120   17.40820
 4300.00000    8.60380    8.18940    8.60380   53.25490    0.10240    0.10240    2.50960    -999.25    0.09340    0.11720   18.77760   78.96400   78.96400   51.86070   43.75610   43.75610   18.77760   20.04410   23.32950   20.04410    -999.25    0.29180    0.24780    2.50960 -474.90770  -34.56570   23.32950
 4350.00000    9.97150    9.78300    9.97150  124.55760    0.25000    0.25000    2.24010    -999.25    0.25660    0.27480    8.02900   83.78620   83.78620   88.64020   92.83910   92.83910    8.02900    8.40500    9.15020    8.40500    -999.25    0.36710    0.32370    2.24010 -456.32070  -16.85510    9.15020
 4400.00000   10.20140    9.79820   10.20140  111.80050    0.26360    0.26360    2.22620    -999.25    0.26800    0.28290    8.94450   81.89660   81.89660  105.96750  100.91400  100.91400    8.94450    9.54820   10.35130    9.54820    -999.25    0.33050    0.28670    2.22620 -452.17810  -13.58320   10.35130
 4450.00000    9.96250    9.98100    9.96250  104.65090    0.19330    0.19330    2.34340    -999.25    0.19300    0.21440    9.55630   80.12220   80.12220  103.93480  106.79300  106.79300    9.55630    9.97700   11.13860    9.97700    -999.25    0.33970    0.29600    2.34340 -448.60440  -10.88590   11.13860
 4500.00000    9.96210    9.45940    9.96210  100.34520    0.25300    0.25300    2.37980    -999.25    0.17590    0.19310    9.96560   82.22070   82.22070  113.14190  117.32340  117.32340    9.96560   10.70360   11.47420   10.70360    -999.25    0.35780    0.31430    2.37980 -445.03920   -8.19140   11.47420
 4550.00000    9.66280    9.22120    9.66280  116.09550    0.19180    0.19180    2.56940    -999.25    0.05010    0.08220    8.61360   85.78980   85.78980  120.26930  123.47880  123.47880    8.61360    9.22190   10.20090    9.22190    -999.25    0.38200    0.33880    2.56940 -444.87980   -9.00560   10.20090
 4600.00000    9.34330    9.11630    9.34330   74.89190    0.03900    0.03900    2.56810    -999.25    0.05580    0.08300   13.35260   84.67070   84.67070  137.66690  151.72420  151.72420   13.35260   14.18480   18.75620   14.18480    -999.25    0.37000    0.32660    2.56810 -447.93250  -13.05220   18.75620
 4650.00000    9.70580    9.52260    9.70580   89.56720    0.08890    0.08890    2.63720    -999.25    0.00320    0.04260   11.16480   83.72820   83.72820  116.02190  116.62860  116.62860   11.16480   12.12590   13.82530   12.12590    -999.25    0.41180    0.36920    2.63720 -450.05600  -16.16320   13.82530
 4700.00000    9.76180    9.48570    9.76180   90.94210    0.05590    0.05590    2.61130    -999.25    0.02800    0.05770   10.99640   81.52310   81.52310  109.18730  118.65280  118.65280   10.99640   11.53060   13.36100   11.53060    -999.25    0.35050    0.30680    2.61130 -449.32580  -16.42690   13.36100
 4750.00000    9.32150    9.29450    9.32150  125.91920    0.14680    0.14680    2.61780    -999.25    0.02200    0.05390    7.94160   81.46890   81.46890  114.76900  111.12890  111.12890    7.94160    8.46470    9.01250    8.46470    -999.25    0.38260    0.33940    2.61780 -448.47450  -16.56310    9.01250
 4800.00000    9.10190    8.95580    9.10190  129.44650    0.17940    0.17940    2.60810    -999.25    0.03920    0.05960    7.72520   85.04830   85.04830  115.53870  108.14770  108.14770    7.72520    8.23440    8.78620    8.23440    -999.25    0.42090    0.37850    2.60810 -451.86190  -20.93790    8.78620
 4850.00000    9.66550    9.44740    9.66550   95.56100    0.09270    0.09270    2.63730    -999.25    0.01300    0.04250   10.46630   77.62910   77.62910  103.38480  107.44680  107.44680   10.46630   11.01590   11.91850   11.01590    -999.25    0.30180    0.25780    2.63730 -456.62720  -26.69710   11.91850
 4900.00000    9.63780    9.18790    9.63780   66.31780    0.07120    0.07120    2.59390    -999.25    0.03280    0.06790   15.07890   72.05450   72.05450   86.08620   86.56400   86.56400   15.07890   15.70930   16.82520   15.70930    -999.25    0.22720    0.18350    2.59390 -456.39120  -27.44860   16.82520
 4950.00000   10.54810    9.20550   10.54810  105.85830    0.15020    0.15020    2.49940    -999.25    0.10130    0.12320    9.44840   76.29380   76.29380  102.47580  107.04980  107.04980    9.44840    9.92920   11.20760    9.92920    -999.25    0.28610    0.24210    2.49940 -446.35460  -18.40590   11.20760
 5000.00000   10.72960    9.28130   10.72960  122.88790    0.26470    0.26470    2.28900    -999.25    0.23030    0.24620    8.13750   80.15870   80.15870  111.92320  113.84840  113.84840    8.13750    8.47880    9.04340    8.47880    -999.25    0.32930    0.28550    2.28900 -437.66650  -10.70530    9.04340
