~Version ---------------------------------------------------
VERS.      2.0 : CWLS log ASCII Standard -VERSION 2.0
WRAP.       NO : One line per depth step
CREA. 11/13/17 : LAS Creation Date
~Well ------------------------------------------------------
STRT.FT                       1150.0 : START DEPTH
STOP.FT                      10450.0 : STOP DEPTH
STEP.FT                     50.00000 : STEP LENGTH
NULL.                        -999.25 : NULL VALUE
COMP.            GULF OIL CANADA LTD : COMPANY
WELL. NUMAC ET AL KAYBOBS 6-13-60-18 : WELL
FLD .                             WC : FIELD
LOC .                                : LOCATION
CTRY.                         CANADA : COUNTRY
SRVC.                   Schlumberger : SERVICE COMPANY
DATE.                    01-Mar-1977 : LOGDATE
PROV.                        Alberta : PROVINCE
UWI .               100061306018W500 : UNIQUE WELL ID
SLAT.WGS84                  54.18721 : SURFACE LATITUDE
SLON.WGS84                 -116.5675 : SURFACE LONGITUDE
~Curve Information -----------------------------------------
DEPT    .FT    : Depth Curve
CALDED  .IN    : CALIPER FROM CNFD LOG
CALSED  .IN    : CALIPER FROM BCS LOG [ADJ.TO GRDED]
CALWS   .IN    : CALIPER [CALSED SPL. TO CALDED @ 10498']
CONDWS  .MMHO  : CONDUCTIVITY [1000/DRESWS]
DCORED  .G/C3  : DENSITY CORRECTION FROM CNFD LOG
DCORWS  .G/C3  : DENSITY CORRECTION [DCORED]
DENWS   .G/C3  : FORMATION BULK DENSITY [RHOBED]
DPHILSED.V/V   : DENSITY POROSITY LIMESTONE [M=2.71, F=1.0] FROM CNFD LOG [ADJ.TO RHOBED]
DPHISSED.V/V   : DENSITY POROSITY SANDSTONE [M=2.65, F=1.0] FROM CNFD LOG [ADJ.TO RHOBED]
DPOWS   .V/V   : DENSITY POROSITY LIMESTONE [CALCULATED FROM DENWS, M=2.71, F=1.0]
DRESWS  .OHMM  : DEEP RESISTIVITY [ILDED]
DTED    .US/F  : DELTA-T FROM BCS LOG [ADJ.TO GRDED]
DTWS    .US/F  : COMPRESSIONAL SONIC [DTED]
GRDED   .GAPI  : GAMMA RAY FROM CNFD LOG
GRSED   .GAPI  : GAMMA RAY FROM BCS LOG [ADJ.TO GRDED]
GRWS    .GAPI  : GAMMA RAY [GRSED]
ILDED   .OHMM  : DEEP INDUCTION FROM DIL-LAT LOG
ILMED   .OHMM  : MEDIUM INDUCTION FROM DIL-LAT LOG
LL8ED   .OHMM  : LATEROLOG 8 FROM DIL-LAT LOG
MRESWS  .OHMM  : MEDIUM RESISTIVITY [ILMED]
NPHILSED.V/V   : NEUTRON POROSITY LIMESTONE FROM CNFD LOG [ADJ.TO RHOBED]
NPHISSED.V/V   : NEUTRON POROSITY SANDSTONE FROM CNFD LOG [ADJ.TO RHOBED]
NPOWS   .V/V   : NEUTRON POROSITY LIMESTONE [NPHISSED CONVERTED TO LIMESTONE MATRIX & SPL. TO NPHILSED @ 6970']
RHOBED  .G/C3  : FORMATION BULK DENSITY FROM CNFD LOG
SPRED   .MV    : SPONTANEOUS POTENTIAL FROM DIL-LAT LOG
SPWS    .MV    : SPONTANEOUS POTENTIAL [BASELINE 0 MV, SPRED]
SRESWS  .OHMM  : SHALLOW RESISTIVITY [LL8ED]
~Params ----------------------------------------------------
PD  .                     GL : PERMANENT DATUM
EPD .FT               2750.3 : ELEVATION PERMANENT DATUM
LMF .                     KB : LOG MEASURED FROM
DAPD.FT                 15.7 : FEET ABOVE PERMANENT DATUM
EKB .FT                 2766 : KELLY BUSHING
EGL .FT               2750.3 : GROUND LEVEL
DATE.               03/01/77 : RUN DATE
RUN .                      1 : RUN NUMBER
DD  .FT                10500 : DEPTH DRILLER
DL  .FT                10488 : DEPTH LOGGER
BLI .FT                10494 : BOTTOM LOG INTERVAL
TLI .FT                 1099 : TOP LOG INTERVAL
CBD .FT                 1099 : CASING BOTTOM DRILLER
CBL .FT                 1100 : CASING BOTTOM LOGGER
BS  .IN                 8.75 : BIT SIZE
BSD .FT                10500 : BIT SIZE AT DEPTH
DFT .                    GEL : DRILLING FLUID TYPE
DFD .                    9.1 : DRILLING FLUID DENSITY
DFV .                    115 : DRILLING FLUID VISCOSITY
DFPH.                   10.5 : DRILLING FLUID PH
DFL .                    8.8 : DRILLING FLUID LOSS
MSS .               FLOWLINE : MUD SAMPLE SOURCE
RMS .OHMM                2.6 : RESISTIVITY MUD SAMPLE
MST .DEGF                 60 : MUD SAMPLE TEMPERATURE
RMF .OHMM               2.46 : RESISTIVITY MUD FILTRATE SAMPLE
MFST.DEGF                 59 : MUD FILTRATE SAMPLE TEMPERATURE
RMB .OHMM               0.86 : RESISTIVITY MUD AT BHT
TCS .HRS                   4 : TIME CIRCULATED STOPPED
LUN .                   7669 : LOGGING UNIT NUMBER
LUL .                    EDM : LOGGING UNIT LOCATION
ENGI.                LANGTON : RECORDING ENGINEER
WITN.      ROCKNEY CHOQUETTE : WITNESSED BY
CLNT.                A2DTECH : CLIENT CODE
ORIG.            2" 5" PRINT : ORIGIN OF DATA
UWI .       100061306018W500 : UNIQUE WELL ID
DICO. A2D Technologies, Inc. : DIGITIZING COMPANY
~Other -----------------------------------------------------
~ASCII -----------------------------------------------------
# ...
 3750.00000    -999.25    -999.25    -999.25  121.44910    -999.25    -999.25    -999.25    -999.25    -999.25    -999.25    8.23390    -999.25    -999.25    -999.25    -999.25    -999.25    8.23390    8.56110    9.52290    8.56110    -999.25    -999.25    -999.25    -999.25  -82.83570  -10.97180    9.52290
 3800.00000    -999.25    -999.25    -999.25  132.35920    -999.25    -999.25    -999.25    -999.25    -999.25    -999.25    7.55520    -999.25    -999.25    -999.25    -999.25    -999.25    7.55520    7.78870    8.64010    7.78870    -999.25    -999.25    -999.25    -999.25  -81.96940  -10.18590    8.64010
 3850.00000    -999.25    -999.25    -999.25   84.01880    -999.25    -999.25    -999.25    -999.25    -999.25    -999.25   11.90210    -999.25    -999.25    -999.25    -999.25    -999.25   11.90210   12.69950   14.34210   12.69950    -999.25    -999.25    -999.25    -999.25  -81.24640   -9.54400   14.34210
 3900.00000    -999.25    -999.25    -999.25  107.97850    -999.25    -999.25    -999.25    -999.25    -999.25    -999.25    9.26110    -999.25    -999.25    -999.25    -999.25    -999.25    9.26110   10.10720   10.91840   10.10720    -999.25    -999.25    -999.25    -999.25  -80.28750   -8.66550   10.91840
 3950.00000    -999.25    -999.25    -999.25  122.62110    -999.25    -999.25    -999.25    -999.25    -999.25    -999.25    8.15520    -999.25    -999.25    -999.25    -999.25    -999.25    8.15520    8.72530    9.38950    8.72530    -999.25    -999.25    -999.25    -999.25  -80.75090   -9.20990    9.38950
 4000.00000    -999.25    -999.25    -999.25  149.14240    -999.25    -999.25    -999.25    -999.25    -999.25    -999.25    6.70500    -999.25    -999.25    -999.25    -999.25    -999.25    6.70500    7.18490    7.58940    7.18490    -999.25    -999.25    -999.25    -999.25  -81.15880   -9.69830    7.58940
 4050.00000    -999.25    -999.25    -999.25  140.75390    -999.25    -999.25    -999.25    -999.25    -999.25    -999.25    7.10460    -999.25    -999.25    -999.25    -999.25    -999.25    7.10460    7.53410    8.07930    7.53410    -999.25    -999.25    -999.25    -999.25  -82.23750  -10.85750    8.07930
 4100.00000    -999.25    -999.25    -999.25  120.69280    -999.25    -999.25    -999.25    -999.25    -999.25    -999.25    8.28550    -999.25    -999.25    -999.25    -999.25    -999.25    8.28550    8.61890    9.53510    8.61890    -999.25    -999.25    -999.25    -999.25  -82.44800  -11.14900    9.53510
 4150.00000    -999.25    -999.25    -999.25  108.32240    -999.25    -999.25    -999.25    -999.25    -999.25    -999.25    9.23170    -999.25    -999.25    -999.25    -999.25    -999.25    9.23170    9.73660   10.47310    9.73660    -999.25    -999.25    -999.25    -999.25  -82.42810  -11.20960   10.47310
 4200.00000    -999.25    8.00810    8.00810  137.44000    -999.25    -999.25    -999.25    -999.25    -999.25    -999.25    7.27590    -999.25    -999.25    -999.25    -999.25    -999.25    7.27590    7.53360    8.29900    7.53360    -999.25    -999.25    -999.25    -999.25  -80.66270   -9.52520    8.29900
 4250.00000    -999.25    9.95730    9.95730  149.52820    -999.25    -999.25    -999.25    -999.25    -999.25    -999.25    6.68770   87.58730   87.58730    -999.25    -999.25    -999.25    6.68770    7.26400    7.85030    7.26400    -999.25    -999.25    -999.25    -999.25  -80.15430   -9.09730    7.85030
 4300.00000    -999.25   10.01720   10.01720  154.25910    -999.25    -999.25    -999.25    -999.25    -999.25    -999.25    6.48260   89.50780   89.50780    -999.25  103.81760  103.81760    6.48260    6.77480    7.71400    6.77480    -999.25    -999.25    -999.25    -999.25  -80.86130   -9.88470    7.71400
 4350.00000    -999.25   10.08970   10.08970  119.73750    -999.25    -999.25    -999.25    -999.25    -999.25    -999.25    8.35160   85.83350   85.83350    -999.25  111.49260  111.49260    8.35160    8.79840    9.37120    8.79840    -999.25    -999.25    -999.25    -999.25  -81.44220  -10.54660    9.37120
 4400.00000    -999.25    9.66090    9.66090   74.79260    -999.25    -999.25    -999.25    -999.25    -999.25    -999.25   13.37030   78.76710   78.76710    -999.25   95.50940   95.50940   13.37030   15.24720   15.60440   15.24720    -999.25    -999.25    -999.25    -999.25  -84.32950  -13.51440   15.60440
 4450.00000    -999.25    9.66690    9.66690  106.52800    -999.25    -999.25    -999.25    -999.25    -999.25    -999.25    9.38720   80.84800   80.84800    -999.25  111.99690  111.99690    9.38720    9.87720   10.70490    9.87720    -999.25    -999.25    -999.25    -999.25  -80.67760   -9.94350   10.70490
 4500.00000    9.25800    9.32380    9.32380   94.33250    -999.25    -999.25    -999.25    -999.25    -999.25    -999.25   10.60080   79.33130   79.33130   97.67730   96.67780   96.67780   10.60080   11.78320   12.52560   11.78320    -999.25    0.26270    0.21870    -999.25  -79.55890   -8.90530   12.52560
 4550.00000   10.05550    9.86160    9.86160  104.53470    0.08740    0.08740    2.60080    -999.25    0.03270    0.06390    9.56620   82.77290   82.77290  110.53970  115.02530  115.02530    9.56620   10.32970   12.29700   10.32970    -999.25    0.27660    0.23260    2.60080  -79.63960   -9.06650   12.29700
 4600.00000   10.27310    9.92820    9.92820  110.62190    0.08590    0.08590    2.52300    -999.25    0.08060    0.10940    9.03980   85.88390   85.88390  113.75660  116.16370  116.16370    9.03980    9.67850   10.25670    9.67850    -999.25    0.28900    0.24500    2.52300  -79.61720   -9.12510   10.25670
 4650.00000   10.45740    9.93060    9.93060  128.44720    0.10020    0.10020    2.49900    -999.25    0.09770    0.12340    7.78530   88.54080   88.54080  117.90010  118.89910  118.89910    7.78530    8.36100    9.72990    8.36100    -999.25    0.32230    0.27840    2.49900  -78.99220   -8.58060    9.72990
 4700.00000   10.03280    9.83270    9.83270  141.25490    0.15290    0.15290    2.46260    -999.25    0.11960    0.14470    7.07940   94.90700   94.90700  123.02560  125.75980  125.75980    7.07940    7.60550    8.85530    7.60550    -999.25    0.36040    0.31690    2.46260  -77.56990   -7.23930    8.85530
 4750.00000   11.38510    9.95810    9.95810  110.22080    0.15330    0.15330    2.54660    -999.25    0.07420    0.09560    9.07270   90.99700   90.99700  128.76460  134.53060  134.53060    9.07270   10.02220   12.23900   10.02220    -999.25    0.33860    0.29480    2.54660  -77.71810   -7.46790   12.23900
 4800.00000   11.00370    9.99340    9.99340  108.76190    0.23320    0.23320    2.55220    -999.25    0.06510    0.09230    9.19440   92.28010   92.28010  129.14820  128.94640  128.94640    9.19440   10.07550   12.31570   10.07550    -999.25    0.35060    0.30700    2.55220  -77.03280   -6.86310   12.31570
 4850.00000    9.75880    9.73730    9.73730   68.35360    0.07810    0.07810    2.58180    -999.25    0.04530    0.07500   14.62980   89.62330   89.62330  136.09600  132.55280  132.55280   14.62980   15.58050   19.62530   15.58050    -999.25    0.33330    0.28950    2.58180  -77.54880   -7.46010   19.62530
 4900.00000   10.70260   10.01500   10.01500   89.78190    0.12700    0.12700    2.52710    -999.25    0.06880    0.10700   11.13810   91.42170   91.42170  131.28120  133.14270  133.14270   11.13810   12.48780   15.59970   12.48780    -999.25    0.33660    0.29280    2.52710  -76.25930   -6.25110   15.59970
 4950.00000    9.79860    9.68280    9.68280   58.86750    0.03710    0.03710    2.55550    -999.25    0.06190    0.09040   16.98730   87.43860   87.43860  131.90670  128.52420  128.52420   16.98730   20.03590   36.02050   20.03590    -999.25    0.34260    0.29890    2.55550  -76.14800   -6.22080   36.02050
 5000.00000    9.11140    9.35550    9.35550   59.38140    0.02600    0.02600    2.41670    -999.25    0.15780    0.17150   16.84030  106.71810  106.71810  167.12230  170.01940  170.01940   16.84030   19.69280   36.87990   19.69280    -999.25    0.46290    0.42120    2.41670  -75.85640   -6.00970   36.87990
