~Version ---------------------------------------------------
VERS. 2.0 : CWLS log ASCII Standard -VERSION 2.0
WRAP.  NO : ONE LINE PER DEPTH STEP
~Well ------------------------------------------------------
STRT.F                           300.0 : START DEPTH
STOP.F                         10200.0 : STOP DEPTH
STEP.F                        50.00000 : STEP LENGTH
NULL.                          -999.25 : NULL VALUE
COMP.             IMPERIAL OIL LIMITED : COMPANY
WELL.   IMPERIAL CYNTHIA NO. 9-6-52-11 : WELL
FLD .                                  : FIELD
LOC .                                  : LOCATION
CTRY.                           CANADA : COUNTRY
SRVC. Schlumberger Well Surveying Corp : SERVICE COMPANY
DATE.                      06-Sep-1954 : LOGDATE
PROV.                          Alberta : PROVINCE
UWI .                 100090605211W500 : UNIQUE WELL ID
SLAT.WGS84               53.4630190179 : SURFACE LATITUDE
SLON.WGS84             -115.6015677109 : SURFACE LONGITUDE
~Curve Information -----------------------------------------
DEPT.F                        : DEPTH FEET
NEUT.NAPI        35 330 01 00 : NEUTRON FROM GRN LOG
GRN .UGRA-EQ/TON 35 310 01 00 : GAMMA RAY FROM GRN LOG
CALI.IN          70 280 01 00 : CALIPER FROM CALIPER LOG
LN  .OHMM        01 060 64 00 : LONG NORMAL 64" FROM EL
LT18.OHMM        01 070 18 00 : LATERAL 18' 8" FROM EL
SN  .OHMM        01 040 16 00 : SHORT NORMAL 16"
SPR .MV          01 010 01 00 : SPONTANEOUS POTENTIAL FROM EL
~Params ----------------------------------------------------
LMF .                     KB : LOG MEASURED FROM
DMF .                     KB : DRILLING MEASURED FROM
EKB .FT                 3086 : KELLY BUSHING
DATE.               09/06/54 : RUN DATE
RUN .                      4 : RUN NUMBER
DD  .FT                10217 : DEPTH DRILLER
DL  .FT                10217 : DEPTH LOGGER
BLI .FT                10217 : BOTTOM LOG INTERVAL
TLI .FT                 8589 : TOP LOG INTERVAL
CBD .FT                 5691 : CASING BOTTOM DRILLER
CBL .FT                 5690 : CASING BOTTOM LOGGER
BS  .IN                8.625 : BIT SIZE
BSD .FT                10217 : BIT SIZE AT DEPTH
DFT .              LIME BASE : DRILLING FLUID TYPE
DFD .                   10.1 : DRILLING FLUID DENSITY
DFV .                    240 : DRILLING FLUID VISCOSITY
DFPH.                   10.5 : DRILLING FLUID PH
DFL .                    7.8 : DRILLING FLUID LOSS
MSS .               FLOWLINE : MUD SAMPLE SOURCE
RMS .OHMM                1.4 : RESISTIVITY MUD SAMPLE
MST .DEGF                 70 : MUD SAMPLE TEMPERATURE
RMB .OHMM                0.5 : RESISTIVITY MUD AT BHT
TCS .HRS                 2.5 : TIME CIRCULATED STOPPED
LUN .                   1772 : LOGGING UNIT NUMBER
LUL .                    GDM : LOGGING UNIT LOCATION
ENGI.                BUCKLEY : RECORDING ENGINEER
WITN.                  BLAND : WITNESSED BY
CLNT.                A2DTECH : CLIENT CODE
ORIG.            2" 5" PRINT : ORIGIN OF DATA
UWI .       100090605211W500 : UNIQUE WELL ID
DICO. A2D Technologies, Inc. : DIGITIZING COMPANY
~Other -----------------------------------------------------
~ASCII -----------------------------------------------------
  300.00000  151.04730    2.94770    -999.25    -999.25    -999.25    -999.25    -999.25
  350.00000  171.09240    2.83680    -999.25    -999.25    -999.25    -999.25    -999.25
  400.00000  151.19520    2.88300    -999.25    -999.25    -999.25    -999.25    -999.25
  450.00000  159.67730    2.70130    -999.25    -999.25    -999.25    -999.25    -999.25
  500.00000  154.50320    2.93820    -999.25    -999.25    -999.25    -999.25    -999.25
  550.00000  155.32400    2.51020    -999.25    -999.25    -999.25    -999.25    -999.25
  600.00000  142.50990    3.02420    -999.25    -999.25    -999.25    -999.25    -999.25
  650.00000  145.58190    3.01060    -999.25    -999.25    -999.25    -999.25    -999.25
  700.00000  142.84230    3.06840    -999.25    -999.25    -999.25    -999.25    -999.25
  750.00000  165.76420    3.51460    -999.25   21.68500   22.92630   15.67630  -73.89430
  800.00000  149.57760    4.43620    -999.25    7.57580    6.07750    4.70420  -68.99820
  850.00000  157.29400    4.21080    -999.25    8.99400   14.74410    6.77760  -67.12250
  900.00000  172.40510    4.16060    -999.25   32.04840   33.45460   26.14730  -81.01230
  950.00000  147.62460    4.54890    -999.25    8.78810   10.50390    5.36030  -69.38790
 1000.00000  165.11140    4.37540    -999.25   10.88730   13.07550   11.25880  -69.60520
 1050.00000  158.84680    5.05530    -999.25   12.30710    7.61060    8.04520  -71.60000
 1100.00000  160.67560    4.78200    -999.25    8.72170    5.38260    6.70670  -68.21830
 1150.00000  160.21040    3.29790    -999.25   23.68410   37.19740   18.87840  -76.73830
 1200.00000  156.71280    4.49680    -999.25    8.78110   13.77680    6.38080  -59.00520
 1250.00000  144.96600    5.14110    -999.25   11.11760   14.07930    8.33130  -63.17140
 1300.00000  170.83200    4.35870    -999.25    9.54150    5.69800    7.08480  -66.00600
 1350.00000  162.08060    3.57370    -999.25   22.25060   27.60760   16.06410  -85.63600
 1400.00000  178.74430    3.84130    -999.25   13.27080   23.23430    9.21360  -68.64830
 1450.00000  186.18920    4.01290    -999.25   13.47680   14.05260    9.97540  -71.01580
 1500.00000  176.64770    3.34510    -999.25   13.88750    3.71390   11.07400  -72.64500
 1550.00000  173.02290    4.58780    -999.25    5.58130   27.12740    4.10220  -70.28410
 1600.00000  165.90340    4.35090    -999.25   12.64120    9.39810    7.64530  -69.91490
 1650.00000  153.53750    4.13490    -999.25    9.05290    6.10090    6.22490  -66.28590
 1700.00000  156.04490    4.28320    -999.25    8.50840    8.43550    7.00980  -63.27460
 1750.00000  166.26730    4.37040    -999.25    5.45360    7.06310    4.49790  -62.86040
 1800.00000  152.61490    3.95430    -999.25    8.06580   12.29060   10.76950  -69.47850
 1850.00000  140.10380    3.80230    -999.25    3.09900   39.64180   10.02560  -71.20960
 1900.00000  156.02400    4.90570    -999.25    9.06510   12.29830    5.66600  -71.47010
 1950.00000  162.01920    3.98590    -999.25   11.40280   18.07990    7.95350  -71.04070
 2000.00000  162.54640    3.96620    -999.25   11.32180   10.30240    9.78190  -71.37680
 2050.00000  177.89890    4.46570    -999.25    8.37780    9.10290    9.45550  -69.29780
 2100.00000  174.19770    4.45200    -999.25    8.89050   12.23330    8.26510  -70.22980
 2150.00000  178.45560    4.91910    -999.25    8.07700   12.38480    7.51830  -70.43640
 2200.00000  155.51910    3.96340    -999.25    8.22730   12.61280    6.56150  -69.12020
 2250.00000  153.92330    4.65990    -999.25    7.16040    7.38780    5.22150  -67.55170
 2300.00000  188.53130    3.36370    -999.25   26.40300   14.29010   22.88570  -79.92670
 2350.00000  160.15130    5.32880    -999.25   11.46450    5.85100    6.57570  -65.80200
 2400.00000  160.37740    3.96040    -999.25    9.20240    3.83860    7.22250  -66.90170
 2450.00000  164.82030    4.66050    -999.25    7.55420    6.08100    6.58040  -64.64610
 2500.00000  156.61190    4.60260    7.68890    7.32170    6.23980    6.30730  -62.74660
 2550.00000  169.27290    4.00720    7.30660    7.87140    8.00970    6.61770  -66.21400
 2600.00000  148.70750    4.57210    6.39980    6.51220    4.01620    4.22530  -65.71960
 2650.00000  169.67930    4.16240    7.06880    6.35340    9.25560    5.47700  -66.30230
 2700.00000  170.82780    4.38620    7.49220    6.31690    8.47350    6.58350  -67.42830
 2750.00000  144.32320    4.14760    7.42940    4.32150   26.37260    7.33320  -68.43700
 2800.00000  159.86650    4.15250    7.45630    7.93060    4.37970    7.01720  -65.79770
 2850.00000  160.49140    3.76380    6.23300    8.91350   14.78150   10.37700  -67.87980
 2900.00000  153.31220    3.43750    7.61900    7.94200    5.45360    6.37520  -64.77630
 2950.00000  142.51220    3.68130    8.00140    7.56710    5.95580    6.00360  -64.50250
 3000.00000  153.57350    4.07780    6.63410    7.65810    5.24620    4.79470  -64.45180
 3050.00000  142.24830    4.72920    7.50290    4.79570    9.57290    6.24350  -64.84200
 3100.00000  173.84200    4.36660    7.07360    5.31310   11.81800    6.43070  -63.93380
 3150.00000  168.52340    4.81750    7.43400    5.29600    2.86290    3.77760  -63.21940
 3200.00000  152.29870    4.11160    6.81110    8.03260   10.56080    6.93270  -64.11760
 3250.00000  168.27560    3.21880    6.36190    9.29560    8.64970   10.18650  -64.09400
 3300.00000  167.39160    4.51980    6.73550    4.38660    7.75180    6.46030  -62.07290
 3350.00000  164.73210    4.38370    6.82170    4.97810    5.57490    4.06630  -62.38430
 3400.00000  150.99260    3.28580    6.98920    9.86330   12.98910    6.67970  -65.29930
 3450.00000  186.46950    3.13860    5.96500   32.98790   24.91700   27.19570  -83.34240
 3500.00000  186.19820    3.01590    5.83050   21.44930   16.54230   17.44210  -78.60870
 3550.00000  202.76490    2.95200    6.03370   38.47610   25.73100   38.58180  -94.55160
 3600.00000  148.54380    3.10130    6.85370   10.00080    7.37520    6.83820  -65.40270
 3650.00000  163.02820    3.69710    6.31250    9.56510    9.37980    6.75910  -65.16440
 3700.00000  158.75680    3.51290    6.20170   10.15830   16.79100   15.70100  -70.23710
 3750.00000  164.84020    2.67600    5.89900   23.59580   19.20330   20.47080  -80.18240
 3800.00000  154.07520    3.47040    6.19960   10.00810    7.42390    9.25750  -63.28420
 3850.00000  190.78300    3.26250    5.93000   18.87760   13.75520   27.61740  -76.64130
 3900.00000  145.88210    3.45900    6.84380    6.37380    8.43050    5.56580  -63.96480
 3950.00000  180.76110    3.21120    6.48230   10.17540   12.55620   10.82430  -66.81040
 4000.00000  150.51380    3.69690    6.71770    8.87570    6.18500    7.07690  -62.90120
 4050.00000  169.59010    3.20610    6.57070   11.67700    9.77260   10.69050  -63.25360
 4100.00000  171.98330    3.57720    7.76990   10.10620    6.84750    9.83520  -64.29570
 4150.00000  158.74540    3.55210    6.47560   12.58940    8.13640   12.88740  -63.14870
 4200.00000  152.14040    2.93960    6.46120    8.10880   14.05660    8.12010  -61.50200
 4250.00000  165.77010    3.34520    6.12250   23.30750    5.44030   22.86960  -66.30880
 4300.00000  173.50110    1.22620    6.18840   20.09200   23.91220   16.68420  -81.38860
 4350.00000  162.33060    1.58590    6.73480    8.54120   11.80970    9.66900  -67.01750
 4400.00000  151.93210    1.86200    6.97040    7.24630    9.42010    8.99840  -65.93740
 4450.00000  151.91170    2.15510    6.80330   10.74880    9.53430   11.36000  -68.14270
 4500.00000  152.65190    2.83560    6.76100    9.19900   11.27760   10.70480  -68.33110
 4550.00000  159.08780    2.28000    6.99090   11.27580   12.55700   11.94330  -68.30760
 4600.00000  146.95780    2.64580    6.44720   11.82190   12.83370   12.71910  -68.87170
 4650.00000  160.88750    3.33010    7.07510   10.37800   12.59430   11.98540  -65.96990
 4700.00000  150.75420    3.07740    7.17820   12.16790   13.20460   14.29790  -65.07990
 4750.00000  149.06440    3.35000    6.86070   11.64840   12.49740   12.79550  -62.17730
