~Version ---------------------------------------------------
VERS.      2.0 : CWLS log ASCII Standard -VERSION 2.0
WRAP.       NO : One line per depth step
CREA. 12/18/17 : LAS Creation Date
~Well ------------------------------------------------------
STRT.FT                         300.0 : START DEPTH
STOP.FT                       11750.0 : STOP DEPTH
STEP.FT                      50.00000 : STEP LENGTH
NULL.                         -999.25 : NULL VALUE
COMP.            MOBIL OIL CANADA LTD : COMPANY
WELL. MOBIL OIL LESLIEVILLE 4-19-39-5 : WELL
FLD .                                 : FIELD
LOC .                                 : LOCATION
CTRY.                          CANADA : COUNTRY
SRVC.          Schlumberger of Canada : SERVICE COMPANY
DATE.                     02-Feb-1958 : LOGDATE
PROV.                         Alberta : PROVINCE
UWI .                100041903905W500 : UNIQUE WELL ID
SLAT.WGS84                   52.36478 : SURFACE LATITUDE
SLON.WGS84                  -114.7174 : SURFACE LONGITUDE
~Curve Information -----------------------------------------
DEPT  .FT     : Depth Curve
CALMED.IN     : CALIPER FROM MICRO LATEROLOG [ADJ. TO IEL LOG]
CALWS .IN     : CALIPER [MCALED SPL. TO CALMED @ 8500']
CILDED.MMHO   : CONDUCTIVITY INDUCTION LOG FROM IEL LOG
CONDWS.MMHO   : CONDUCTIVITY [1000/DRESWS]
DRESWS.OHMM   : DEEP RESISTIVITY [1000/CILDED,IF ILDED<2,ILDED]
GR1ED .GAPI   : GAMMA RAY FROM GR LOG [ADJ. TO IEL LOG]
GRED  .GAPI   : GAMMA RAY FROM GR-CCL LOG [ADJ. TO IEL LOG]
GRNED .UR/HR  : GAMMA RAY FROM GRN LOG [ADJ. TO IEL & LATEROLOG LOG]
GRWS  .GAPI   : GAMMA RAY [GRNED*10.4 SPL. TO GR1ED @ 7038'-7122']
ILDED .OHMM   : INDUCTION LOG RESISTIVITY FROM IEL LOG
LL7ED .OHMM   : LATEROLOG-7 RES. FROM LATEROLOG [ADJ. TO IEL LOG]
MCALED.IN     : MLT CALIPER FROM MICROLOG [ADJ. TO IEL LOG]
MLLED .OHMM   : MICRO-LATEROLOG RESISTIVITY FROM MICRO LATEROLOG [ADJ. TO IEL LOG]
MRESWS.OHMM   : MEDIUM RESISTIVITY [LL7ED]
NEUTED.NAPI   : NEUTRON FROM GRN LOG [ADJ. TO IEL & LATEROLOG LOG]
NEUTWS.NAPI   : NEUTRON [NEUTED]
SNED  .OHMM   : SHORT NORMAL 16" FROM IEL LOG
SPMED .MV     : SPONTAEOUS POTENTIAL FROM MICRO LATEROLOG [ADJ. TO IEL LOG]
SPR1ED.MV     : SPONTANEOUS POTENTIAL FROM LATEROLOG [ADJ. TO IEL LOG]
SPRED .MV     : SPONTANEOUS POTENTIAL FROM IEL LOG
SPWS  .MV     : SPONTANEOUS POTENTIAL [BASELINE 0MV, SPRED SPL. TO SPR1ED @ 7480']
SRESWS.OHMM   : SHALLOW RESISTIVITY [SNED]
TENED .LBF    : TENSION FROM GR LOG [ADJ. TO IEL LOG]
~Params ----------------------------------------------------
PD  .           GROUND LEVEL : PERMANENT DATUM
EPD .FT                 3169 : ELEVATION PERMANENT DATUM
LMF .                     KB : LOG MEASURED FROM
DMF .                     KB : DRILLING MEASURED FROM
EKB .FT                 3181 : KELLY BUSHING
EGL .FT                 3169 : GROUND LEVEL
DATE.             02/02/1958 : RUN DATE
RUN .                      1 : RUN NUMBER
DD  .FT                11765 : DEPTH DRILLER
DL  .FT                11766 : DEPTH LOGGER
BLI .FT                11762 : BOTTOM LOG INTERVAL
TLI .FT                 6000 : TOP LOG INTERVAL
CBD .FT                  886 : CASING BOTTOM DRILLER
CBL .FT                  885 : CASING BOTTOM LOGGER
BS  .IN                    9 : BIT SIZE
BSD .FT                11766 : BIT SIZE AT DEPTH
DFT .              LIME BASE : DRILLING FLUID TYPE
DFD .                   11.4 : DRILLING FLUID DENSITY
DFV .                    100 : DRILLING FLUID VISCOSITY
DFPH.                   13.0 : DRILLING FLUID PH
DFL .                    4.6 : DRILLING FLUID LOSS
RMS .OHMM                0.5 : RESISTIVITY MUD SAMPLE
MST .DEGF                 47 : MUD SAMPLE TEMPERATURE
RMF .OHMM                0.2 : RESISTIVITY MUD FILTRATE SAMPLE
MFST.DEGF                 70 : MUD FILTRATE SAMPLE TEMPERATURE
RMC .OHMM                0.6 : RESISTIVITY MUD CAKE
MCST.DEGF                 66 : MUD CAKE SAMPLE TEMPERATURE
RMB .OHMM               0.14 : RESISTIVITY MUD AT BHT
MRT .DEGF                212 : MAXIMUM RECORDED TEMPERATURE
LUN .                  1729C : LOGGING UNIT NUMBER
LUL .                     RD : LOGGING UNIT LOCATION
ENGI.                  CHASE : RECORDING ENGINEER
WITN.                 CARSON : WITNESSED BY
CLNT.                A2DTECH : CLIENT CODE
ORIG.           2", 5" PRINT : ORIGIN OF DATA
UWI .       100041903905W500 : UNIQUE WELL ID
DICO. A2D Technologies, Inc. : DIGITIZING COMPANY
~Other -----------------------------------------------------
~ASCII -----------------------------------------------------
# ...
 9600.00000    9.37180    9.37180    -999.25    -999.25    -999.25    -999.25    -999.25    3.38180   35.17070    -999.25 10803.45800    -999.25  842.91540 10803.45800 1108.48380 1108.48380    -999.25  -77.35100  -80.56070    -999.25  -40.64860    -999.25    -999.25
 9650.00000    9.26660    9.26660    -999.25    -999.25    -999.25    -999.25    -999.25    3.51380   36.54350    -999.25 9908.74710    -999.25  689.39200 9908.74710 1216.98110 1216.98110    -999.25  -82.64950  -82.06410    -999.25  -42.51450    -999.25    -999.25
 9700.00000   10.19880   10.19880    -999.25    -999.25    -999.25    -999.25    -999.25    5.57330   57.96230    -999.25  208.23970    -999.25    7.11410  208.23970 1014.47740 1014.47740    -999.25  -73.05380  -73.56500    -999.25  -34.38020    -999.25    -999.25
 9750.00000   10.22360   10.22360    -999.25    -999.25    -999.25    -999.25    -999.25    3.30160   34.33660    -999.25  336.08080    -999.25   24.56380  336.08080 1225.16170 1225.16170    -999.25  -66.82810  -73.24990    -999.25  -34.42750    -999.25    -999.25
 9800.00000   10.60960   10.60960    -999.25    -999.25    -999.25    -999.25    -999.25    3.05100   31.73040    -999.25  490.23730    -999.25   10.82860  490.23730 1086.84250 1086.84250    -999.25  -83.71920  -93.08010    -999.25  -54.62020    -999.25    -999.25
 9850.00000    8.80780    8.80780    -999.25    -999.25    -999.25    -999.25    -999.25    3.33760   34.71100    -999.25  125.28820    -999.25  177.31950  125.28820 1130.31240 1130.31240    -999.25  -92.77860 -101.46270    -999.25  -63.36760    -999.25    -999.25
 9900.00000    9.53970    9.53970    -999.25    -999.25    -999.25    -999.25    -999.25    3.13830   32.63830    -999.25  199.35170    -999.25  181.30860  199.35170  958.04210  958.04210    -999.25 -100.77610 -103.56890    -999.25  -65.83620    -999.25    -999.25
 9950.00000   10.08490   10.08490    -999.25    -999.25    -999.25    -999.25    -999.25    5.04890   52.50860    -999.25  197.12050    -999.25    7.38510  197.12050  826.70980  826.70980    -999.25  -34.87470  -39.88730    -999.25   -2.51940    -999.25    -999.25
 10000.00000    9.36710    9.36710    -999.25    -999.25    -999.25    -999.25    -999.25    5.87120   61.06050    -999.25   77.81060    -999.25   68.42680   77.81060  850.71650  850.71650    -999.25  -48.75330  -54.86750    -999.25  -17.86210    -999.25    -999.25
 10050.00000   11.44070   11.44070    -999.25    -999.25    -999.25    -999.25    -999.25    7.06490   73.47500    -999.25   35.67060    -999.25    5.70690   35.67060  625.44360  625.44360    -999.25  -45.49640  -47.68650    -999.25  -11.04350    -999.25    -999.25
 10100.00000    9.59300    9.59300    -999.25    -999.25    -999.25    -999.25    -999.25    8.77430   91.25270    -999.25   21.52420    -999.25   16.78000   21.52420  626.65160  626.65160    -999.25  -43.07730  -44.89880    -999.25   -8.62060    -999.25    -999.25
 10150.00000    9.80160    9.80160    -999.25    -999.25    -999.25    -999.25    -999.25    9.13640   95.01860    -999.25   22.38990    -999.25   15.68660   22.38990  634.07890  634.07890    -999.25  -34.76270  -34.38070    -999.25    1.53510    -999.25    -999.25
 10200.00000   11.45280   11.45280    -999.25    -999.25    -999.25    -999.25    -999.25    8.21880   85.47550    -999.25   18.64870    -999.25   12.36660   18.64870  585.37140  585.37140    -999.25  -44.39450  -43.16910    -999.25   -7.42740    -999.25    -999.25
 10250.00000   10.39400   10.39400    -999.25    -999.25    -999.25    -999.25    -999.25    7.74800   80.57920    -999.25   18.48990    -999.25   11.36100   18.48990  649.74290  649.74290    -999.25  -52.40700  -50.64130    -999.25  -14.89960    -999.25    -999.25
 10300.00000    9.91950    9.91950    -999.25    -999.25    -999.25    -999.25    -999.25    7.77310   80.84020    -999.25   21.97390    -999.25   20.89140   21.97390  700.55190  700.55190    -999.25  -62.52020  -61.80160    -999.25  -26.05990    -999.25    -999.25
 10350.00000   10.42020   10.42020    -999.25    -999.25    -999.25    -999.25    -999.25    7.89800   82.13920    -999.25   24.79960    -999.25   24.44240   24.79960  691.08540  691.08540    -999.25  -75.81080  -75.31640    -999.25  -39.57470    -999.25    -999.25
 10400.00000    9.74510    9.74510    -999.25    -999.25    -999.25    -999.25    -999.25    7.68850   79.96040    -999.25   25.93810    -999.25   22.59080   25.93810  737.36090  737.36090    -999.25  -60.80320  -60.83990    -999.25  -25.09820    -999.25    -999.25
 10450.00000    9.75790    9.75790    -999.25    -999.25    -999.25    -999.25    -999.25    7.64260   79.48300    -999.25   25.52290    -999.25   23.12580   25.52290  699.97160  699.97160    -999.25  -79.68480  -82.19170    -999.25  -46.45000    -999.25    -999.25
 10500.00000   10.00020   10.00020    -999.25    -999.25    -999.25    -999.25    -999.25    7.92800   82.45120    -999.25   24.55200    -999.25   22.33610   24.55200  694.92260  694.92260    -999.25  -92.62090  -94.15600    -999.25  -58.41430    -999.25    -999.25
 10550.00000   10.28900   10.28900    -999.25    -999.25    -999.25    -999.25    -999.25    7.76150   80.71960    -999.25   22.15660    -999.25   21.36400   22.15660  673.14710  673.14710    -999.25  -96.77420 -100.34060    -999.25  -64.59890    -999.25    -999.25
 10600.00000   10.26940   10.26940    -999.25    -999.25    -999.25    -999.25    -999.25    7.79730   81.09190    -999.25   22.34960    -999.25   16.73870   22.34960  650.61270  650.61270    -999.25  -95.91860 -100.08110    -999.25  -64.33940    -999.25    -999.25
 10650.00000   12.58890   12.58890    -999.25    -999.25    -999.25    -999.25    -999.25    8.30630   86.38550    -999.25   21.50930    -999.25   13.58940   21.50930  529.78700  529.78700    -999.25  -98.75390 -102.51180    -999.25  -66.77010    -999.25    -999.25
 10700.00000    9.63950    9.63950    -999.25    -999.25    -999.25    -999.25    -999.25   11.63490  121.00300    -999.25 1860.18750    -999.25  826.50080 1860.18750  668.71130  668.71130    -999.25  -97.76250 -100.82020    -999.25  -65.07850    -999.25    -999.25
 10750.00000    9.30550    9.30550    -999.25    -999.25    -999.25    -999.25    -999.25    9.89080  102.86430    -999.25 1348.04000    -999.25 1165.00630 1348.04000  716.28380  716.28380    -999.25  -88.46570  -92.27830    -999.25  -56.53660    -999.25    -999.25
 10800.00000   11.55360   11.55360    -999.25    -999.25    -999.25    -999.25    -999.25    6.69190   69.59580    -999.25   32.74160    -999.25   93.94470   32.74160  597.69920  597.69920    -999.25  -82.09920  -85.72110    -999.25  -49.97940    -999.25    -999.25
 10850.00000   14.58210   14.58210    -999.25    -999.25    -999.25    -999.25    -999.25    1.52980   15.90990    -999.25 3866.30250    -999.25    3.89650 3866.30250 1304.22670 1304.22670    -999.25  -84.06820  -89.33620    -999.25  -53.59450    -999.25    -999.25
 10900.00000   10.52470   10.52470    -999.25    -999.25    -999.25    -999.25    -999.25    2.24030   23.29910    -999.25  554.90380    -999.25  153.57960  554.90380 1229.44510 1229.44510    -999.25  -88.08310  -91.97920    -999.25  -56.23750    -999.25    -999.25
 10950.00000   15.20690   15.20690    -999.25    -999.25    -999.25    -999.25    -999.25    7.00540   72.85620    -999.25   15.53070    -999.25    1.56500   15.53070  531.62650  531.62650    -999.25 -100.00420 -101.14290    -999.25  -65.40120    -999.25    -999.25
 11000.00000   13.29400   13.29400    -999.25    -999.25    -999.25    -999.25    -999.25    2.63100   27.36240    -999.25  736.33040    -999.25    7.09450  736.33040 1187.80660 1187.80660    -999.25  -99.57530 -100.79530    -999.25  -65.05360    -999.25    -999.25
 11050.00000    9.65700    9.65700    -999.25    -999.25    -999.25    -999.25    -999.25    5.16590   53.72540    -999.25   51.16910    -999.25   74.41100   51.16910  833.99870  833.99870    -999.25  -96.49390  -97.38950    -999.25  -61.64780    -999.25    -999.25
 11100.00000    9.56430    9.56430    -999.25    -999.25    -999.25    -999.25    -999.25    5.39780   56.13710    -999.25   39.13610    -999.25   38.96750   39.13610  739.76470  739.76470    -999.25  -94.56330  -95.13530    -999.25  -59.39360    -999.25    -999.25
