~Version ---------------------------------------------------
VERS.      2.0 : CWLS log ASCII Standard -VERSION 2.0
WRAP.       NO : One line per depth step
CREA. 09/25/17 : LAS Creation Date
~Well ------------------------------------------------------
STRT.FT                      300.0 : START DEPTH
STOP.FT                    10650.0 : STOP DEPTH
STEP.FT                   50.00000 : STEP LENGTH
NULL.                      -999.25 : NULL VALUE
COMP.     CHEVRON STANDARD LIMITED : COMPANY
WELL. CHEVRON BA KAYBOBS 6-6-62-19 : WELL
FLD .                              : FIELD
LOC .                              : LOCATION
CTRY.                       CANADA : COUNTRY
SRVC.                     P.G.A.C. : SERVICE COMPANY
DATE.                  16-Mar-1967 : LOGDATE
PROV.                      Alberta : PROVINCE
UWI .             100060606219W500 : UNIQUE WELL ID
SLAT.WGS84                54.33243 : SURFACE LATITUDE
SLON.WGS84               -116.8409 : SURFACE LONGITUDE
~Curve Information -----------------------------------------
DEPT  .FT    : Depth Curve
CALWS .IN    : CALIPER [MCALED]
CILDED.MMHO  : CONDUCTIVITY FROM RESISTIVITY LOG
CONDWS.MMHO  : CONDUCTIVITY [1000/DRESWS]
DRESWS.OHMM  : DEEP RESISTIVITY [1000/CILDED IF ILDED<1, ILDED]
DT1ED .US/F  : DELTA TIME (DUAL RECIEVER R1R2=1') FROM SONIC LOG [ADJ. TO RESISTIVITY LOG]
DT22ED.US/F  : DELTA TIME (DUAL RECIEVER R1R2=1') FROM SONIC LOG [ADJ. TO RESISTIVITY LOG]
DTED  .US/F  : DELTA TIME (DUAL RECIEVER R1R2=3') FROM SONIC LOG [ADJ. TO RESISTIVITY LOG]
DTWS  .US/F  : COMPRESSIONAL SONIC [DTED SPL. TO DT2ED @2148.11M]
GRED  .GAPI  : GAMMA RAY FROM CBL LOG [ADJ. TO RESISTIVITY LOG]
GRSED .GAPI  : GAMMA RAY FROM SONIC LOG [ADJ. TO RESISTIVITY LOG]
GRWS  .GAPI  : GAMMA RAY [GRED SPL. TO GRSED @ (118' and 1099')
ILDED .OHMM  : DEEP INDUCTION RESISTIVITY FROM RESISTIVITY LOG
MCALED.IN    : CALIPER FROM MICROLOG [ADJ. TO RESISTIVITY LOG]
SNED  .OHMM  : 16 INCH SHORT NORMAL RESISTIVITY FROM RESISTIVITY LOG
SPRED .MV    : SPONTANEOUS POTENTIAL FROM RESISTIVITY LOG
SPWS  .MV    : SPONTANEOUS POTENTIAL [BASELINE 0 MV, SPRED]
SRESWS.OHMM  : SHALLOW RESISTIVITY [SNED]
~Params ----------------------------------------------------
PD  .                     GL : PERMANENT DATUM
EPD .FT               1839.3 : ELEVATION PERMANENT DATUM
LMF .                    KDB : LOG MEASURED FROM
DAPD.FT                 16.7 : FEET ABOVE PERMANENT DATUM
DMF .                    KDB : DRILLING MEASURED FROM
EKB .FT                 2856 : KELLY BUSHING
EGL .FT               2839.3 : GROUND LEVEL
DATE.               03/16/67 : RUN DATE
RUN .                      1 : RUN NUMBER
DD  .FT                10641 : DEPTH DRILLER
DL  .FT                10655 : DEPTH LOGGER
BLI .FT                10649 : BOTTOM LOG INTERVAL
TLI .FT                 1121 : TOP LOG INTERVAL
CS  .IN                10.75 : CASING SIZE
CBD .FT                 1120 : CASING BOTTOM DRILLER
CBL .FT                 1121 : CASING BOTTOM LOGGER
BS  .IN                    9 : BIT SIZE
BSD .FT                10641 : BIT SIZE AT DEPTH
DFT .     SUPER COL CHEM MUD : DRILLING FLUID TYPE
DFD .                   10.1 : DRILLING FLUID DENSITY
DFV .                     72 : DRILLING FLUID VISCOSITY
DFPH.                     10 : DRILLING FLUID PH
DFL .                    9.9 : DRILLING FLUID LOSS
MSS .             CIRCULATED : MUD SAMPLE SOURCE
RMS .OHMM               1.53 : RESISTIVITY MUD SAMPLE
MST .DEGF                 40 : MUD SAMPLE TEMPERATURE
RMF .OHMM                1.4 : RESISTIVITY MUD FILTRATE SAMPLE
MFST.DEGF                 40 : MUD FILTRATE SAMPLE TEMPERATURE
RMC .OHMM                2.3 : RESISTIVITY MUD CAKE
MCST.DEGF                 40 : MUD CAKE SAMPLE TEMPERATURE
MFSS.                      M : MUD FILTRATE SAMPLE SOURCE
MCSS.                      M : MUD CAKE SAMPLE SOURCE
RMB .OHMM                1.2 : RESISTIVITY MUD AT BHT
TCS .HRS                   4 : TIME CIRCULATED STOPPED
LUN .                 ES 131 : LOGGING UNIT NUMBER
LUL .                     RD : LOGGING UNIT LOCATION
ENGI.                  MANLY : RECORDING ENGINEER
WITN.        MCMILLAN KLCIAK : WITNESSED BY
CLNT.                A2DTECH : CLIENT CODE
ORIG.            2" 5" PRINT : ORIGIN OF DATA
UWI .       100060606219W500 : UNIQUE WELL ID
DICO. A2D Technologies, Inc. : DIGITIZING COMPANY
~Other -----------------------------------------------------
~ASCII -----------------------------------------------------
# ...
 8500.00000   13.83640   18.69070   19.26850   51.89830   53.54830   53.81490    -999.25   53.81490    -999.25   18.18460   18.18460   51.89830   13.83640  109.72410 -135.88620 -111.62110  109.72410
 8550.00000   11.20930   13.85280   13.49400   74.10680   40.15340   39.85750    -999.25   39.85750    -999.25   16.82550   16.82550   74.10680   11.20930   60.64050 -125.37630 -101.13880   60.64050
 8600.00000   13.43370   11.30520   11.76370   85.00740   50.03640   50.32840    -999.25   50.32840    -999.25   18.77600   18.77600   85.00740   13.43370   68.67840 -130.87870 -106.66900   68.67840
 8650.00000   12.79130   12.66580   12.68070   78.86020   50.54490   50.92430    -999.25   50.92430    -999.25   18.94790   18.94790   78.86020   12.79130   83.82600 -137.20720 -113.02500   83.82600
 8700.00000   14.03060   16.33590   16.83530   59.39890   51.45700   52.07990    -999.25   52.07990    -999.25   20.94670   20.94670   59.39890   14.03060   59.51940 -127.60110 -103.44670   59.51940
 8750.00000   14.54500   13.03160   13.46770   74.25200   52.74000   53.12690    -999.25   53.12690    -999.25   19.66090   19.66090   74.25200   14.54500   72.68070 -128.87840 -104.75160   72.68070
 8800.00000   14.01340   17.22060   15.23180   65.65210   50.80490   51.25080    -999.25   51.25080    -999.25   20.26690   20.26690   65.65210   14.01340   57.14130 -135.32830 -111.22900   57.14130
 8850.00000   13.18940   17.44250   17.63330   56.71100   53.19690   53.49040    -999.25   53.49040    -999.25   19.29160   19.29160   56.71100   13.18940   61.20470 -137.28000 -113.20850   61.20470
 8900.00000    9.89230   29.96590   29.78970   33.56860   52.42570   52.76490    -999.25   52.76490    -999.25   14.59140   14.59140   33.56860    9.89230   56.14270 -187.97430 -163.93040   56.14270
 8950.00000   11.77970   17.31250   17.42710   57.38180   51.36190   51.69050    -999.25   51.69050    -999.25   17.04700   17.04700   57.38180   11.77970   79.86490 -150.40950 -126.39330   79.86490
 9000.00000    9.42120  137.75740  113.90820    8.77900   53.12100   53.54160    -999.25   53.54160    -999.25   42.92060   42.92060    8.77900    9.42120   23.50850 -133.93190 -109.94330   23.50850
 9050.00000   11.46000   20.67950   20.61860   48.49980   53.40030   54.43590    -999.25   54.43590    -999.25   25.16330   25.16330   48.49980   11.46000   60.87150 -143.11290 -119.15190   60.87150
 9100.00000   14.99710   22.81510   20.53810   48.68990   64.60930   63.33650    -999.25   63.33650    -999.25   26.46230   26.46230   48.68990   14.99710   41.88660 -147.49160 -123.55830   41.88660
 9150.00000   13.33290   40.82000   42.08580   23.76100   42.06480   45.12410    -999.25   45.12410    -999.25   32.89590   32.89590   23.76100   13.33290   39.03690 -112.90580  -89.00010   39.03690
 9200.00000   11.05200   19.64100   19.60090   51.01800   55.10620   55.36540    -999.25   55.36540    -999.25   35.53480   35.53480   51.01800   11.05200   54.24850  -68.76150  -44.88360   54.24850
 9250.00000   10.98500   16.00790   16.25840   61.50670   51.23080   51.62190    -999.25   51.62190    -999.25   31.47580   31.47580   61.50670   10.98500   69.53220  -81.52990  -57.67950   69.53220
 9300.00000   11.37210   13.99860   13.99740   71.44200   56.46000   56.90620    -999.25   56.90620    -999.25   30.54010   30.54010   71.44200   11.37210   93.15280  -98.30330  -74.48050   93.15280
 9350.00000   10.25930   16.99050   17.13480   58.36070   53.17350   53.34440    -999.25   53.34440    -999.25   28.68490   28.68490   58.36070   10.25930   72.90160  -89.54140  -65.74640   72.90160
 9400.00000   10.56830   19.26200   19.49140   51.30470   53.94520   54.24890    -999.25   54.24890    -999.25   35.67820   35.67820   51.30470   10.56830   54.46600  -74.36150  -50.59400   54.46600
 9450.00000   10.25630   27.95400   28.08420   35.60720   56.12090   56.36160    -999.25   56.36160    -999.25   37.15580   37.15580   35.60720   10.25630   43.02210  -60.98520  -37.24550   43.02210
 9500.00000   10.33730   39.89280   36.97660   27.04410   60.39060   60.52280    -999.25   60.52280    -999.25   35.92420   35.92420   27.04410   10.33730   35.17650  -54.41880  -30.70670   35.17650
 9550.00000   11.12490   70.82440   69.71020   14.34510   62.08680   62.23750    -999.25   62.23750    -999.25   49.72890   49.72890   14.34510   11.12490   18.95110  -49.54000  -25.85540   18.95110
 9600.00000   10.70050   50.60120   49.44330   20.22520   60.42850   60.38050    -999.25   60.38050    -999.25   47.12710   47.12710   20.22520   10.70050   27.27440  -50.07010  -26.41330   27.27440
 9650.00000   12.37750   88.20770   89.00440   11.23540   62.33560   62.71250    -999.25   62.71250    -999.25   67.74030   67.74030   11.23540   12.37750   14.78780  -42.21650  -18.58730   14.78780
 9700.00000   11.68070   72.83060   65.55060   15.25540   70.08840   69.73550    -999.25   69.73550    -999.25   80.15280   80.15280   15.25540   11.68070   19.27460  -45.33170  -21.73020   19.27460
 9750.00000   13.20370  174.84180  167.69520    5.96320   78.50820   77.25890    -999.25   77.25890    -999.25   78.83340   78.83340    5.96320   13.20370    8.04840  -48.44360  -24.86970    8.04840
 9800.00000   15.00000  254.67530  238.33930    4.19570   79.58860   81.31770    -999.25   81.31770    -999.25  102.32910  102.32910    4.19570   15.00000    5.06520  -50.12690  -26.58060    5.06520
 9850.00000   11.15170   82.39970   78.69490   12.70730   53.64500   54.61320    -999.25   54.61320    -999.25   72.85470   72.85470   12.70730   11.15170   17.17650  -46.85420  -23.33560   17.17650
 9900.00000   11.57720  102.35910   96.49900   10.36280   66.54660   66.46970    -999.25   66.46970    -999.25   72.76840   72.76840   10.36280   11.57720   13.29240  -45.10450  -21.61350   13.29240
 9950.00000   11.23430  103.86280  101.46000    9.85610   68.04170   67.50590    -999.25   67.50590    -999.25   81.53860   81.53860    9.85610   11.23430   13.21300  -40.35790  -16.89460   13.21300
 10000.00000   11.12880   91.04100   88.97830   11.23870   66.38490   66.04330    -999.25   66.04330    -999.25   78.59530   78.59530   11.23870   11.12880   14.32500  -37.74450  -14.30880   14.32500
 10050.00000   11.82110  118.52190  113.94580    8.77610   73.97100   73.34760    -999.25   73.34760    -999.25   96.20230   96.20230    8.77610   11.82110   11.61160  -38.03820  -14.63010   11.61160
 10100.00000   10.87920  116.34090  111.63330    8.95790   68.78670   68.60810    -999.25   68.60810    -999.25   88.41780   88.41780    8.95790   10.87920   12.36630  -30.59880   -7.21840   12.36630
 10150.00000   10.38740  104.52400  101.66530    9.83620   74.25270   73.44280    -999.25   73.44280    -999.25  101.79690  101.79690    9.83620   10.38740   14.41630  -33.80140  -10.44860   14.41630
 10200.00000    9.67460   29.36010   29.58500   33.80090   74.77330   73.96450    -999.25   73.96450    -999.25  116.06100  116.06100   33.80090    9.67460   55.12540  -45.37090  -22.04590   55.12540
 10250.00000    9.63250   14.52390   14.58150   68.58000   71.60500   71.09090    -999.25   71.09090    -999.25   91.46490   91.46490   68.58000    9.63250  104.72690  -62.59250  -39.29500  104.72690
 10300.00000    9.80430   13.75450   13.74010   72.77980   79.07940   77.89820    -999.25   77.89820    -999.25  116.54720  116.54720   72.77980    9.80430   95.80120  -63.13370  -39.86380   95.80120
 10350.00000    9.89000   32.10650   31.74210   31.50390   60.77970   61.05370    -999.25   61.05370    -999.25   65.47260   65.47260   31.50390    9.89000   35.23560  -33.02570   -9.78270   35.23560
 10400.00000   14.21480   59.90950   60.27220   16.59140   79.95950   92.39030    -999.25   92.39030    -999.25  111.76810  111.76810   16.59140   14.21480   18.04780  -32.82270   -9.57970   18.04780
 10450.00000    9.48300   16.29980   19.75480   50.62050   61.44820   61.18120    -999.25   61.18120    -999.25   65.26330   65.26330   50.62050    9.48300   58.95650  -33.15170   -9.90870   58.95650
 10500.00000   12.84400   15.03200   15.03120   66.52810   48.25630   48.68260    -999.25   48.68260    -999.25   27.53540   27.53540   66.52810   12.84400   96.17170  -85.24280  -61.99980   96.17170
