~Version ---------------------------------------------------
VERS.      2.0 : CWLS log ASCII Standard -VERSION 2.0
WRAP.       NO : ONE LINE PER DEPTH STEP
CREA. 08/27/13 : LAS CREATION DATE
~Well ------------------------------------------------------
STRT.M                             350.0 : START DEPTH
STOP.M                            3450.0 : STOP DEPTH
STEP.M                          50.00000 : STEP LENGTH
NULL.                            -999.25 : NULL VALUE
COMP. CANADIAN NATURAL RESOURCES LIMITED : COMPANY
WELL.          RAX WASKAHIGAN 3-32-63-22 : WELL
FLD .                                 WC : FIELD
LOC .                                    : LOCATION
CTRY.                             CANADA : COUNTRY
SRVC.                       Schlumberger : SERVICE COMPANY
DATE.                        20-Aug-1985 : LOGDATE
PROV.                            Alberta : PROVINCE
UWI .                   100033206322W500 : UNIQUE WELL ID
SLAT.WGS84                      54.49004 : SURFACE LATITUDE
SLON.WGS84                     -117.2927 : SURFACE LONGITUDE
~Curve Information -----------------------------------------
DEPT    .M      : DEPTH METERS
C2ED    .MM     : CALIPER 2 FROM DENSITY LOG, DEPTH ADJUSTED WITH [GRRED]
CALDED  .MM     : CALIPER FROM DENSITY LOG, DEPTH ADJUSTED WITH [GRRED]
CALRED  .MM     : CALIPER FROM RESISTIVITY LOG
CALWS   .MM     : CALIPER [CALRED]
CONDWS  .MMHO   : CONDUCTIVITY [1000/DRESWS]
DCORWS  .KG/M3  : DENSITY CORRECTION {DRHOED]
DENWS   .KG/M3  : BULK DENSITY [RHOBED]
DPHILSED.V/V    : DENSITY POROSITY [M=2710 F=1000] FROM DENSITY LOG, DEPTH ADJUSTED WITH [GRRED]
DPHISSED.V/V    : DENSITY POROSITY [M=2650 F=1000] FROM DENSITY LOG, DEPTH ADJUSTED WITH [GRRED]
DPOLSWS .V/V    : DENSITY POROSITY LIMESTONE [CALCULATED FROM DENWS]
DRESWS  .OHMM   : DEEP RESISTIVITY [ILDED]
DRHOED  .KG/M3  : DENSITY CORRECTION FROM DENSITY LOG, DEPTH ADJUSTED WITH [GRRED]
DTED    .US/M   : DELTA TIME FROM SONIC LOG
DTWS    .US/M   : DELTA TIME [DTED]
GRDED   .GAPI   : GAMMA RAY FROM DENSITY LOG, DEPTH ADJUSTED WITH [GRRED]
GRRED   .GAPI   : GAMMA RAY FROM RESISTIVITY LOG
GRWS    .GAPI   : GAMMA RAY [GRRED]
ILDED   .OHMM   : INDUCTION LOG DEEP RESISTIVITY
ILMED   .OHMM   : INDUCTION LOG MEDIUM RESISTIVITY
MRESWS  .OHMM   : MEDIUM RESISTIVITY [ILMED]
NPHILSED.V/V    : NEUTRON POROSITY LIMESTONE FROM DENSITY LOG, DEPTH ADJUSTED WITH [GRRED]
NPHISSED.V/V    : NEUTRON POROSITY SANDSTONE FROM DENSITY LOG, DEPTH ADJUSTED WITH [GRRED]
NPOLSWS .V/V    : NEUTRON POROSITY LIMESTONE [NPHILSED]<2128> MATRIX CONVERTED [NPHISSED] TO LIMESTONE
PEFED   .B/E    : PHOTOELECTRIC FACTOR FROM DENSITY LOG, DEPTH ADJUSTED WITH [GRRED]
PEFWS   .B/E    : PHOTOELECTRIC FACTOR [PEFED]
RHOBED  .KG/M3  : BULK DENSITY FROM DENSITY LOG, DEPTH ADJUSTED WITH [GRRED]
SFLUED  .OHMM   : SPHERICALLY FOCUSED LOG RESISTIVITY
SPRED   .MV     : SPONTANEOUS POTENTIAL FROM RESISTIVITY LOG
SPWS    .MV     : SPONTANEOUS POTENTIAL [BASELINE 0 MV] [SPRED]
SRESWS  .OHMM   : SHALLOW RESISTIVITY [SFLUED]
TENDED  .N      : TENSION FROM DENSITY LOG , DEPTH ADJUSTED WITH [GRRED]
TENRED  .N      : TENSION FROM RESISTIVITY LOG
~Params ----------------------------------------------------
PD  .                     GL : PERMANENT DATUM
EPD .M                 821.2 : ELEVATION PERMANENT DATUM
LMF .                     KB : LOG MEASURED FROM
DAPD.M                   6.4 : FEET ABOVE PERMANENT DATUM
DMF .                     KB : DRILLING MEASURED FROM
EKB .M                 827.6 : KELLY BUSHING
EDF .M                 827.2 : DRILLING FLOOR
EGL .M                 821.2 : GROUND LEVEL
DATE.               08/20/85 : RUN DATE
RUN .                      1 : RUN NUMBER
DD  .M                  3450 : DEPTH DRILLER
DL  .M                3454.7 : DEPTH LOGGER
BLI .M                  3454 : BOTTOM LOG INTERVAL
TLI .M                 444.5 : TOP LOG INTERVAL
CS  .MM                244.5 : CASING SIZE
CBD .M                   444 : CASING BOTTOM DRILLER
CBL .M                   444 : CASING BOTTOM LOGGER
BS  .MM                  222 : BIT SIZE
BSD .M                  3450 : BIT SIZE AT DEPTH
DFT .               GEL CHEM : DRILLING FLUID TYPE
DFD .                   1125 : DRILLING FLUID DENSITY
DFV .                    135 : DRILLING FLUID VISCOSITY
DFPH.                   10.5 : DRILLING FLUID PH
DFL .                    8.2 : DRILLING FLUID LOSS
MSS .               FLOWLINE : MUD SAMPLE SOURCE
RMS .OHMM                1.9 : RESISTIVITY MUD SAMPLE
MST .DEGC               18.0 : MUD SAMPLE TEMPERATURE
RMF .OHMM               1.76 : RESISTIVITY MUD FILTRATE SAMPLE
MFST.DEGC               18.0 : MUD FILTRATE SAMPLE TEMPERATURE
RMC .OHMM               1.59 : RESISTIVITY MUD CAKE
MCST.DEGC               19.0 : MUD CAKE SAMPLE TEMPERATURE
MFSS.                   MEAS : MUD FILTRATE SAMPLE SOURCE
MCSS.                   MEAS : MUD CAKE SAMPLE SOURCE
RMB .OHMM              0.528 : RESISTIVITY MUD AT BHT
TCS .HRS                1030 : TIME CIRCULATED STOPPED
TLAB.HRS                2100 : TIME LOGGER AT BOTTOM
LUN .                   8204 : LOGGING UNIT NUMBER
LUL .                     GP : LOGGING UNIT LOCATION
ENGI.          HOWELL MACKAY : RECORDING ENGINEER
WITN.         SALAZAR SHARPE : WITNESSED BY
CLNT.                A2DTECH : CLIENT CODE
ORIG.       6.5" 16.5" PRINT : ORIGIN OF DATA
UWI .       100033206322W500 : UNIQUE WELL ID
DICO. A2D Technologies, Inc. : DIGITIZING COMPANY
~Other -----------------------------------------------------
~ASCII -----------------------------------------------------
# ...
 1450.00000  233.07270  225.75280  221.87650  221.87650   73.83720  227.15750 2417.90000    -999.25    0.13850    0.17080   13.54330  227.15750  319.59220  319.59220  129.42100  139.59590  139.59590   13.54330   13.73950   13.73950    -999.25    0.41640    0.37290    3.32410    3.32410 2417.90000   19.76570   -2.66620   -2.93350   19.76570 996213.41280 939220.92720
 1500.00000  251.04520  285.24390  267.80910  267.80910  123.33040  232.91690 2085.10000    -999.25    0.32090    0.36540    8.10830  232.91690  255.80340  255.80340   84.28220   92.58100   92.58100    8.10830    7.72020    7.72020    -999.25    0.32070    0.27020    2.27980    2.27980 2085.10000    8.03710   -8.42730  -11.75790    8.03710 1063140.50750 951459.53500
 1550.00000  305.95360  221.56520  246.88830  246.88830  115.53210  259.18830 2392.10000    -999.25    0.15850    0.18590    8.65560  259.18830  266.10930  266.10930   99.61360  106.14060  106.14060    8.65560    8.09400    8.09400    -999.25    0.31650    0.26580    2.46700    2.46700 2392.10000    8.33850   -3.57950   -9.52820    8.33850 1098677.80720 999851.02210
 1600.00000  185.16380  398.39920  238.46220  238.46220  134.96010  210.47900 2415.20000    -999.25    0.13630    0.17240    7.40960  210.47900  259.26750  259.26750   84.21400   90.97590   90.97590    7.40960    6.93760    6.93760    -999.25    0.29730    0.24580    2.68900    2.68900 2415.20000    7.14680   -2.57030  -11.13720    7.14680 1132606.48110 1018751.37950
 1650.00000  382.94060  478.29110  387.14280  387.14280  340.69230   19.12230 1315.40000    -999.25    0.80210    0.81560    2.93520   19.12230  326.40530  326.40530   67.34180   64.58330   64.58330    2.93520    2.34860    2.34860    -999.25    0.55150    0.52290    1.47150    1.47150 1315.40000    2.87260   -3.93130  -15.11640    2.87260 1146829.16930 993970.96770
 1700.00000  275.11020  336.30400  299.68810  299.68810  656.46950   17.88200 1444.30000    -999.25    0.73010    0.74020    1.52330   17.88200  330.13770  330.13770   95.21820   85.38320   85.38320    1.52330    1.28270    1.28270    -999.25    0.58020    0.55460    1.79470    1.79470 1444.30000    1.08590   -8.03720  -21.84050    1.08590 1191591.47090 990432.02880
 1750.00000  252.97130  287.91240  264.64120  264.64120   85.48470   80.88650 2260.10000    -999.25    0.23250    0.26310   11.69800   80.88650  256.04530  256.04530   60.08510   69.64020   69.64020   11.69800    9.08390    9.08390    -999.25    0.28430    0.23230    2.87600    2.87600 2260.10000    9.50020  -12.76970  -29.19120    9.50020 1180580.85230 1068458.65970
 1800.00000  279.26130  332.62520  288.87610  288.87610   97.91730  -48.38960 1778.00000    -999.25    0.56300    0.54500   10.21270  -48.38960  286.96040  286.96040   81.03240   87.99500   87.99500   10.21270    8.41230    8.41230    -999.25    0.47090    0.43350    2.35550    2.35550 1778.00000   10.51500  -13.07390  -32.11350   10.51500 1219815.84200 1079936.54230
 1850.00000  274.40750  276.51190  275.93030  275.93030   71.57070   54.80350 2535.70000    -999.25    0.07500    0.10190   13.97220   54.80350  249.54130  249.54130   84.06560   82.39680   82.39680   13.97220   13.47010   13.47010    -999.25    0.29470    0.24320    3.27280    3.27280 2535.70000   16.40670  -11.00960  -32.66740   16.40670 1234151.83920 1118436.93160
 1900.00000  244.68130  247.21340  238.93290  238.93290   57.76610    4.79030 2525.70000    -999.25    0.07080    0.10780   17.31120    4.79030  219.80020  219.80020   43.80290   42.96750   42.96750   17.31120   19.07390   19.07390    -999.25    0.21200    0.16050    3.14710    3.14710 2525.70000   19.53040  -31.44170  -55.71770   19.53040 1233962.31120 1128745.92670
 1950.00000  256.80210  241.40950  261.51440  261.51440   65.78430  -11.32110 2661.30000    -999.25   -0.00320    0.02850   15.20120  -11.32110  238.80780  238.80780   74.37390   76.94390   76.94390   15.20120   15.89410   15.89410    -999.25    0.25210    0.19940    3.67190    3.67190 2661.30000   19.39020   22.42020   -4.47400   19.39020 1246798.17810 1146562.55130
 2000.00000  264.44690  257.31940  262.50340  262.50340   31.33560  -13.10780 2607.80000    -999.25    0.01720    0.05980   31.91260  -13.10780  214.14860  214.14860   67.62620   82.63330   82.63330   31.91260   31.22630   31.22630    -999.25    0.15990    0.11260    3.20740    3.20740 2607.80000   72.63150  -21.66340  -48.17260   72.63150 1318206.83130 1161927.12200
 2050.00000  271.26220  261.80980  272.76370  272.76370   31.53670  -17.90750 2693.60000    -999.25   -0.02420    0.00960   31.70910  -17.90750  215.53120  215.53120   82.66430   78.59300   78.59300   31.70910   31.61270   31.61270    -999.25    0.18270    0.13320    3.62170    3.62170 2693.60000   34.91590  -25.46570  -51.51610   34.91590 1319925.69460 1196470.75600
 2100.00000  226.93460  250.64990  231.16620  231.16620  123.90960   33.33870 2452.80000    -999.25    0.13690    0.15040    8.07040   33.33870  228.90520  228.90520   26.08000   22.63150   22.63150    8.07040   11.95440   11.95440    -999.25    0.13380    0.09010    2.15060    2.15060 2452.80000   25.26230 -131.76400 -157.35570   25.26230 1273759.55340 1159836.83630
 2150.00000  235.54930  266.62840  252.42850  252.42850   50.10700   -8.02600 2582.60000    0.07510    -999.25    0.07450   19.95730   -8.02600  211.79580  211.79580   75.02110   77.65450   77.65450   19.95730   19.85160   19.85160    0.09300    -999.25    0.09300    2.99700    2.99700 2582.60000   23.58640  -25.10770  -50.24060   23.58640 1325574.12880 1236407.18050
 2200.00000  222.64770  242.60570  252.61220  252.61220   37.63590  -16.54930 2662.90000    0.03120    -999.25    0.02750   26.57040  -16.54930  200.57890  200.57890   92.65650   92.61350   92.61350   26.57040   26.97950   26.97950    0.08140    -999.25    0.08140    2.94050    2.94050 2662.90000   31.89350   -2.81420  -27.48830   31.89350 1392526.03710 1246185.66980
 2250.00000  216.35500  214.57180  207.48640  207.48640  475.26260   -0.06300 2434.60000    0.14870    -999.25    0.16110    2.10410   -0.06300  219.16480  219.16480   24.64550   23.66580   23.66580    2.10410    3.66420    3.66420    0.18550    -999.25    0.18550    2.55710    2.55710 2434.60000   15.57430 -106.90440 -131.11970   15.57430 1383211.75830 1332620.44830
 2300.00000  393.37070  309.71140  251.53900  251.53900   22.14080   26.31990 1953.30000    0.19230    -999.25    0.44250   45.16540   26.31990  173.10510  173.10510   21.56800   20.99770   20.99770   45.16540   82.29590   82.29590    0.04410    -999.25    0.04410    2.54470    2.54470 1953.30000  147.82140  -71.21350  -94.97000  147.82140 1396112.60930 1386744.21310
 2350.00000  240.98580  262.44430  247.31770  247.31770   10.41930   12.96890 2669.90000    0.02730    -999.25    0.02350   95.97600   12.96890  189.18230  189.18230   46.44410   44.30660   44.30660   95.97600  100.40120  100.40120    0.01240    -999.25    0.01240    5.34020    5.34020 2669.90000  161.02080   14.93970   -8.35800  161.02080 1409674.90430 1409679.28680
 2400.00000  242.63200  248.06250  240.04850  240.04850   42.14540   32.91960 2660.90000    0.04430    -999.25    0.02870   23.72740   32.91960  180.58650  180.58650   48.83970   47.97550   47.97550   23.72740   24.74820   24.74820    0.09520    -999.25    0.09520    3.91060    3.91060 2660.90000   30.02170  -29.80320  -52.64210   30.02170 1437815.87190 1429156.10410
 2450.00000  222.10780  263.89920  244.58200  244.58200   12.13300   20.90820 2641.70000    0.04070    -999.25    0.03990   82.41960   20.90820  168.95910  168.95910   12.01410   14.49560   14.49560   82.41960   99.90420   99.90420    0.01600    -999.25    0.01600    4.55570    4.55570 2641.70000  193.31840  -74.42330  -96.80340  193.31840 1527183.30460 1414117.35190
 2500.00000  234.61830  236.28790  235.17930  235.17930   61.65190  -10.68760 2717.70000   -0.00530    -999.25   -0.00450   16.22010  -10.68760  179.61200  179.61200   42.90990   41.60330   41.60330   16.22010   19.45480   19.45480    0.03590    -999.25    0.03590    3.98750    3.98750 2717.70000   38.21750  -20.68260  -42.60400   38.21750 1551781.91180 1453721.29420
