~Version ---------------------------------------------------
VERS.      2.0 : CWLS log ASCII Standard -VERSION 2.0
WRAP.       NO : One line per depth step
CREA. 09/08/14 : LAS Creation Date
~Well ------------------------------------------------------
STRT.FT                         1550.0 : START DEPTH
STOP.FT                        12000.0 : STOP DEPTH
STEP.FT                       50.00000 : STEP LENGTH
NULL.                          -999.25 : NULL VALUE
COMP. AMOCO CANADA PETROLEUM CO., LTD. : COMPANY
WELL.  AMOCO C-2 WASKAHIGAN 7-22-63-24 : WELL
FLD .                       WASKAHIGAN : FIELD
LOC .                                  : LOCATION
CTRY.                           CANADA : COUNTRY
SRVC.                          Unknown : SERVICE COMPANY
DATE.                      14-Dec-1976 : LOGDATE
PROV.                          Alberta : PROVINCE
UWI .                 100072206324W500 : UNIQUE WELL ID
SLAT.WGS84                    54.46349 : SURFACE LATITUDE
SLON.WGS84                   -117.5411 : SURFACE LONGITUDE
~Curve Information -----------------------------------------
DEPT   .FT    : DEPTH FEET
CALD   .IN    : CALIPER FROM DENSITY LOG
CALS   .IN    : CALIPER FROM SONIC LOG
DCOR   .G/C3  : DENSITY CORRECTION FROM DENSITY LOG
DPHI_LS.V/V   : DENSITY POROSITY LIMESTONE [M=2.71 F=1.0 ASSUMED] FROM DENSITY LOG
DPHI_SS.V/V   : DENSITY POROSITY SANDSTONE [M=2.65 F=1.0 ASSUMED] FROM DENSITY LOG
DT     .US/F  : DELTA TIME FROM SONIC LOG
GRD    .GAPI  : GAMMA RAY FROM DENSITY LOG
GRS    .GAPI  : GAMMA RAY FROM SONIC LOG
GRS_R  .GAPI  : GAMMA RAY (REPEAT SECTION) FROM SONIC LOG
ILD    .OHMM  : DEEP INDUCTION LOG RESISTIVITY FROM RESISTIVITY LOG
ILM    .OHMM  : MEDIUM INDUCTION LOG RESISTIVITY FROM RESISTIVITY LOG
LL8    .OHMM  : 8 INCH LATEROLOG RESISTIVITY FROM RESISTIVITY LOG
NPHI_LS.V/V   : NEUTRON POROSITY LIMESTONE FROM DENSITY LOG
NPHI_SS.V/V   : NEUTRON POROSITY SANDSTONE FROM DENSITY LOG
RHOB   .G/C3  : BULK DENSITY FROM DENSITY LOG
SPR    .MV    : SPONTANEOUS POTENTIAL FROM RESISTIVITY LOG
~Params ----------------------------------------------------
PD  .                     GL : PERMANENT DATUM
EPD .FT               2789.5 : ELEVATION PERMANENT DATUM
LMF .                     KB : LOG MEASURED FROM
DAPD.FT                 20.5 : FEET ABOVE PERMANENT DATUM
EKB .FT               2810.0 : KELLY BUSHING
EGL .FT               2789.5 : GROUND LEVEL
DATE.               12/14/76 : RUN DATE
RUN .                      1 : RUN NUMBER
DD  .FT                12005 : DEPTH DRILLER
DL  .FT                12008 : DEPTH LOGGER
BLI .FT                12002 : BOTTOM LOG INTERVAL
TLI .FT                 1519 : TOP LOG INTERVAL
CBD .FT                 1519 : CASING BOTTOM DRILLER
CBL .FT                 1519 : CASING BOTTOM LOGGER
BS  .IN                  8.5 : BIT SIZE
BSD .FT                12005 : BIT SIZE AT DEPTH
DFT .                    GEL : DRILLING FLUID TYPE
DFD .                    9.0 : DRILLING FLUID DENSITY
DFV .                     75 : DRILLING FLUID VISCOSITY
DFPH.                    9.5 : DRILLING FLUID PH
DFL .                   12.2 : DRILLING FLUID LOSS
MSS .               FLOWLINE : MUD SAMPLE SOURCE
RMS .OHMM               2.89 : RESISTIVITY MUD SAMPLE
MST .DEGF                 44 : MUD SAMPLE TEMPERATURE
RMF .OHMM               2.32 : RESISTIVITY MUD FILTRATE SAMPLE
MFST.DEGF                 62 : MUD FILTRATE SAMPLE TEMPERATURE
TCS .HRS                   4 : TIME CIRCULATED STOPPED
LUN .                   7635 : LOGGING UNIT NUMBER
LUL .                    EDM : LOGGING UNIT LOCATION
ENGI.                 PAQUIN : RECORDING ENGINEER
WITN.       MACDONALD FARLEY : WITNESSED BY
CLNT.                A2DTECH : CLIENT CODE
ORIG.            2" 5" PRINT : ORIGIN OF DATA
UWI .       100072206324W500 : UNIQUE WELL ID
DICO. A2D Technologies, Inc. : DIGITIZING COMPANY
~Other -----------------------------------------------------
~ASCII -----------------------------------------------------
# ...
 5850.00000    9.58360    9.88510    0.16520    -999.25    0.28190  101.28350  134.32570  138.57250    -999.25    3.31000    3.16000    3.77770    -999.25    0.55290    2.22980  -34.07050
 5900.00000    9.29640    9.97680    0.24810    -999.25    0.27150   90.78790  133.41050  139.69350    -999.25    5.93690    5.72810    6.47840    -999.25    0.49650    2.19830  -34.36560
 5950.00000    9.37470   10.12360    0.20800    -999.25    0.23590   95.82130  143.03800  152.62470    -999.25    4.27660    4.13340    5.18550    -999.25    0.51930    2.25170  -34.54570
 6000.00000    8.94280    9.10180    0.23780    -999.25    0.07570   71.56540  110.23270  112.07690    -999.25   19.47960   18.76250   24.69680    -999.25    0.23290    2.48020  -33.68190
 6050.00000    8.67140    8.90690    0.23370    -999.25    0.08680   70.12730  123.94080  132.37140    -999.25   17.64250   17.20160   20.74200    -999.25    0.24300    2.52270  -33.89300
 6100.00000   10.12790    9.40810    0.21430    -999.25    0.30210   75.02700  109.75140  113.02250    -999.25   17.25860   18.35970   23.27750    -999.25    0.34250    2.18100  -31.71010
 6150.00000   10.67740    9.17430    0.23280    -999.25    0.16470   75.08480  112.32180  116.43170    -999.25    8.39050    8.26240    8.74980    -999.25    0.43710    2.39060  -33.74720
 6200.00000    9.50320    9.10970    0.07160    -999.25    0.05250   68.58480  115.40840  113.88370    -999.25   21.08250   21.80050   27.23480    -999.25    0.30340    2.55350  -33.49570
 6250.00000    9.23030    9.23590   -0.00200    -999.25    0.02330   71.47190   79.32030   77.28380    -999.25   10.01810   10.93070   11.08180    -999.25    0.22440    2.61860  -33.94160
 6300.00000    9.11580    8.74510    0.01010    -999.25   -0.00600   65.64160   65.17220   64.61810    -999.25   13.59500   16.51000   23.14020    -999.25    0.17650    2.65130  -38.51590
 6350.00000   10.95000    9.75680    0.08080    -999.25    0.29900   84.31140  105.83700  122.53830    -999.25   10.54230   11.28570   14.15060    -999.25    0.54540    1.96400  -34.18710
 6400.00000    8.51580    8.57810    0.00720    -999.25    0.03850   70.66400   94.02220  100.60470    -999.25   17.72190   19.43470   21.26140    -999.25    0.30840    2.60000  -36.03280
 6450.00000    9.93790   10.60790    0.19000    -999.25    0.37270   93.88850   73.27970   88.05030    -999.25   16.99110   20.05570   23.25170    -999.25    0.55000    2.28280  -36.77640
 6500.00000    8.92180    8.97140   -0.00220    -999.25    0.02250   70.80390  103.83550  110.06310    -999.25   17.89240   18.46000   21.07860    -999.25    0.29440    2.62390  -36.45940
 6550.00000    9.16430    8.81030    0.04490    -999.25    0.34170  121.40470   98.07380   96.52090    -999.25   27.25380   28.02510  108.88430    -999.25    0.51600    2.04990  -36.63250
 6600.00000    8.53840    8.88550    0.00900    -999.25    0.06890   71.43460  104.34160  108.63020    -999.25   15.36720   16.04030   19.74790    -999.25    0.36020    2.55090  -49.40610
 6650.00000    8.52150    8.83110    0.00200    -999.25    0.07870   74.07160   72.10940   78.66620    -999.25   10.64540   11.13810   16.50130    -999.25    0.30910    2.50680  -49.25830
 6700.00000    9.19370    8.93600    0.24130    -999.25    0.02980   63.21250   40.45610   44.02680    -999.25   29.09880   37.42680   68.47900    -999.25    0.18470    2.58250  -65.97640
 6750.00000    8.39600    9.03390    0.04610    -999.25    0.56700  109.69610   61.55320   47.20910    -999.25   34.12680   21.18290  378.22480    -999.25    0.73260    1.89960  -45.18010
 6800.00000    8.63660    8.95830    0.01520    -999.25    0.06650   73.08160   73.38770   75.71200    -999.25   10.92880   11.56440   11.50140    -999.25    0.31680    2.55270  -46.40540
 6850.00000    8.59150    8.79580   -0.01880    -999.25    0.03010   73.84490  108.01710  121.65940    -999.25   16.11210   16.84830   18.84500    -999.25    0.34340    2.58680  -30.82670
 6900.00000    9.51840    8.94830    0.22650    -999.25    0.04710   69.76780  111.54360  110.89830    -999.25   11.17860   13.27680   18.25840    -999.25    0.35230    2.50350  -28.81580
 6950.00000    8.48780    9.37590    0.04390    -999.25    0.05790   79.14620  126.63950  134.19880    -999.25   12.24100   12.52530   14.33760    -999.25    0.39770    2.54310  -42.60080
 7000.00000    8.59180    8.74300    0.00300    -999.25    0.04520   68.29070   74.72480   80.55110    -999.25   31.19890   32.36220   33.63260    -999.25    0.22720    2.55430  -49.01090
 7050.00000    8.62100    8.93070    0.02630    -999.25    0.03810   67.74760  140.88380  143.04680    -999.25   23.20150   24.66260   50.39690    -999.25    0.32890    2.56160  -32.15800
 7100.00000    8.84780    9.06560    0.03640    -999.25    0.13390   74.31530  157.76240  161.31750    -999.25   25.35910   26.21650   35.03850    -999.25    0.47970    2.33260  -39.90600
 7150.00000    8.96950    9.06870    0.03810    -999.25    0.01270   64.78000  124.98130  124.72170    -999.25   29.02710   30.82990   37.08380    -999.25    0.24600    2.61250  -33.76420
 7200.00000    8.92880    9.08850    0.01170    -999.25    0.07880   72.77890  117.21270  125.84820    -999.25   18.17250   18.80600   20.33810    -999.25    0.27080    2.56440  -17.87490
 7250.00000    9.32420    9.32060    0.14380    -999.25    0.17500   75.19620  104.17840  117.79110    -999.25   14.89940   15.39840   21.68290    -999.25    0.27120    2.34520  -32.17090
 7300.00000    9.28050    8.92150    0.13140    -999.25    0.12950   73.25380   99.21320   83.88840    -999.25   15.12170   16.80040   31.28630    -999.25    0.21720    2.38940  -73.59720
 7350.00000   11.49230    9.53780    0.19140    -999.25    0.34450   81.20670  151.73950  137.60980    -999.25    4.06400    4.26310    5.65620    -999.25    0.56750    2.07160  -28.16290
 7400.00000    8.43610    8.33450    0.05590    -999.25    0.12280   65.13350   63.81220   57.06810    -999.25   14.71220   21.38160   62.07750    -999.25    0.18230    2.49120  -81.08590
 7450.00000   12.91570   11.41240    0.18030    -999.25    0.26720   92.87350  122.20130  127.45560    -999.25    3.93490    4.09430    5.09310    -999.25    0.53540    2.21930  -23.85540
 7500.00000    8.63890    9.03590   -0.00510    0.13660    -999.25   76.98190  216.33040  243.26680    -999.25  182.40910  272.83420  389.51050    0.33840    -999.25    2.48140  -12.83380
 7550.00000    8.63300    8.77050    0.00630    0.18500    -999.25   77.44960    -999.25    -999.25    -999.25 1320.29660 1341.21570 1520.18510    0.32930    -999.25    2.40530  -25.25950
 7600.00000    8.66380    8.70850    0.00570    0.07450    -999.25   62.73960  109.10140  111.98880    -999.25   50.91120   55.79760   64.14540    0.16760    -999.25    2.59850  -51.30660
 7650.00000    8.69510    8.80130   -0.00920    0.03420    -999.25   59.86050   95.86710   96.55430    -999.25   39.45050   41.31550   47.58740    0.14280    -999.25    2.62750  -14.21010
 7700.00000    8.59340    8.72110   -0.01230    0.06700    -999.25   61.32360  105.87910  116.82040    -999.25   33.50790   34.59420   39.79160    0.12710    -999.25    2.62630  -51.07960
 7750.00000    8.55570    8.61640   -0.00670    0.03010    -999.25   59.44250  107.59800  108.93820    -999.25   62.32040   67.24950   80.74960    0.11390    -999.25    2.65820  -28.73040
 7800.00000    8.71540    9.04650   -0.00540    0.05440    -999.25   61.07420  119.93140  127.02880    -999.25   29.80950   34.97400   35.87780    0.19340    -999.25    2.61330  -20.88510
 7850.00000    8.74450    8.87530   -0.00400    0.03600    -999.25   58.62420  116.31180  122.07060    -999.25   78.14730   81.63230   98.15230    0.12560    -999.25    2.66660  -18.08760
 7900.00000    8.74260    8.82050   -0.01010    0.02290    -999.25   58.85520  127.92950  129.08540    -999.25   60.86240   64.81300   82.02790    0.12590    -999.25    2.66500  -15.95830
 7950.00000    8.67860    8.98950   -0.02460    0.04140    -999.25   61.15870  137.05290  154.89740    -999.25   62.40200   66.69830   89.33050    0.18960    -999.25    2.61870   -7.05440
