~Version ---------------------------------------------------
VERS.      2.0 : CWLS log ASCII Standard -VERSION 2.0
WRAP.       NO : ONE LINE PER DEPTH STEP
CREA. 09/17/14 : LAS CREATION DATE
~Well ------------------------------------------------------
STRT.M                   450.0 : START DEPTH
STOP.M                  4200.0 : STOP DEPTH
STEP.M                50.00000 : STEP LENGTH
NULL.                  -999.25 : NULL VALUE
COMP.     CHEVRON STANDARD LTD : COMPANY
WELL. CHEVRON WEALD 3-22-52-19 : WELL
FLD .                          : FIELD
LOC .                          : LOCATION
CTRY.                   CANADA : COUNTRY
SRVC.   Schlumberger of Canada : SERVICE COMPANY
DATE.              29-Nov-1978 : LOGDATE
PROV.                  Alberta : PROVINCE
UWI .         100032205219W500 : UNIQUE WELL ID
SLAT.WGS84            53.50026 : SURFACE LATITUDE
SLON.WGS84           -116.7206 : SURFACE LONGITUDE
~Curve Information -----------------------------------------
DEPT    .M      : DEPTH METERS
CALDED  .MM     : CALIPER FROM DENSITY LOG [ADJ. TO RESISTIVITY LOG]
CALSED  .MM     : CALIPER FROM SONIC LOG [ADJ. TO RESISTIVITY LOG]
CALWS   .MM     : CALIPER [CALDED]
CONDWS  .MMHO   : CONDUCTIVITY [1000/DRESWS]
DCORWS  .KG/M3  : DENSITY CORRECTION [DRHOED]
DENWS   .KG/M3  : BULK DENSITY [M=2710 F=1000] [RHOBED]
DPHILSED.V/V    : DENSITY POROSITY [M=2710 F=1000] FROM DENSITY LOG [ADJ. TO RESISTIVITY LOG]
DPHISSED.V/V    : DENSITY POROSITY [M=2650 F=1000] FROM DENSITY LOG [ADJ. TO RESISTIVITY LOG]
DPOLSWS .V/V    : DENSITY POROSITY [M=2710 F=1000] [CAL. FROM DENWS]
DRESWS  .OHMM   : DEEP RESISTIVITY [ILDED]
DRHOED  .KG/M3  : DENSITY CORRECTION FROM DENSITY LOG [ADJ. TO RESISTIVITY LOG]
DTED    .US/M   : DELTA TIME FROM SONIC LOG
DTWS    .US/M   : DELTA TIME [DTED]
GRDED   .GAPI   : GAMMA RAY FROM DENSITY LOG [ADJ. TO RESISTIVITY LOG]
GRNED   .GAPI   : GAMMA RAY FROM NEUTRON LOG [CASEDHOLE] [ADJ. TO RESISTIVITY LOG]
GRRED   .GAPI   : GAMMA RAY FROM RESISTIVITY LOG
GRSED   .GAPI   : GAMMA RAY FROM SONIC LOG
GRWS    .GAPI   : GAMMA RAY [448 GRSED 463 GRDED3343 GRSED 4210 GRDED]
ILDED   .OHMM   : INDUCTION LOG DEEP RESISTIVITY
ILMED   .OHMM   : INDUCTION LOG MEDIUM RESISTIVITY
MRESWS  .OHMM   : MEDIUM RESISTIVITY [ILMED]
NEUTED  .NAPI   : NEUTRON FROM NEUTRON LOG [CASEDHOLE][ADJ. TO RESISTIVITY LOG]
NEUTWS  .NAPI   : NEUTRON [NEUTED]
NPHILSED.V/V    : NEUTRON POROSITY LIMESTONE FROM DENSITY LOG [ADJ. TO RESISTIVITY LOG]
NPHISSED.V/V    : NEUTRON POROSITY SANDSTONE FROM DENSITY LOG [ADJ. TO RESISTIVITY LOG]
NPOLSWS .V/V    : NEUTRON POROSITY LIMESTONE [NPHISSED CONVERTED FOR LIMESTONE SPL. TO NPHILSED@ 2997.8 M ]
RHOBED  .KG/M3  : BULK DENSITY FROM DENSITY LOG [ADJ. TO RESISTIVITY LOG]
SFLED   .OHMM   : SPHERICALLY FOCUSED LOG RESISTIVITY
SPRED   .MV     : SPONTANEOUS POTENTIAL FROM RESISTIVITY LOG [SPR IS DIVIDED BY 3 TO REDUCE READINGS]
SPWS    .MV     : SPONTANEOUS POTENTIAL [BASELINE 0 MV] [SPRED]
SRESWS  .OHMM   : SHALLOW RESISTIVITY [SFLED]
TENDED  .N      : TENSION FROM DENSITY LOG [ADJ. TO RESISTIVITY LOG]
TENSED  .N      : TENSION FROM SONIC LOG [ADJ. TO RESISTIVITY LOG]
~Params ----------------------------------------------------
PD  .                           GL : PERMANENT DATUM
EPD .FT                      981.3 : ELEVATION PERMANENT DATUM
LMF .                           KB : LOG MEASURED FROM
DAPD.FT                        7.5 : FEET ABOVE PERMANENT DATUM
DMF .                           KB : DRILLING MEASURED FROM
EKB .FT                      988.8 : KELLY BUSHING
EGL .FT                      981.3 : GROUND LEVEL
DATE.                     11/29/78 : RUN DATE
RUN .                            2 : RUN NUMBER
DD  .FT                       4238 : DEPTH DRILLER
DL  .FT                     4235.5 : DEPTH LOGGER
BLI .FT                     4231.7 : BOTTOM LOG INTERVAL
TLI .FT                       3354 : TOP LOG INTERVAL
DFT .                          GEL : DRILLING FLUID TYPE
DFD .                         1065 : DRILLING FLUID DENSITY
DFV .                           82 : DRILLING FLUID VISCOSITY
DFPH.                         10.5 : DRILLING FLUID PH
DFL .                          8.6 : DRILLING FLUID LOSS
MSS .                         CIRC : MUD SAMPLE SOURCE
TLAB.HRS                       500 : TIME LOGGER AT BOTTOM
LUN .                         7802 : LOGGING UNIT NUMBER
LUL .                          EDM : LOGGING UNIT LOCATION
ENGI.                      ROVELLI : RECORDING ENGINEER
WITN.              SPRAGUE BARROWS : WITNESSED BY
CLNT.                      A2DTECH : CLIENT CODE
ORIG. 6.5IN/100M 16.5IN/100M PRINT : ORIGIN OF DATA
UWI .             100032205219W500 : UNIQUE WELL ID
DICO.       A2D Technologies, Inc. : DIGITIZING COMPANY
~Other -----------------------------------------------------
~ASCII -----------------------------------------------------
# ...
 1550.00000  313.21470  251.33990  313.21470   86.72430  189.97340 2456.13280    -999.25    0.11950    0.14850   11.53080  189.97340  283.34940  283.34940   94.84270    -999.25   84.64460   81.87220   94.84270   11.53080   11.97430   11.97430    -999.25    -999.25    -999.25    0.40450    0.36170 2456.13280    -999.25    -999.25    -999.25    -999.25 1247.66940 2759.95730
 1600.00000  285.24600  250.14950  285.24600   81.59800  173.18100 2416.18090    -999.25    0.14730    0.17180   12.25520  173.18100  248.78880  248.78880   81.53720    -999.25   74.82260   79.05970   81.53720   12.25520   13.23800   13.23800    -999.25    -999.25    -999.25    0.37100    0.32760 2416.18090    -999.25    -999.25    -999.25    -999.25 2442.88310 3397.91060
 1650.00000  250.02480  249.63070  250.02480   80.46860   -0.90210 2548.35400    -999.25    0.06050    0.09450   12.42720   -0.90210  260.42240  260.42240   92.17440    -999.25   84.02980   86.92230   92.17440   12.42720   14.89690   14.89690    -999.25    -999.25    -999.25    0.31860    0.27470 2548.35400    -999.25    -999.25    -999.25    -999.25  925.79380 3357.18260
 1700.00000  292.86540  248.25750  292.86540   55.50010  186.67930 2525.41850    -999.25    0.08520    0.10790   18.01800  186.67930  241.15900  241.15900   82.59370    -999.25   84.02660   84.29830   82.59370   18.01800   20.17570   20.17570    -999.25    -999.25    -999.25    0.29430    0.25030 2525.41850    -999.25    -999.25    -999.25    -999.25 2320.04610  630.95680
 1750.00000  287.93980  252.76360  287.93980   19.30600  246.74920 2467.76290    -999.25    0.11430    0.14170   51.79740  246.74920  215.42460  215.42460   39.67990    -999.25   39.23800   42.81290   39.67990   51.79740   67.73100   67.73100    -999.25    -999.25    -999.25    0.18650    0.14330 2467.76290    -999.25    -999.25    -999.25    -999.25 3511.47050 1971.85780
 1800.00000  248.79300  254.53090  248.79300   78.66030   -3.83930 2595.91190    -999.25    0.03270    0.06670   12.71290   -3.83930  251.25380  251.25380   84.59840    -999.25   79.44400   81.59590   84.59840   12.71290   13.57820   13.57820    -999.25    -999.25    -999.25    0.35990    0.31640 2595.91190    -999.25    -999.25    -999.25    -999.25    -999.25 2170.46170
 1850.00000  263.32970  264.17700  263.32970   62.26300  -10.01670 2647.76980    -999.25    0.00180    0.03640   16.06090  -10.01670  237.50050  237.50050  114.56880    -999.25  110.12490  106.10850  114.56880   16.06090   17.79160   17.79160    -999.25    -999.25    -999.25    0.27280    0.22880 2647.76980    -999.25    -999.25    -999.25    -999.25  955.53700 2986.39550
 1900.00000  257.45820  260.25940  257.45820   93.05790   -4.97720 2638.66920    -999.25    0.01430    0.04170   10.74600   -4.97720  255.86870  255.86870  131.06740    -999.25  122.81600  120.21140  131.06740   10.74600   11.19750   11.19750    -999.25    -999.25    -999.25    0.32400    0.28010 2638.66920    -999.25    -999.25    -999.25    -999.25 1650.64100  143.01520
 1950.00000  254.24000  257.64210  254.24000  106.06700   -3.09460 2620.75100    -999.25    0.02250    0.05220    9.42800   -3.09460  273.96910  273.96910  141.14050    -999.25  150.03380  124.48730  141.14050    9.42800   10.06230   10.06230    -999.25    -999.25    -999.25    0.34800    0.30430 2620.75100    -999.25    -999.25    -999.25    -999.25 2391.31590  898.19850
 2000.00000  280.56650  255.27940  280.56650  108.29780   13.28520 2651.65920    -999.25   -0.00500    0.03410    9.23380   13.28520  267.25300  267.25300  142.98250    -999.25  125.57240  134.15120  142.98250    9.23380   10.19780   10.19780    -999.25    -999.25    -999.25    0.32190    0.27800 2651.65920    -999.25    -999.25    -999.25    -999.25 3226.82540 1821.16990
 2050.00000  261.14180  245.82960  261.14180  131.30250  -13.43790 2630.07230    -999.25    0.01010    0.04670    7.61600  -13.43790  265.86510  265.86510  133.16170    -999.25  151.12900  122.92390  133.16170    7.61600    8.37410    8.37410    -999.25    -999.25    -999.25    0.31820    0.27430 2630.07230    -999.25    -999.25    -999.25    -999.25  308.75490 2475.99880
 2100.00000  250.91110  243.08930  250.91110  107.68550    0.26850 2617.06590    -999.25    0.01890    0.05430    9.28630    0.26850  244.77640  244.77640  122.62940    -999.25  118.48910  113.41820  122.62940    9.28630   10.36650   10.36650    -999.25    -999.25    -999.25    0.25050    0.20660 2617.06590    -999.25    -999.25    -999.25    -999.25 1983.01280 3045.35450
 2150.00000  260.57100  250.94500  260.57100  139.96580  -13.00080 2619.84300    -999.25    0.01450    0.05270    7.14460  -13.00080  268.42340  268.42340  134.61180    -999.25  125.44560  125.11070  134.61180    7.14460    7.91050    7.91050    -999.25    -999.25    -999.25    0.30380    0.25980 2619.84300    -999.25    -999.25    -999.25    -999.25 1011.78410    -999.25
 2200.00000  252.37370  249.46210  252.37370  103.11300   14.50990 2630.83370    -999.25    0.00610    0.04630    9.69810   14.50990  249.01200  249.01200  119.07480   63.07980  119.17270  116.08900  119.07480    9.69810   10.55870   10.55870  226.23800  226.23800    -999.25    0.26920    0.22520 2630.83370    -999.25    -999.25    -999.25    -999.25 3053.18330  980.47880
 2250.00000  260.11650  246.65030  260.11650   91.22670   -7.83410 2596.63040    -999.25    0.02370    0.06630   10.96170   -7.83410  244.20880  244.20880  131.44920   87.64670  131.85660  125.00380  131.44920   10.96170   12.11470   12.11470  208.31630  208.31630    -999.25    0.23500    0.19120 2596.63040    -999.25    -999.25    -999.25    -999.25 3933.59200 1675.25730
 2300.00000  246.51260  253.48500  246.51260   98.99130   -5.72850 2630.29150    -999.25    0.00670    0.04660   10.10190   -5.72850  254.43700  254.43700  126.73620   72.10300  117.71320  116.87520  126.73620   10.10190   11.34310   11.34310  205.94900  205.94900    -999.25    0.28180    0.23780 2630.29150    -999.25    -999.25    -999.25    -999.25 1508.00130 2164.81690
 2350.00000  248.83730  253.57560  248.83730   87.65010   -3.70040 2601.78420    -999.25    0.03140    0.06330   11.40900   -3.70040  277.47630  277.47630  139.89730   89.17650  132.21890  135.91310  139.89730   11.40900   12.90350   12.90350  195.81310  195.81310    -999.25    0.33170    0.28790 2601.78420    -999.25    -999.25    -999.25    -999.25 1944.61780    -999.25
 2400.00000  248.11630  251.40640  248.11630   89.77950    9.58150 2631.88430    -999.25    0.00810    0.04570   11.13840    9.58150  284.29760  284.29760  137.99950   77.97160  132.40350  139.53960  137.99950   11.13840   12.78470   12.78470  175.76640  175.76640    -999.25    0.37120    0.32780 2631.88430    -999.25    -999.25    -999.25    -999.25 3455.76200  623.23470
 2450.00000  247.76670  255.07510  247.76670   86.73100  -13.69410 2621.25270    -999.25    0.01350    0.05190   11.52990  -13.69410  269.63540  269.63540  134.00150   73.38570  120.64530  117.52350  134.00150   11.52990   13.48140   13.48140  205.28780  205.28780    -999.25    0.34910    0.30550 2621.25270    -999.25    -999.25    -999.25    -999.25  538.97000 1397.93370
 2500.00000  242.11900  248.69180  242.11900  139.54590    8.31410 2659.13570    -999.25   -0.00170    0.02970    7.16610    8.31410  258.94200  258.94200  131.30620   73.46820  119.41610  118.85680  131.30620    7.16610    7.91450    7.91450  189.99910  189.99910    -999.25    0.32770    0.28390 2659.13570    -999.25    -999.25    -999.25    -999.25 1446.21530 2054.33060
 2550.00000  238.96120  244.62870  238.96120  129.91060  -17.02180 2625.32860    -999.25    0.01020    0.04950    7.69760  -17.02180  249.29980  249.29980  131.70730   77.85290  126.71210  118.81450  131.70730    7.69760    9.25070    9.25070  204.11860  204.11860    -999.25    0.28950    0.24550 2625.32860    -999.25    -999.25    -999.25    -999.25 2554.39920  844.30190
 2600.00000  231.42160  237.79080  231.42160  185.63550    2.91180 2591.40210    -999.25    0.03010    0.06940    5.38690    2.91180  283.36410  283.36410  139.22900   75.71670  128.16830  130.31200  139.22900    5.38690    5.97030    5.97030  199.32360  199.32360    -999.25    0.34920    0.30560 2591.40210    -999.25    -999.25    -999.25    -999.25    -999.25 1699.73330
