~Version ---------------------------------------------------
VERS. 2.0 : CWLS log ASCII Standard -VERSION 2.0
WRAP.  NO : ONE LINE PER DEPTH STEP
~Well ------------------------------------------------------
STRT.F                              1100.0 : START DEPTH
STOP.F                             11550.0 : STOP DEPTH
STEP.F                            50.00000 : STEP LENGTH
NULL.                              -999.25 : NULL VALUE
COMP.              MURPHY OIL COMPANY LTD. : COMPANY
WELL. MURPHY ASHLAND WOLF CREEK 11-5-53-15 : WELL
FLD .                                      : FIELD
LOC .                                      : LOCATION
CTRY.                               CANADA : COUNTRY
SRVC.               Schlumberger of Canada : SERVICE COMPANY
DATE.                          08-Dec-1976 : LOGDATE
PROV.                              Alberta : PROVINCE
UWI .                     100110505315W500 : UNIQUE WELL ID
SLAT.WGS84                        53.55101 : SURFACE LATITUDE
SLON.WGS84                        -116.179 : SURFACE LONGITUDE
~Curve Information -----------------------------------------
DEPT   .F    0   1   0  0 : 1 MEASURED DEPTH
SPR    .MV   07 010 01 00 : SPONTANEOUS POTENTIAL FROM RESISTIVITY LOG
ILD    .OHMM 07 120 46 00 : INDUCTION DEEP RESISTIVITY
ILM    .OHMM 07 120 44 00 : INDUCTION MEDIUM RESISTIVITY
LL8    .OHMM 07 220 08 00 : LATEROLOG 8
CILD   .MMHO 07 110 46 00 : INDUCTION DEEP CONDUCTIVITY
DPHI_SS.DEC  45 890 12 00 : DENSITY POROSITY SANDSTONE
NPHI_SS.DEC  42 890 03 00 : NEUTRON POROSITY SANDSTONE
GRD    .GAPI 45 310 01 00 : GAMMA RAY FROM DENSITY LOG
CALD   .IN   45 280 60 00 : CALIPER FROM DENSITY LOG
DPHI_LS.DEC  45 890 10 00 : DENSITY POROSITY LIMESTONE
NPHI_LS.DEC  42 890 01 00 : NEUTRON POROSITY LIMESTONE
DRHO   .G/C3 45 356 01 00 : BULK DENSITY CORRECTION
RHOB   .G/C3 45 350 01 00 : BULK DENSITY
DT     .US/F 60 500 00 00 : DELTA-T (INTERVAL TRANSIT TIME)
CALS   .IN   60 280 50 00 : CALIPER FROM SONIC LOG
GRS    .GAPI 60 310 01 00 : GAMMA RAY FROM SONIC LOG
~Params ----------------------------------------------------
PD  .                     GL : PERMANENT DATUM
EPD .FT               2966.3 : ELEVATION PERMANENT DATUM
LMF .                     KB : LOG MEASURED FROM
DAPD.FT                 15.4 : FEET ABOVE PERMANENT DATUM
EKB .FT               2981.7 : KELLY BUSHING
EGL .FT               2966.3 : GROUND LEVEL
DATE.               12/08/76 : RUN DATE
RUN .                      1 : RUN NUMBER
DD  .FT                11560 : DEPTH DRILLER
DL  .FT                11554 : DEPTH LOGGER
BLI .FT                11548 : BOTTOM LOG INTERVAL
TLI .FT                 1160 : TOP LOG INTERVAL
CBD .FT                 1160 : CASING BOTTOM DRILLER
CBL .FT                 1160 : CASING BOTTOM LOGGER
BS  .IN                 8.75 : BIT SIZE
BSD .FT                11560 : BIT SIZE AT DEPTH
DFT .               GEL CHEM : DRILLING FLUID TYPE
DFD .                    9.1 : DRILLING FLUID DENSITY
DFV .                    290 : DRILLING FLUID VISCOSITY
DFPH.                     11 : DRILLING FLUID PH
DFL .                    5.8 : DRILLING FLUID LOSS
MSS .               FLOWLINE : MUD SAMPLE SOURCE
RMS .OHMM               1.67 : RESISTIVITY MUD SAMPLE
MST .DEGF                 37 : MUD SAMPLE TEMPERATURE
RMF .OHMM                1.3 : RESISTIVITY MUD FILTRATE SAMPLE
MFST.DEGF                 55 : MUD FILTRATE SAMPLE TEMPERATURE
TCS .HRS                 2.5 : TIME CIRCULATED STOPPED
LUN .                   7730 : LOGGING UNIT NUMBER
LUL .                    EDM : LOGGING UNIT LOCATION
ENGI.        MCDONALD KARAKI : RECORDING ENGINEER
WITN.            ABEL WORKUM : WITNESSED BY
CLNT.                A2DTECH : CLIENT CODE
ORIG.            2" 5" PRINT : ORIGIN OF DATA
UWI .       100110505315W500 : UNIQUE WELL ID
DICO. A2D Technologies, Inc. : DIGITIZING COMPANY
~Other -----------------------------------------------------
~ASCII -----------------------------------------------------
 1100.00000    -999.25    -999.25    -999.25    -999.25    -999.25    -999.25    -999.25    -999.25    -999.25    -999.25    -999.25    -999.25    -999.25    -999.25    -999.25   64.11090
 1150.00000    -999.25    -999.25    -999.25    -999.25    -999.25    -999.25    -999.25   43.64370    -999.25    -999.25    -999.25    -999.25    -999.25    -999.25    -999.25   36.67830
 1200.00000  -47.57240   14.60430    -999.25   13.55060   68.63110    -999.25    -999.25   47.77830    9.15560    -999.25    -999.25    0.03470    2.47460   93.34740    8.90230   63.80690
 1250.00000  -41.61390   17.13650    -999.25   29.08130   71.73160    -999.25    -999.25   64.17630   14.99140    -999.25    -999.25    0.06360    1.53670  130.94310    8.94230   42.87620
 1300.00000  -46.94530    6.70000    -999.25    5.79300  150.95250    -999.25    -999.25   88.78580   12.16180    -999.25    -999.25    0.14720    1.90310   97.09490    9.18680   94.76630
 1350.00000  -48.73310    5.47750    -999.25    6.29650  169.01500    -999.25    -999.25   56.16110   11.99100    -999.25    -999.25    0.19260    2.20690   96.71800    9.20180   65.14420
 1400.00000  -41.95330    9.71530    -999.25    8.93130  102.33150    -999.25    -999.25   83.77740   12.67760    -999.25    -999.25    0.20010    2.16480   89.40950    9.20700   78.57980
 1450.00000  -34.34700    6.40810    -999.25    6.11690  155.85920    -999.25    -999.25   71.11870   12.20800    -999.25    -999.25    0.18730    1.91420   98.10160    9.25580   96.44620
 1500.00000  -45.55870    6.76840    -999.25    6.07360  147.77270    -999.25    -999.25   92.02700   14.30770    -999.25    -999.25    0.07540    1.53760  104.01160    9.11450  115.69790
 1550.00000  -37.45680    7.75710    -999.25    7.36070  128.91390    -999.25    -999.25   66.01790   11.65140    -999.25    -999.25    0.20630    1.98390   91.01970    9.06170   88.82270
 1600.00000  -37.53250    8.12990    -999.25    6.94680  122.94600    -999.25    -999.25   84.06750   15.00900    -999.25    -999.25    0.15040    1.66920   85.82530    8.94030   85.28610
 1650.00000  -41.60660   11.91930    -999.25   11.15490   83.53150    -999.25    -999.25   67.82310    8.93010    -999.25    -999.25    0.06030    2.33410   81.85220    8.78960   65.10890
 1700.00000  -43.95580   19.75120    -999.25   16.00760   50.07210    -999.25    -999.25   63.33120    9.15910    -999.25    -999.25    0.04250    2.43850   87.67750    8.79670   57.52110
 1750.00000  -32.55330    4.55830    -999.25    4.26990  219.42310    -999.25    -999.25   79.33700   15.04800    -999.25    -999.25    0.11110    1.75070  120.40320    9.15180   97.85500
 1800.00000  -31.71590    2.85560    -999.25    2.58710  350.15020    -999.25    -999.25   54.13780    -999.25    -999.25    -999.25    0.10250    1.54310  172.27450   11.23880   65.34560
 1850.00000  -25.48300    5.67250    -999.25    5.47430  176.25410    -999.25    -999.25   84.64450   14.97550    -999.25    -999.25    0.16460    2.02170   91.17820    9.45820  102.75280
 1900.00000  -25.27080    3.69450    -999.25    5.86040  265.19610    -999.25    -999.25   86.86870   12.80440    -999.25    -999.25    0.10930    1.76560  116.43970    9.64570  108.76810
 1950.00000  -37.62460    6.52330    -999.25    6.91870  153.26300    -999.25    -999.25   79.77760   12.85760    -999.25    -999.25    0.20480    1.98570   87.62280    9.62740   95.07140
 2000.00000  -25.74390    3.25110    -999.25    3.51450  307.37160    -999.25    -999.25   85.16530   12.90820    -999.25    -999.25    0.08690    1.66520  108.42260    9.55720   92.87330
 2050.00000   17.04790    5.23510    -999.25    5.15400  190.97830    -999.25    -999.25   69.04960    9.70180    -999.25    -999.25    0.06100    2.01380   92.32150    9.60450   84.03910
 2100.00000  -40.80810    8.25230    -999.25    7.49990  121.22430    -999.25    -999.25   89.00690    9.45750    -999.25    -999.25    0.05230    2.42620   82.79150    9.35740  100.14870
 2150.00000  -44.18260   10.81230    -999.25    9.89240   90.84550    -999.25    -999.25   66.53240   10.04780    -999.25    -999.25    0.02500    2.37200   87.79900    9.34660   66.45190
 2200.00000  -50.37170    8.37390    -999.25    7.59690  119.37240    -999.25    -999.25   87.40130   11.73560    -999.25    -999.25    0.05290    2.44110   85.32420    9.31920   82.02630
 2250.00000  -44.18300    8.83790    -999.25    8.04300  113.15040    -999.25    -999.25   88.19440   10.56130    -999.25    -999.25    0.02300    2.45320   81.55130    9.44820   88.03240
 2300.00000  -37.15450    7.37250    -999.25    8.07100  135.64270    -999.25    -999.25   86.03970   10.48940    -999.25    -999.25    0.03730    2.48170   87.80210    9.44550   99.67510
 2350.00000  -29.79830    6.64590    -999.25    5.96760  150.35360    -999.25    -999.25   77.90700   13.10870    -999.25    -999.25    0.16530    1.91430   86.32880    9.21020   83.78730
 2400.00000  -27.64410    4.36240    -999.25    5.08020  229.11100    -999.25    -999.25   83.30640   12.00810    -999.25    -999.25    0.14890    1.64950  102.66430    8.89410   84.45220
 2450.00000  -30.42410    5.85570    -999.25    6.13150  170.83110    -999.25    -999.25   91.38700    9.65110    -999.25    -999.25    0.17750    1.85340   91.75330    9.19850  103.17720
 2500.00000  -23.94030    5.30110    -999.25    5.46320  188.42880    -999.25    -999.25   83.51090   12.89860    -999.25    -999.25    0.17590    2.12610   88.85420    8.89760   88.64560
 2550.00000  -24.32900    5.39640    -999.25    5.68290  185.25930    -999.25    -999.25   90.76280   13.29410    -999.25    -999.25    0.17040    1.68560   91.05050    9.12070   87.11320
 2600.00000  -36.79190   10.10980    -999.25   10.39130   99.64430    -999.25    -999.25   79.46710    9.08190    -999.25    -999.25    0.05260    2.51100   77.46810    8.99830   63.08630
 2650.00000   -2.78480    4.26370    -999.25    4.29610  234.95070    -999.25    -999.25   97.29880   10.24850    -999.25    -999.25    0.03420    2.43710   93.97340    9.53580  112.69060
 2700.00000   34.65250    5.41530    -999.25    6.93150  178.16360    -999.25    -999.25   66.16600   10.32620    -999.25    -999.25    0.02060    2.35870  131.89050    9.59770   82.99540
 2750.00000  -20.46840    5.29080    -999.25    5.03360  188.98920    -999.25    -999.25   87.54900   11.53670    -999.25    -999.25    0.03690    2.30380   90.01870    9.32780   86.24210
 2800.00000  -33.61400    4.60900    -999.25    4.34610  216.60730    -999.25    -999.25   95.66280   13.23160    -999.25    -999.25    0.06590    2.29760   94.99760    9.15370   98.59480
 2850.00000  -33.23430    7.98180    -999.25    7.56280  125.80640    -999.25    -999.25   78.65630   11.74790    -999.25    -999.25    0.16650    2.35730   78.81000    9.09650   82.64260
 2900.00000  -42.87000   13.84330    -999.25   12.61830   73.91680    -999.25    -999.25   55.94200    9.56580    -999.25    -999.25    0.05710    2.44090   74.62330    9.00470   60.43780
 2950.00000  -35.30660    7.21910    -999.25    6.82820  138.53060    -999.25    -999.25   87.62150   10.36680    -999.25    -999.25    0.22560    2.16180   84.75560    8.96740  108.15020
 3000.00000  -38.69320   20.59120    -999.25   23.63160   53.53930    -999.25    -999.25   55.30500    9.20490    -999.25    -999.25    0.15870    2.48850   65.06450    8.90330   52.18580
 3050.00000  -35.78090    5.01820    -999.25    4.79510  199.14140    -999.25    -999.25   86.55250   12.54420    -999.25    -999.25    0.18220    1.85360   88.58630    9.17240   95.88010
 3100.00000  -38.87320    7.71570    -999.25    7.68720  129.64870    -999.25    -999.25   84.70490   12.33930    -999.25    -999.25    0.15000    2.39240   78.39020    9.07590   78.68710
 3150.00000  -35.04900    5.63940    -999.25    6.22140  177.15720    -999.25    -999.25   88.68460   13.93300    -999.25    -999.25    0.10580    2.03430   95.69700    9.25880  112.64660
 3200.00000  -38.79350   11.42680    -999.25   11.05660   88.12420    -999.25    -999.25  105.73140   11.37410    -999.25    -999.25    0.21010    2.26380   79.67520    9.14420  118.22950
