~Version ---------------------------------------------------
VERS.      2.0 : CWLS log ASCII Standard -VERSION 2.0
WRAP.       NO : One line per depth step
CREA. 12/01/17 : LAS Creation Date
~Well ------------------------------------------------------
STRT.FT                           700.0 : START DEPTH
STOP.FT                          9400.0 : STOP DEPTH
STEP.FT                        50.00000 : STEP LENGTH
NULL.                           -999.25 : NULL VALUE
COMP.         ATLANTIC REFINING COMPANY : COMPANY
WELL. ATLANTIC BASELINE LAKE 6-29-59-13 : WELL
FLD .                                   : FIELD
LOC .                                   : LOCATION
CTRY.                            CANADA : COUNTRY
SRVC.            Schlumberger of Canada : SERVICE COMPANY
DATE.                       11-Jan-1962 : LOGDATE
PROV.                           Alberta : PROVINCE
UWI .                  100062905913W500 : UNIQUE WELL ID
SLAT.WGS84                     54.12799 : SURFACE LATITUDE
SLON.WGS84                    -115.9169 : SURFACE LONGITUDE
~Curve Information -----------------------------------------
DEPT  .FT         : Depth Curve
CALSED.IN         : CALIPER FROM SONIC LOG
CALWS .IN         : CALIPER [CALSED]
CILDED.MMHO       : INDUCTION DEEP CONDUCTIVITY FROM RESISTIVITY LOG
CONDWS.MMHO       : CONDUCTIVITY [1000/DRESWS]
DRESWS.OHMM       : DEEP RESISTIVITY [ CALC. FROM 1000/CILDED, IF ILDED<2, ILDED]
DT1ED .US/F       : DELTA TIME SPACING 3' PICKUP SPAN 1' FROM SONIC LOG
DTED  .US/F       : DELTA TIME SPACING 3' PICKUP SPAN 3' FROM SONIC LOG
DTWS  .US/F       : COMPRESTIONAL SONIC [DTED]
GRSED .UgRa-Eq/T  : GAMMA RAY FROM SONIC LOG
GRWS  .GAPI       : GAMMA RAY [GRSED*16.5]
ILDED .OHMM       : INDUCTION DEEP RESISTIVITY FROM RESISTIVITY LOG
SNED  .OHMM       : SHORT NORMAL RESISTIVITY FROM RESISTIVITY LOG
SPRED .MV         : SPONTANEOUS POTENTIAL FROM RESISTIVITY LOG
SPWS  .MV         : SPONTANEOUS POTENTIAL [BASELINE 0 MV, SPRED]
SRESWS.OHMM       : SHALLOW RESISTIVITY [SNED]
~Params ----------------------------------------------------
PD  .                     GL : PERMANENT DATUM
EPD .FT                 2681 : ELEVATION PERMANENT DATUM
LMF .                     KB : LOG MEASURED FROM
DAPD.FT                   13 : FEET ABOVE PERMANENT DATUM
EKB .FT                 2694 : KELLY BUSHING
EGL .FT                 2681 : GROUND LEVEL
DATE.               01/11/62 : RUN DATE
RUN .                      2 : RUN NUMBER
DD  .FT                 9422 : DEPTH DRILLER
DL  .FT                 9407 : DEPTH LOGGER
BLI .FT                 9406 : BOTTOM LOG INTERVAL
TLI .FT                 8800 : TOP LOG INTERVAL
CBD .FT                  978 : CASING BOTTOM DRILLER
BS  .IN                 8.75 : BIT SIZE
BSD .FT                 9422 : BIT SIZE AT DEPTH
DFT .           GEL OIL EMUL : DRILLING FLUID TYPE
DFD .                    9.3 : DRILLING FLUID DENSITY
DFV .                     90 : DRILLING FLUID VISCOSITY
DFPH.                    7.6 : DRILLING FLUID PH
DFL .                      7 : DRILLING FLUID LOSS
RMS .OHMM                2.5 : RESISTIVITY MUD SAMPLE
MST .DEGF                 70 : MUD SAMPLE TEMPERATURE
RMF .OHMM                1.5 : RESISTIVITY MUD FILTRATE SAMPLE
MFST.DEGF                 74 : MUD FILTRATE SAMPLE TEMPERATURE
RMC .OHMM                1.8 : RESISTIVITY MUD CAKE
MCST.DEGF                 74 : MUD CAKE SAMPLE TEMPERATURE
RMB .OHMM                1.0 : RESISTIVITY MUD AT BHT
TCS .HRS                   2 : TIME CIRCULATED STOPPED
LUN .                   1576 : LOGGING UNIT NUMBER
LUL .                     DV : LOGGING UNIT LOCATION
ENGI.                NORQUAY : RECORDING ENGINEER
WITN.                WALTERS : WITNESSED BY
CLNT.                A2DTECH : CLIENT CODE
ORIG.            2" 5" PRINT : ORIGIN OF DATA
UWI .       100062905913W500 : UNIQUE WELL ID
DICO. A2D Technologies, Inc. : DIGITIZING COMPANY
~Other -----------------------------------------------------
IEL-SONIC LOGS RUN
~ASCII -----------------------------------------------------
# ...
 5300.00000   14.24100   14.24100   78.39980   72.91610   13.71440    -999.25   77.95080   77.95080    5.22580   86.22570   13.71440   15.87900  -47.49770   -8.33270   15.87900
 5350.00000   11.51920   11.51920   82.06560   78.35520   12.76240    -999.25   98.96800   98.96800    4.73190   78.07640   12.76240   19.96250  -47.74310   -9.29290   19.96250
 5400.00000   11.02430   11.02430  145.53870  140.58960    7.11290    -999.25   83.00300   83.00300    3.66390   60.45430    7.11290   10.47100  -55.76390  -18.02850   10.47100
 5450.00000   12.33820   12.33820  115.84790  106.10710    9.44000    -999.25  113.07840  113.07840    4.24480   70.03920    9.44000   12.54530  -48.07230  -11.05520   12.54530
 5500.00000   10.83120   10.83120   99.46330   94.77590   10.55120    -999.25   82.83200   82.83200    5.27710   87.07210   10.55120   13.39570  -40.83990   -4.53400   13.39570
 5550.00000   10.88470   10.88470  109.60630  106.09630    9.42540    -999.25   79.40700   79.40700    6.49430  107.15600    9.42540   12.28440  -49.71170  -13.48030   12.28440
 5600.00000   10.60800   10.60800   86.00750   74.12400   13.49090    -999.25   83.75670   83.75670    4.56450   75.31430   13.49090   15.11350  -44.17490   -7.99820   15.11350
 5650.00000   11.32020   11.32020   99.43220   94.26580   10.60830    -999.25   80.15530   80.15530    5.04160   83.18640   10.60830   13.46670  -38.90710   -2.78510   13.46670
 5700.00000   12.40490   12.40490   67.27160   64.58180   15.60210    -999.25   78.74530   78.74530    3.89320   64.23700   15.60210   23.14930  -37.61170   -1.54480   23.14930
 5750.00000   11.70120   11.70120   63.40490   57.30040   17.45190    -999.25   72.85440   72.85440    5.24030   86.46500   17.45190   26.19270  -42.02540   -6.14150   26.19270
 5800.00000    9.79480    9.79480   58.14900   50.67320   19.73430    -999.25   69.64120   69.64120    5.66790   93.52040   19.73430   25.13770  -38.61320   -3.02670   25.13770
 5850.00000   10.33140   10.33140   57.86040   51.11720   19.56290    -999.25   71.67260   71.67260    5.28370   87.18100   19.56290   23.44250  -42.30770   -7.09060   23.44250
 5900.00000    8.40300    8.40300  333.99420  309.26240    3.23350    -999.25   87.60790   87.60790    4.12520   68.06580    3.23350    9.88480 -108.60560  -73.80800    9.88480
 5950.00000    8.88480    8.88480   10.32390    3.85630  259.32070    -999.25   62.79750   62.79750    3.38870   55.91360  259.32070  196.09830  -69.13110  -34.75510  196.09830
 6000.00000    9.29590    9.29590   17.33160   11.28770   88.59180    -999.25   61.22370   61.22370    2.90450   47.92430   88.59180  100.11970  -57.09830  -23.13970  100.11970
 6050.00000    9.82150    9.82150  208.82340  194.01650    5.15420    -999.25   67.18640   67.18640    4.45390   73.48940    5.15420   12.41550  -78.35920  -44.82010   12.41550
 6100.00000    8.83250    8.83250   28.96090   23.24970   43.01140    -999.25   50.41340   50.41340    0.76590   12.63740   43.01140  152.77370 -215.43040 -182.31080  152.77370
 6150.00000    8.18170    8.18170   35.97260   29.58200   33.80430    -999.25   49.52940   49.52940    0.78280   12.91620   33.80430  159.31910 -233.79490 -201.09480  159.31910
 6200.00000   11.03330   11.03330  301.95100  291.26110    3.43560    -999.25   69.14810   69.14810    5.05360   83.38520    3.43560    7.17980  -56.55910  -24.28060    7.17980
 6250.00000    9.24400    9.24400  123.86780  117.39290    8.51840    -999.25   66.56300   66.56300    3.87670   63.96560    8.51840   21.20660  -72.59540  -40.73430   21.20660
 6300.00000   10.65450   10.65450  212.74930  197.62850    5.06000    -999.25   66.70170   66.70170    3.03750   50.11870    5.06000    9.81680  -79.74640  -52.99280    9.81680
 6350.00000    9.80410    9.80410   66.92550   62.11180   16.10000    -999.25   66.68140   66.68140    4.11190   67.84640   16.10000   29.88700  -39.52450  -19.05050   29.88700
 6400.00000    9.59630    9.59630   11.72760    6.66240  150.09530    -999.25   53.75680   53.75680    1.08450   17.89430  150.09530  110.31300  -50.38360  -36.18910  110.31300
 6450.00000    9.06540    9.06540   55.99920   47.16740   21.27830    -999.25   55.90790   55.90790    1.39220   22.97130   21.27830   42.38380  -92.30760  -84.42410   42.38380
 6500.00000    8.70520    8.70520   34.05840   28.64750   34.90710    -999.25   57.20280   57.20280    2.34840   38.74860   34.90710   43.00910  -31.52270  -29.88730   43.00910
 6550.00000    9.87470    9.87470   33.48360   28.39400   35.21870    -999.25   57.77130   57.77130    2.42960   40.08840   35.21870   39.22610  -17.02440  -21.66860   39.22610
 6600.00000    9.44060    9.44060   30.35410   25.53280   39.16530    -999.25   57.32250   57.32250    2.39190   39.46640   39.16530   45.19340  -17.71040  -28.63410   45.19340
 6650.00000    9.37940    9.37940   28.45690   22.97980   43.51640    -999.25   57.06930   57.06930    2.26770   37.41710   43.51640   49.34850   -6.09500  -23.29830   49.34850
 6700.00000   10.12000   10.12000   14.66810    9.80070  102.07570    -999.25   63.77030   63.77030    4.46390   73.65350  102.07570   91.76760   18.94360   -4.57060   91.76760
 6750.00000    9.55400    9.55400   58.32610   52.61970   19.00430    -999.25   64.65450   64.65450    4.83560   79.78740   19.00430   23.20610   -6.99660  -32.41700   23.20610
 6800.00000    9.50380    9.50380   15.63750   10.90610   91.69180    -999.25   55.42110   55.42110    3.04720   50.27880   91.69180   98.73830  -16.77330  -42.27080   98.73830
 6850.00000    9.38780    9.38780   11.85120    6.08350  164.37930    -999.25   50.90210   50.90210    1.02260   16.87290  164.37930  126.65360  -79.56930 -105.14390  126.65360
 6900.00000    9.42810    9.42810   10.95270    6.36420  157.12960    -999.25   49.11690   49.11690    0.87110   14.37310  157.12960  122.88960  -93.72780 -119.37950  122.88960
 6950.00000    9.48050    9.48050    7.98200    3.49790  286.00200    -999.25   45.89520   45.89520    1.19490   19.71580  286.00200  150.96330  -95.91280 -121.64190  150.96330
 7000.00000    9.47480    9.47480   14.82430    9.50310  105.22850    -999.25   50.66810   50.66810    1.03020   16.99830  105.22850  102.71210  -86.88150 -112.68740  102.71210
 7050.00000    9.38550    9.38550    5.88040    1.83880  543.83670    -999.25   51.21540   51.21540    0.69860   11.52690  543.83670  265.24340 -103.12450 -129.00750  265.24340
 7100.00000    9.05560    9.05560   36.46670   31.62850   31.61710    -999.25   54.77730   54.77730    0.84990   14.02340   31.61710  131.16970 -129.81620 -155.77630  131.16970
 7150.00000    9.30410    9.30410   15.62700   10.85240   92.14540    -999.25   52.47690   52.47690    0.91890   15.16190   92.14540  101.43210 -107.00340 -133.04060  101.43210
 7200.00000    9.56380    9.56380   13.35080    8.08030  123.88140    -999.25   53.24830   53.24830    0.84840   13.99940  123.88140   97.51500  -98.07340 -124.18820   97.51500
 7250.00000    9.20690    9.20690    9.02090    4.71870  211.92320    -999.25   53.21860   53.21860    0.90920   15.00180  211.92320  117.34780  -94.00720 -120.19860  117.34780
 7300.00000    8.86380    8.86380    7.96240    3.38090  295.77900    -999.25   51.71740   51.71740    0.77070   12.71660  295.77900  159.55880  -95.58330 -121.85180  159.55880
 7350.00000    9.62440    9.62440   20.99080   14.71250   67.96950    -999.25   50.85690   50.85690    0.81260   13.40790   67.96950  145.54160 -129.64910 -155.99480  145.54160
 7400.00000    8.94120    8.94120   22.14270   17.32930   57.70560    -999.25   51.15660   51.15660    0.66080   10.90320   57.70560  154.21990 -217.67920 -244.10200  154.21990
 7450.00000    9.22060    9.22060   16.00920   11.27910   88.66340    -999.25   50.26710   50.26710    1.89230   31.22380   88.66340  137.66470  -57.13170  -83.63200  137.66470
 7500.00000    9.07930    9.07930  257.79940  231.11230    4.32690    -999.25   78.11130   78.11130    8.33830  137.58200    4.32690    6.55550   -5.53280  -32.10980    6.55550
 7550.00000    9.00590    9.00590   77.91940   72.15320   13.85940    -999.25   53.96940   53.96940    1.37800   22.73700   13.85940   59.68110 -108.54720 -135.20130   59.68110
