~Version ---------------------------------------------------
VERS.      2.0 : CWLS log ASCII Standard -VERSION 2.0
WRAP.       NO : One line per depth step
CREA. 11/21/17 : LAS Creation Date
~Well ------------------------------------------------------
STRT.FT                          1000.0 : START DEPTH
STOP.FT                         13800.0 : STOP DEPTH
STEP.FT                        50.00000 : STEP LENGTH
NULL.                           -999.25 : NULL VALUE
COMP. HUDSONS BAY OIL & GAS COMPANY LTD : COMPANY
WELL. HB AMOCO FINA BAYBERNE 11-5-57-18 : WELL
FLD .                                   : FIELD
LOC .                                   : LOCATION
CTRY.                            CANADA : COUNTRY
SRVC.                           Unknown : SERVICE COMPANY
DATE.                       13-Aug-1977 : LOGDATE
PROV.                           Alberta : PROVINCE
UWI .                  100110505718W500 : UNIQUE WELL ID
SLAT.WGS84                     53.89911 : SURFACE LATITUDE
SLON.WGS84                    -116.6428 : SURFACE LONGITUDE
~Curve Information -----------------------------------------
DEPT    .FT    : Depth Curve
CALDED  .IN    : CALIPER FROM DENSITY LOG [ADJ. TO RESISTIVITY LOG]
CALSED  .IN    : CALIPER FROM SONIC LOG
CALWS   .IN    : CALIPER [CALSED SPL. TO CALDED @ 5994']
CILDED  .MMHO  : CONDUCTIVITY FROM RESISTIVITY LOG
CONDWS  .MMHO  : CONDUCTIVITY [1000/DRESWS]
DCORWS  .G/C3  : DENSITY CORRECTION [DRHOED]
DENWS   .G/C3  : FORMATION BULK DENSITY [RHOBED]
DPHILSED.V/V   : DENSITY POROSITY LIMESTONE [M=2.71, F=1.00] FROM DENSITY LOG [ADJ. TO RESISTIVITY LOG]
DPHISSED.V/V   : DENSITY POROSITY SANDSTONE [M=2.65, F=1.00] FROM DENSITY LOG [ADJ. TO RESISTIVITY LOG]
DPOLSWS .V/V   : DENSITY POROSITY LIMESTONE [CALC. FROM DENWS, M=2.71, F=1.00]
DRESWS  .OHMM  : DEEP RESISTIVITY [ILDED]
DRHOED  .G/C3  : DENSITY CORRECTION FROM DENSITY LOG [ADJ. TO RESISTIVITY LOG]
DTED    .US/F  : DELTA TIME FROM SONIC LOG
DTWS    .US/F  : COMPRESSIONAL SONIC [DTED]
GRDED   .GAPI  : GAMMA RAY FROM DENSITY LOG [ADJ. TO RESISTIVITY LOG]
GRSED   .GAPI  : GAMMA RAY FROM SONIC LOG
GRWS    .GAPI  : GAMMA RAY [GRSED SPL. TO GRDED @ 13780']
ILDED   .OHMM  : DEEP INDUCTION RESISTIVITY FROM RESISTIVITY LOG
ILMED   .OHMM  : MEDIUM INDUCTION RESISTIVITY FROM RESISTIVITY LOG
LL8ED   .OHMM  : LATEROLOG-8 RESISTIVITY FROM RESISTIVITY LOG
MRESWS  .OHMM  : MEDIUM RESISTIVITY [ILMED]
NPHILSED.V/V   : NEUTRON POROSITY LIMESTONE FROM DENSITY LOG [ADJ. TO RESISTIVITY LOG]
NPHISSED.V/V   : NEUTRON POROSITY SANDSTONE FROM DENSITY LOG [ADJ. TO RESISTIVITY LOG]
NPOLSWS .V/V   : NEUTRON POROSITY LIMESTONE [NPHISSED MATRIX CONVERSION FOR LIMESTONE, SPL. TO NPHILSED @ 8509']
RHOBED  .G/C3  : BULK DENSITY FROM DENSITY LOG [ADJ. TO RESISTIVITY LOG]
SPRED   .MV    : SPONTANEOUS POTENTIAL FROM RESISTIVITY LOG [ADJ. TO RESISTIVITY LOG]
SPWS    .MV    : SPONTANEOUS POTENTIAL [BASELINE 0 MV, SPRED]
SRESWS  .OHMM  : SHALLOW RESISTIVITY [LL8ED]
~Params ----------------------------------------------------
PD  .                     GL : PERMANENT DATUM
EPD .FT               3898.7 : ELEVATION PERMANENT DATUM
LMF .                     KB : LOG MEASURED FROM
DAPD.FT                 20.4 : FEET ABOVE PERMANENT DATUM
DMF .                     KB : DRILLING MEASURED FROM
EKB .FT               3919.1 : KELLY BUSHING
EGL .FT               3898.7 : GROUND LEVEL
DATE.               08/13/77 : RUN DATE
RUN .                      2 : RUN NUMBER
DD  .FT                13825 : DEPTH DRILLER
DL  .FT                13826 : DEPTH LOGGER
BLI .FT                13820 : BOTTOM LOG INTERVAL
TLI .FT                 8771 : TOP LOG INTERVAL
CBD .FT                 8770 : CASING BOTTOM DRILLER
CBL .FT                 8771 : CASING BOTTOM LOGGER
BS  .IN                  8.5 : BIT SIZE
BSD .FT                13825 : BIT SIZE AT DEPTH
DFT .                    GEL : DRILLING FLUID TYPE
DFD .                    8.9 : DRILLING FLUID DENSITY
DFV .                    120 : DRILLING FLUID VISCOSITY
DFPH.                     11 : DRILLING FLUID PH
DFL .                   11.2 : DRILLING FLUID LOSS
MSS .                    MUD : MUD SAMPLE SOURCE
RMS .OHMM               1.38 : RESISTIVITY MUD SAMPLE
MST .DEGF                 62 : MUD SAMPLE TEMPERATURE
RMF .OHMM                1.0 : RESISTIVITY MUD FILTRATE SAMPLE
MFST.DEGF                 62 : MUD FILTRATE SAMPLE TEMPERATURE
RMC .OHMM               1.72 : RESISTIVITY MUD CAKE
MCST.DEGF                 64 : MUD CAKE SAMPLE TEMPERATURE
RMB .OHMM               0.24 : RESISTIVITY MUD AT BHT
TCS .HRS                 3.5 : TIME CIRCULATED STOPPED
LUN .                   7809 : LOGGING UNIT NUMBER
LUL .                    EDM : LOGGING UNIT LOCATION
ENGI.     CROCKFORD DEROCHIE : RECORDING ENGINEER
WITN.       NORTON GILBREATH : WITNESSED BY
CLNT.                A2DTECH : CLIENT CODE
ORIG.            2" 5" PRINT : ORIGIN OF DATA
UWI .       100110505718W500 : UNIQUE WELL ID
DICO. A2D Technologies, Inc. : DIGITIZING COMPANY
~Other -----------------------------------------------------
DIL-FDC-CNL-BHC LOG RUN
ALL RESISTIVITY & SONIC DATA FROM SMALL SECTION @ TOP-5928'
CALS INVALID FROM 4993' TO CASING ON MAIN PASS, THEREFORE THIS SECTION WAS RELOGGED
~ASCII -----------------------------------------------------
# ...
 11000.00000    8.97380    8.93850    8.97380    -999.25   18.59550    0.01810    2.69310    0.00380    -999.25    0.00990   53.77650    0.01810   53.08530   53.08530   31.92270   34.00710   34.00710   53.77650   49.49870   65.06370   49.49870    0.03070    -999.25    0.03070    2.69310  -42.95650  -11.95740   65.06370
 11050.00000    8.76610    8.93110    8.76610    -999.25   24.74220    0.01460    2.73660   -0.02250    -999.25   -0.01550   40.43540    0.01460   54.34090   54.34090   32.46030   34.94880   34.94880   40.43540   37.29520   48.77250   37.29520    0.04030    -999.25    0.04030    2.73660  -39.13410   -9.23510   48.77250
 11100.00000    8.72860    8.85170    8.72860    -999.25   27.60750    0.00690    2.71640   -0.00240    -999.25   -0.00370   36.22200    0.00690   55.52710   55.52710   32.79880   35.03090   35.03090   36.22200   38.10660   46.86490   38.10660    0.04970    -999.25    0.04970    2.71640  -34.84070   -6.04900   46.86490
 11150.00000    8.85660    8.86530    8.85660    -999.25   19.04930    0.00960    2.71610   -0.00340    -999.25   -0.00360   52.49530    0.00960   53.69310   53.69310   31.70300   32.60780   32.60780   52.49530   45.75360   59.17660   45.75360    0.03390    -999.25    0.03390    2.71610  -38.98490  -11.29330   59.17660
 11200.00000    8.78830    8.86280    8.78830    -999.25   29.13520    0.01110    2.73810   -0.02390    -999.25   -0.01640   34.32280    0.01110   55.68250   55.68250   31.20940   36.77260   36.77260   34.32280   32.40150   42.89070   32.40150    0.04920    -999.25    0.04920    2.73810  -29.94760   -3.36330   42.89070
 11250.00000    8.84250    8.90860    8.84250    -999.25   63.84800   -0.00870    2.66350    0.02120    -999.25    0.02720   15.66220   -0.00870   60.06180   60.06180   48.99760   51.09190   51.09190   15.66220   15.06100   20.98040   15.06100    0.08920    -999.25    0.08920    2.66350  -28.25850   -2.77430   20.98040
 11300.00000    9.03120    9.06000    9.03120    -999.25   81.55450    0.02610    2.72450   -0.01510    -999.25   -0.00850   12.26300    0.02610   61.96650   61.96650   55.77880   57.93470   57.93470   12.26300   11.89380   15.53030   11.89380    0.10710    -999.25    0.10710    2.72450  -26.77280   -2.36760   15.53030
 11350.00000    9.24240    9.34060    9.24240    -999.25   19.33880    0.00940    2.68780    0.01100    -999.25    0.01300   51.70950    0.00940   64.31750   64.31750   74.64550   83.24740   83.24740   51.70950   50.21400   93.19930   50.21400    0.13680    -999.25    0.13680    2.68780  -28.80150   -4.69850   93.19930
 11400.00000    8.71200    9.05910    8.71200    -999.25  121.32240    0.04150    2.64750    0.04020    -999.25    0.03650    8.24250    0.04150   68.41690   68.41690   77.94480   79.39580   79.39580    8.24250    8.59380   11.79770    8.59380    0.14850    -999.25    0.14850    2.64750  -25.97520   -2.17230   11.79770
 11450.00000   10.67160    9.20530   10.67160    -999.25  128.22810    0.24850    2.50080    0.12700    -999.25    0.12230    7.79860    0.24850   69.90270   69.90270   74.15460   82.36280   82.36280    7.79860    8.18190   10.88600    8.18190    0.15280    -999.25    0.15280    2.50080  -28.18680   -4.68610   10.88600
 11500.00000    9.82820    9.01150    9.82820    -999.25  100.34020    0.25020    2.58470    0.08620    -999.25    0.07330    9.96610    0.25020   69.06330   69.06330   75.79920   77.91570   77.91570    9.96610   10.26340   21.91760   10.26340    0.12100    -999.25    0.12100    2.58470  -27.39090   -4.19040   21.91760
 11550.00000    8.93330    8.84710    8.93330    -999.25   39.06180    0.01560    2.69160    0.00840    -999.25    0.01080   25.62410    0.01560   57.75750   57.75750   46.91770   47.25920   47.25920   25.62410   26.22060   44.82920   26.22060    0.06710    -999.25    0.06710    2.69160  -27.85270   -4.95230   44.82920
 11600.00000    9.05490    8.78440    9.05490    -999.25  110.06670    0.11980    2.63990    0.02770    -999.25    0.04100    9.08540    0.11980   66.73510   66.73510   67.24160   73.63520   73.63520    9.08540    9.63440   12.72650    9.63440    0.14870    -999.25    0.14870    2.63990  -28.48880   -5.89060   12.72650
 11650.00000    9.16720    8.95110    9.16720    -999.25   63.56310    0.18160    2.71460   -0.00300    -999.25   -0.00270   15.73240    0.18160   63.82310   63.82310   73.29720   71.72510   71.72510   15.73240   15.76460   28.16860   15.76460    0.11230    -999.25    0.11230    2.71460  -27.55680   -5.25880   28.16860
 11700.00000   10.87940    9.10710   10.87940    -999.25  121.66190    0.19620    2.59620    0.06550    -999.25    0.06650    8.21950    0.19620   76.71580   76.71580  104.89520  111.10610  111.10610    8.21950    7.48350   12.77450    7.48350    0.19530    -999.25    0.19530    2.59620  -24.86730   -2.87140   12.77450
 11750.00000    8.43560    8.80100    8.43560    -999.25   74.28980    0.17080    2.51710    0.13740    -999.25    0.11280   13.46080    0.17080   67.27680   67.27680   78.24810   81.73680   81.73680   13.46080   16.81160   28.95440   16.81160    0.16810    -999.25    0.16810    2.51710  -23.26310   -1.56740   28.95440
 11800.00000    8.74750    8.68570    8.74750    -999.25    4.09870    0.13190    2.65090    0.03990    -999.25    0.03450  244.66120    0.13190   67.46810   67.46810  105.12360   99.41010   99.41010  244.66120  626.70560  359.14950  626.70560    0.11440    -999.25    0.11440    2.65090  -24.81850   -3.42300  359.14950
 11850.00000    8.84450    8.74740    8.84450    -999.25    5.18460    0.03250    2.50730    0.12180    -999.25    0.11850  192.87890    0.03250   76.48680   76.48680  155.67200  163.06280  163.06280  192.87890  448.12870  339.37660  448.12870    0.16000    -999.25    0.16000    2.50730  -28.03270   -6.93930  339.37660
 11900.00000    8.77480    8.49060    8.77480    -999.25    2.75770    0.01720    2.54760    0.09420    -999.25    0.09500  362.61810    0.01720   68.34740   68.34740  133.87300  132.88000  132.88000  362.61810  182.67940  257.94180  182.67940    0.11990    -999.25    0.11990    2.54760  -40.25470  -19.46150  257.94180
 11950.00000    8.79450    8.34890    8.79450    -999.25    5.52970    0.01220    2.43550    0.16000    -999.25    0.16050  180.84160    0.01220   76.32430   76.32430  144.88670  157.83140  157.83140  180.84160  166.60560  524.71730  166.60560    0.14350    -999.25    0.14350    2.43550  -25.98360   -5.49260  524.71730
 12000.00000    8.78630    8.49400    8.78630    -999.25    3.64810    0.11160    2.71070   -0.00500    -999.25   -0.00040  274.11330    0.11160   52.57980   52.57980   36.58140   40.87170   40.87170  274.11330  933.39480 1423.45560  933.39480    0.03320    -999.25    0.03320    2.71070  -44.07020  -22.60430 1423.45560
 12050.00000   10.85240    9.14310   10.85240    -999.25    2.55780    0.23240    2.60480    0.06380    -999.25    0.06150  391.11590    0.23240   50.93230   50.93230   25.99430   28.35250   28.35250  391.11590  216.73340 1420.83150  216.73340    0.00340    -999.25    0.00340    2.60480  -67.96210  -42.58320 1420.83150
 12100.00000   12.99010   10.29860   12.99010    -999.25    4.78120    0.25080    1.97890    0.42070    -999.25    0.42760  209.15140    0.25080   50.65700   50.65700   12.15900   16.59240   16.59240  209.15140  307.50040  164.89310  307.50040    0.08020    -999.25    0.08020    1.97890  -85.19490  -55.87720  164.89310
 12150.00000    9.32520    8.17860    9.32520    -999.25    4.81550    0.21760    2.68600    0.01320    -999.25    0.01400  207.66290    0.21760   47.42550   47.42550   10.50420   16.98900   16.98900  207.66290 1324.77340  568.14120 1324.77340    0.03420    -999.25    0.03420    2.68600  -96.16780  -62.93710  568.14120
 12200.00000   11.38910    9.06560   11.38910    -999.25    9.13110    0.22080    1.92680    0.45710    -999.25    0.45800  109.51570    0.22080   49.56440   49.56440   20.90260   26.59560   26.59560  109.51570  116.36040  147.27280  116.36040    0.10480    -999.25    0.10480    1.92680  -95.47130  -58.30180  147.27280
