~Version ---------------------------------------------------
VERS.      2.0 : CWLS log ASCII Standard -VERSION 2.0
WRAP.       NO : One line per depth step
CREA. 12/21/17 : LAS Creation Date
~Well ------------------------------------------------------
STRT.FT                 1500.0 : START DEPTH
STOP.FT                10050.0 : STOP DEPTH
STEP.FT               50.00000 : STEP LENGTH
NULL.                  -999.25 : NULL VALUE
COMP.     CHEVRON STANDARD LTD : COMPANY
WELL. CHEVRON PEMBINA 6-3-51-7 : WELL
FLD .                          : FIELD
LOC .                          : LOCATION
CTRY.                   CANADA : COUNTRY
SRVC.             Schlumberger : SERVICE COMPANY
DATE.              05-Jul-1978 : LOGDATE
PROV.                  Alberta : PROVINCE
UWI .         100060305107W500 : UNIQUE WELL ID
SLAT.WGS84            53.37366 : SURFACE LATITUDE
SLON.WGS84           -114.9508 : SURFACE LONGITUDE
~Curve Information -----------------------------------------
DEPT    .FT    : Depth Curve
CALDED  .IN    : CALIPER FROM DENSITY LOG [ADJ.TO RESISTIVITY LOG]
CALSED  .IN    : CALIPER FROM SONIC LOG [ADJ.TO RESISTIVITY LOG]
CALWS   .IN    : CALIPER [CALDED]
CONDWS  .MMHO  : CONDUCTIVITY [1000/DRESWS]
DCORED  .G/C3  : DENSITY CORRECTION FROM DENSITY LOG [ADJ.TO RESISTIVITY LOG]
DCORWS  .G/C3  : DENSITY CORRECTION [DCORED]
DENWS   .G/C3  : FORMATION BULK DENSITY [RHOBED]
DPHILSED.V/V   : DENSITY POROSITY LIMESTONE [M=2.71,F=1.0] FROM DENSITY LOG [RESISTIVITY LOG]
DPHISSED.V/V   : DENSITY POROSITY SANDSTONE [M=2.65,F=1.0] FROM DENSITY LOG [RESISTIVITY LOG]
DPOLSWS .V/V   : DENSITY POROSITY LIMESTONE [CALC FROM DENWS,M=2.71, F=1.00]]
DRESWS  .OHMM  : DEEP RESISTIVITY [ILDED]
DTED    .US/F  : DELTA TIME FROM SONIC LOG [ADJ.TO RESISTIVITY LOG]
DTWS    .US/F  : COMPRESSIONAL SONIC [DTED]
GRDED   .GAPI  : GAMMA RAY FROM DENSITY LOG [ADJ.TO RESISTIVITY LOG]
GRSED   .GAPI  : GAMMA RAY FROM SONIC LOG [ADJ.TO RESISTIVITY LOG]
GRWS    .GAPI  : GAMMA RAY [GRSED SPL.TO GRDED @ 1554.5']
ILDED   .OHMM  : DEEP INDUCTION FROM RESISTIVITY LOG
ILMED   .OHMM  : MEDIUM INDUCTION FROM RESISTIVITY LOG
MRESWS  .OHMM  : MEDIUM RESISTIVITY [ILMED]
NPHILSED.V/V   : NEUTRON POROSITY LIMESTONE FROM DENSITY LOG [RESISTIVITY LOG]
NPHISSED.V/V   : NEUTRON POROSITY SANDSTONE FROM DENSITY LOG [RESISTIVITY LOG]
NPOLSWS .V/V   : NEUTRON POROSITY LIMESTONE [NPHISSED MATRIX SLB CONVERSION FOR LIMESTONE, SPL.TO NPHILSED @ 6010']
RHOBED  .G/C3  : BULK DENSITY FROM DENSITY LOG [ADJ.TO RESISTIVITY LOG]
SFLED   .OHMM  : SPHERICALLY FOCUSED FROM RESISTIVITY LOG
SPRED   .MV    : SPONTANEOUS POTENTIAL FROM RESISTIVITY LOG
SPWS    .MV    : SPONTANEOUS POTENTIAL [BASELINE 0 MV, SPRED]
SRESWS  .OHMM  : SHALLOW RESISTIVITY [SFLED]
~Params ----------------------------------------------------
PD  .                     GL : PERMANENT DATUM
EPD .FT               2688.6 : ELEVATION PERMANENT DATUM
LMF .                     KB : LOG MEASURED FROM
DAPD.FT                 17.4 : FEET ABOVE PERMANENT DATUM
EKB .FT                 2706 : KELLY BUSHING
EGL .FT               2688.6 : GROUND LEVEL
DATE.                0705/78 : RUN DATE
RUN .                      1 : RUN NUMBER
DD  .FT              3066.28 : DEPTH DRILLER
DL  .FT              3065.67 : DEPTH LOGGER
BLI .FT              3064.76 : BOTTOM LOG INTERVAL
TLI .FT               473.96 : TOP LOG INTERVAL
CBD .FT               473.96 : CASING BOTTOM DRILLER
CBL .FT               472.44 : CASING BOTTOM LOGGER
BS  .IN                 8.75 : BIT SIZE
BSD .FT              3066.28 : BIT SIZE AT DEPTH
DFT .                    GEL : DRILLING FLUID TYPE
DFD .                    110 : DRILLING FLUID DENSITY
DFV .                     75 : DRILLING FLUID VISCOSITY
DFPH.                    9.5 : DRILLING FLUID PH
MSS .            CIRCULATION : MUD SAMPLE SOURCE
RMS .OHMM               0.33 : RESISTIVITY MUD SAMPLE
MST .DEGF                 58 : MUD SAMPLE TEMPERATURE
RMF .OHMM               0.14 : RESISTIVITY MUD FILTRATE SAMPLE
MFST.DEGF                 68 : MUD FILTRATE SAMPLE TEMPERATURE
RMC .OHMM               0.15 : RESISTIVITY MUD CAKE
MCST.DEGF                 68 : MUD CAKE SAMPLE TEMPERATURE
TCS .HRS                   8 : TIME CIRCULATED STOPPED
LUN .                   7738 : LOGGING UNIT NUMBER
LUL .                    EDM : LOGGING UNIT LOCATION
ENGI.                ALVAREZ : RECORDING ENGINEER
WITN.                SPRAGUE : WITNESSED BY
CLNT.                A2DTECH : CLIENT CODE
ORIG.            2" 5" PRINT : ORIGIN OF DATA
UWI .       100060305107W500 : UNIQUE WELL ID
DICO. A2D Technologies, Inc. : DIGITIZING COMPANY
~Other -----------------------------------------------------
~ASCII -----------------------------------------------------
# ...
 2800.00000    9.99270    8.32530    9.99270  223.94910    0.00100    0.00100    2.05100    -999.25    0.35830    0.38540    4.46530  123.22210  123.22210   64.37180   73.21920   64.37180    4.46530    3.82610    3.82610    -999.25    0.50960    0.47030    2.05100    3.26210  -51.15620   -1.61690    3.26210
 2850.00000    8.79100    7.87840    8.79100   91.83920   -0.02720   -0.02720    2.25030    -999.25    0.24500    0.26880   10.88860   90.07510   90.07510   50.61370   56.44420   50.61370   10.88860   13.41880   13.41880    -999.25    0.31710    0.27310    2.25030   14.57660  -50.07990  -11.06210   14.57660
 2900.00000    8.56730    7.67110    8.56730   91.79620   -0.00340   -0.00340    2.22110    -999.25    0.26500    0.28590   10.89370   90.91860   90.91860   39.43930   42.38600   39.43930   10.89370   12.72640   12.72640    -999.25    0.33390    0.29010    2.22110   12.13040  -70.51560  -32.46930   12.13040
 2950.00000   12.67820    9.42470   12.67820  158.60680    0.09250    0.09250    2.03220    -999.25    0.37220    0.39640    6.30490   89.95600   89.95600   63.02190   69.47060   63.02190    6.30490    5.95630    5.95630    -999.25    0.33190    0.28810    2.03220    5.85200  -38.85130   -1.69200    5.85200
 3000.00000   10.62950    8.34460   10.62950  174.13720    0.05700    0.05700    1.96050    -999.25    0.42460    0.43830    5.74260   84.81040   84.81040   64.49220   69.44760   64.49220    5.74260    5.20990    5.20990    -999.25    0.40150    0.35870    1.96050    4.73460  -37.74690   -1.13760    4.73460
 3050.00000    9.73690    8.42100    9.73690  131.25940   -0.02450   -0.02450    2.34330    -999.25    0.18900    0.21440    7.61850   86.29900   86.29900   54.48040   55.11320   54.48040    7.61850    8.06230    8.06230    -999.25    0.30740    0.26340    2.34330    8.91960  -38.88820   -2.82890    8.91960
 3100.00000   11.16170    8.41710   11.16170  177.12600   -0.03090   -0.03090    2.38770    -999.25    0.16230    0.18850    5.64570   91.38060   91.38060   67.98950   69.17360   67.98950    5.64570    5.34750    5.34750    -999.25    0.33850    0.29480    2.38770    4.96590  -36.71470   -1.20900    4.96590
 3150.00000   10.37690    8.44310   10.37690   84.83990   -0.02070   -0.02070    2.30060    -999.25    0.21090    0.23940   11.78690   90.47830   90.47830   44.21600   49.10780   44.21600   11.78690   11.04870   11.04870    -999.25    0.31900    0.27510    2.30060   10.47330  -48.54230  -13.58670   10.47330
 3200.00000   10.76170    8.46160   10.76170  204.23590   -0.01950   -0.01950    2.21730    -999.25    0.26220    0.28810    4.89630   96.66880   96.66880   69.11650   69.51210   69.11650    4.89630    5.25280    5.25280    -999.25    0.40080    0.35790    2.21730    6.55070  -34.84890   -0.44680    6.55070
 3250.00000    8.74660    7.82840    8.74660  117.92170   -0.02430   -0.02430    2.28840    -999.25    0.21680    0.24650    8.48020   81.12570   81.12570   47.84260   56.16090   47.84260    8.48020    9.15830    9.15830    -999.25    0.31450    0.27060    2.28840   10.54960  -54.20910  -20.17470   10.54960
 3300.00000    9.96860    8.51060    9.96860  129.79600    0.00160    0.00160    2.16770    -999.25    0.29310    0.31710    7.70440   87.04180   87.04180   50.24180   56.75120   50.24180    7.70440    7.22960    7.22960    -999.25    0.31930    0.27540    2.16770    6.37150  -41.81790   -8.12510    6.37150
 3350.00000   10.62460    8.62860   10.62460  214.96130    0.07930    0.07930    2.01440    -999.25    0.38340    0.40680    4.65200   94.83360   94.83360   66.14180   72.50540   66.14180    4.65200    4.42530    4.42530    -999.25    0.40170    0.35890    2.01440    4.65130  -34.50970   -1.16070    4.65130
 3400.00000   10.58160    8.73870   10.58160  209.72710    0.03950    0.03950    2.07600    -999.25    0.34400    0.37080    4.76810   97.88990   97.88990   72.60250   76.93010   72.60250    4.76810    4.63180    4.63180    -999.25    0.43140    0.38920    2.07600    4.38910  -35.49430   -1.80790    4.38910
 3450.00000   10.51140    8.97870   10.51140  139.90910    0.00980    0.00980    2.10950    -999.25    0.32790    0.35120    7.14750   81.74640   81.74640   87.36240   98.36880   87.36240    7.14750    6.72640    6.72640    -999.25    0.36840    0.32500    2.10950    6.95370  -36.58220   -2.53490    6.95370
 3500.00000   10.67600    8.91110   10.67600  137.25890    0.02200    0.02200    2.07160    -999.25    0.35190    0.37330    7.28550   87.46770   87.46770   94.27580   97.37120   94.27580    7.28550    7.21230    7.21230    -999.25    0.41870    0.37620    2.07160    6.86500  -37.16670   -3.00870    6.86500
 3550.00000   10.37090    8.98000   10.37090  128.67200    0.01300    0.01300    2.05690    -999.25    0.35760    0.38190    7.77170   90.19880   90.19880   90.34710  101.12060   90.34710    7.77170    7.30440    7.30440    -999.25    0.37100    0.32770    2.05690    6.90880  -36.05850   -1.78970    6.90880
 3600.00000    9.50430    8.29690    9.50430  111.89060    0.04550    0.04550    2.27630    -999.25    0.23120    0.25360    8.93730   84.63650   84.63650   98.17290   96.80960   98.17290    8.93730    8.52950    8.52950    -999.25    0.38080    0.33760    2.27630    7.80810  -37.30520   -2.92500    7.80810
 3650.00000   10.25950    8.74810   10.25950  118.59020   -0.00250   -0.00250    2.42340    -999.25    0.14160    0.16760    8.43240   87.08270   87.08270  104.73920  103.43680  104.73920    8.43240    7.51610    7.51610    -999.25    0.35650    0.31290    2.42340    7.94450  -37.34960   -2.95430    7.94450
 3700.00000   11.08030    8.85450   11.08030  145.53080   -0.00290   -0.00290    2.46900    -999.25    0.10970    0.14090    6.87140   91.37200   91.37200  108.17560  121.99170  108.17560    6.87140    7.11880    7.11880    -999.25    0.38040    0.33720    2.46900    7.34350  -35.57600   -1.76600    7.34350
 3750.00000   12.24990    9.86540   12.24990  123.23620   -0.00340   -0.00340    2.49210    -999.25    0.10120    0.12740    8.11450   90.79600   90.79600  127.12980  134.99330  127.12980    8.11450    8.43860    8.43860    -999.25    0.36010    0.31660    2.49210    9.14870  -34.75450   -1.52590    9.14870
 3800.00000   12.67860    9.63190   12.67860  119.74470   -0.04240   -0.04240    2.47040    -999.25    0.11010    0.14010    8.35110   92.48540   92.48540  131.39100  138.63770  131.39100    8.35110    8.62930    8.62930    -999.25    0.35510    0.31150    2.47040    9.70020  -34.86810   -2.22100    9.70020
 3850.00000   12.60640    9.94300   12.60640  131.85130   -0.02270   -0.02270    2.49510    -999.25    0.09460    0.12570    7.58430   89.15610   89.15610  120.60840  117.44120  120.60840    7.58430    8.19770    8.19770    -999.25    0.32210    0.27830    2.49510    8.34230  -35.04550   -2.98370    8.34230
 3900.00000   12.98370    8.91090   12.98370  124.85800   -0.02620   -0.02620    2.50540    -999.25    0.08920    0.11970    8.00910   84.80060   84.80060  107.94100  112.24980  107.94100    8.00910    7.96600    7.96600    -999.25    0.29340    0.24950    2.50540    8.36680  -35.94970   -4.10040    8.36680
 3950.00000   13.23320    9.31220   13.23320  137.21750   -0.02870   -0.02870    2.49920    -999.25    0.09250    0.12330    7.28770   87.32400   87.32400   96.62930  115.31550   96.62930    7.28770    6.72790    6.72790    -999.25    0.31980    0.27590    2.49920    7.54270  -34.86950   -3.23420    7.54270
 4000.00000   13.49940    9.33580   13.49940  126.96640   -0.02390   -0.02390    2.48970    -999.25    0.09830    0.12880    7.87610   83.86050   83.86050  102.84320  110.52740  102.84320    7.87610    7.44880    7.44880    -999.25    0.29590    0.25190    2.48970    7.07780  -33.77210   -2.34930    7.07780
 4050.00000   12.98190    8.61360   12.98190  124.95160   -0.05020   -0.05020    2.48330    -999.25    0.10500    0.13260    8.00310   83.02230   83.02230  101.11150  105.40170  101.11150    8.00310    7.70920    7.70920    -999.25    0.29290    0.24890    2.48330    7.48050  -34.07950   -2.86920    7.48050
