~Version ---------------------------------------------------
VERS.      2.0 : CWLS log ASCII Standard -VERSION 2.0
WRAP.       NO : One line per depth step
CREA. 12/01/17 : LAS Creation Date
~Well ------------------------------------------------------
STRT.FT                        300.0 : START DEPTH
STOP.FT                      17800.0 : STOP DEPTH
STEP.FT                     50.00000 : STEP LENGTH
NULL.                        -999.25 : NULL VALUE
COMP.           BPOG OPERATIONS LTD. : COMPANY
WELL. BP MOBIL CREE ROUGH 4-21-38-12 : WELL
FLD .                                : FIELD
LOC .                                : LOCATION
CTRY.                         CANADA : COUNTRY
SRVC.                   Schlumberger : SERVICE COMPANY
DATE.                    26-Oct-1973 : LOGDATE
PROV.                        Alberta : PROVINCE
UWI .               100042103812W500 : UNIQUE WELL ID
SLAT.WGS84                  52.27739 : SURFACE LATITUDE
SLON.WGS84                 -115.6641 : SURFACE LONGITUDE
~Curve Information -----------------------------------------
DEPT  .FT    : Depth Curve
CALSED.IN    : CALIPER FROM SONIC LOG [ADJ. TO RESISTIVITY LOG]
CALWS .IN    : CALIPER [CALSED]
CILDED.MMHO  : CONDUCTIVITY FROM RESISTIVITY LOG
CONDWS.MMHO  : CONDUCTIVITY [1000/DRESWS]
DRESWS.OHMM  : DEEP RESISTIVITY [ILDED]
DTED  .US/F  : DELTA-T FROM SONIC LOG [ADJ. TO RESISTIVITY LOG]
DTWS  .US/F  : COMPRESSIONAL SONIC [DTED]
GRNED .CU    : GAMMA RAY FROM GRN LOG [ADJ. TO RESISTIVITY LOG]
GRSED .CU    : GAMMA RAY FROM SONIC LOG [ADJ. TO RESISTIVITY LOG]
GRWS  .GAPI  : GAMMA RAY [GRSED] GRWS IN CSG. @ 13195'-13297' @ 10API ADDED
ILDED .OHMM  : DEEP INDUCTION RESISTIVITY FROM RESISTIVITY LOG
ILMED .OHMM  : MEDIUM INDUCTION RESISTIVITY FROM RESISTIVITY LOG
LL8ED .OHMM  : LATEROLOG 8 FROM RESISTIVITY LOG
MRESWS.OHMM  : MEDIUM RESISTIVITY [ILMED]
NEUTED.CU    : NEUTRON FROM GRN LOG [ADJ. TO RESISTIVITY LOG]
NEUTWS.CU    : NEUTRON [NEUTED]
SNED  .OHMM  : SHORT NORMAL RESISTIVITY 16" FROM RESISTIVITY LOG
SPRED .MV    : SPONTANEOUS POTENTIAL FROM RESISTIVITY LOG
SPWS  .MV    : SPONTANEOUS POTENTIAL [BASELINE 0 MV,SPRED]
SRESWS.OHMM  : SHALLOW RESISTIVITY [LL8ED SPL. TO SNED @ 2008']
~Params ----------------------------------------------------
PD  .                     GL : PERMANENT DATUM
EPD .FT                 5371 : ELEVATION PERMANENT DATUM
LMF .                     KB : LOG MEASURED FROM
DAPD.FT                   24 : FEET ABOVE PERMANENT DATUM
EKB .FT                 5395 : KELLY BUSHING
EGL .FT                 5371 : GROUND LEVEL
DATE.               10/26/73 : RUN DATE
RUN .                      2 : RUN NUMBER
DD  .FT                17815 : DEPTH DRILLER
DL  .FT                17792 : DEPTH LOGGER
BLI .FT                17791 : BOTTOM LOG INTERVAL
TLI .FT                13299 : TOP LOG INTERVAL
CBD .FT                13265 : CASING BOTTOM DRILLER
CBL .FT                13299 : CASING BOTTOM LOGGER
BS  .IN                 8.25 : BIT SIZE
BSD .FT                17815 : BIT SIZE AT DEPTH
DFT .               GEL CHEM : DRILLING FLUID TYPE
DFD .                    8.9 : DRILLING FLUID DENSITY
DFV .                     41 : DRILLING FLUID VISCOSITY
DFPH.                    9.5 : DRILLING FLUID PH
DFL .                   11.9 : DRILLING FLUID LOSS
RMS .OHMM               1.05 : RESISTIVITY MUD SAMPLE
MST .DEGF                 72 : MUD SAMPLE TEMPERATURE
RMF .OHMM               0.76 : RESISTIVITY MUD FILTRATE SAMPLE
MFST.DEGF                 70 : MUD FILTRATE SAMPLE TEMPERATURE
RMB .OHMM               0.31 : RESISTIVITY MUD AT BHT
TCS .HRS                   5 : TIME CIRCULATED STOPPED
LUN .                   7640 : LOGGING UNIT NUMBER
LUL .                     RD : LOGGING UNIT LOCATION
ENGI.           NIXON KOVACS : RECORDING ENGINEER
WITN.      WILLIAMS COSTELLO : WITNESSED BY
CLNT.                A2DTECH : CLIENT CODE
ORIG.            2" 5" PRINT : ORIGIN OF DATA
UWI .       100042103812W500 : UNIQUE WELL ID
DICO. A2D Technologies, Inc. : DIGITIZING COMPANY
~Other -----------------------------------------------------
DIL-IEL-BHC-GRN LOG RUN.
SNED MISSING IN SEVERAL DEPTH AS PER PRINT.
~ASCII -----------------------------------------------------
# ...
 3800.00000   12.51210   12.51210    3.11170    2.80360  356.68180   51.63530   51.63530    -999.25   26.19550   26.19550  356.68180    -999.25    -999.25    -999.25    -999.25    -999.25    -999.25    -999.25    -999.25    -999.25
 3850.00000   12.46540   12.46540    2.07080    2.38340  419.57740   49.01600   49.01600    -999.25   24.84140   24.84140  419.57740    -999.25    -999.25    -999.25    -999.25    -999.25    -999.25    -999.25    -999.25    -999.25
 3900.00000   12.99350   12.99350    2.50710    2.85410  350.36830   50.01470   50.01470    -999.25   24.29710   24.29710  350.36830    -999.25    -999.25    -999.25    -999.25    -999.25    -999.25    -999.25    -999.25    -999.25
 3950.00000   12.77170   12.77170   11.96220   11.72720   85.32110   62.41760   62.41760    -999.25   65.53510   65.53510   85.32110    -999.25    -999.25    -999.25    -999.25    -999.25    -999.25    -999.25    -999.25    -999.25
 4000.00000   12.80700   12.80700   14.35560   13.33310   75.00130   62.08670   62.08670    -999.25   62.22360   62.22360   75.00130    -999.25    -999.25    -999.25    -999.25    -999.25    -999.25    -999.25    -999.25    -999.25
 4050.00000   12.63580   12.63580   11.62700   11.57470   86.39530   61.12880   61.12880    -999.25   74.26500   74.26500   86.39530    -999.25    -999.25    -999.25    -999.25    -999.25    -999.25    -999.25    -999.25    -999.25
 4100.00000   12.59120   12.59120   15.17740   14.83260   67.41920   63.24900   63.24900    -999.25   79.83450   79.83450   67.41920    -999.25    -999.25    -999.25    -999.25    -999.25    -999.25    -999.25    -999.25    -999.25
 4150.00000   12.67270   12.67270   17.92040   18.38820   54.38270   67.93380   67.93380    -999.25   90.96280   90.96280   54.38270    -999.25    -999.25    -999.25    -999.25    -999.25    -999.25    -999.25    -999.25    -999.25
 4200.00000   12.61690   12.61690   19.97100   19.95180   50.12090   66.18340   66.18340    -999.25   77.36340   77.36340   50.12090    -999.25    -999.25    -999.25    -999.25    -999.25    -999.25    -999.25    -999.25    -999.25
 4250.00000   12.39490   12.39490   17.23810   16.73350   59.76030   64.30720   64.30720    -999.25   73.18650   73.18650   59.76030    -999.25    -999.25    -999.25    -999.25    -999.25    -999.25    -999.25    -999.25    -999.25
 4300.00000   12.34220   12.34220   15.86100   15.26400   65.51380   63.28400   63.28400    -999.25   67.73760   67.73760   65.51380    -999.25    -999.25    -999.25    -999.25    -999.25    -999.25    -999.25    -999.25    -999.25
 4350.00000   12.37140   12.37140   18.39640   18.11890   55.19110   66.13360   66.13360    -999.25   71.05440   71.05440   55.19110    -999.25    -999.25    -999.25    -999.25    -999.25    -999.25    -999.25    -999.25    -999.25
 4400.00000   12.49710   12.49710   18.35630   17.53000   57.04520   69.45530   69.45530    -999.25   80.77850   80.77850   57.04520    -999.25    -999.25    -999.25    -999.25    -999.25    -999.25    -999.25    -999.25    -999.25
 4450.00000   12.59530   12.59530    3.78540    3.35120  298.40260   58.70910   58.70910    -999.25   81.88340   81.88340  298.40260    -999.25    -999.25    -999.25    -999.25    -999.25    -999.25    -999.25    -999.25    -999.25
 4500.00000   12.15400   12.15400    3.24700    2.79500  357.77710   65.28930   65.28930    -999.25  135.46590  135.46590  357.77710    -999.25    -999.25    -999.25    -999.25    -999.25    -999.25    -999.25    -999.25    -999.25
 4550.00000   12.22580   12.22580    3.45350    2.38940  418.52130   53.44180   53.44180    -999.25   32.53540   32.53540  418.52130    -999.25    -999.25    -999.25    -999.25    -999.25    -999.25    -999.25    -999.25    -999.25
 4600.00000   12.19030   12.19030    5.91970    5.79980  172.42030   56.56850   56.56850    -999.25   45.99250   45.99250  172.42030    -999.25    -999.25    -999.25    -999.25    -999.25    -999.25    -999.25    -999.25    -999.25
 4650.00000   12.17490   12.17490    2.32980    1.55860  641.60890   51.39990   51.39990    -999.25   27.46190   27.46190  641.60890    -999.25    -999.25    -999.25    -999.25    -999.25    -999.25    -999.25    -999.25    -999.25
 4700.00000   12.17750   12.17750    2.38930    2.34520  426.47570   52.73010   52.73010    -999.25   37.38480   37.38480  426.47570    -999.25    -999.25    -999.25    -999.25    -999.25    -999.25    -999.25    -999.25    -999.25
 4750.00000   12.51020   12.51020    3.01150    1.95140  512.44280   48.96440   48.96440    -999.25   25.67380   25.67380  512.44280    -999.25    -999.25    -999.25    -999.25    -999.25    -999.25    -999.25    -999.25    -999.25
 4800.00000   12.04930   12.04930    2.97340    2.35080  425.38930   50.23570   50.23570    -999.25   26.34360   26.34360  425.38930    -999.25    -999.25    -999.25    -999.25    -999.25    -999.25    -999.25    -999.25    -999.25
 4850.00000   12.05460   12.05460   10.42170    9.51480  105.09960   61.93810   61.93810    -999.25   68.18890   68.18890  105.09960    -999.25    -999.25    -999.25    -999.25    -999.25    -999.25    -999.25    -999.25    -999.25
 4900.00000   12.02710   12.02710    2.06350    1.59610  626.52990   50.99860   50.99860    -999.25   27.72100   27.72100  626.52990    -999.25    -999.25    -999.25    -999.25    -999.25    -999.25    -999.25    -999.25    -999.25
 4950.00000   11.96060   11.96060    0.97850    0.87470 1143.20660   51.96890   51.96890    -999.25   33.65400   33.65400 1143.20660    -999.25    -999.25    -999.25    -999.25    -999.25    -999.25    -999.25    -999.25    -999.25
 5000.00000   12.04320   12.04320    1.31010    1.21050  826.07170   53.06380   53.06380    -999.25   40.86980   40.86980  826.07170    -999.25    -999.25    -999.25    -999.25    -999.25    -999.25    -999.25    -999.25    -999.25
 5050.00000   12.06390   12.06390    0.00480    0.87570 1141.93380   49.09920   49.09920    -999.25   23.30120   23.30120 1141.93380    -999.25    -999.25    -999.25    -999.25    -999.25    -999.25    -999.25    -999.25    -999.25
 5100.00000   12.17620   12.17620    1.84380    0.87800 1139.00900   45.06920   45.06920    -999.25   17.32530   17.32530 1139.00900    -999.25    -999.25    -999.25    -999.25    -999.25    -999.25    -999.25    -999.25    -999.25
 5150.00000   12.72640   12.72640    0.61970    0.87720 1140.02260   44.67910   44.67910    -999.25   27.24830   27.24830 1140.02260    -999.25    -999.25    -999.25    -999.25    -999.25    -999.25    -999.25    -999.25    -999.25
 5200.00000   12.78650   12.78650    1.34310    1.05550  951.54670   45.07260   45.07260    -999.25   27.25140   27.25140  951.54670    -999.25    -999.25    -999.25    -999.25    -999.25    -999.25    -999.25    -999.25    -999.25
 5250.00000   12.78750   12.78750    1.57240    1.02140  979.05050   45.06960   45.06960    -999.25   15.49790   15.49790  979.05050    -999.25    -999.25    -999.25    -999.25    -999.25    -999.25    -999.25    -999.25    -999.25
 5300.00000   12.46700   12.46700    1.15180    0.87520 1142.54480   43.12050   43.12050    -999.25   14.96350   14.96350 1142.54480    -999.25    -999.25    -999.25    -999.25    -999.25    -999.25    -999.25    -999.25    -999.25
 5350.00000   12.53700   12.53700    4.58050    5.18930  192.70390   65.81060   65.81060    -999.25  149.57590  149.57590  192.70390    -999.25    -999.25    -999.25    -999.25    -999.25    -999.25    -999.25    -999.25    -999.25
 5400.00000   12.17330   12.17330    4.37820    3.56880  280.20510   59.87580   59.87580    -999.25  105.27630  105.27630  280.20510    -999.25    -999.25    -999.25    -999.25    -999.25    -999.25    -999.25    -999.25    -999.25
 5450.00000   12.40370   12.40370    2.60570    2.35630  426.64590   52.23390   52.23390    -999.25   77.62080   77.62080  426.64590    -999.25    -999.25    -999.25    -999.25    -999.25    -999.25    -999.25    -999.25    -999.25
 5500.00000   12.33990   12.33990   11.05500   10.66540   93.76100   67.16480   67.16480    -999.25  134.10520  134.10520   93.76100    -999.25    -999.25    -999.25    -999.25    -999.25    -999.25    -999.25    -999.25    -999.25
