~Version ---------------------------------------------------
VERS.      2.0 : CWLS log ASCII Standard -VERSION 2.0
WRAP.       NO : One line per depth step
CREA. 10/06/17 : LAS Creation Date
~Well ------------------------------------------------------
STRT.FT                        300.0 : START DEPTH
STOP.FT                       6300.0 : STOP DEPTH
STEP.FT                     50.00000 : STEP LENGTH
NULL.                        -999.25 : NULL VALUE
COMP.       DOW CHEMICAL CANADA INC. : COMPANY
WELL. DOW 103B FTSASK NACL 14-11-55- : WELL
FLD .                                : FIELD
LOC .                                : LOCATION
CTRY.                         CANADA : COUNTRY
SRVC.                        Unknown : SERVICE COMPANY
DATE.                    04-Mar-1977 : LOGDATE
PROV.                        Alberta : PROVINCE
UWI .               106141105522W400 : UNIQUE WELL ID
SLAT.WGS84                   53.7424 : SURFACE LATITUDE
SLON.WGS84                 -113.1655 : SURFACE LONGITUDE
~Curve Information -----------------------------------------
DEPT   .FT    : Depth Curve
CALDED .IN    : CALIPER FROM DENSITY FROM DENSITY LOG
CALWS  .IN    : CALIPER [CALDED]
CORRED .G/C3  : DENSITY CORRECTION FROM DENSITY LOG
DCORWS .G/C3  : DENSITY CORRECTION [CORRED]
DENWS  .G/C3  : FORMATION BULK DENSITY [RHOBED]
DPOLSWS.V/V   : DENSITY POROSITY LIMESTONE [ CALC. FROM DENWS, ASSUMED M=2.71, F=1.0]
GRDED  .GAPI  : GAMMA RAY FROM DENSITY LOG
GRNED  .GAPI  : GAMMA RAY FROM  NEUTRON LOG [ADJ. TO DENSITY LOG]
GRWS   .GAPI  : GAMMA RAY [GRDED SPL. TO GRNED @ 690']
NEUTED .NAPI  : NEUTRON FROM NEUTRON LOG [ADJ. TO DENSITY LOG]
NEUTWS .NAPI  : NEUTRON [NEUTED]
RHOBED .G/C3  : BULK DENSITY FROM DENSITY LOG
~Params ----------------------------------------------------
PD  .                     GL : PERMANENT DATUM
EPD .FT               2059.1 : ELEVATION PERMANENT DATUM
LMF .                     KB : LOG MEASURED FROM
DAPD.FT                 18.5 : FEET ABOVE PERMANENT DATUM
DMF .                     KB : DRILLING MEASURED FROM
EKB .FT               2076.6 : KELLY BUSHING
EGL .FT               2059.1 : GROUND LEVEL
DATE.               03/04/77 : RUN DATE
RUN .                      1 : RUN NUMBER
DD  .FT                 6320 : DEPTH DRILLER
DL  .FT                 6322 : DEPTH LOGGER
BLI .FT                 6320 : BOTTOM LOG INTERVAL
TLI .FT                  694 : TOP LOG INTERVAL
CS  .IN                   16 : CASING SIZE
CBD .FT                  700 : CASING BOTTOM DRILLER
BS  .IN                14.75 : BIT SIZE
BSD .FT                 6320 : BIT SIZE AT DEPTH
DFT .               SALT GEL : DRILLING FLUID TYPE
TCS .HRS                   3 : TIME CIRCULATED STOPPED
ENGI.               FRENETTE : RECORDING ENGINEER
WITN.                  PASNA : WITNESSED BY
CLNT.                A2DTECH : CLIENT CODE
ORIG.            2" 5" PRINT : ORIGIN OF DATA
UWI .       106141105522W400 : UNIQUE WELL ID
DICO. A2D Technologies, Inc. : DIGITIZING COMPANY
~Other -----------------------------------------------------
GRN-DEN LOG RAN
~ASCII -----------------------------------------------------
  300.00000    -999.25    -999.25    -999.25    -999.25    -999.25    -999.25    -999.25   74.09080   74.09080   72.37950   72.37950    -999.25
  350.00000    -999.25    -999.25    -999.25    -999.25    -999.25    -999.25    -999.25   65.01830   65.01830   87.84070   87.84070    -999.25
  400.00000    -999.25    -999.25    -999.25    -999.25    -999.25    -999.25    -999.25   61.59960   61.59960   91.50320   91.50320    -999.25
  450.00000    -999.25    -999.25    -999.25    -999.25    -999.25    -999.25    -999.25   65.62060   65.62060  104.53840  104.53840    -999.25
  500.00000    -999.25    -999.25    -999.25    -999.25    -999.25    -999.25    -999.25   63.55600   63.55600   80.40870   80.40870    -999.25
  550.00000    -999.25    -999.25    -999.25    -999.25    -999.25    -999.25    -999.25   70.97660   70.97660  122.37390  122.37390    -999.25
  600.00000    -999.25    -999.25    -999.25    -999.25    -999.25    -999.25    -999.25   67.73730   67.73730  102.58060  102.58060    -999.25
  650.00000    -999.25    -999.25    -999.25    -999.25    -999.25    -999.25    -999.25   60.91610   60.91610   89.68870   89.68870    -999.25
  700.00000   15.68440   15.68440    0.02270    0.02270    2.36620    0.20110   75.94530   87.96560   75.94530   99.63000   99.63000    2.36620
  750.00000   14.58690   14.58690   -0.03930   -0.03930    1.59740    0.65060   61.92220   76.10970   61.92220   70.05200   70.05200    1.59740
  800.00000   16.16420   16.16420    0.11180    0.11180    2.11400    0.34860   63.99080   68.75510   63.99080   58.04820   58.04820    2.11400
  850.00000   15.06520   15.06520    0.01400    0.01400    2.32940    0.22260   83.02050   85.17260   83.02050   71.68750   71.68750    2.32940
  900.00000   14.67510   14.67510    0.00550    0.00550    2.33700    0.21810   76.96060   88.11210   76.96060   55.09510   55.09510    2.33700
  950.00000   14.77020   14.77020    0.01190    0.01190    2.37770    0.19430   88.55240   96.81910   88.55240   80.61790   80.61790    2.37770
 1000.00000   15.39100   15.39100    0.01200    0.01200    2.40090    0.18080   83.17450   91.20750   83.17450   98.02060   98.02060    2.40090
 1050.00000   15.79190   15.79190    0.02110    0.02110    2.40370    0.17910   92.69000  110.98270   92.69000   97.52840   97.52840    2.40370
 1100.00000   16.22600   16.22600    0.02210    0.02210    2.43140    0.16290  104.02710  112.35440  104.02710  139.88320  139.88320    2.43140
 1150.00000   17.09860   17.09860   -0.03020   -0.03020    1.86670    0.49310  108.43690  123.98620  108.43690  158.50330  158.50330    1.86670
 1200.00000   16.22970   16.22970    0.01410    0.01410    2.39820    0.18230   97.37410  123.03520   97.37410  149.87880  149.87880    2.39820
 1250.00000   19.61640   19.61640   -0.03160   -0.03160    1.46280    0.72940   66.28820   77.54940   66.28820   61.88960   61.88960    1.46280
 1300.00000   19.83900   19.83900    0.02190    0.02190    1.56340    0.67060   65.94070   79.53410   65.94070   67.89050   67.89050    1.56340
 1350.00000   19.68170   19.68170   -0.01140   -0.01140    1.47930    0.71970   62.42820   74.64100   62.42820   58.97650   58.97650    1.47930
 1400.00000   19.73130   19.73130   -0.02310   -0.02310    1.47210    0.72390   90.54420  109.42890   90.54420   93.52940   93.52940    1.47210
 1450.00000   14.34360   14.34360    0.01300    0.01300    2.30710    0.23560  210.09090  215.90100  210.09090  114.88580  114.88580    2.30710
 1500.00000   14.55040   14.55040    0.00550    0.00550    2.39610    0.18360  172.18910  155.08990  172.18910  125.53260  125.53260    2.39610
 1550.00000   14.56870   14.56870    0.03810    0.03810    2.40780    0.17680  177.68550  160.00200  177.68550   87.02580   87.02580    2.40780
 1600.00000   19.88730   19.88730    0.09550    0.09550    1.82100    0.51990  106.27320  106.29190  106.27320  102.37820  102.37820    1.82100
 1650.00000   19.45790   19.45790   -0.00010   -0.00010    1.58420    0.65830   89.73330  112.31000   89.73330   80.97090   80.97090    1.58420
 1700.00000   16.67300   16.67300    0.11400    0.11400    2.30280    0.23810  115.96850  111.42890  115.96850   81.91180   81.91180    2.30280
 1750.00000   19.75740   19.75740   -0.01680   -0.01680    1.48080    0.71880   40.38580   54.41790   40.38580   57.76920   57.76920    1.48080
 1800.00000   19.72470   19.72470   -0.02470   -0.02470    1.47030    0.72500   72.55620   76.66590   72.55620   55.97390   55.97390    1.47030
 1850.00000   19.87720   19.87720   -0.01740   -0.01740    1.48200    0.71810   89.47180   95.11840   89.47180   63.10510   63.10510    1.48200
 1900.00000   19.12600   19.12600    0.02350    0.02350    1.74750    0.56290  117.63050  107.30130  117.63050   79.34560   79.34560    1.74750
 1950.00000   14.86540   14.86540    0.00650    0.00650    2.40600    0.17780  123.65240  125.22790  123.65240   70.12000   70.12000    2.40600
 2000.00000   14.66720   14.66720   -0.00580   -0.00580    2.40330    0.17940  148.90030  138.61970  148.90030   77.43620   77.43620    2.40330
 2050.00000   14.44840   14.44840   -0.00730   -0.00730    2.33580    0.21880  149.55440  137.46150  149.55440   64.15920   64.15920    2.33580
 2100.00000   14.53000   14.53000    0.01420    0.01420    2.43850    0.15880  188.17320  177.80580  188.17320  134.79250  134.79250    2.43850
 2150.00000   14.41530   14.41530    0.00920    0.00920    2.42190    0.16850  177.54640  161.53210  177.54640   98.81030   98.81030    2.42190
 2200.00000   13.40740   13.40740    0.02220    0.02220    2.39150    0.18630  181.61070  167.83880  181.61070  139.63600  139.63600    2.39150
 2250.00000   13.77420   13.77420    0.10550    0.10550    2.42790    0.16500  117.45080  121.87000  117.45080   95.42880   95.42880    2.42790
 2300.00000   14.07920   14.07920    0.05460    0.05460    2.13030    0.33900  110.24460  103.82640  110.24460   77.63880   77.63880    2.13030
 2350.00000   13.83090   13.83090    0.01390    0.01390    2.44100    0.15730  117.10970  120.74730  117.10970  104.37090  104.37090    2.44100
 2400.00000   14.52960   14.52960    0.00680    0.00680    2.41830    0.17060  105.95860  104.66360  105.95860   95.14660   95.14660    2.41830
 2450.00000   15.10780   15.10780    0.11860    0.11860    2.11930    0.34540   99.89080   99.64950   99.89080   84.96470   84.96470    2.11930
 2500.00000   17.01750   17.01750   -0.06200   -0.06200    1.42970    0.74870   63.89350   76.66110   63.89350   43.58080   43.58080    1.42970
 2550.00000   15.36740   15.36740    0.15360    0.15360    2.17890    0.31060   79.54310   84.50220   79.54310   53.71170   53.71170    2.17890
 2600.00000   14.76710   14.76710    0.04120    0.04120    2.45760    0.14760   92.15100   92.42860   92.15100   68.83820   68.83820    2.45760
 2650.00000   16.72720   16.72720    0.10620    0.10620    2.40480    0.17850   71.74500   73.81650   71.74500   59.98410   59.98410    2.40480
 2700.00000   17.72600   17.72600    0.07150    0.07150    2.40220    0.18000   76.71980   82.58090   76.71980   33.67450   33.67450    2.40220
 2750.00000   16.21790   16.21790    0.06260    0.06260    2.36570    0.20130   69.07330   68.47640   69.07330   56.66610   56.66610    2.36570
 2800.00000   15.20160   15.20160    0.05940    0.05940    2.35120    0.20990   82.40320   87.08420   82.40320   77.40000   77.40000    2.35120
 2850.00000   17.47480   17.47480    0.07570    0.07570    2.40930    0.17580   60.88410   65.27290   60.88410   66.49400   66.49400    2.40930
 2900.00000   16.09080   16.09080    0.01510    0.01510    2.28780    0.24690   69.10450   73.54020   69.10450   99.31510   99.31510    2.28780
 2950.00000   18.57540   18.57540    0.08300    0.08300    1.85690    0.49890   68.40810   79.79060   68.40810   49.90840   49.90840    1.85690
 3000.00000   15.72630   15.72630    0.05670    0.05670    2.58560    0.07270   54.21540   68.46620   54.21540  318.65680  318.65680    2.58560
 3050.00000   16.11260   16.11260    0.03310    0.03310    2.49450    0.12600   94.39510  101.38270   94.39510  136.10580  136.10580    2.49450
