~Version ---------------------------------------------------
VERS.      2.0 : CWLS log ASCII Standard -VERSION 2.0
WRAP.       NO : One line per depth step
CREA. 12/07/17 : LAS Creation Date
~Well ------------------------------------------------------
STRT.FT                                  350.0 : START DEPTH
STOP.FT                                 9450.0 : STOP DEPTH
STEP.FT                               50.00000 : STEP LENGTH
NULL.                                  -999.25 : NULL VALUE
COMP. THE BRITISH AMERICAN OIL COMPANY LIMITED : COMPANY
WELL.              B.A. GOOSE RIVER 4-32-66-18 : WELL
FLD .                                          : FIELD
LOC .                                          : LOCATION
CTRY.                                   CANADA : COUNTRY
SRVC.                             Schlumberger : SERVICE COMPANY
DATE.                              02-Dec-1964 : LOGDATE
PROV.                                  Alberta : PROVINCE
UWI .                         100043206618W500 : UNIQUE WELL ID
SLAT.WGS84                            54.75185 : SURFACE LATITUDE
SLON.WGS84                           -116.6939 : SURFACE LONGITUDE
~Curve Information -----------------------------------------
DEPT  .FT    : Depth Curve
CALSED.IN    : CALIPER FROM SONIC LOG  [ADJ. TO RESISTIVITY LOG]
CALWS .IN    : CALIPER [CALSED]
CILDED.MMHO  : DEEP INDUCTION CONDUCTIVITY FROM RESISTIVITY LOG
CONDWS.MMHO  : CONDUCTIVITY [1000/DRESWS]
DRESWS.OHMM  : DEEP RESISTIVITY [1000/CILDED IF ILDED <1, ILDED]
DT1ED .US/F  : DELTA-T (INTERVAL TRANSIT TIME) (SPAN 1') FROM SONIC LOG  [ADJ. TO RESISTIVITY LOG]
DTED  .US/F  : DELTA-T (INTERVAL TRANSIT TIME) (SPAN 3') FROM SONIC LOG [ADJ. TO RESISTIVITY LOG]
DTWS  .US/F  : COMPRESSIONAL SONIC [DTED]
GRED  .GAPI  : GAMMA RAY FROM CBL LOG
GRNED .GAPI  : GAMMA RAY FROM GRN LOG  [ADJ. TO RESISTIVITY LOG]
GRSED .GAPI  : GAMMA RAY FROM SONIC LOG  [ADJ. TO RESISTIVITY LOG]
GRWS  .GAPI  : GAMMA RAY [GRED SPL. TO GRSED @ 717']
ILDED .OHMM  : DEEP INDUCTION RESISTIVITY FROM RESISTIVITY LOG
NEUTED.NAPI  : NEUTRON  FROM GRN LOG  [ADJ. TO RESISTIVITY LOG]
NEUTWS.NAPI  : NEUTRON [NEUTED]
SNED  .OHMM  : SHORT NORMAL RESISTIVITY FROM RESISTIVITY LOG
SPRED .MV    : SPONTANEOUS POTENTIAL FROM RESISTIVITY LOG
SPWS  .MV    : SPONTANEOUS POTENTIAL [BASELINE 0 MV,SPRED]
SRESWS.OHMM  : SHALLOW RESISTIVITY [SNED]
~Params ----------------------------------------------------
PD  .                     GL : PERMANENT DATUM
EPD .FT                 2485 : ELEVATION PERMANENT DATUM
LMF .                     KB : LOG MEASURED FROM
DAPD.FT                   15 : FEET ABOVE PERMANENT DATUM
EKB .FT                 2500 : KELLY BUSHING
EGL .FT                 2485 : GROUND LEVEL
DATE.               12/02/64 : RUN DATE
RUN .                      1 : RUN NUMBER
DD  .FT                 9461 : DEPTH DRILLER
DL  .FT                 9460 : DEPTH LOGGER
BLI .FT                 9459 : BOTTOM LOG INTERVAL
TLI .FT                  781 : TOP LOG INTERVAL
CBD .FT                  784 : CASING BOTTOM DRILLER
CBL .FT                  781 : CASING BOTTOM LOGGER
BS  .IN                7.625 : BIT SIZE
BSD .FT                 9461 : BIT SIZE AT DEPTH
DFT .               GEL CHEM : DRILLING FLUID TYPE
DFD .                    9.8 : DRILLING FLUID DENSITY
DFV .                     95 : DRILLING FLUID VISCOSITY
DFPH.                    9.5 : DRILLING FLUID PH
DFL .                    7.4 : DRILLING FLUID LOSS
RMS .OHMM               2.38 : RESISTIVITY MUD SAMPLE
MST .DEGF                 64 : MUD SAMPLE TEMPERATURE
RMF .OHMM                2.1 : RESISTIVITY MUD FILTRATE SAMPLE
MFST.DEGF                 66 : MUD FILTRATE SAMPLE TEMPERATURE
RMC .OHMM               2.32 : RESISTIVITY MUD CAKE
MCST.DEGF                 66 : MUD CAKE SAMPLE TEMPERATURE
RMB .OHMM               0.84 : RESISTIVITY MUD AT BHT
TCS .HRS                   6 : TIME CIRCULATED STOPPED
LUN .                   3534 : LOGGING UNIT NUMBER
LUL .                    V V : LOGGING UNIT LOCATION
ENGI.               CHENOSKY : RECORDING ENGINEER
WITN.                  WEISS : WITNESSED BY
CLNT.                A2DTECH : CLIENT CODE
ORIG.            2" 5" PRINT : ORIGIN OF DATA
UWI .       100043206618W500 : UNIQUE WELL ID
DICO. A2D Technologies, Inc. : DIGITIZING COMPANY
~Other -----------------------------------------------------
IEL-BHC-GRN CBL LOG RUN
~ASCII -----------------------------------------------------
  350.00000    -999.25    -999.25    -999.25    -999.25    -999.25    -999.25    -999.25    -999.25   41.55570    -999.25    -999.25   41.55570    -999.25    -999.25    -999.25    -999.25    -999.25    -999.25    -999.25
  400.00000    -999.25    -999.25    -999.25    -999.25    -999.25    -999.25    -999.25    -999.25   37.87740    -999.25    -999.25   37.87740    -999.25    -999.25    -999.25    -999.25    -999.25    -999.25    -999.25
  450.00000    -999.25    -999.25    -999.25    -999.25    -999.25    -999.25    -999.25    -999.25   32.97410    -999.25    -999.25   32.97410    -999.25    -999.25    -999.25    -999.25    -999.25    -999.25    -999.25
  500.00000    -999.25    -999.25    -999.25    -999.25    -999.25    -999.25    -999.25    -999.25   44.10480    -999.25    -999.25   44.10480    -999.25    -999.25    -999.25    -999.25    -999.25    -999.25    -999.25
  550.00000    -999.25    -999.25    -999.25    -999.25    -999.25    -999.25    -999.25    -999.25    -999.25    -999.25    -999.25    -999.25    -999.25    -999.25    -999.25    -999.25    -999.25    -999.25    -999.25
  600.00000    -999.25    -999.25    -999.25    -999.25    -999.25    -999.25    -999.25    -999.25    -999.25    -999.25    -999.25    -999.25    -999.25    -999.25    -999.25    -999.25    -999.25    -999.25    -999.25
  650.00000    -999.25    -999.25    -999.25    -999.25    -999.25    -999.25    -999.25    -999.25    -999.25    -999.25    -999.25    -999.25    -999.25    -999.25    -999.25    -999.25    -999.25    -999.25    -999.25
  700.00000    -999.25    -999.25    -999.25    -999.25    -999.25    -999.25    -999.25    -999.25    -999.25    -999.25    -999.25    -999.25    -999.25    -999.25    -999.25    -999.25    -999.25    -999.25    -999.25
  750.00000    -999.25    -999.25    -999.25    -999.25    -999.25    -999.25    -999.25    -999.25    -999.25    -999.25   55.77410   55.77410    -999.25    -999.25    -999.25    -999.25    -999.25    -999.25    -999.25
  800.00000    8.41910    8.41910  115.16390  117.76570    8.52750    -999.25  116.76160  116.76160    -999.25    -999.25   76.65500   76.65500    8.52750    -999.25    -999.25    8.34230  -56.64760  -18.70010    8.34230
  850.00000    9.80290    9.80290  258.50370  307.46530    3.25240    -999.25  131.55840  131.55840    -999.25    -999.25   64.37460   64.37460    3.25240    -999.25    -999.25    2.87540  -56.18740  -18.23990    2.87540
  900.00000   10.66960   10.66960  277.71060  307.92560    3.24850    -999.25  146.24190  146.24190    -999.25    -999.25   78.32310   78.32310    3.24850    -999.25    -999.25    2.90920  -55.82470  -17.87720    2.90920
  950.00000    9.99400    9.99400  240.76410  266.04940    3.75870    -999.25  123.70400  123.70400    -999.25    -999.25   75.94510   75.94510    3.75870    -999.25    -999.25    3.04370  -52.96530  -15.01780    3.04370
 1000.00000    8.56550    8.56550  153.14630  172.16990    5.85510    -999.25  111.15230  111.15230    -999.25    -999.25   67.52540   67.52540    5.85510    -999.25    -999.25    4.73910  -49.70270  -11.75520    4.73910
 1050.00000    9.69540    9.69540  202.96270  220.27730    4.54080    -999.25  139.90110  139.90110    -999.25    -999.25   74.97220   74.97220    4.54080    -999.25    -999.25    3.63510  -44.78810   -6.84060    3.63510
 1100.00000   10.28560   10.28560  278.45980  308.33740    3.24320    -999.25  145.66940  145.66940    -999.25    -999.25   58.92110   58.92110    3.24320    -999.25    -999.25    2.64740  -41.16140   -3.21390    2.64740
 1150.00000    7.96660    7.96660  102.68540  104.17590    9.59910    -999.25  120.15940  120.15940    -999.25    -999.25   63.77470   63.77470    9.59910    -999.25    -999.25    8.76030  -47.72680   -9.77930    8.76030
 1200.00000    7.69040    7.69040   97.94140   98.68060   10.13370    -999.25  114.54470  114.54470    -999.25    -999.25   61.83230   61.83230   10.13370    -999.25    -999.25    8.75490  -49.14110  -11.19360    8.75490
 1250.00000    8.35140    8.35140  159.91120  165.59060    6.04270    -999.25  111.27460  111.27460    -999.25    -999.25   53.74620   53.74620    6.04270    -999.25    -999.25    4.91780  -45.58820   -7.64070    4.91780
 1300.00000    9.34800    9.34800  216.91010  221.77920    4.50980    -999.25  113.63610  113.63610    -999.25    -999.25   59.57530   59.57530    4.50980    -999.25    -999.25    4.20160  -41.60540   -3.66790    4.20160
 1350.00000    9.85490    9.85490  190.20240  202.14270    4.94700    -999.25  115.20370  115.20370    -999.25    -999.25   56.96900   56.96900    4.94700    -999.25    -999.25    4.41040  -38.04680   -0.12870    4.41040
 1400.00000    8.33850    8.33850   35.24740   34.09930   29.34490    -999.25  107.75610  107.75610    -999.25    -999.25   39.13500   39.13500   29.34490    -999.25    -999.25   31.92790  -48.96670  -11.06780   31.92790
 1450.00000    9.95710    9.95710  267.12910  299.82310    3.33530    -999.25  128.81780  128.81780    -999.25    -999.25   64.66630   64.66630    3.33530    -999.25    -999.25    2.84840  -40.14780   -2.26830    2.84840
 1500.00000    9.88980    9.88980  193.75210  198.38770    5.04460    -999.25  104.07160  104.07160    -999.25    -999.25   57.29610   57.29610    5.04460    -999.25    -999.25    4.18650  -42.01520   -4.15490    4.18650
 1550.00000   10.08920   10.08920  244.18290  254.64330    3.92800    -999.25  115.12060  115.12060    -999.25    -999.25   65.48640   65.48640    3.92800    -999.25    -999.25    3.63110  -41.48750   -3.64650    3.63110
 1600.00000    8.20580    8.20580   81.20050   82.23410   12.16040    -999.25  111.18160  111.18160    -999.25    -999.25   51.01460   51.01460   12.16040    -999.25    -999.25   10.12630  -52.34300  -14.52140   10.12630
 1650.00000    9.67460    9.67460  237.92320  244.59970    4.09070    -999.25  120.82490  120.82490    -999.25    -999.25   57.88160   57.88160    4.09070    -999.25    -999.25    3.76040  -41.06140   -3.25900    3.76040
 1700.00000    9.56480    9.56480  139.45160  128.43900    7.78580    -999.25   82.57810   82.57810    -999.25    -999.25   54.59640   54.59640    7.78580    -999.25    -999.25    7.42670  -41.20120   -3.41820    7.42670
 1750.00000    8.67740    8.67740  141.51500  143.93910    6.96430    -999.25  108.28730  108.28730    -999.25    -999.25   60.44640   60.44640    6.96430    -999.25    -999.25    6.39070  -41.47180   -3.70800    6.39070
 1800.00000    9.37390    9.37390  221.40190  241.59110    4.13970    -999.25   97.11150   97.11150    -999.25    -999.25   64.94970   64.94970    4.13970    -999.25    -999.25    3.74260  -40.68470   -2.94020    3.74260
 1850.00000   10.29360   10.29360  232.76620  254.53060    3.92880    -999.25  113.27690  113.27690    -999.25    -999.25   61.85160   61.85160    3.92880    -999.25    -999.25    3.61250  -41.33570   -3.61060    3.61250
 1900.00000   11.43960   11.43960  253.02310  267.23840    3.74230    -999.25  117.18050  117.18050    -999.25    -999.25   57.02500   57.02500    3.74230    -999.25    -999.25    3.45110  -41.61540   -3.90950    3.45110
 1950.00000   11.04470   11.04470  225.46110  234.37320    4.26670    -999.25  103.82950  103.82950    -999.25    -999.25   62.06820   62.06820    4.26670    -999.25    -999.25    3.95940  -40.87970   -3.19320    3.95940
 2000.00000   11.03560   11.03560  243.96430  255.04950    3.92090    -999.25  114.59710  114.59710    -999.25    -999.25   61.48800   61.48800    3.92090    -999.25    -999.25    3.53420  -41.08620   -3.41890    3.53420
 2050.00000    8.75820    8.75820  135.93190  141.14220    7.08820    -999.25  107.52290  107.52290    -999.25    -999.25   55.82800   55.82800    7.08820    -999.25    -999.25    7.69900  -48.21750  -10.56950    7.69900
 2100.00000    8.90910    8.90910  237.33700  246.56050    4.05580    -999.25  110.60020  110.60020    -999.25    -999.25   61.13900   61.13900    4.05580    -999.25    -999.25    3.78700  -44.58630   -6.95770    3.78700
 2150.00000   10.53940   10.53940  272.02000  282.07670    3.54520    -999.25  113.30190  113.30190    -999.25    -999.25   61.47310   61.47310    3.54520    -999.25    -999.25    3.21490  -43.62500   -6.01560    3.21490
