~Version ---------------------------------------------------
VERS. 2.0 : CWLS log ASCII Standard -VERSION 2.0
WRAP.  NO : ONE LINE PER DEPTH STEP
~Well ------------------------------------------------------
STRT.M                       300.0 : START DEPTH
STOP.M                      1750.0 : STOP DEPTH
STEP.M                    50.00000 : STEP LENGTH
NULL.                      -999.25 : NULL VALUE
COMP. HUSKY OIL OPERATIONS LIMITED : COMPANY
WELL. HUSKY ET AL NIPISI 2-20-81-8 : WELL
FLD .                              : FIELD
LOC .                              : LOCATION
CTRY.                       CANADA : COUNTRY
SRVC.                 Schlumberger : SERVICE COMPANY
DATE.                  20-Jul-1987 : LOGDATE
PROV.                      Alberta : PROVINCE
UWI .             100022008108W500 : UNIQUE WELL ID
SLAT.WGS84              56.0305488 : SURFACE LATITUDE
SLON.WGS84         -115.2102050431 : SURFACE LONGITUDE
~Curve Information -----------------------------------------
DEPT    .M      : DEPTH METERS
CALDED  .MM     : CALIPER FROM DENSITY LOG
CALWS   .MM     : CALIPER [CALDED]
CONDWS  .MMHO   : CONDUCTIVITY [1000/DRESWS]
DCORWS  .KG/M3  : DENSITY CORRECTION [DRHOED]
DENWS   .KG/M3  : BULK DENSITY [M=2710 F=1000] [RHOBED]
DPHILSED.V/V    : DENSITY POROSITY [M=2710 F=1000] FROM DENSITY LOG
DPOLSWS .V/V    : DENSITY POROSITY [M=2710 F=1000] [CALCULATED FROM DENWS]
DRESWS  .OHMM   : DEEP RESISTIVITY [IDPHED]
DRHOED  .KG/M3  : DENSITY CORRECTION FROM DENSITY LOG
DTED    .US/M   : DELTA TIME FROM SONIC LOG
DTWS    .US/M   : DELTA TIME [DTED]
GRDED   .GAPI   : GAMMA RAY FROM DENSITY LOG
GRWS    .GAPI   : GAMMA RAY [GRDED] CSG @ 323M
IDPHED  .OHMM   : INDUCTION DEEP PHASE RESISTIVITY
IMPHED  .OHMM   : INDUCTION MEDIUM PHASE RESISTIVITY
MRESWS  .OHMM   : MEDIUM RESISTIVITY [IMPHED]
NPHILSED.V/V    : NEUTRON POROSITY LIMESTONE FROM DENSITY LOG
NPOLSWS .V/V    : NEUTRON POROSITY LIMESTONE [NPHILSED] CSG @ 323M
PEFED   .B/E    : PHOTOELECTRIC FACTOR FROM DENSITY LOG
PEFWS   .B/E    : PHOTOELECTRIC FACTOR [PEFED]
RHOBED  .KG/M3  : BULK DENSITY FROM DENSITY LOG
SFLUED  .OHMM   : SPHERICALLY FOCUSED LOG RESISTIVITY
SPRED   .MV     : SPONTANEOUS POTENTIAL FROM RESISTIVITY LOG
SPWS    .MV     : SPONTANEOUS POTENTIAL [BASELINE 0 MV] [SPRED]
SRESWS  .OHMM   : SHALLOW RESISTIVITY [SFLUED]
~Params ----------------------------------------------------
PD  .                         GL : PERMANENT DATUM
EPD .M                     649.1 : ELEVATION PERMANENT DATUM
LMF .                         KB : LOG MEASURED FROM
DAPD.M                       4.7 : FEET ABOVE PERMANENT DATUM
DMF .                         KB : DRILLING MEASURED FROM
EKB .M                     653.8 : KELLY BUSHING
EDF .M                     653.4 : DRILLING FLOOR
EGL .M                     649.1 : GROUND LEVEL
DATE.                    7/20/87 : RUN DATE
RUN .                          1 : RUN NUMBER
DD  .M                      1790 : DEPTH DRILLER
DL  .M                      1790 : DEPTH LOGGER
BLI .M                      1789 : BOTTOM LOG INTERVAL
TLI .M                       323 : TOP LOG INTERVAL
CS  .MM                    244.5 : CASING SIZE
CBD .M                       323 : CASING BOTTOM DRILLER
CBL .M                       323 : CASING BOTTOM LOGGER
BS  .MM                      222 : BIT SIZE
BSD .M                      1790 : BIT SIZE AT DEPTH
DFT .                   GEL CHEM : DRILLING FLUID TYPE
DFD .                       1120 : DRILLING FLUID DENSITY
DFV .                         58 : DRILLING FLUID VISCOSITY
DFPH.                       10.5 : DRILLING FLUID PH
DFL .                         11 : DRILLING FLUID LOSS
MSS .                       CIRC : MUD SAMPLE SOURCE
RMS .OHMM                   0.97 : RESISTIVITY MUD SAMPLE
MST .DEGC                     18 : MUD SAMPLE TEMPERATURE
RMF .OHMM                  0.832 : RESISTIVITY MUD FILTRATE SAMPLE
MFST.DEGC                     18 : MUD FILTRATE SAMPLE TEMPERATURE
RMC .OHMM                   0.95 : RESISTIVITY MUD CAKE
MCST.DEGC                     18 : MUD CAKE SAMPLE TEMPERATURE
MFSS.                     FILTER : MUD FILTRATE SAMPLE SOURCE
MCSS.                      PRESS : MUD CAKE SAMPLE SOURCE
RMB .OHMM                  0.502 : RESISTIVITY MUD AT BHT
TCS .HRS                    1045 : TIME CIRCULATED STOPPED
TLAB.HRS                    1645 : TIME LOGGER AT BOTTOM
LUN .                       8163 : LOGGING UNIT NUMBER
LUL .                 SLAVE LAKE : LOGGING UNIT LOCATION
ENGI.                     MURRAY : RECORDING ENGINEER
WITN.                    MCGRATH : WITNESSED BY
CLNT.                    A2DTECH : CLIENT CODE
ORIG. 6.5"/100M 16.5"/100M PRINT : ORIGIN OF DATA
UWI .           100022008108W500 : UNIQUE WELL ID
DICO.     A2D Technologies, Inc. : DIGITIZING COMPANY
~Other -----------------------------------------------------
~ASCII -----------------------------------------------------
  300.00000    -999.25    -999.25    -999.25    -999.25    -999.25    -999.25    -999.25    -999.25    -999.25    -999.25    -999.25   51.60010   51.60010    -999.25    -999.25    -999.25    0.54530    0.54530    -999.25    -999.25    -999.25    -999.25    -999.25    -999.25    -999.25
  350.00000  311.71770  311.71770  293.61680   -0.16510 2211.36400    0.29160    0.29160    3.40580   -0.16510  474.46110  474.46110   58.49610   58.49610    3.40580    3.55060    3.55060    0.44150    0.44150    2.73730    2.73730 2210.56860    3.43370  -74.25040  -13.55880    3.43370
  400.00000  278.86890  278.86890  197.62060    8.59670 2228.29300    0.28170    0.28170    5.06020    8.59670  405.48220  405.48220   63.75040   63.75040    5.06020    4.66960    4.66960    0.41150    0.41150    2.99130    2.99130 2225.49240    4.46390  -80.67130  -19.44260    4.46390
  450.00000  353.63480  353.63480  227.65040   31.37950 2173.57300    0.31370    0.31370    4.39270   31.37950  400.29150  400.29150   58.57620   58.57620    4.39270    3.91760    3.91760    0.45320    0.45320    2.65440    2.65440 2164.30490    3.48270  -73.41370  -11.64790    3.48270
  500.00000  354.40600  354.40600  129.01060   26.29870 1887.14790    0.48120    0.48120    7.75130   26.29870  389.58770  389.58770   53.44000   53.44000    7.75130    6.18590    6.18590    0.47800    0.47800    2.13720    2.13720 1894.06200    5.60990  -68.81290   -6.51010    5.60990
  550.00000  307.02350  307.02350   47.02050   37.85050 2427.85010    0.16500    0.16500   21.26730   37.85050  280.04870  280.04870   41.25980   41.25980   21.26730   21.42140   21.42140    0.31400    0.31400    2.94840    2.94840 2427.74950   23.30200  -65.55990   -3.31740   23.30200
  600.00000  304.95260  304.95260  101.98150    0.20210 2541.39400    0.09860    0.09860    9.80570    0.20210  282.86420  282.86420   47.35990   47.35990    9.80570    8.41790    8.41790    0.28780    0.28780    3.34400    3.34400 2540.09620    9.32990  -73.32570  -13.07770    9.32990
  650.00000  272.84180  272.84180   40.64360    1.42210 2634.24710    0.04430    0.04430   24.60410    1.42210  202.76930  202.76930   18.03460   18.03460   24.60410   22.85150   22.85150    0.10660    0.10660    5.78090    5.78090 2636.03420   23.81080  -73.24170  -14.98820   23.81080
  700.00000  255.64200  255.64200   52.17000   -6.89290 2608.59690    0.05930    0.05930   19.16810   -6.89290  209.93800  209.93800   18.33930   18.33930   19.16810   17.81040   17.81040    0.12140    0.12140    4.99530    4.99530 2603.06150   19.03810  -71.36890  -15.70660   19.03810
  750.00000  255.48800  255.48800   53.65930   -3.17760 2619.19900    0.05310    0.05310   18.63610   -3.17760  212.01390  212.01390   18.51870   18.51870   18.63610   18.11380   18.11380    0.12350    0.12350    4.67320    4.67320 2616.07450   20.90010  -72.15360  -18.71680   20.90010
  800.00000  320.51600  320.51600   19.13670   69.48500 2547.72090    0.09490    0.09490   52.25560   69.48500  184.14750  184.14750   16.19370   16.19370   52.25560   60.08310   60.08310    0.16680    0.16680    4.15660    4.15660 2543.79960   80.27600 -110.21870  -58.29180   80.27600
  850.00000  300.57210  300.57210   32.55410   15.08790 2545.49800    0.09620    0.09620   30.71810   15.08790  194.85610  194.85610   17.14570   17.14570   30.71810   45.93570   45.93570    0.15900    0.15900    4.62170    4.62170 2541.91060   73.56290 -106.18830  -56.15660   73.56290
  900.00000  289.53520  289.53520   33.31860   23.66550 2588.59010    0.07100    0.07100   30.01330   23.66550  183.29140  183.29140   11.76990   11.76990   30.01330   39.94080   39.94080    0.14040    0.14040    4.76220    4.76220 2585.93140   91.12130 -101.83420  -53.69760   91.12130
  950.00000  264.61210  264.61210   19.29410    0.68800 2629.80100    0.04690    0.04690   51.82930    0.68800  176.61400  176.61400   11.45410   11.45410   51.82930   62.69960   62.69960    0.08840    0.08840    4.63390    4.63390 2627.60770   89.37200  -99.48770  -53.24620   89.37200
 1000.00000  264.73130  264.73130    3.15120   -4.30790 2680.24610    0.01740    0.01740  317.33900   -4.30790  166.98090  166.98090   12.89200   12.89200  317.33900  401.89430  401.89430    0.03700    0.03700    5.04770    5.04770 2677.12740  154.50770  -94.78680  -50.44050  154.50770
 1050.00000  276.96130  276.96130   24.99660   15.49550 2609.96510    0.05850    0.05850   40.00540   15.49550  174.31910  174.31910   13.23670   13.23670   40.00540   51.00210   51.00210    0.12670    0.12670    4.19520    4.19520 2603.92940   75.04130 -100.22510  -57.77390   75.04130
 1100.00000  252.54310  252.54310   64.40230   13.09150 2657.33200    0.03080    0.03080   15.52740   13.09150  185.60420  185.60420   39.74280   39.74280   15.52740   18.21300   18.21300    0.16680    0.16680    3.22280    3.22280 2659.62210   28.79940  -72.03640  -31.48040   28.79940
 1150.00000  239.19490  239.19490   38.63110   12.28990 2719.57590   -0.00560   -0.00560   25.88590   12.28990  173.76310  173.76310   21.46030   21.46030   25.88590   30.29360   30.29360    0.17280    0.17280    3.12280    3.12280 2719.30690   53.26350  -97.17420  -58.51330   53.26350
 1200.00000  235.12090  235.12090   57.18110   -5.09520 2641.60010    0.04000    0.04000   17.48830   -5.09520  211.49400  211.49400   32.44470   32.44470   17.48830   17.43990   17.43990    0.12120    0.12120    4.92210    4.92210 2643.98340   17.01590  -44.75710   -7.99130   17.01590
 1250.00000  291.02740  291.02740  303.09460   75.80450 2355.17500    0.20750    0.20750    3.29930   75.80450  317.28520  317.28520   72.11050   72.11050    3.29930    3.05500    3.05500    0.38610    0.38610    3.16190    3.16190 2346.15410    3.07750  -44.22840   -9.35780    3.07750
 1300.00000  306.22630  306.22630  425.67680  136.34210 2252.57500    0.26750    0.26750    2.34920  136.34210  336.88890  336.88890   74.60520   74.60520    2.34920    2.24310    2.24310    0.46320    0.46320    2.80360    2.80360 2254.48630    2.38300  -42.11760   -7.22790    2.38300
 1350.00000  253.58900  253.58900  152.67180   86.10070 2233.76510    0.27850    0.27850    6.55000   86.10070  234.21740  234.21740   46.74000   46.74000    6.55000    5.23610    5.23610    0.22720    0.22720    3.06280    3.06280 2127.77200    4.30720  -38.23620  -15.68380    4.30720
 1400.00000  251.13840  251.13840  138.65780   19.09050 2516.42800    0.11320    0.11320    7.21200   19.09050  241.77420  241.77420   52.35610   52.35610    7.21200    7.26280    7.26280    0.21630    0.21630    3.69480    3.69480 2513.04050    7.48150  -26.57250   -6.20430    7.48150
 1450.00000  468.87160  468.87160  386.71260  111.90020 2071.31490    0.37350    0.37350    2.58590  111.90020  401.99130  401.99130   67.07520   67.07520    2.58590    1.99630    1.99630    0.63180    0.63180    1.79820    1.79820 2016.34450    2.52110  -32.48330  -14.29930    2.52110
 1500.00000  383.37680  383.37680  265.27310  126.08560 2140.39890    0.33310    0.33310    3.76970  126.08560  292.31210  292.31210   57.94530   57.94530    3.76970    3.06250    3.06250    0.40380    0.40380    2.58800    2.58800 2128.91870    2.67750  -29.52500  -13.52520    2.67750
 1550.00000  289.88930  289.88930   85.11430   70.72660 2630.48510    0.04650    0.04650   11.74890   70.72660  221.98990  221.98990   37.74370   37.74370   11.74890   11.78650   11.78650    0.19480    0.19480    3.79370    3.79370 2631.30490   11.73270  -16.91980   -5.40320   11.73270
 1600.00000  288.87340  288.87340  104.58280    1.88370 2655.45090    0.03190    0.03190    9.56180    1.88370  229.78590  229.78590   60.36430   60.36430    9.56180    9.09190    9.09190    0.21740    0.21740    4.13050    4.13050 2653.45830    9.60620  -11.30370   -6.07670    9.60620
 1650.00000  237.58920  237.58920    2.90180    3.65800 2927.85400   -0.12740   -0.12740  344.61180    3.65800  176.81110  176.81110   12.89250   12.89250  344.61180  359.28490  359.28490    0.04450    0.04450    5.60470    5.60470 2926.35110  401.63920  -27.63670  -22.97770  401.63920
