~Version ---------------------------------------------------
VERS.      2.0 : CWLS log ASCII Standard -VERSION 2.0
WRAP.       NO : One line per depth step
CREA. 09/27/17 : LAS Creation Date
~Well ------------------------------------------------------
STRT.FT                        300.0 : START DEPTH
STOP.FT                      12850.0 : STOP DEPTH
STEP.FT                     50.00000 : STEP LENGTH
NULL.                        -999.25 : NULL VALUE
COMP.  WESTERN DECALTA PETROLEUM LTD : COMPANY
WELL. DECALTA ET AL BRAZR 6-31-47-13 : WELL
FLD .                  BRAZEAU RIVER : FIELD
LOC .                                : LOCATION
CTRY.                         CANADA : COUNTRY
SRVC.                   Schlumberger : SERVICE COMPANY
DATE.                    15-Mar-1978 : LOGDATE
PROV.                        Alberta : PROVINCE
UWI .               100063104713W500 : UNIQUE WELL ID
SLAT.WGS84                  53.09535 : SURFACE LATITUDE
SLON.WGS84                 -115.8946 : SURFACE LONGITUDE
~Curve Information -----------------------------------------
DEPT    .FT    : Depth Curve
CALDED  .IN    : CALIPER FROM DENSITY LOG [ADJ. TO RESISTIVITY LOG]
CALSED  .IN    : CALIPER FROM SONIC LOG [ADJ. TO RESISTIVITY LOG]
CALWS   .IN    : CALIPER [CALSED]
CONDWS  .MMHO  : CONDUCTIVITY [1000/DRESWS]
DCORWS  .G/C3  : DENSITY CORRECTION [DRHOED]
DENWS   .G/C3  : FORAMTION BULK DENSITY [CALC FROM DPOLSWS,M=2.71, F=1.00]
DPHILSED.V/V   : DENSITY POROSITY LIMESTONE [M=2.71, F=1.00] FROM DENSITY LOG [ADJ. TO RESISTIVITY LOG]
DPHISSED.V/V   : DENSITY POROSITY SANDSTONE [M=2.65, F=1.00] FROM DENSITY LOG [ADJ. TO RESISTIVITY LOG]
DPOLSWS .V/V   : DENSITY POROSITY LIMESTONE [DPHISSED MATRIX CONVERTED TO LS & SPL. TO DPHILSED @ 9450']
DRESWS  .OHMM  : DEEP RESISTIVITY [ILDED]
DRHOED  .G/C3  : DENSITY CORRECTION FROM DENSITY LOG [ADJ. TO RESISTIVITY LOG]
DTED    .US/F  : DELTA TIME FROM SONIC LOG [ADJ. TO RESISTIVITY LOG]
DTWS    .US/F  : COMPRESSIONAL SONIC [DTED]
GRDED   .GAPI  : GAMMA RAY FROM DENSITY LOG [ADJ. TO RESISTIVITY LOG]
GRSED   .GAPI  : GAMMA RAY FROM SONIC LOG [ADJ. TO RESISTIVITY LOG]
GRWS    .GAPI  : GAMMA RAY [GRSED SPL. TO GRDED @ 12818']
ILDED   .OHMM  : DEEP INDUCTION RESISTIVITY FROM RESISTIVITY LOG
ILMED   .OHMM  : MEDIUM INDUCTION RESISTIVITY FROM RESISTIVITY LOG
LL8ED   .OHMM  : 8 INCH LATEROLOG RESISTIVITY FROM RESISTIVITY LOG
MRESWS  .OHMM  : MEDIUM RESISTIVITY [ILMED]
NPHILSED.V/V   : NEUTRON POROSITY LIMESTONE FROM DENSITY LOG [ADJ. TO RESISTIVITY LOG]
NPHISSED.V/V   : NEUTRON POROSITY SANDSTONE FROM DENSITY LOG [ADJ. TO RESISTIVITY LOG]
NPOLSWS .V/V   : NEUTRON POROSITY LIMESTONE [NPHISSED MATRIX CONVERTED TO LS & SPL. TO NPHILSED @ 9350']
RHOBED  .G/C3  : BULK DENSITY FROM DENSITY LOG [ADJ. TO RESISTIVITY LOG]
SPRED   .MV    : SPONTANEOUS POTENTIAL FROM RESISTIVITY LOG
SPWS    .MV    : SPONTANEOUS POTENTIAL [BASELINE 0 MV, SPRED]
SRESWS  .OHMM  : SHALLOW RESISTIVITY [LL8ED]
~Params ----------------------------------------------------
PD  .                     GL : PERMANENT DATUM
EPD .FT                 3420 : ELEVATION PERMANENT DATUM
LMF .                     KB : LOG MEASURED FROM
DAPD.FT                   27 : FEET ABOVE PERMANENT DATUM
DMF .                     KB : DRILLING MEASURED FROM
EGL .FT                 3420 : GROUND LEVEL
DATE.               03/15/78 : RUN DATE
RUN .                      2 : RUN NUMBER
DD  .FT                12857 : DEPTH DRILLER
DL  .FT                12856 : DEPTH LOGGER
BLI .FT                12850 : BOTTOM LOG INTERVAL
TLI .FT                10390 : TOP LOG INTERVAL
CS  .IN                9.625 : CASING SIZE
CBD .FT                10395 : CASING BOTTOM DRILLER
CBL .FT                10390 : CASING BOTTOM LOGGER
BS  .IN                6.125 : BIT SIZE
BSD .FT                12857 : BIT SIZE AT DEPTH
DFT .                    GEL : DRILLING FLUID TYPE
DFD .                   10.3 : DRILLING FLUID DENSITY
DFV .                     44 : DRILLING FLUID VISCOSITY
DFPH.                   11.5 : DRILLING FLUID PH
DFL .                    8.8 : DRILLING FLUID LOSS
MSS .               FLOWLINE : MUD SAMPLE SOURCE
RMS .OHMM               0.89 : RESISTIVITY MUD SAMPLE
MST .DEGF                 62 : MUD SAMPLE TEMPERATURE
TCS .HRS                 2.5 : TIME CIRCULATED STOPPED
LUN .                   7687 : LOGGING UNIT NUMBER
LUL .                    EDA : LOGGING UNIT LOCATION
ENGI.               BERNISKY : RECORDING ENGINEER
WITN.                  COWAN : WITNESSED BY
CLNT.                A2DTECH : CLIENT CODE
ORIG.            2" 5" PRINT : ORIGIN OF DATA
UWI .       100063104713W500 : UNIQUE WELL ID
DICO. A2D Technologies, Inc. : DIGITIZING COMPANY
~Other -----------------------------------------------------
DIL-LL-CNL-FDC-BHC LOG RUN
NEUTRON CONVERSION: SCHLUMBERGER, DESCRIPTION: CNL(NPHI)
~ASCII -----------------------------------------------------
# ...
 8100.00000   10.78190    9.55210    9.55210  124.16040    0.07600    2.51540    -999.25    0.08160    0.11380    8.05410    0.07600   78.41610   78.41610  118.69280  109.95620  109.95620    8.05410    7.57390    9.29260    7.57390    -999.25    0.26620    0.22220    2.52730 -119.85990   -4.36010    9.29260
 8150.00000   12.26930   10.03940   10.03940  159.91810    0.12370    2.51400    -999.25    0.07790    0.11030    6.25320    0.12370   83.32730   83.32730  116.64480  112.04390  112.04390    6.25320    5.93190    8.13890    5.93190    -999.25    0.29950    0.25550    2.52420 -120.13220   -5.12840    8.13890
 8200.00000   12.83610   10.56320   10.56320  162.49590    0.17700    2.50380    -999.25    0.08860    0.12060    6.15400    0.17700   82.48190   82.48190  111.56400  106.68160  106.68160    6.15400    5.96090    7.49920    5.96090    -999.25    0.30330    0.25930    2.50990 -120.37570   -5.86790    7.49920
 8250.00000   12.81750   10.87610   10.87610  155.38570    0.13130    2.51880    -999.25    0.07670    0.10910    6.43560    0.13130   87.25670   87.25670  163.20790  149.71460  149.71460    6.43560    6.02910    8.66600    6.02910    -999.25    0.33900    0.29530    2.52180 -119.90000   -5.88820    8.66600
 8300.00000   14.67690   10.94550   10.94550  312.51950    0.14820    2.39960    -999.25    0.15830    0.18780    3.19980    0.14820   91.10310   91.10310  108.59860  110.70380  110.70380    3.19980    3.00760    3.90210    3.00760    -999.25    0.36560    0.32220    2.39920 -117.72730   -4.21150    3.90210
 8350.00000   14.58370   11.03600   11.03600  232.85060    0.15780    2.46210    -999.25    0.11390    0.14500    4.29460    0.15780   86.10190   86.10190  102.87710  104.95450  104.95450    4.29460    4.51410    5.51590    4.51410    -999.25    0.35090    0.30730    2.47070 -116.81730   -3.79750    5.51590
 8400.00000    9.36240    9.32220    9.32220   49.36980    0.00660    2.59010    -999.25    0.03970    0.07340   20.25530    0.00660   69.32390   69.32390   64.27510   58.40360   58.40360   20.25530   17.67640   22.52050   17.67640    -999.25    0.14470    0.10220    2.58810 -116.95660   -4.43280   22.52050
 8450.00000   10.76040   11.20720   11.20720  335.44660    0.15950    2.43300    -999.25    0.13150    0.16200    2.98110    0.15950   84.59420   84.59420  101.51070   87.44800   87.44800    2.98110    3.16320    3.77400    3.16320    -999.25    0.41300    0.37040    2.43580 -114.29210   -2.26430    3.77400
 8500.00000   10.01730    9.86580    9.86580   60.86950    0.01550    2.51900    -999.25    0.08630    0.11840   16.42860    0.01550   76.41130   76.41130   52.00420   46.18610   46.18610   16.42860   15.23280   20.27390   15.23280    -999.25    0.18200    0.13880    2.51810 -124.61610  -14.28580   20.27390
 8550.00000   10.67480   10.95740   10.95740   99.15220    0.00740    2.29950    -999.25    0.19860    0.22670   10.08550    0.00740   83.44960   83.44960   85.69360   82.69210   82.69210   10.08550    8.90080   15.14110    8.90080    -999.25    0.40730    0.36460    2.32620 -115.56430   -6.95600   15.14110
 8600.00000    9.51130    9.43760    9.43760   29.08440    0.02000    2.67340    -999.25   -0.01420    0.02140   34.38270    0.02000   56.13700   56.13700   36.42260   32.82380   32.82380   34.38270   24.36030  104.42680   24.36030    -999.25    0.09070    0.05010    2.67190 -115.82290   -8.93660  104.42680
 8650.00000   10.48930   10.16670   10.16670  106.16610    0.00890    2.61670    -999.25    0.01790    0.05230    9.41920    0.00890   70.56220   70.56220   88.30240   83.20820   83.20820    9.41920   10.27320   12.71300   10.27320    -999.25    0.25690    0.21290    2.62060 -116.76630  -11.60200   12.71300
 8700.00000   10.76380   10.37180   10.37180   74.94060    0.02440    2.64670    -999.25    0.00200    0.03700   13.34390    0.02440   68.52240   68.52240   71.65980   67.57450   67.57450   13.34390   12.25210   19.47440   12.25210    -999.25    0.22330    0.17960    2.64410 -121.39620  -17.95390   19.47440
 8750.00000   10.55670   10.34090   10.34090   85.05500    0.00710    2.64310    -999.25   -0.00100    0.03410   11.75710    0.00710   69.01980   69.01980   80.13310   78.67720   78.67720   11.75710   11.05990   13.51880   11.05990    -999.25    0.18640    0.14320    2.64840 -117.16370  -18.05660   13.51880
 8800.00000   10.52500   10.56850   10.56850   63.24550    0.04550    2.64340    -999.25    0.00110    0.03610   15.81140    0.04550   66.70670   66.70670   73.78450   73.69330   73.69330   15.81140   14.87980   24.38570   14.87980    -999.25    0.23060    0.18680    2.64270  -99.74460   -6.99970   24.38570
 8850.00000    9.66450    9.32940    9.32940   32.77270    0.03030    2.57470    -999.25    0.04560    0.07910   30.51320    0.03030   65.28740   65.28740   44.72940   40.04050   40.04050   30.51320   29.55490   48.56330   29.55490    -999.25    0.10060    0.05920    2.58350 -101.91780  -11.60940   48.56330
 8900.00000    9.80080    9.66100    9.66100   55.60840    0.02730    2.63620    -999.25    0.00040    0.03550   17.98290    0.02730   67.87500   67.87500   70.23300   65.75130   65.75130   17.98290   16.01800   21.29630   16.01800    -999.25    0.15530    0.11260    2.65120 -100.76920  -12.89730   21.29630
 8950.00000    9.87340    9.73380    9.73380   32.49250    0.01020    2.67530    -999.25   -0.01530    0.02030   30.77630    0.01020   58.43920   58.43920   36.88770   34.80760   34.80760   30.77630   32.60230   44.50830   32.60230    -999.25    0.10110    0.05970    2.67530  -99.41820  -13.98290   44.50830
 9000.00000   13.27560    9.98980    9.98980   32.82520    0.26420    2.33750    -999.25    0.20220    0.23020   30.46440    0.26420   67.62730   67.62730   30.86420   31.70990   31.70990   30.46440   39.21260   44.59940   39.21260    -999.25    0.08710    0.04690    2.32960 -101.49960  -18.50080   44.59940
 9050.00000   11.46680   10.02000   10.02000   63.12970    0.21140    2.52830    -999.25    0.08120    0.11340   15.84040    0.21140   74.80240   74.80240   83.55060   84.16130   84.16130   15.84040   19.52880   21.89280   19.52880    -999.25    0.22200    0.17830    2.51430  -90.87220  -10.30990   21.89280
 9100.00000    9.40990    9.48770    9.48770   20.86220    0.02260    2.66540    -999.25   -0.00930    0.02610   47.93360    0.02260   60.31850   60.31850   74.24690   72.20960   72.20960   47.93360   51.44060   91.98100   51.44060    -999.25    0.14630    0.10380    2.67010  -85.92360   -6.99380   91.98100
 9150.00000    9.41110    9.29530    9.29530   35.15540    0.00430    2.67350    -999.25   -0.01490    0.02070   28.44510    0.00430   63.73070   63.73070   82.07340   81.70050   81.70050   28.44510   30.90360   56.34060   30.90360    -999.25    0.16350    0.12070    2.67290  -89.26850  -10.33870   56.34060
 9200.00000   10.98290    9.83350    9.83350   44.80090    0.21040    2.40310    -999.25    0.14970    0.17950   22.32100    0.21040   74.77720   74.77720  103.65020  100.69730  100.69730   22.32100   25.55660   40.37350   25.55660    -999.25    0.28510    0.24110    2.38460  -91.54700  -12.61720   40.37350
 9250.00000   10.05550    9.58920    9.58920   73.77900    0.25400    2.53930    -999.25    0.07370    0.10620   13.55400    0.25400   75.79000   75.79000  117.45410  112.09060  112.09060   13.55400   14.52170   19.72430   14.52170    -999.25    0.25060    0.20670    2.54000  -97.15810  -18.22840   19.72430
 9300.00000    8.84760    9.47180    9.47180    0.64200    0.02260    2.62520    0.21010    0.01290    0.04750 1557.51390    0.02260   60.11820   60.11820   21.21600   19.19720   19.19720 1557.51390  446.58150  422.59200  446.58150    0.00560    0.03690    0.00610    2.62460  -84.51040   -5.92650  422.59200
 9350.00000    8.88970    8.78320    8.78320   59.97400    0.00940    2.65530   -0.00170   -0.00320    0.03200   16.67390    0.00940   68.01980   68.01980   80.44570   74.36840   74.36840   16.67390   15.39700   22.08560   15.39700    0.13100    0.16330    0.13100    2.65540 -100.99380  -29.32730   22.08560
