~Version ---------------------------------------------------
VERS.      2.0 : CWLS log ASCII Standard -VERSION 2.0
WRAP.       NO : One line per depth step
CREA. 08/01/17 : LAS Creation Date
~Well ------------------------------------------------------
STRT.FT                        1000.0 : START DEPTH
STOP.FT                        9200.0 : STOP DEPTH
STEP.FT                      50.00000 : STEP LENGTH
NULL.                         -999.25 : NULL VALUE
COMP.                LL&E  CANADA LTD : COMPANY
WELL. LL&E ET AL CHICKADEE 7-35-60-14 : WELL
FLD .                        WINDFALL : FIELD
LOC .                                 : LOCATION
CTRY.                          CANADA : COUNTRY
SRVC.                    Schlumberger : SERVICE COMPANY
DATE.                     10-Nov-1969 : LOGDATE
PROV.                         Alberta : PROVINCE
UWI .                100073506014W500 : UNIQUE WELL ID
SLAT.WGS84                     54.229 : SURFACE LATITUDE
SLON.WGS84                  -115.9821 : SURFACE LONGITUDE
~Curve Information -----------------------------------------
DEPT  .FT    : Depth Curve
CALSED.IN    : CALIPER FROM SONIC LOG
CALWS .IN    : CALIPER [CALSED]
CONDWS.MMHO  : CONDUCTIVITY [1000/DRESWS]
DRESWS.OHMM  : DEEP RESISTIVITY [ILDED]
DTED  .US/F  : DELTA TIME FROM SONIC LOG
DTWS  .US/F  : COMPRESSIONAL SONIC [DTED]
GRSED .GAPI  : GAMMA RAY FROM SONIC LOG
GRWS  .GAPI  : GAMMA RAY [GRSED]
ILDED .OHMM  : DEEP INDUCTION RESISTIVITY FROM RESISTIVITY LOG
ILMED .OHMM  : MEDIUM INDUCTION RESISTIVITY FROM RESISTIVITY LOG
LL8ED .OHMM  : 8 INCH LATEROLOG RESISTIVITY FROM RESISTIVITY LOG
MRESWS.OHMM  : MEDIUM RESISTIVITY [ILMED]
SPRED .MV    : SPONTANEOUS POTENTIAL FROM RESISTIVITY LOG
SPWS  .MV    : SPONTANEOUS POTENTIAL [BASELINE 0 MV, SPRED]
SRESWS.OHMM  : SHALLOW RESISTIVITY [RFOCED]
~Params ----------------------------------------------------
PD  .                     GL : PERMANENT DATUM
LMF .                     KB : LOG MEASURED FROM
DAPD.FT                 13.7 : FEET ABOVE PERMANENT DATUM
EGL .FT               2582.3 : GROUND LEVEL
DATE.               11/10/69 : RUN DATE
RUN .                      1 : RUN NUMBER
DD  .FT                 9222 : DEPTH DRILLER
DL  .FT                 9221 : DEPTH LOGGER
BLI .FT                 9217 : BOTTOM LOG INTERVAL
TLI .FT                 1027 : TOP LOG INTERVAL
CBD .FT                 1027 : CASING BOTTOM DRILLER
CBL .FT                 1028 : CASING BOTTOM LOGGER
BS  .IN                 8.75 : BIT SIZE
BSD .FT                 9222 : BIT SIZE AT DEPTH
DFT .                    GEL : DRILLING FLUID TYPE
DFD .                    9.4 : DRILLING FLUID DENSITY
DFV .                    200 : DRILLING FLUID VISCOSITY
DFPH.                   10.5 : DRILLING FLUID PH
DFL .                    6.4 : DRILLING FLUID LOSS
RMS .OHMM               1.07 : RESISTIVITY MUD SAMPLE
MST .DEGF                 62 : MUD SAMPLE TEMPERATURE
RMF .OHMM               0.79 : RESISTIVITY MUD FILTRATE SAMPLE
MFST.DEGF                 67 : MUD FILTRATE SAMPLE TEMPERATURE
RMC .OHMM               1.26 : RESISTIVITY MUD CAKE
MCST.DEGF                 66 : MUD CAKE SAMPLE TEMPERATURE
MCSS.               MEASURED : MUD CAKE SAMPLE SOURCE
RMB .OHMM               0.79 : RESISTIVITY MUD AT BHT
TCS .HRS                   3 : TIME CIRCULATED STOPPED
LUN .                   7502 : LOGGING UNIT NUMBER
LUL .                    EDM : LOGGING UNIT LOCATION
ENGI.              NICKERSON : RECORDING ENGINEER
WITN.                WOODMAN : WITNESSED BY
CLNT.                A2DTECH : CLIENT CODE
ORIG.            2" 5" PRINT : ORIGIN OF DATA
UWI .       100073506014W500 : UNIQUE WELL ID
DICO. A2D Technologies, Inc. : DIGITIZING COMPANY
~Other -----------------------------------------------------
~ASCII -----------------------------------------------------
# ...
 5600.00000    8.74850    8.74850   51.66010   19.35730   73.42620   73.42620   48.41580   48.41580   19.35730   17.26400   30.71350   17.26400  -85.63740  -27.22460   30.71350
 5650.00000   10.33170   10.33170  141.98290    7.04310   79.72500   79.72500   70.98170   70.98170    7.04310    6.33440   10.72740    6.33440  -77.22440  -18.45660   10.72740
 5700.00000    8.93740    8.93740    2.51860  436.95660   59.51740   59.51740   47.61810   47.61810  436.95660  216.34610  236.31540  216.34610  -79.91660  -20.79160  236.31540
 5750.00000    8.87570    8.87570    0.64680 1546.00240   59.88220   59.88220   53.73760   53.73760 1546.00240 1124.28060  354.57400 1124.28060  -82.22960  -22.74970  354.57400
 5800.00000    9.35560    9.35560  298.56090    3.34940   67.78820   67.78820   40.84090   40.84090    3.34940    3.12740    4.79490    3.12740 -118.32220  -58.48730    4.79490
 5850.00000    9.05630    9.05630   42.67500   23.43290   59.56020   59.56020   10.86500   10.86500   23.43290   38.35650   69.42700   38.35650 -170.39900 -110.20690   69.42700
 5900.00000    9.21180    9.21180   21.22980   47.10350   49.97070   49.97070   10.63960   10.63960   47.10350   72.83640  333.23670   72.83640 -160.24450  -99.69750  333.23670
 5950.00000    9.25490    9.25490  199.15120    5.06630   62.31500   62.31500   63.02200   63.02200    5.06630    4.25490    9.09240    4.25490  -91.04390  -30.13960    9.09240
 6000.00000    9.06740    9.06740   35.06100   28.52170   58.35580   58.35580   65.56140   65.56140   28.52170   26.03770   35.19840   26.03770  -65.08010   -3.82090   35.19840
 6050.00000    9.31260    9.31260  193.71590    5.16220   61.76070   61.76070   37.30530   37.30530    5.16220    4.48210    5.18680    4.48210 -103.78170  -43.00870    5.18680
 6100.00000    9.35880    9.35880   37.32500   26.79170   55.73660   55.73660   28.53520   28.53520   26.79170   22.81040   53.26600   22.81040  -81.36950  -22.25020   53.26600
 6150.00000    9.37900    9.37900    0.65770 1520.56230   50.43570   50.43570   16.03910   16.03910 1520.56230 1075.24400  544.60640 1075.24400  -83.52940  -26.05290  544.60640
 6200.00000    8.98730    8.98730   16.57380   60.33750   54.13620   54.13620   24.19000   24.19000   60.33750   50.08580   48.79600   50.08580  -80.88800  -25.06510   48.79600
 6250.00000    8.87260    8.87260   16.32230   61.26580   54.59820   54.59820   28.14020   28.14020   61.26580   51.02300   54.36290   51.02300  -69.48090  -15.30090   54.36290
 6300.00000    8.92190    8.92190   17.68360   56.54970   54.58710   54.58710   29.94780   29.94780   56.54970   47.85940   46.26590   47.85940  -66.71840  -14.18120   46.26590
 6350.00000    8.88580    8.88580    8.94170  111.83580   53.93320   53.93320   24.63150   24.63150  111.83580   90.99940   82.72280   90.99940  -70.29800  -19.41440   82.72280
 6400.00000    8.97640    8.97640   14.56730   68.64670   54.70100   54.70100   39.31150   39.31150   68.64670   57.81110   54.85280   57.81110  -64.67650  -15.43570   54.85280
 6450.00000    9.13450    9.13450    6.89500  145.21540   59.18080   59.18080   59.37820   59.37820  145.21540  110.02900   99.71430  110.02900  -48.96520   -1.37810   99.71430
 6500.00000    9.21660    9.21660   29.01540   34.46440   53.71630   53.71630   54.66710   54.66710   34.46440   31.06220   36.29030   31.06220  -72.51870  -25.93190   36.29030
 6550.00000    9.24720    9.24720    0.61480 1626.49220   49.21980   49.21980   11.25660   11.25660 1626.49220 1427.03600 1484.79710 1427.03600  -90.57160  -44.91990 1484.79710
 6600.00000    9.21800    9.21800    0.71890 1390.91780   50.64310   50.64310   13.55200   13.55200 1390.91780  295.60660  206.86920  295.60660 -121.49400  -76.78360  206.86920
 6650.00000    9.25540    9.25540    0.68130 1467.88330   49.04150   49.04150   16.18730   16.18730 1467.88330  370.51170  186.26960  370.51170 -125.12860  -81.35330  186.26960
 6700.00000    9.61050    9.61050    5.94900  168.09490   52.37020   52.37020    8.14710    8.14710  168.09490   82.88570  149.31340   82.88570 -138.94500  -96.11100  149.31340
 6750.00000    9.03190    9.03190    0.68920 1450.86190   47.70890   47.70890    9.58490    9.58490 1450.86190  366.65700  177.36180  366.65700 -133.93280  -92.03390  177.36180
 6800.00000    9.47440    9.47440    0.61710 1620.52770   47.99650   47.99650   13.64970   13.64970 1620.52770  824.64390 1429.38110  824.64390 -138.25670  -97.29290 1429.38110
 6850.00000    9.32750    9.32750   28.49910   35.08880   50.78490   50.78490    8.78260    8.78260   35.08880   42.48470  151.78690   42.48470 -168.90700 -128.88440  151.78690
 6900.00000    9.23410    9.23410    0.64060 1561.04320   48.45630   48.45630   13.13000   13.13000 1561.04320 1060.87060  835.75930 1060.87060 -136.70110  -97.61370  835.75930
 6950.00000    9.20950    9.20950   17.47460   57.26590   51.48720   51.48720   10.88110   10.88110   57.26590   51.19650  151.26140   51.19650 -139.77160 -101.62540  151.26140
 7000.00000    9.41710    9.41710    0.63470 1575.66880   48.88990   48.88990   11.69010   11.69010 1575.66880 1429.40310  855.12340 1429.40310 -129.19150  -91.98040  855.12340
 7050.00000    9.10810    9.10810   18.87940   52.96780   53.05120   53.05120   11.06530   11.06530   52.96780   49.76640  117.72960   49.76640 -134.48990  -98.21400  117.72960
 7100.00000    9.18270    9.18270   42.71350   23.41180   52.40430   52.40430   12.12090   12.12090   23.41180   26.32580   81.50780   26.32580 -166.67600 -131.34130   81.50780
 7150.00000   10.03570   10.03570   11.12000   89.92780   48.84100   48.84100    6.53500    6.53500   89.92780  102.09830  172.29350  102.09830 -151.03530 -116.63570  172.29350
 7200.00000    9.26480    9.26480   13.21670   75.68260   49.30520   49.30520   13.51500   13.51500   75.68260   77.97330  164.14300   77.97330 -152.74580 -119.28750  164.14300
 7250.00000    9.52480    9.52480    0.73730 1356.34140   48.67950   48.67950   11.31880   11.31880 1356.34140  929.11880 1484.31210  929.11880 -137.28080 -104.75760 1484.31210
 7300.00000   11.21770   11.21770  194.57520    5.13940   67.40580   67.40580   94.64990   94.64990    5.13940    4.47020    4.78930    4.47020  -76.20100  -44.61290    4.78930
 7350.00000    9.15760    9.15760   13.89200   71.98390   49.09220   49.09220   22.89060   22.89060   71.98390   66.01970   99.30550   66.01970 -123.96630  -93.31950   99.30550
 7400.00000    9.52220    9.52220   10.12740   98.74200   49.07210   49.07210   22.18340   22.18340   98.74200   68.80380   67.06440   68.80380 -111.44890  -81.73720   67.06440
 7450.00000    9.36190    9.36190   30.04570   33.38480   50.62660   50.62660   25.59800   25.59800   33.38480   27.93430   34.20960   27.93430  -89.66390  -60.89350   34.20960
 7500.00000    9.42990    9.42990    6.39420  156.39210   51.47540   51.47540   30.51250   30.51250  156.39210  118.44120  162.20270  118.44120  -39.99350  -12.15820  162.20270
 7550.00000    9.23940    9.23940    3.47210  288.01140   51.04210   51.04210   24.91920   24.91920  288.01140  203.76480  309.09960  203.76480  -40.31400  -12.99890  309.09960
 7600.00000    9.23230    9.23230   15.01410   66.60420   53.83850   53.83850   29.86540   29.86540   66.60420   59.51790   71.90750   59.51790  -51.64780  -24.21580   71.90750
 7650.00000    9.21770    9.21770   28.02700   35.67990   55.07040   55.07040   28.53360   28.53360   35.67990   32.88010   41.89890   32.88010  -48.60380  -21.05570   41.89890
 7700.00000   10.42430   10.42430   95.80790   10.43890   62.63520   62.63520   46.90820   46.90820   10.43890    9.98340   12.23950    9.98340  -41.74180  -14.07690   12.23950
 7750.00000   10.43800   10.43800  102.40240    9.76540   64.08620   64.08620   49.43340   49.43340    9.76540    9.10300   10.97040    9.10300  -40.46670  -12.68570   10.97040
 7800.00000    9.69650    9.69650  111.76430    8.94740   65.14160   65.14160   52.10790   52.10790    8.94740    8.34530   10.59200    8.34530  -39.60780  -11.71070   10.59200
 7850.00000   10.91640   10.91640  173.42740    5.76610   74.42920   74.42920   74.77140   74.77140    5.76610    5.04400    6.55630    5.04400  -43.84170  -15.82770    6.55630
