~Version ---------------------------------------------------
VERS.      2.0 : CWLS log ASCII Standard -VERSION 2.0
WRAP.       NO : One line per depth step
CREA. 01/03/18 : LAS Creation Date
~Well ------------------------------------------------------
STRT.FT                               900.0 : START DEPTH
STOP.FT                              8300.0 : STOP DEPTH
STEP.FT                            50.00000 : STEP LENGTH
NULL.                               -999.25 : NULL VALUE
COMP.                      HOME OIL COMPANY : COMPANY
WELL. HOME FPC ET AL MORSE RIVER 10-30-65-9 : WELL
FLD .                                       : FIELD
LOC .                                       : LOCATION
CTRY.                                CANADA : COUNTRY
SRVC.                Schlumberger of Canada : SERVICE COMPANY
DATE.                           16-Feb-1961 : LOGDATE
PROV.                               Alberta : PROVINCE
UWI .                      100103006509W500 : UNIQUE WELL ID
SLAT.WGS84                         54.65619 : SURFACE LATITUDE
SLON.WGS84                         -115.345 : SURFACE LONGITUDE
~Curve Information -----------------------------------------
DEPT  .FT         : Depth Curve
CALWS .IN         : CALIPER [MCALED]
CILDED.MMHO       : INDUCTION DEEP CONDUCTIVITY
CONDWS.MMHO       : DEEP CONDUCTIVITY [1000/DRESWS]
DRESWS.OHMM       : DEEP RESISTIVITY [ILDED]
DTED  .US/F       : DELTA-T (INTERVAL TRANSIT TIME)  [DSH TO RES]
DTWS  .US/F       : DELTA-TIME COMPRESSIONAL [DTED]
GRSED .UgRa-Eq/T  : GAMMA RAY FROM SONIC LOG [DSH TO RES]
GRWS  .GAPI       : GAMMA RAY [GRSED*16.5 FOR API UNIT]
ILDED .OHMM       : INDUCTION DEEP RESISTIVITY
MCALED.IN         : MLT (MICROLOG) CALIPER
SNED  .OHMM       : SHORT NORMAL RESISTIVITY
SPRED .MV         : SPONTANEOUS POTENTIAL FROM RESISTIVITY LOG
SPWS  .MV         : SPONTANEOUS POTENTIAL [SPRED 0 MV BASELINE]
SRESWS.OHMM       : SHALLOW RESISTIVITY [SNED]
~Params ----------------------------------------------------
LMF .                     KB : LOG MEASURED FROM
DMF .                     KB : DRILLING MEASURED FROM
EKB .FT                 3357 : KELLY BUSHING
EGL .FT               3344.1 : GROUND LEVEL
DATE.               02/16/61 : RUN DATE
RUN .                      1 : RUN NUMBER
DD  .FT                 8361 : DEPTH DRILLER
DL  .FT                 8351 : DEPTH LOGGER
BLI .FT                 8350 : BOTTOM LOG INTERVAL
TLI .FT                  857 : TOP LOG INTERVAL
CBD .FT                  857 : CASING BOTTOM DRILLER
CBL .FT                  857 : CASING BOTTOM LOGGER
BS  .IN                 8.75 : BIT SIZE
BSD .FT                 8361 : BIT SIZE AT DEPTH
DFT .                    GEL : DRILLING FLUID TYPE
DFD .                    9.9 : DRILLING FLUID DENSITY
DFV .                    135 : DRILLING FLUID VISCOSITY
DFPH.                     10 : DRILLING FLUID PH
DFL .                      7 : DRILLING FLUID LOSS
RMS .OHMM               2.45 : RESISTIVITY MUD SAMPLE
MST .DEGF                 71 : MUD SAMPLE TEMPERATURE
TCS .HRS                   4 : TIME CIRCULATED STOPPED
LUN .                   1571 : LOGGING UNIT NUMBER
LUL .                     SH : LOGGING UNIT LOCATION
ENGI.               WILLIAMS : RECORDING ENGINEER
WITN.                  BEARD : WITNESSED BY
CLNT.                A2DTECH : CLIENT CODE
ORIG.            2" 5" PRINT : ORIGIN OF DATA
UWI .       100103006509W500 : UNIQUE WELL ID
DICO. A2D Technologies, Inc. : DIGITIZING COMPANY
~Other -----------------------------------------------------
SUSPECTED SP POSITIVE FROM 6594' TO TD (RW CHANGE?) AS SP GOES THE SAME DIRECTION WITH RESSITIVITY - HENCE BASELINE
SP AS POSITIVE FROM 6594' TO TD FOR SPWS, IF ANY DOUBTS PLEASE REFER TO ORIGINAL SPRED.
~ASCII -----------------------------------------------------
# ...
 5800.00000    9.17370   39.05020   29.68530   33.68670    -999.25    -999.25    -999.25    -999.25   33.68670    9.17370  100.49990 -174.01770  -83.92660  100.49990
 5850.00000    7.94440  200.02060  198.87830    5.02820    -999.25    -999.25    -999.25    -999.25    5.02820    7.94440   98.72920 -245.10310 -154.30820   98.72920
 5900.00000    7.91230  140.81060  138.79830    7.20470    -999.25    -999.25    -999.25    -999.25    7.20470    7.91230  113.25860 -243.63520 -152.14100  113.25860
 5950.00000    7.89560  132.00080  130.48020    7.66400    -999.25    -999.25    -999.25    -999.25    7.66400    7.89560  111.31950 -238.28390 -146.08580  111.31950
 6000.00000    7.98760  143.88300  138.85420    7.20180    -999.25    -999.25    -999.25    -999.25    7.20180    7.98760  109.59040 -267.92570 -175.02840  109.59040
 6050.00000    9.24000   17.22790    7.25770  137.78560    -999.25    -999.25    -999.25    -999.25  137.78560    9.24000  161.22050 -196.52380 -102.92720  161.22050
 6100.00000    9.20570   19.25790    8.20660  121.85270    -999.25    -999.25    -999.25    -999.25  121.85270    9.20570  131.92890 -176.43970  -82.13930  131.92890
 6150.00000    8.82760   25.79630   12.40560   80.60890    -999.25    -999.25    -999.25    -999.25   80.60890    8.82760  186.24080 -225.54960 -130.54990  186.24080
 6200.00000    8.05080   66.78480   60.31840   16.57870    -999.25    -999.25    -999.25    -999.25   16.57870    8.05080  168.56470 -262.31780 -166.61420  168.56470
 6250.00000    7.78130   78.30800   70.88880   14.10660    -999.25    -999.25    -999.25    -999.25   14.10660    7.78130  138.95990 -256.82560 -160.42280  138.95990
 6300.00000    8.50360   69.09220   62.00670   16.12730    -999.25    -999.25    -999.25    -999.25   16.12730    8.50360  123.49600 -239.35210 -142.25000  123.49600
 6350.00000    9.27150   25.30290   12.57760   79.50660    -999.25    -999.25    -999.25    -999.25   79.50660    9.27150  118.52200 -125.12460  -27.31870  118.52200
 6400.00000    9.54210  262.10990  265.66070    3.76420    -999.25    -999.25    -999.25    -999.25    3.76420    9.54210    4.38120 -111.20820  -12.70300    4.38120
 6450.00000    8.39720   46.13870   35.15770   28.44330    -999.25    -999.25    -999.25    -999.25   28.44330    8.39720  143.01370 -197.07580  -96.97560  143.01370
 6500.00000    8.45810   26.68550   14.12550   70.79420    -999.25    -999.25    -999.25    -999.25   70.79420    8.45810  186.58040 -199.17930  -97.28750  186.58040
 6550.00000    9.03290   56.11960   48.97950   20.41670    -999.25    -999.25    -999.25    -999.25   20.41670    9.03290   26.40650 -116.20080  -12.51740   26.40650
 6600.00000    8.98910   48.48660   38.92820   25.68830    -999.25    -999.25    -999.25    -999.25   25.68830    8.98910   32.31000  -81.12790   25.58330   32.31000
 6650.00000   10.22290   78.21160   71.76950   13.93350    -999.25    -999.25    -999.25    -999.25   13.93350   10.22290   18.65270  -74.39740   34.09280   18.65270
 6700.00000   13.30750  223.75160  224.19010    4.46050    -999.25    -999.25    -999.25    -999.25    4.46050   13.30750    6.10930  -79.48110   28.09050    6.10930
 6750.00000   12.18080  221.61130  213.60220    4.68160    -999.25    -999.25    -999.25    -999.25    4.68160   12.18080    6.41890  -74.66470   31.14400    6.41890
 6800.00000   13.74090  274.39810  262.45340    3.81020    -999.25    -999.25    -999.25    -999.25    3.81020   13.74090    4.78760  -85.36830   18.59130    4.78760
 6850.00000    8.72570   41.96520   34.28330   29.16870    -999.25    -999.25    -999.25    -999.25   29.16870    8.72570   35.95410  -72.80010   29.29810   35.95410
 6900.00000    8.72500   73.94260   68.58190   14.58110    -999.25    -999.25    -999.25    -999.25   14.58110    8.72500   20.35320  -68.69300   32.95220   20.35320
 6950.00000   10.29910  136.79510  137.70120    7.26210    -999.25    -999.25    -999.25    -999.25    7.26210   10.29910   10.35690  -72.26240   30.75800   10.35690
 7000.00000   12.35470  170.63110  174.78850    5.72120    -999.25    -999.25    -999.25    -999.25    5.72120   12.35470    7.11170  -98.72600    5.61170    7.11170
 7050.00000   14.62380  338.03110  333.53350    2.99820    -999.25    -999.25    -999.25    -999.25    2.99820   14.62380    3.79630  -89.63540   15.49630    3.79630
 7100.00000   14.39200  239.66090  237.88570    4.20370    -999.25    -999.25    -999.25    -999.25    4.20370   14.39200    5.38280  -88.68740   17.24360    5.38280
 7150.00000   14.53470  229.69390  226.31600    4.41860    -999.25    -999.25    -999.25    -999.25    4.41860   14.53470    5.60470  -99.87420    6.57460    5.60470
 7200.00000   14.64580  285.24520  289.05080    3.45960    -999.25    -999.25    -999.25    -999.25    3.45960   14.64580    4.42120  -98.49370    3.47200    4.42120
 7250.00000   14.63210  369.08510  332.24800    3.00980    -999.25    -999.25    -999.25    -999.25    3.00980   14.63210    3.81530  -85.45610   12.45100    3.81530
 7300.00000   10.98510  151.27290  148.84720    6.71830    -999.25    -999.25    -999.25    -999.25    6.71830   10.98510   11.00020  -75.06100   23.85390   11.00020
 7350.00000   10.81480  167.55900  166.33680    6.01190    -999.25    -999.25    -999.25    -999.25    6.01190   10.81480    8.99780  -88.77410   11.15520    8.99780
 7400.00000    9.66740  139.20320  143.21720    6.98240    -999.25    -999.25    -999.25    -999.25    6.98240    9.66740   11.93550  -82.23000   18.70710   11.93550
 7450.00000   11.84550  268.53820  273.43320    3.65720    -999.25    -999.25    -999.25    -999.25    3.65720   11.84550    5.82830  -95.20330    6.74820    5.82830
 7500.00000   13.63050  225.58000  241.61010    4.13890    -999.25    -999.25    -999.25    -999.25    4.13890   13.63050    6.48090  -93.09620    8.87890    6.48090
 7550.00000   11.33300  186.63260  192.99800    5.18140    -999.25    -999.25    -999.25    -999.25    5.18140   11.33300    8.27830  -75.06720   24.59140    8.27830
 7600.00000    9.26060   31.82260   24.41120   40.96480    -999.25    -999.25    -999.25    -999.25   40.96480    9.26060   45.08220  -44.59830   52.72860   45.08220
 7650.00000    9.24980   63.08680   57.82650   17.29310    -999.25    -999.25    -999.25    -999.25   17.29310    9.24980   23.05290  -64.89310   30.11730   23.05290
 7700.00000    8.98410   86.65810   84.24880   11.86960    -999.25    -999.25    -999.25    -999.25   11.86960    8.98410   18.42690  -77.23970   15.43900   18.42690
 7750.00000   12.23640  220.09490  232.85600    4.29450    -999.25    -999.25    -999.25    -999.25    4.29450   12.23640    7.68710  -79.16960   11.48970    7.68710
 7800.00000   13.32360  263.84730  277.75460    3.60030    -999.25    -999.25    6.17930  101.95850    3.60030   13.32360    5.50480  -76.32030   13.25370    5.50480
 7850.00000    9.08190   76.73850   73.23540   13.65460   61.97340   61.97340    3.53920   58.39680   13.65460    9.08190   22.88910  -69.02340   20.09230   22.88910
 7900.00000   10.04390  136.14580  139.65900    7.16030   68.50610   68.50610    4.04170   66.68800    7.16030   10.04390   11.89370  -75.50800   13.15250   11.89370
 7950.00000    9.05010   43.15800   37.48520   26.67720   56.01000   56.01000    2.68140   44.24310   26.67720    9.05010   35.97750  -79.63670    8.56550   35.97750
 8000.00000    8.88700   26.99510   20.80110   48.07430   54.43980   54.43980    2.02900   33.47850   48.07430    8.88700   73.86750  -81.59060    6.15640   73.86750
 8050.00000    8.71230  100.14210   98.98440   10.10260   63.33850   63.33850    3.75730   61.99540   10.10260    8.71230   18.51410  -76.95030   10.34150   18.51410
 8100.00000    8.81470   52.79920   51.13600   19.55570   62.00520   62.00520    3.40550   56.19080   19.55570    8.81470   32.61610  -74.24980   12.58370   32.61610
 8150.00000    8.63300   11.26070    4.91790  203.33920   53.11270   53.11270    2.32950   38.43670  203.33920    8.63300  187.44980  -82.07300    4.30530  187.44980
 8200.00000    8.67920   34.12100   28.40990   35.19900   58.07250   58.07250    3.57620   59.00730   35.19900    8.67920   68.86210  -70.97770   14.94230   68.86210
