~Version ---------------------------------------------------
VERS.      2.0 : CWLS log ASCII Standard -VERSION 2.0
WRAP.       NO : One line per depth step
CREA. 09/25/17 : LAS Creation Date
~Well ------------------------------------------------------
STRT.FT                               300.0 : START DEPTH
STOP.FT                              8350.0 : STOP DEPTH
STEP.FT                            50.00000 : STEP LENGTH
NULL.                               -999.25 : NULL VALUE
COMP. CANADA CITIES SERVICE PETROLEUM CORP. : COMPANY
WELL.          CITIES SERVICE KEYSTONE 8-15 : WELL
FLD .                                       : FIELD
LOC .                                       : LOCATION
CTRY.                                CANADA : COUNTRY
SRVC.                               Unknown : SERVICE COMPANY
DATE.                           07-May-1956 : LOGDATE
PROV.                               Alberta : PROVINCE
UWI .                      100081504804W500 : UNIQUE WELL ID
SLAT.WGS84                         53.13956 : SURFACE LATITUDE
SLON.WGS84                         -114.492 : SURFACE LONGITUDE
~Curve Information -----------------------------------------
DEPT   .FT         : Depth Curve
CALMED .IN         : CALIPER FROM MICROLATEROLOG [ADJ TO SLB EL LOG]
CALWS  .IN         : CALIPER [MCALED SPL. @6414' TO CALMED]
CONDWS .MMHO       : CONDUCTIVITY [1000/DRESWS]
DRESWS .OHMM       : DEEP RESISTIVITY [LNED]
GRN1ED .UgRa-Eq/T  : GAMMA RAY FROM SLB GRN-RADIATION LOG
GRN2ED .GAPI       : GAMMA RAY FROM GRN LOG [ADJ TO SLB EL LOG]
GRNED  .UR/HR      : GAMMA RAY FROM McCULLOUGH GRN RADIATION LOG
GRWS   .GAPI       : GAMMA RAY [GRNED*10.4 SPL @ 5170' TO GRN1ED*16.50]
LAT9ED .OHMM       : LATERAL 9' FROM HLB EL LOG [ADJ TO SLB EL LOG]
LNED   .OHMM       : LONG NORMAL RESISTIVITY FROM SLB EL LOG
LT16ED .OHMM       : 16 INCH LATERAL  FROM HLB EL LOG [ADJ TO SLB EL LOG]
LT18ED .OHMM       : 18 INCH LATERAL  FROM SLB EL LOG
MCALED .IN         : CALIPER CONTACT TOOL FROM HLB EL LOG
MLLED  .OHMM       : MICRO FOCUSED LATEROLOG RESISTIVITY  FROM MICROLATEROLOG [ADJ TO SLB EL LOG]
NEUT1ED.NAPI       : NEUTRON FROM SLB GRN-RADIATION LOG
NEUT2ED.NAPI       : NEUTRON FROM GRN LOG [ADJ TO SLB EL LOG]
NEUTED .NAPI       : NEUTRON FROM McCULLOUGH GRN RADIATION LOG
NEUTWS .NAPI       : NEUTRON [NEUTED SPL @5182' TO NEUT1ED]
SN1ED  .OHMM       : SHORT NORMAL 18 INCH FROM HLB EL LOG [ADJ TO SLB EL LOG]
SNED   .OHMM       : SHORT NORMAL RESISTIVITY FROM SLB EL LOG
SPR1ED .MV         : SPONTANEOUS POTENTIAL FROM HLB EL LOG [ADJ TO SLB EL LOG]
SPRED  .MV         : SPONTANEOUS POTENTIAL FROM SLB EL LOG
SPWS   .MV         : SPONTANEOUS POTENTIAL [BASELINE 0MV, SPRED]
SRESWS .OHMM       : SHALLOW RESISTIVITY [SNED]
~Params ----------------------------------------------------
LMF .                     KB : LOG MEASURED FROM
DMF .                     KB : DRILLING MEASURED FROM
EKB .FT                 2813 : KELLY BUSHING
DATE.               05/07/56 : RUN DATE
RUN .                      1 : RUN NUMBER
DD  .FT                 8499 : DEPTH DRILLER
DL  .FT                 8499 : DEPTH LOGGER
BLI .FT                 8498 : BOTTOM LOG INTERVAL
TLI .FT                  610 : TOP LOG INTERVAL
CBL .FT                  610 : CASING BOTTOM LOGGER
BS  .IN                    9 : BIT SIZE
BSD .FT                 8499 : BIT SIZE AT DEPTH
DFT .              LIME BASE : DRILLING FLUID TYPE
DFD .                   11.1 : DRILLING FLUID DENSITY
DFV .                     98 : DRILLING FLUID VISCOSITY
DFPH.                     13 : DRILLING FLUID PH
DFL .                     48 : DRILLING FLUID LOSS
RMS .OHMM               0.72 : RESISTIVITY MUD SAMPLE
MST .DEGF                 85 : MUD SAMPLE TEMPERATURE
RMB .OHMM               0.39 : RESISTIVITY MUD AT BHT
TCS .HRS                 2.5 : TIME CIRCULATED STOPPED
LUN .                   2786 : LOGGING UNIT NUMBER
LUL .                    EDM : LOGGING UNIT LOCATION
ENGI.                 TAYLOR : RECORDING ENGINEER
WITN.              ARMSTRONG : WITNESSED BY
CLNT.                A2DTECH : CLIENT CODE
ORIG.            2" 5" PRINT : ORIGIN OF DATA
UWI .       100081504804W500 : UNIQUE WELL ID
DICO. A2D Technologies, Inc. : DIGITIZING COMPANY
~Other -----------------------------------------------------
EL-MLL-GR-NEU LOG RAN
~ASCII -----------------------------------------------------
# ...
 6100.00000    -999.25    9.16460   13.57060   73.68890    2.85050    -999.25    -999.25   47.03320   83.25670   73.68890   55.36720  111.90040    9.16460    -999.25  349.25250    -999.25    -999.25  349.25250   43.78260   33.57910  -63.36150  -58.85680  -28.80370   33.57910
 6150.00000    -999.25    9.00610   10.42810   95.89500    2.57490    -999.25    -999.25   42.48580  116.98070   95.89500   74.27590  155.67930    9.00610    -999.25  352.56180    -999.25    -999.25  352.56180   65.30020   41.15020  -66.79510  -58.65290  -28.97780   41.15020
 6200.00000    -999.25    9.10170   10.91560   91.61180    3.53970    -999.25    -999.25   58.40500  116.66400   91.61180   85.43230  174.71270    9.10170    -999.25  336.39820    -999.25    -999.25  336.39820   55.74740   38.91070  -56.77310  -55.16830  -25.87130   38.91070
 6250.00000    -999.25    9.07800    9.93610  100.64270    3.27280    -999.25    -999.25   54.00120  129.67040  100.64270   83.47870  168.32880    9.07800    -999.25  326.29800    -999.25    -999.25  326.29800   62.86430   42.58280  -52.79620  -52.89360  -23.97460   42.58280
 6300.00000    -999.25    9.05040    8.94400  111.80710    3.36340    -999.25    -999.25   55.49690  138.93010  111.80710   95.75200  185.75710    9.05040    -999.25  323.00130    -999.25    -999.25  323.00130   65.51270   43.79840  -62.33730  -55.22870  -26.68590   43.79840
 6350.00000    -999.25    9.30260    5.75710  173.69920    2.91720    -999.25    -999.25   48.13380  193.51970  173.69920  136.64860  263.05200    9.30260    -999.25  340.02370    -999.25    -999.25  340.02370  102.10870   58.27730  -65.69630  -53.13000  -24.96710   58.27730
 6400.00000    8.97060    9.18060    4.79680  208.47180    4.98680    -999.25    -999.25   82.28220  221.53400  208.47180  179.60020  314.41280    9.18060  167.85690  304.79030    -999.25    -999.25  304.79030  108.08060   62.46480  -55.50900  -48.13050  -20.34560   62.46480
 6450.00000    8.30810    8.30810   10.66240   93.78770    1.75570    -999.25    -999.25   28.96900    -999.25   93.78770    -999.25  443.16870    -999.25   52.79910  277.48900    -999.25    -999.25  277.48900    -999.25   31.34000    -999.25 -119.62750  -92.22070   31.34000
 6500.00000    9.03060    9.03060    6.19290  161.47520    1.76420    -999.25    -999.25   29.10930    -999.25  161.47520    -999.25  279.27420    -999.25   52.49510  377.32350    -999.25    -999.25  377.32350    -999.25   50.41190    -999.25  -98.27120  -71.24240   50.41190
 6550.00000    9.55090    9.55090    4.02910  248.19410    3.31130    -999.25    -999.25   54.63640    -999.25  248.19410    -999.25  435.75210    -999.25   33.86690  266.03150    -999.25    -999.25  266.03150    -999.25   67.18310    -999.25  -90.46520  -63.81260   67.18310
 6600.00000    8.45390    8.45390    7.69250  129.99710    2.26560    -999.25    -999.25   37.38240    -999.25  129.99710    -999.25  308.31430    -999.25   31.44410  258.10920    -999.25    -999.25  258.10920    -999.25   45.13290    -999.25 -107.40970  -81.13700   45.13290
 6650.00000    8.30660    8.30660   11.78960   84.82050    1.95270    -999.25    -999.25   32.21950    -999.25   84.82050    -999.25  334.07890    -999.25  117.13410  235.28170    -999.25    -999.25  235.28170    -999.25   31.37970    -999.25 -120.25730  -94.36270   31.37970
 6700.00000    7.97810    7.97810    9.70880  102.99950    1.61440    -999.25    -999.25   26.63760    -999.25  102.99950    -999.25  110.29070    -999.25   11.64840  231.87150    -999.25    -999.25  231.87150    -999.25   49.55390    -999.25 -121.03640  -95.51980   49.55390
 6750.00000    8.00990    8.00990    5.10320  195.95540    1.63460    -999.25    -999.25   26.97090    -999.25  195.95540    -999.25  438.49870    -999.25   46.65570  220.10070    -999.25    -999.25  220.10070    -999.25   57.02990    -999.25 -112.26490  -87.12630   57.02990
 6800.00000    8.00070    8.00070    6.52190  153.34020    1.61310    -999.25    -999.25   26.61610    -999.25  153.34020    -999.25  320.65930    -999.25   27.59620  271.70830    -999.25    -999.25  271.70830    -999.25   54.31960    -999.25 -112.27840  -87.51600   54.31960
 6850.00000    8.18180    8.18180    8.12900  123.01620    1.74470    -999.25    -999.25   28.78760    -999.25  123.01620    -999.25  391.78310    -999.25   14.50920  269.71190    -999.25    -999.25  269.71190    -999.25   41.57340    -999.25 -114.57140  -90.18890   41.57340
 6900.00000    8.68690    8.68690    5.91470  169.07120    2.34150    -999.25    -999.25   38.63470    -999.25  169.07120    -999.25  326.25990    -999.25  197.56370  305.74810    -999.25    -999.25  305.74810    -999.25   57.78860    -999.25 -101.21120  -77.20680   57.78860
 6950.00000    8.70950    8.70950    2.82890  353.49230    1.66800    -999.25    -999.25   27.52200    -999.25  353.49230    -999.25 1131.03530    -999.25  317.89790  383.65890    -999.25    -999.25  383.65890    -999.25   68.12110    -999.25  -73.52050  -49.89410   68.12110
 7000.00000    8.77900    8.77900    5.55160  180.12840    1.90410    -999.25    -999.25   31.41760    -999.25  180.12840    -999.25  185.87700    -999.25   87.44170  315.92110    -999.25    -999.25  315.92110    -999.25   63.01660    -999.25  -87.56770  -64.31940   63.01660
 7050.00000    8.97460    8.97460   30.24300   33.07100    8.39310    -999.25    -999.25  138.48620    -999.25   33.07100    -999.25   26.58230    -999.25   15.82100  191.80200    -999.25    -999.25  191.80200    -999.25   17.95250    -999.25  -54.29970  -31.42750   17.95250
 7100.00000    9.46120    9.46120    4.65670  214.74420    1.88930    -999.25    -999.25   31.17340    -999.25  214.74420    -999.25  232.74600    -999.25   15.97080  267.04540    -999.25    -999.25  267.04540    -999.25   68.17790    -999.25  -92.55750  -70.06520   68.17790
 7150.00000    9.01650    9.01650    4.13600  241.78080    1.75990    -999.25    -999.25   29.03840    -999.25  241.78080    -999.25  309.98800    -999.25  278.94850  289.82400    -999.25    -999.25  289.82400    -999.25   71.50920    -999.25 -100.99120  -78.87700   71.50920
 7200.00000    8.58480    8.58480    3.32110  301.10550    1.51200    -999.25    -999.25   24.94800    -999.25  301.10550    -999.25  823.91310    -999.25   51.27970  326.34870    -999.25    -999.25  326.34870    -999.25   66.18830    -999.25 -113.84390  -92.10770   66.18830
 7250.00000    8.64520    8.64520    7.39810  135.16930    1.40700    -999.25    -999.25   23.21550    -999.25  135.16930    -999.25  269.87020    -999.25   15.16970  284.15120    -999.25    -999.25  284.15120    -999.25   48.79310    -999.25 -118.34700  -96.98890   48.79310
 7300.00000    8.98510    8.98510    9.57130  104.62160    4.15840    -999.25    -999.25   68.61280    -999.25  104.62160    -999.25  541.22980    -999.25   33.70400  232.88770    -999.25    -999.25  232.88770    -999.25   33.54760    -999.25  -55.99600  -35.01400   33.54760
 7350.00000    -999.25    -999.25   13.53170   73.90060    4.29010    -999.25    -999.25   70.78660    -999.25   73.90060    -999.25  148.37090    -999.25    -999.25  273.08830    -999.25    -999.25  273.08830    -999.25   36.30250    -999.25  -31.84740  -11.24540   36.30250
 7400.00000    -999.25    -999.25   21.06550   47.47100    6.50520    -999.25    -999.25  107.33580    -999.25   47.47100    -999.25   82.95950    -999.25    -999.25  193.74390    -999.25    -999.25  193.74390    -999.25   25.75230    -999.25  -31.42200  -11.19800   25.75230
 7450.00000    -999.25    -999.25   25.08540   39.86390    5.90230    -999.25    -999.25   97.38800    -999.25   39.86390    -999.25   32.22170    -999.25    -999.25  198.91780    -999.25    -999.25  198.91780    -999.25   24.77190    -999.25  -32.30440  -12.45850   24.77190
 7500.00000    -999.25    -999.25   44.53830   22.45260    8.09450    -999.25    -999.25  133.55920    -999.25   22.45260    -999.25   29.87460    -999.25    -999.25  185.38580    -999.25    -999.25  185.38580    -999.25   15.62910    -999.25  -34.16240  -14.69450   15.62910
