~Version ---------------------------------------------------
VERS.      2.0 : CWLS log ASCII Standard -VERSION 2.0
WRAP.       NO : One line per depth step
CREA. 12/18/17 : LAS Creation Date
~Well ------------------------------------------------------
STRT.FT                         850.0 : START DEPTH
STOP.FT                        9350.0 : STOP DEPTH
STEP.FT                      50.00000 : STEP LENGTH
NULL.                         -999.25 : NULL VALUE
COMP. CALIFORNIA STANDARD OIL COMPANY : COMPANY
WELL.  CALSTAN GOOSE RIVER 4-34-67-18 : WELL
FLD .                                 : FIELD
LOC .                                 : LOCATION
CTRY.                          CANADA : COUNTRY
SRVC.                    Schlumberger : SERVICE COMPANY
DATE.                     23-Feb-1963 : LOGDATE
PROV.                         Alberta : PROVINCE
UWI .                100043406718W500 : UNIQUE WELL ID
SLAT.WGS84                   54.83765 : SURFACE LATITUDE
SLON.WGS84                  -116.6666 : SURFACE LONGITUDE
~Curve Information -----------------------------------------
DEPT  .FT    : Depth Curve
CALSED.IN    : CALIPER FROM SONIC LOG
CALWS .IN    : CALIPER [CALSED]
CILDED.MMHO  : DEEP INDUCTION CONDUCTIVITY FROM RESISTIVITY LOG
CONDWS.MMHO  : CONDUCTIVITY [1000/DRESWS]
DRESWS.OHMM  : DEEP RESISTIVITY [1000/CILDED IF ILDED<=1, IDLED]
DTED  .US/F  : DELTA-T FROM SONIC LOG
DTWS  .US/F  : COMPRESSIONAL SONIC [DTED]
GRSED .GAPI  : GAMMA RAY FROM SONIC LOG
GRWS  .GAPI  : GAMMA RAY [GRSED]
ILDED .OHMM  : DEEP INDUCTION RESISTIVITY FROM RESISTIVITY LOG
SNED  .OHMM  : SHORT NORMAL RESISTIVITY FROM RESISTIVITY LOG
SPRED .MV    : SPONTANEOUS POTENTIAL FROM RESISTIVITY LOG
SPWS  .MV    : SPONTANEOUS POTENTIAL [BASELINE 0 MV, SPRED]
SRESWS.OHMM  : SHALLOW RESISTIVITY [SNED]
~Params ----------------------------------------------------
PD  .                     GL : PERMANENT DATUM
EPD .FT                 2528 : ELEVATION PERMANENT DATUM
LMF .                     KB : LOG MEASURED FROM
DAPD.FT                   13 : FEET ABOVE PERMANENT DATUM
EKB .FT                 2541 : KELLY BUSHING
EGL .FT                 2528 : GROUND LEVEL
DATE.               02/23/63 : RUN DATE
RUN .                      2 : RUN NUMBER
DD  .FT                 9393 : DEPTH DRILLER
DL  .FT                 9370 : DEPTH LOGGER
BLI .FT                 9369 : BOTTOM LOG INTERVAL
TLI .FT                 7200 : TOP LOG INTERVAL
CBD .FT                  949 : CASING BOTTOM DRILLER
CBL .FT                  948 : CASING BOTTOM LOGGER
BS  .IN                 8.75 : BIT SIZE
BSD .FT                 9393 : BIT SIZE AT DEPTH
DFT .               GEL CHEM : DRILLING FLUID TYPE
DFD .                    9.3 : DRILLING FLUID DENSITY
DFV .                    165 : DRILLING FLUID VISCOSITY
DFPH.                    9.5 : DRILLING FLUID PH
DFL .                    7.6 : DRILLING FLUID LOSS
MSS .            CIRCULATION : MUD SAMPLE SOURCE
RMS .OHMM               2.03 : RESISTIVITY MUD SAMPLE
MST .DEGF                 45 : MUD SAMPLE TEMPERATURE
RMF .OHMM               1.49 : RESISTIVITY MUD FILTRATE SAMPLE
MFST.DEGF                 63 : MUD FILTRATE SAMPLE TEMPERATURE
RMC .OHMM               2.37 : RESISTIVITY MUD CAKE
MCST.DEGF                 63 : MUD CAKE SAMPLE TEMPERATURE
RMB .OHMM               0.69 : RESISTIVITY MUD AT BHT
TCS .HRS                   3 : TIME CIRCULATED STOPPED
LUN .                   1534 : LOGGING UNIT NUMBER
LUL .                     VV : LOGGING UNIT LOCATION
ENGI.                MCKEOWN : RECORDING ENGINEER
WITN.                  SMITH : WITNESSED BY
CLNT.                A2DTECH : CLIENT CODE
ORIG.            2" 5" PRINT : ORIGIN OF DATA
UWI .       100043406718W500 : UNIQUE WELL ID
DICO. A2D Technologies, Inc. : DIGITIZING COMPANY
~Other -----------------------------------------------------
~ASCII -----------------------------------------------------
# ...
 5750.00000   10.76360   10.76360   24.40950   24.14250   41.42080   50.62050   50.62050   23.42680   23.42680   42.11380   48.60070 -148.49940  -56.04040   48.60070
 5800.00000    8.91340    8.91340   98.60200   92.24250   10.85300   56.99450   56.99450   23.74990   23.74990   10.78080   43.20040 -215.85710 -123.39810   43.20040
 5850.00000   10.73660   10.73660   51.81200   49.59530   20.16320   52.76250   52.76250   22.73910   22.73910   20.13110   65.14270 -224.00480 -131.54580   65.14270
 5900.00000    9.94120    9.94120   46.01190   44.65870   22.39670   53.93740   53.93740   21.11890   21.11890   22.46170   80.38380 -232.43590 -139.97690   80.38380
 5950.00000    9.83100    9.83100  373.92630  358.01230    2.79320   63.41540   63.41540   35.00960   35.00960    2.79320    8.86080 -162.81130  -70.35230    8.86080
 6000.00000   10.00300   10.00300  218.47630  226.87570    4.40770   69.29500   69.29500   85.77560   85.77560    4.44630    7.74500 -117.34960  -24.89060    7.74500
 6050.00000   11.12900   11.12900  192.62360  186.68090    5.36490   74.35680   74.35680   67.92630   67.92630    5.32300   10.31080 -126.86900  -34.41000   10.31080
 6100.00000   10.38370   10.38370   34.88630   34.18280   29.25450   60.53000   60.53000   47.92620   47.92620   29.00990   45.18900  -96.30400   -3.84500   45.18900
 6150.00000    9.79470    9.79470   18.10380   18.35140   54.51290   50.51470   50.51470   27.33320   27.33320   54.29800   69.95010 -106.64650  -13.57610   69.95010
 6200.00000   10.05780   10.05780   15.36390   14.99450   66.69100   54.18780   54.18780   30.32050   30.32050   66.69100   77.15460 -117.61190  -23.46610   77.15460
 6250.00000    9.46040    9.46040   32.26490   32.44350   30.82280   55.90470   55.90470   43.74790   43.74790   31.03390   41.99640 -112.49590  -17.28180   41.99640
 6300.00000    8.83010    8.83010   27.33080   26.00870   38.44900   55.08370   55.08370   34.90420   34.90420   38.42670   49.43720 -135.57330  -39.29080   49.43720
 6350.00000    8.75740    8.75740   20.45600   20.13640   49.66130   54.72800   54.72800   27.85680   27.85680   49.76620   61.37560 -138.61930  -41.26150   61.37560
 6400.00000    9.78660    9.78660   28.35700   27.78910   35.98590   55.35700   55.35700   38.10860   38.10860   36.01600   43.72510 -123.65480  -25.22870   43.72510
 6450.00000    8.96800    8.96800   22.26380   22.01320   45.42720   55.66940   55.66940   36.71080   36.71080   45.42720   59.42330 -120.80850  -21.30700   59.42330
 6500.00000    9.44590    9.44590   17.17660   17.17910   58.21040   56.84390   56.84390   42.10150   42.10150   57.98240   71.00840 -115.37440  -14.80460   71.00840
 6550.00000   11.15370   11.15370   33.97700   30.90240   32.55770   84.59420   84.59420  145.10290  145.10290   32.05030   46.24620 -107.80490   -6.27330   46.24620
 6600.00000   11.03140   11.03140   75.63240   74.12460   13.49080   64.80290   64.80290   86.36690   86.36690   13.57140   17.42700 -107.94710   -5.70230   17.42700
 6650.00000   10.14950   10.14950   11.29260   11.23620   89.15030   50.42820   50.42820   28.03510   28.03510   89.88730   95.00250 -131.18110  -28.22770   95.00250
 6700.00000    9.83820    9.83820   11.68610   11.13100   89.83890   51.50330   51.50330   19.15360   19.15360   89.83890   95.71840 -169.81120  -66.14460   95.71840
 6750.00000    9.74430    9.74430    7.20020    6.05670  165.10730   48.74590   48.74590   19.96260   19.96260  163.57890  144.97310 -162.40250  -58.02730  144.97310
 6800.00000    9.53590    9.53590    9.51150    9.13380  109.49320   49.60030   49.60030   21.42830   21.42830  109.28400  126.56720 -181.90780  -76.82400  126.56720
 6850.00000    9.24340    9.24340    9.40540    8.40140  119.02720   48.34000   48.34000   19.66870   19.66870  117.39660  119.60220 -163.08060  -57.28360  119.60220
 6900.00000    9.41550    9.41550    7.63220    7.08560  141.17550   49.24730   49.24730   18.36380   18.36380  140.67120  151.42240 -197.14150  -90.63590  151.42240
 6950.00000    9.38960    9.38960   21.46500   21.91550   45.62990   50.72850   50.72850   17.95930   17.95930   45.62990   63.73330 -190.77230  -83.55350   63.73330
 7000.00000    8.88990    8.88990   21.18550   21.71560   46.04990   49.29960   49.29960   15.39860   15.39860   46.45330   94.85460 -210.24470 -102.31740   94.85460
 7050.00000    9.19970    9.19970   16.16120   15.93540   62.79250   50.14520   50.14520   17.59270   17.59270   62.47850   84.58870 -192.36860  -83.73270   84.58870
 7100.00000    9.15990    9.15990    9.75180    9.20940  108.58490   49.82340   49.82340   18.89670   18.89670  107.44190  111.32900 -194.68630  -85.33720  111.32900
 7150.00000    9.09170    9.09170    7.68490    5.00970  199.63860   47.51480   47.51480   17.47490   17.47490  200.10570  192.84150 -180.10740  -70.04970  192.84150
 7200.00000    9.18930    9.18930    6.28940    5.10340  195.94650   48.34190   48.34190   16.48500   16.48500  195.94650  182.62720 -183.49790  -72.72700  182.62720
 7250.00000    7.03880    7.03880   98.59480   96.06790   10.40930   57.97770   57.97770   18.15330   18.15330   10.44530   57.94340 -221.07120 -109.59170   57.94340
 7300.00000    8.90660    8.90660   30.32230   28.80700   34.71990   48.40000   48.40000   20.47290   20.47290   34.62800   72.42030 -206.58680  -94.39870   72.42030
 7350.00000    8.84180    8.84180   39.76980   40.05860   24.96340   48.65980   48.65980   24.71420   24.71420   25.39940   81.06780 -209.60080  -96.69950   81.06780
 7400.00000    9.47830    9.47830  772.98220  526.31880    1.90030   66.04270   66.04270   51.46200   51.46200    1.90520    4.00410 -153.78800  -40.17820    4.00410
 7450.00000    9.51680    9.51680   15.73580   14.78970   67.61470   51.91770   51.91770   20.96840   20.96840   67.61470  101.99000 -145.28160  -30.95850  101.99000
 7500.00000    9.62290    9.62290    8.14850   10.19860   98.05280   50.44600   50.44600   20.59280   20.59280   98.43310  152.29000 -142.86270  -27.83110  152.29000
 7550.00000    9.86040    9.86040  271.40430  260.06860    3.86000   58.75580   58.75580   29.35770   29.35770    3.81210   17.63300 -158.12500  -42.32070   17.63300
 7600.00000    9.32460    9.32460   10.97570    9.78260  102.22260   54.57500   54.57500   36.44340   36.44340  101.36310   86.01650 -151.56900  -34.85920   86.01650
 7650.00000    9.56320    9.56320   30.86400   29.03790   34.47430   58.82640   58.82640   55.00460   55.00460   34.69890   43.14100 -193.93300  -76.32360   43.14100
 7700.00000    9.23320    9.23320    5.08640    5.52840  180.88400   39.98520   39.98520   26.49050   26.49050  180.88400  164.10960 -213.91190  -95.39700  164.10960
 7750.00000    9.60730    9.60730   23.78020   21.61100   46.27270   56.96330   56.96330   40.76170   40.76170   45.58070   44.76120 -174.67840  -55.26390   44.76120
 7800.00000   11.29830   11.29830   90.60720   91.81460   10.94830   77.35010   77.35010   72.45740   72.45740   11.10590   19.35150 -161.84630  -41.53210   19.35150
 7850.00000   13.60750   13.60750  155.80120  155.78990    6.41890   68.27770   68.27770   65.95040   65.95040    6.36770    8.67960 -146.86190  -25.64220    8.67960
 7900.00000   13.00690   13.00690  254.54490  255.34320    3.91640   84.96530   84.96530   97.47290   97.47290    3.91350    5.40960 -128.97100   -6.85170    5.40960
 7950.00000   13.98290   13.98290  235.17800  234.78040    4.25930   79.95900   79.95900   79.12570   79.12570    4.25930    5.55550 -126.04470   -8.56990    5.55550
 8000.00000   14.64030   14.64030  242.31900  242.25980    4.12780   81.74420   81.74420   75.07530   75.07530    4.12940    5.30990 -141.17630  -34.35810    5.30990
 8050.00000   15.80990   15.80990  226.69950  225.75680    4.42970   80.34930   80.34930   75.92100   75.92100    4.43580    5.72640 -165.43400  -69.27240    5.72640
 8100.00000   15.24380   15.24380  253.69500  253.76200    3.94070   81.63930   81.63930   72.08250   72.08250    3.92730    5.29790 -172.11160  -86.67680    5.29790
 8150.00000   16.36500   16.36500  199.83840  199.84280    5.00410   80.50230   80.50230   76.37520   76.37520    5.00890    6.08800 -167.13660  -92.35840    6.08800
