~Version ---------------------------------------------------
VERS.      2.0 : CWLS log ASCII Standard -VERSION 2.0
WRAP.       NO : One line per depth step
CREA. 10/12/17 : LAS Creation Date
~Well ------------------------------------------------------
STRT.FT                      1050.0 : START DEPTH
STOP.FT                      9550.0 : STOP DEPTH
STEP.FT                    50.00000 : STEP LENGTH
NULL.                       -999.25 : NULL VALUE
COMP. GOLDEN EAGLE REFINING COMPANY : COMPANY
WELL. GREC GOA SAKWATAMAU 6-1-63-15 : WELL
FLD .                            WC : FIELD
LOC .                               : LOCATION
CTRY.                        CANADA : COUNTRY
SRVC.                  Schlumberger : SERVICE COMPANY
DATE.                   08-Dec-1970 : LOGDATE
PROV.                       Alberta : PROVINCE
UWI .              100060106315W500 : UNIQUE WELL ID
SLAT.WGS84                 54.41837 : SURFACE LATITUDE
SLON.WGS84                -116.1336 : SURFACE LONGITUDE
~Curve Information -----------------------------------------
DEPT  .FT    : Depth Curve
CALSED.IN    : CALIPER FROM SONIC LOG [ADJ. TO RESISTIVITY LOG]
CALWS .IN    : CALIPER [CALSED]
CONDWS.MMHO  : CONDUCTIVITY [1000/DRESWS]
DRESWS.OHMM  : DEEP RESISTIVITY [ILDED]
DTED  .US/F  : DELTA TIME FROM SONIC LOG [ADJ. TO RESISTIVITY LOG]
DTWS  .US/F  : COMPRESSIONAL SONIC [DTED]
GRSED .GAPI  : GAMMA RAY FROM SONIC LOG [ADJ. TO RESISTIVITY LOG]
GRWS  .GAPI  : GAMMA RAY [GRSED]
ILDED .OHMM  : DEEP INDUCTION FROM RESISTIVITY LOG
ILMED .OHMM  : MEDIUM INDUCTION FROM RESISTIVITY LOG
LL8ED .OHMM  : LATEROLOG 8 FROM  RESISTIVITY LOG
MRESWS.OHMM  : MEDIUM RESISTIVITY [ILMED]
SPRED .MV    : SPONTANEOUS POTENTIAL FROM RESISTIVITY LOG
SPWS  .MV    : SPONTANEOUS POTENTIAL [BASELINE 0 MV. SPRED]
SRESWS.OHMM  : SHALLOW RESISTIVITY [LL8ED]
~Params ----------------------------------------------------
PD  .                     GL : PERMANENT DATUM
EPD .FT                 2985 : ELEVATION PERMANENT DATUM
LMF .                     KB : LOG MEASURED FROM
DAPD.FT                   14 : FEET ABOVE PERMANENT DATUM
EKB .FT                 2999 : KELLY BUSHING
EGL .FT                 2985 : GROUND LEVEL
DATE.               12/08/70 : RUN DATE
RUN .                      1 : RUN NUMBER
DD  .FT                 9566 : DEPTH DRILLER
DL  .FT                 9567 : DEPTH LOGGER
BLI .FT                 9559 : BOTTOM LOG INTERVAL
TLI .FT                 1035 : TOP LOG INTERVAL
CBD .FT                 1035 : CASING BOTTOM DRILLER
CBL .FT                 1035 : CASING BOTTOM LOGGER
BS  .IN                7.875 : BIT SIZE
BSD .FT                 9566 : BIT SIZE AT DEPTH
DFT .                    GEL : DRILLING FLUID TYPE
DFD .                      9 : DRILLING FLUID DENSITY
DFV .                    115 : DRILLING FLUID VISCOSITY
DFPH.                     10 : DRILLING FLUID PH
DFL .                   11.5 : DRILLING FLUID LOSS
MSS .               FLOWLINE : MUD SAMPLE SOURCE
RMS .OHMM               6.04 : RESISTIVITY MUD SAMPLE
MST .DEGF                 70 : MUD SAMPLE TEMPERATURE
RMF .OHMM               5.75 : RESISTIVITY MUD FILTRATE SAMPLE
MFST.DEGF                 62 : MUD FILTRATE SAMPLE TEMPERATURE
RMB .OHMM               2.15 : RESISTIVITY MUD AT BHT
TCS .HRS                   3 : TIME CIRCULATED STOPPED
LUN .                   7002 : LOGGING UNIT NUMBER
LUL .                     RD : LOGGING UNIT LOCATION
ENGI.                 TALBOT : RECORDING ENGINEER
WITN.               DUCHARME : WITNESSED BY
CLNT.                A2DTECH : CLIENT CODE
ORIG.        2" 5" 10" PRINT : ORIGIN OF DATA
UWI .       100060106315W500 : UNIQUE WELL ID
DICO. A2D Technologies, Inc. : DIGITIZING COMPANY
~Other -----------------------------------------------------
DIL-BHC LOG RAN
~ASCII -----------------------------------------------------
 1050.00000   10.55660   10.55660  259.48720    3.85400  117.39930  117.39930   68.84980   68.84980    3.85400    3.45560    4.64580    3.45560  -67.83850   -6.97130    4.64580
 1100.00000   10.77410   10.77410   84.77380   11.79610  109.55540  109.55540   67.40600   67.40600   11.79610   11.07560   12.08920   11.07560  -67.07400   -6.20680   12.08920
 1150.00000   10.99340   10.99340  256.54710    3.89900  113.28540  113.28540   87.52860   87.52860    3.89900    3.67760    4.80900    3.67760  -66.63220   -5.76500    4.80900
 1200.00000   11.51960   11.51960  258.73220    3.86500  125.06520  125.06520   76.45000   76.45000    3.86500    3.49290    4.65570    3.49290  -67.06440   -6.19720    4.65570
 1250.00000   11.72280   11.72280  259.32260    3.85620  115.56180  115.56180   66.45870   66.45870    3.85620    3.44740    4.48470    3.44740  -66.78680   -5.91960    4.48470
 1300.00000   11.32660   11.32660  140.33200    7.16040  107.89790  107.89790   58.60490   58.60490    7.16040    6.51850    9.36960    6.51850  -66.53130   -5.66410    9.36960
 1350.00000   13.48110   13.48110  278.48950    3.59080  125.58840  125.58840   73.86890   73.86890    3.59080    3.20480    4.34250    3.20480  -66.38820   -5.52100    4.34250
 1400.00000   11.02700   11.02700  149.31820    6.70050  148.36730  148.36730   62.08160   62.08160    6.70050    6.14160    7.23690    6.14160  -67.98710   -7.11990    7.23690
 1450.00000   10.93630   10.93630  263.48380    3.79530  114.36880  114.36880   79.95730   79.95730    3.79530    3.41250    5.11310    3.41250  -69.09220   -8.22500    5.11310
 1500.00000   10.85310   10.85310  180.67500    5.53480  123.89420  123.89420   79.82640   79.82640    5.53480    4.88050    5.92150    4.88050  -68.07310   -7.20590    5.92150
 1550.00000   12.10950   12.10950  288.18600    3.47830  124.86620  124.86620   70.90030   70.90030    3.47830    3.18930    4.18290    3.18930  -64.29030   -3.42310    4.18290
 1600.00000   12.45880   12.45880  247.67190    4.03760  128.55670  128.55670   64.47750   64.47750    4.03760    3.85280    5.00010    3.85280  -65.13790   -4.27070    5.00010
 1650.00000   10.70700   10.70700  268.21720    3.72850  102.06600  102.06600   85.42550   85.42550    3.72850    3.61260    5.39070    3.61260  -66.70380   -5.83660    5.39070
 1700.00000   10.86570   10.86570  161.74420    6.18260  102.60770  102.60770   64.51250   64.51250    6.18260    5.53440    6.78770    5.53440  -67.42080   -6.55360    6.78770
 1750.00000   13.83090   13.83090  381.40280    2.62190  131.48330  131.48330   79.86550   79.86550    2.62190    2.42670    4.22490    2.42670  -65.74430   -4.87710    4.22490
 1800.00000   10.43340   10.43340  181.90870    5.49940   96.27740   96.27740   63.88600   63.88600    5.49940    4.91130    6.97690    4.91130  -68.77820   -7.88220    6.97690
 1850.00000   15.15470   15.15470  361.23250    2.76830  118.39800  118.39800   65.09220   65.09220    2.76830    2.65180    3.57010    2.65180  -64.02290   -3.04950    3.57010
 1900.00000   10.16430   10.16430  145.42940    6.87970  103.96730  103.96730   68.92860   68.92860    6.87970    6.60410    7.42450    6.60410  -67.86360   -6.81340    7.42450
 1950.00000    9.04030    9.04030  110.44720    9.05410  104.67290  104.67290   56.16600   56.16600    9.05410    8.50470    9.71650    8.50470  -79.98580  -18.85830    9.71650
 2000.00000    9.89470    9.89470  148.46930    6.73540  100.59570  100.59570   61.22560   61.22560    6.73540    6.31380    7.84970    6.31380  -72.12070  -10.91630    7.84970
 2050.00000   10.14190   10.14190  242.60840    4.12200  117.79260  117.79260   68.98860   68.98860    4.12200    3.84990    5.04900    3.84990  -66.06620   -4.78500    5.04900
 2100.00000   10.51430   10.51430  287.59600    3.47710   97.50010   97.50010   67.69050   67.69050    3.47710    3.21230    4.27210    3.21230  -65.48310   -4.12450    4.27210
 2150.00000    9.58440    9.58440  150.60240    6.64260  105.06340  105.06340   71.46980   71.46980    6.64260    6.40630    7.79160    6.40630  -69.31020   -7.87480    7.79160
 2200.00000    9.87740    9.87740   90.94300   10.99590  136.57810  136.57810   52.67280   52.67280   10.99590   11.46200   13.09290   11.46200  -75.31700  -13.80420   13.09290
 2250.00000   10.45780   10.45780  222.72210    4.48990  107.24870  107.24870   65.02290   65.02290    4.48990    4.36970    5.14920    4.36970  -66.08160   -4.49200    5.14920
 2300.00000   10.28640   10.28640  289.31550    3.45650  107.42370  107.42370   66.57690   66.57690    3.45650    3.24660    4.13150    3.24660  -65.19850   -3.53210    4.13150
 2350.00000    9.36780    9.36780  108.70630    9.19910   93.95650   93.95650   52.82950   52.82950    9.19910    8.75730   11.19340    8.75730  -69.14150   -7.39770   11.19340
 2400.00000   11.28520   11.28520  263.50530    3.81480   98.17060   98.17060   46.96760   46.96760    3.81480    3.25090    4.44030    3.25090  -63.65560   -1.83500    4.44030
 2450.00000    9.79230    9.79230  267.71610    3.73530   98.38170   98.38170   62.85940   62.85940    3.73530    3.38710    4.33180    3.38710  -63.83730   -1.93930    4.33180
 2500.00000    9.54940    9.54940  223.66360    4.47100   96.78140   96.78140   60.55520   60.55520    4.47100    4.20630    4.77060    4.20630  -65.60100   -3.62620    4.77060
 2550.00000    8.78750    8.78750   73.09900   13.72890   74.16850   74.16850   48.61480   48.61480   13.72890   17.27970   21.02920   17.27970  -69.07990   -7.02820   21.02920
 2600.00000    9.43560    9.43560  187.23090    5.34100   97.50380   97.50380   62.60100   62.60100    5.34100    5.51150    9.38730    5.51150  -73.61190  -11.48290    9.38730
 2650.00000   12.15120   12.15120  293.90340    3.40250  104.26670  104.26670   66.37810   66.37810    3.40250    3.58860    4.72010    3.58860  -67.31300   -5.10720    4.72010
 2700.00000    9.70470    9.70470  213.29240    4.68840   96.93030   96.93030   53.96520   53.96520    4.68840    4.99970    5.82760    4.99970  -70.32600   -8.04280    5.82760
 2750.00000   10.75820   10.75820  269.09930    3.71610  114.06570  114.06570   68.49990   68.49990    3.71610    3.99070    4.41920    3.99070  -67.91750   -5.55750    4.41920
 2800.00000   10.29840   10.29840  263.94820    3.78930  118.92660  118.92660   57.11810   57.11810    3.78930    4.04730    5.00590    4.04730  -63.24330   -0.80640    5.00590
 2850.00000    8.88960    8.88960  104.97030    9.52650   98.16550   98.16550   46.33550   46.33550    9.52650   10.32060   10.92130   10.32060  -83.19610  -20.68190   10.92130
 2900.00000    9.04830    9.04830   75.20660   13.29670   99.24000   99.24000   43.59120   43.59120   13.29670   13.89640   16.35490   13.89640  -86.49020  -23.89910   16.35490
 2950.00000    9.63180    9.63180  291.14620    3.43470  108.00110  108.00110   65.04000   65.04000    3.43470    3.57610    4.85170    3.57610  -65.79750   -3.12910    4.85170
 3000.00000    9.51620    9.51620  200.14410    4.99640   98.39570   98.39570   58.03430   58.03430    4.99640    5.26520    5.95920    5.26520  -68.90370   -6.49030    5.95920
 3050.00000    9.54580    9.54580  237.23130    4.21530   96.75790   96.75790   66.99720   66.99720    4.21530    4.33500    5.42320    4.33500  -67.45760   -5.39840    5.42320
 3100.00000   11.96640   11.96640  181.04790    5.52340  105.24670  105.24670   72.84170   72.84170    5.52340    5.73670    6.93780    5.73670  -69.20420   -7.50160    6.93780
 3150.00000   10.93520   10.93520  131.62970    7.59730  122.78450  122.78450   80.40390   80.40390    7.59730    7.84680    9.14680    7.84680  -71.13590   -9.78760    9.14680
 3200.00000   12.94270   12.94270  183.12000    5.46090  101.33230  101.33230   84.83530   84.83530    5.46090    5.75570    7.09390    5.75570  -67.10520   -6.11340    7.09390
 3250.00000   13.42300   13.42300  190.21890    5.25710  112.53890  112.53890   78.55340   78.55340    5.25710    5.80070    7.06820    5.80070  -66.77060   -6.13310    7.06820
 3300.00000    9.95550    9.95550  103.89350    9.62560   96.40870   96.40870   97.40460   97.40460    9.62560   10.24290   12.13700   10.24290  -68.66140   -8.37810   12.13700
