~Version ---------------------------------------------------
VERS.      2.0 : CWLS log ASCII Standard -VERSION 2.0
WRAP.       NO : One line per depth step
CREA. 01/03/18 : LAS Creation Date
~Well ------------------------------------------------------
STRT.FT                      800.0 : START DEPTH
STOP.FT                     8150.0 : STOP DEPTH
STEP.FT                   50.00000 : STEP LENGTH
NULL.                      -999.25 : NULL VALUE
COMP.          TOTAL PETROLEUM LTD : COMPANY
WELL. TOTAL PCP KINAKIN 16-27-63-9 : WELL
FLD .                              : FIELD
LOC .                              : LOCATION
CTRY.                       CANADA : COUNTRY
SRVC.                 Schlumberger : SERVICE COMPANY
DATE.                  08-Mar-1974 : LOGDATE
PROV.                      Alberta : PROVINCE
UWI .             100162706309W500 : UNIQUE WELL ID
SLAT.WGS84                54.48436 : SURFACE LATITUDE
SLON.WGS84               -115.2648 : SURFACE LONGITUDE
~Curve Information -----------------------------------------
DEPT    .FT    : Depth Curve
CALDED  .IN    : CALIPER CNFD (ADJ TO RES.)
CALSED  .IN    : CALIPER SONIC (ADJ TO RES.)
CALWS   .IN    : CALIPER [CALSED]
CONDWS  .MMHO  : CONDUCTIVITY (1000/DRESWS)
DCORWS  .G/C3  : DENSITY CORRECTION (DRHOED)
DENWS   .G/C3  : BULK DENSITY  (RHOBED)
DPHILSED.V/V   : DENSITY POROSITY LIMESTONE (ADJ TO RES.)
DPHISSED.V/V   : DENSITY POROSITY SANDSTONE (ADJ TO RES.)
DPOLSWS .V/V   : DENSITY POROSITY (M=2.71 F=1.00 FROM DENWS)
DRESWS  .OHMM  : DEEP RESISTIVITY (ILDED)
DRHOED  .G/C3  : DENSITY CORRECTION
DTED    .US/F  : DELTA TIME
DTWS    .US/F  : DELTA TIME (DTED)
GRDED   .GAPI  : GAMMA RAY CNFD (ADJ TO RES.)
GRSED   .GAPI  : GAMMA RAY SONIC (ADJ TO RES.)
GRWS    .GAPI  : GAMMA RAY (GRSED)
ILDED   .OHMM  : DEEP INDUCTION RESISTIVITY
ILMED   .OHMM  : MEDIUM INDUCTION RESISTIVITY
LL8ED   .OHMM  : LATEROLOG-8 RESISTIVITY
MRESWS  .OHMM  : MEDIUM RESISTIVITY (ILMED)
NPHILSED.V/V   : NEUTRON POROSITY LIMESTONE (ADJ TO RES.)
NPHISSED.V/V   : NEUTRON POROSITY SANDSTONE (ADJ TO RES.)
NPOLSWS .V/V   : NEUTRON POROSITY LIMESTONE (NPHISSED CONVERTED TO LS/NPHILSED @ 4396')
RHOBED  .G/C3  : BULK DENSITY
SPRED   .MV    : Spontaneous Potential  DIL
SPWS    .MV    : SPONTANEOUS POTENTIAL BASELINE 0 MV (SPRED)
SRESWS  .OHMM  : SHALLOW RESISTIVITY (LL8ED)
~Params ----------------------------------------------------
PD  .                     GL : PERMANENT DATUM
EPD .FT               2924.5 : ELEVATION PERMANENT DATUM
LMF .                     KB : LOG MEASURED FROM
DAPD.FT                 13.5 : FEET ABOVE PERMANENT DATUM
EKB .FT                 2938 : KELLY BUSHING
EGL .FT               2924.5 : GROUND LEVEL
DATE.               03/08/74 : RUN DATE
RUN .                      1 : RUN NUMBER
DD  .FT                 8170 : DEPTH DRILLER
DL  .FT                 8169 : DEPTH LOGGER
BLI .FT                 8163 : BOTTOM LOG INTERVAL
TLI .FT                  836 : TOP LOG INTERVAL
CBD .FT                  835 : CASING BOTTOM DRILLER
BS  .IN                 8.75 : BIT SIZE
BSD .FT                 8170 : BIT SIZE AT DEPTH
DFT .               GEL CHEM : DRILLING FLUID TYPE
DFD .                    9.0 : DRILLING FLUID DENSITY
DFV .                     78 : DRILLING FLUID VISCOSITY
DFPH.                     10 : DRILLING FLUID PH
DFL .                    7.8 : DRILLING FLUID LOSS
MSS .             CALCULATED : MUD SAMPLE SOURCE
RMF .OHMM               1.34 : RESISTIVITY MUD FILTRATE SAMPLE
MFST.DEGF                 62 : MUD FILTRATE SAMPLE TEMPERATURE
RMB .OHMM               0.64 : RESISTIVITY MUD AT BHT
TCS .HRS                   3 : TIME CIRCULATED STOPPED
LUN .                   7692 : LOGGING UNIT NUMBER
LUL .                    EDM : LOGGING UNIT LOCATION
ENGI.                   WOON : RECORDING ENGINEER
WITN.              MACKENZIE : WITNESSED BY
CLNT.                A2DTECH : CLIENT CODE
ORIG.            2" 5" PRINT : ORIGIN OF DATA
UWI .       100162706309W500 : UNIQUE WELL ID
DICO. A2D Technologies, Inc. : DIGITIZING COMPANY
~Other -----------------------------------------------------
~ASCII -----------------------------------------------------
# ...
 4700.00000   12.32760   11.36900   11.36900    2.98840    0.05440    2.66270    0.02540    -999.25    0.02770  338.44420    0.05440   54.12210   54.12210   10.18380    9.80650    9.80650  338.44420  451.16700  312.08760  451.16700    0.06580    -999.25    0.06580    2.66270 -114.38240  -61.68150  312.08760
 4750.00000   12.25720   11.42630   11.42630  214.43120    0.01750    2.58380    0.07900    -999.25    0.07380    4.66350    0.01750   74.23620   74.23620   76.51930   78.98170   78.98170    4.66350    4.82780    5.74670    4.82780    0.15440    -999.25    0.15440    2.58380  -71.22450  -18.84730    5.74670
 4800.00000   11.10150   10.05580   10.05580  174.59620    0.02400    2.68320    0.01150    -999.25    0.01570    5.72750    0.02400   71.89470   71.89470   75.85140   75.47790   75.47790    5.72750    6.37290    7.36100    6.37290    0.18990    -999.25    0.18990    2.68320  -65.05720  -13.00530    7.36100
 4850.00000   12.35310   10.85020   10.85020  145.88530    0.03110    2.64470    0.04120    -999.25    0.03820    6.85470    0.03110   63.70000   63.70000   27.82600   30.16880   30.16880    6.85470    8.06430    9.17040    8.06430    0.12820    -999.25    0.12820    2.64470 -103.44120  -51.71460    9.17040
 4900.00000    9.99460    9.20530    9.20530   18.91010    0.02160    2.75560   -0.02670    -999.25   -0.02670   52.88170    0.02160   51.29120   51.29120   12.48040   12.79280   12.79280   52.88170   75.08900   99.07110   75.08900    0.01030    -999.25    0.01030    2.75560  -99.63510  -48.23390   99.07110
 4950.00000    9.90980    9.08540    9.08540   15.89370    0.06290    2.60120    0.06400    -999.25    0.06360   62.92560    0.06290   61.79810   61.79810   10.36000    9.63940    9.63940   62.92560  119.83450  252.32830  119.83450    0.05120    -999.25    0.05120    2.60120  -92.11530  -41.04100  252.32830
 5000.00000    9.35690    8.78130    8.78130  146.51160    0.01050    2.57020    0.08460    -999.25    0.08180    6.82540    0.01050   68.13210   68.13210   62.70490   62.32900   62.32900    6.82540    7.12440    8.09170    7.12440    0.12860    -999.25    0.12860    2.57020  -74.54010  -23.78950    8.09170
 5050.00000   10.19630    9.47910    9.47910  113.53320    0.05610    2.69270    0.00740    -999.25    0.01010    8.80800    0.05610   70.06320   70.06320   80.35240   83.09910   83.09910    8.80800    9.25680    9.88390    9.25680    0.11060    -999.25    0.11060    2.69270  -56.27340   -5.84810    9.88390
 5100.00000   11.11820   10.57430   10.57430  141.66110    0.04020    2.65730    0.03450    -999.25    0.03080    7.05910    0.04020   72.77110   72.77110   95.35580  100.37440  100.37440    7.05910    7.36260    8.21790    7.36260    0.14680    -999.25    0.14680    2.65730  -58.36150   -8.26160    8.21790
 5150.00000    9.61340    9.13110    9.13110  105.78650    0.05220    2.66470    0.02520    -999.25    0.02650    9.45300    0.05220   68.81050   68.81050   86.41430   86.44320   86.44320    9.45300    9.72360   11.12570    9.72360    0.11880    -999.25    0.11880    2.66470  -63.25030  -13.47570   11.12570
 5200.00000   11.04200   10.45730   10.45730  121.16690    0.01620    2.64650    0.03570    -999.25    0.03710    8.25320    0.01620   74.45520   74.45520  101.31000  107.75650  107.75650    8.25320    8.48220    9.90600    8.48220    0.13590    -999.25    0.13590    2.64650  -60.16340  -10.71570    9.90600
 5250.00000    9.54630    9.09930    9.09930   60.52430    0.00780    2.67090    0.02550    -999.25    0.02290   16.52230    0.00780   60.84060   60.84060   66.11100   59.76240   59.76240   16.52230   17.36400   20.00510   17.36400    0.05380    -999.25    0.05380    2.67090  -94.65650  -45.53250   20.00510
 5300.00000    9.88910    9.78070    9.78070  117.61110    0.03500    2.63120    0.04930    -999.25    0.04610    8.50260    0.03500   83.71430   83.71430  150.30740  144.64740  144.64740    8.50260    8.72750   10.43990    8.72750    0.09470    -999.25    0.09470    2.63120  -50.49000   -1.69140   10.43990
 5350.00000    9.46670    8.98230    8.98230  582.30940    0.01290    2.67980    0.01940    -999.25    0.01770    1.71730    0.01290   60.32450   60.32450   41.68310   42.38110   42.38110    1.71730    1.96400    7.13480    1.96400    0.01720    -999.25    0.01720    2.67980 -111.46550  -63.38280    7.13480
 5400.00000    9.52600    8.61530    8.61530   11.06040    0.02180    2.74130   -0.02000    -999.25   -0.01830   90.41290    0.02180   49.60520   49.60520   24.68130   24.33110   24.33110   90.41290  128.33160   98.73190  128.33160   -0.00060    -999.25   -0.00060    2.74130  -93.35280  -46.14550   98.73190
 5450.00000    -999.25    8.61220    8.61220   11.10560    -999.25    -999.25    -999.25    -999.25    -999.25   90.04470    -999.25   48.57590   48.57590    -999.25    8.39980    8.39980   90.04470  143.27500  254.60890  143.27500    -999.25    -999.25    -999.25    -999.25 -176.83570 -130.50820  254.60890
 5500.00000    -999.25    8.61040    8.61040   12.63460    -999.25    -999.25    -999.25    -999.25    -999.25   79.14780    -999.25   49.42980   49.42980    -999.25   12.65360   12.65360   79.14780  118.20530  327.98490  118.20530    -999.25    -999.25    -999.25    -999.25 -158.71500 -113.25850  327.98490
 5550.00000    -999.25    8.56470    8.56470   24.34270    -999.25    -999.25    -999.25    -999.25    -999.25   41.08000    -999.25   48.03700   48.03700    -999.25   14.16000   14.16000   41.08000   71.70520  157.35680   71.70520    -999.25    -999.25    -999.25    -999.25 -122.80490  -78.22390  157.35680
 5600.00000    -999.25    8.16420    8.16420   51.62890    -999.25    -999.25    -999.25    -999.25    -999.25   19.36900    -999.25   52.84780   52.84780    -999.25   13.56620   13.56620   19.36900   30.21350  132.75180   30.21350    -999.25    -999.25    -999.25    -999.25 -197.41580 -153.71020  132.75180
 5650.00000    -999.25    8.55490    8.55490   25.15820    -999.25    -999.25    -999.25    -999.25    -999.25   39.74850    -999.25   49.33360   49.33360    -999.25   12.69150   12.69150   39.74850  134.67180  236.30490  134.67180    -999.25    -999.25    -999.25    -999.25 -168.82120 -125.99100  236.30490
 5700.00000    -999.25    8.09350    8.09350   95.79330    -999.25    -999.25    -999.25    -999.25    -999.25   10.46110    -999.25   51.91020   51.91020    -999.25   10.17620   10.17620   10.46110   21.47520  179.29450   21.47520    -999.25    -999.25    -999.25    -999.25 -178.97370 -137.02330  179.29450
 5750.00000    -999.25    8.01040    8.01040   68.09390    -999.25    -999.25    -999.25    -999.25    -999.25   14.68560    -999.25   54.33650   54.33650    -999.25   13.07940   13.07940   14.68560   24.36440   85.28800   24.36440    -999.25    -999.25    -999.25    -999.25 -180.25980 -139.18050   85.28800
 5800.00000    -999.25    8.41850    8.41850   32.30130    -999.25    -999.25    -999.25    -999.25    -999.25   30.95850    -999.25   50.77820   50.77820    -999.25   14.40020   14.40020   30.95850   62.11550  170.47600   62.11550    -999.25    -999.25    -999.25    -999.25 -165.35700 -125.15310  170.47600
 5850.00000    -999.25    8.58660    8.58660    4.38860    -999.25    -999.25    -999.25    -999.25    -999.25  227.86420    -999.25   48.93770   48.93770    -999.25   14.49740   14.49740  227.86420 1421.87330  473.10310 1421.87330    -999.25    -999.25    -999.25    -999.25 -132.85990  -93.53150  473.10310
 5900.00000    -999.25    8.37700    8.37700   11.73090    -999.25    -999.25    -999.25    -999.25    -999.25   85.24460    -999.25   53.14630   53.14630    -999.25   10.18720   10.18720   85.24460  212.74970  208.27830  212.74970    -999.25    -999.25    -999.25    -999.25 -141.12780 -102.67480  208.27830
 5950.00000    -999.25    8.03430    8.03430   81.64850    -999.25    -999.25    -999.25    -999.25    -999.25   12.26010    -999.25   56.98320   56.98320    -999.25   12.24090   12.24090   12.26010   21.23980  132.00210   21.23980    -999.25    -999.25    -999.25    -999.25 -172.90490 -135.33170  132.00210
