~Version ---------------------------------------------------
VERS.      2.0 : CWLS log ASCII Standard -VERSION 2.0
WRAP.       NO : One line per depth step
CREA. 09/10/14 : LAS Creation Date
~Well ------------------------------------------------------
STRT.FT                           900.0 : START DEPTH
STOP.FT                          9800.0 : STOP DEPTH
STEP.FT                        50.00000 : STEP LENGTH
NULL.                           -999.25 : NULL VALUE
COMP.      CANADIAN HOMESTEAD OILS LTD. : COMPANY
WELL. HOMESTEAD SHELL SNIPE 12-29-68-18 : WELL
FLD .                                   : FIELD
LOC .                                   : LOCATION
CTRY.                            CANADA : COUNTRY
SRVC.                      Schlumberger : SERVICE COMPANY
DATE.                       11-Apr-1970 : LOGDATE
PROV.                           Alberta : PROVINCE
UWI .                  100122906818W500 : UNIQUE WELL ID
SLAT.WGS84                     54.91763 : SURFACE LATITUDE
SLON.WGS84                    -116.7151 : SURFACE LONGITUDE
~Curve Information -----------------------------------------
DEPT   .FT    : Depth Curve
CALS   .IN    : CALIPER FROM SONIC LOG
DT     .US/F  : DELTA TIME FROM SONIC LOG
GRS    .GAPI  : GAMMA RAY FROM SONIC LOG
ILD    .OHMM  : DEEP INDUCTION RESISTIVITY FROM RESISTIVITY LOG
ILM    .OHMM  : MEDIUM INDUCTION RESISTIVITY FROM RESISTIVITY LOG
LL8    .OHMM  : LATEROLOG 8 FROM RESISTIVITY LOG
SPHI_LS.DEC   : SONIC POROSITY LIMESTONE [DTM=47.6,DTF=189.0] FROM SONIC LOG
SPHI_SS.DEC   : SONIC POROSITY SANDSTONE [DTM=55.6,DTF=189.0] FROM SONIC LOG
SPR    .MV    : SPONTANEOUS POTENTIAL FROM RESISTIVITY LOG
~Params ----------------------------------------------------
PD  .                     GL : PERMANENT DATUM
EPD .FT                 2869 : ELEVATION PERMANENT DATUM
LMF .                     KB : LOG MEASURED FROM
DAPD.FT                   14 : FEET ABOVE PERMANENT DATUM
EKB .FT                 2883 : KELLY BUSHING
EGL .FT                 2869 : GROUND LEVEL
DATE.               04/11/70 : RUN DATE
RUN .                      1 : RUN NUMBER
DD  .FT                 9835 : DEPTH DRILLER
DL  .FT                 9820 : DEPTH LOGGER
BLI .FT                 9816 : BOTTOM LOG INTERVAL
TLI .FT                 1012 : TOP LOG INTERVAL
CBD .FT                 1008 : CASING BOTTOM DRILLER
CBL .FT                 1012 : CASING BOTTOM LOGGER
BS  .IN                7.875 : BIT SIZE
BSD .FT                 9835 : BIT SIZE AT DEPTH
DFT .               CHEM GEL : DRILLING FLUID TYPE
DFD .                     93 : DRILLING FLUID DENSITY
DFV .                     75 : DRILLING FLUID VISCOSITY
DFPH.                   10.5 : DRILLING FLUID PH
DFL .                    9.2 : DRILLING FLUID LOSS
MSS .               FLOWLINE : MUD SAMPLE SOURCE
RMS .OHMM               2.03 : RESISTIVITY MUD SAMPLE
MST .DEGF                 73 : MUD SAMPLE TEMPERATURE
RMF .OHMM               1.92 : RESISTIVITY MUD FILTRATE SAMPLE
MFST.DEGF                 71 : MUD FILTRATE SAMPLE TEMPERATURE
RMC .OHMM               2.16 : RESISTIVITY MUD CAKE
MCST.DEGF                 73 : MUD CAKE SAMPLE TEMPERATURE
TCS .HRS                   3 : TIME CIRCULATED STOPPED
LUN .                   5630 : LOGGING UNIT NUMBER
LUL .                    EDM : LOGGING UNIT LOCATION
ENGI.                 SLADEN : RECORDING ENGINEER
WITN.           SLOAN ELFORD : WITNESSED BY
CLNT.                A2DTECH : CLIENT CODE
ORIG.            2" 5" PRINT : ORIGIN OF DATA
UWI .       100122906818W500 : UNIQUE WELL ID
DICO. A2D Technologies, Inc. : DIGITIZING COMPANY
~Other -----------------------------------------------------
~ASCII -----------------------------------------------------
# ...
 4550.00000    8.15370   86.45420   43.97440    7.58550   11.85590   16.92950    -999.25    0.22310 -192.81560
 4600.00000    9.04760   89.53110   69.74130    4.26910    5.58750    9.85580    -999.25    0.24420 -148.81520
 4650.00000    9.35360   85.60080   59.82230    3.21410    3.68990    5.09770    -999.25    0.21480 -133.05910
 4700.00000    9.27850   86.59090   65.81930    4.34510    5.09640    7.36230    -999.25    0.22380 -142.95530
 4750.00000    8.48130   82.53000   52.99210    5.65040    9.46700   16.31420    -999.25    0.19390 -192.44010
 4800.00000    9.55420   87.80710   75.95490    3.52950    3.60940    4.13490    -999.25    0.23270 -122.80130
 4850.00000    9.51460   87.77160   78.27550    4.99480    5.14460    5.94820    -999.25    0.23210 -122.55020
 4900.00000    9.90460   91.46690   83.03540    3.76120    3.98990    5.00840    -999.25    0.25750 -126.27230
 4950.00000    9.41240  101.14010   69.37770    4.75990    5.42340    8.14630    -999.25    0.31960 -128.04750
 5000.00000   11.35720   94.94430   84.20620    3.37090    3.50670    4.60100    -999.25    0.28780 -122.11730
 5050.00000    9.33620   88.43220   92.19320    9.27330   10.38300   11.97550    -999.25    0.23420 -121.35960
 5100.00000    9.35470   78.89600   81.37340   10.85610   11.45420   16.00520    -999.25    0.15890 -122.86630
 5150.00000    9.43130   79.03730   85.32240    7.12900    7.32470    9.46110    -999.25    0.16550 -118.79750
 5200.00000    9.30640  102.39920  122.22850   17.46970   23.73730   39.59030    -999.25    0.34570 -132.82540
 5250.00000    9.60000  109.05070  129.19030   58.40510   64.73200   48.87480    -999.25    0.38770 -112.85290
 5300.00000    8.59430   75.51500  114.37510 1612.94630 1696.50500 1742.00550    -999.25    0.14120 -114.59670
 5350.00000    9.00540   74.66620   73.42030    7.02720    8.98160   14.83430    -999.25    0.13400  -65.23790
 5400.00000    8.86030   76.64720   61.65960    3.20150    5.05160   15.92480    -999.25    0.15570  -91.62990
 5450.00000    7.94470   74.67460   45.34590    5.23880   10.76750   28.86820    -999.25    0.13970 -170.93950
 5500.00000    7.83200   74.21400   13.16560    1.73790    2.94590   15.30140    0.15660    0.15660 -165.29680
 5550.00000    8.16180   54.19870   21.48200   11.63220   20.14420  133.69110    0.04650    -999.25 -134.62980
 5600.00000    8.21280   56.91390   26.76010    7.20590    9.19350   35.56440    0.06370    -999.25 -119.99600
 5650.00000    8.72940   52.77210   31.35850  277.49230  107.99650   93.15810    0.03800    -999.25  -31.02720
 5700.00000    8.73730   50.77060   10.24980   58.02660  173.92720  380.63890    0.02230    -999.25 -107.44300
 5750.00000    9.05830   64.49990   76.11150   14.08050   14.97890   22.66060    0.11820    -999.25  -13.23360
 5800.00000    9.01740   57.24400   45.79690   23.70740   27.11980   41.01630    0.06580    -999.25   -4.90490
 5850.00000    8.77220   59.00800   17.39020  132.05750  241.89850  884.46970    0.04980    -999.25  -55.65040
 5900.00000    9.30280   72.85400   39.66350    1.39320    2.09540   11.18800    0.18060    -999.25 -121.91400
 5950.00000    9.10750   56.60830   20.23310   15.89990   25.99340   43.25110    0.06140    -999.25 -104.10060
 6000.00000    8.93610   60.31730   27.78690   11.40740   13.87750   51.09910    0.08420    -999.25  -90.88500
 6050.00000    8.99140   62.19190   29.89270    9.61440   11.69850   23.84160    0.10180    -999.25  -93.99010
 6100.00000    8.78210   58.78360   16.75240    6.62790    9.39580   48.03590    0.07940    -999.25 -177.39070
 6150.00000    8.41230   57.95710   10.01650   24.20920   45.92470  328.07330    0.07120    -999.25 -151.03230
 6200.00000    9.10790   53.70360    8.92280   70.23420  128.73440  144.61230    0.04250    -999.25 -116.66530
 6250.00000   10.52180   77.90940   77.86930    3.28380    3.60640    4.84210    0.21980    -999.25  -21.25130
 6300.00000    9.58700   58.94770   32.00780    5.88610    6.94400   12.65030    0.07880    -999.25  -32.16330
 6350.00000    9.18740   68.90570   61.99690    6.73810    7.71820   11.04410    0.15150    -999.25  -27.00580
 6400.00000    9.13100   61.69970   42.64350   13.67720   14.24400   17.51450    0.09830    -999.25  -20.20820
 6450.00000    8.94900   53.90980   16.16700   18.51090   25.47090   44.48080    0.04340    -999.25  -19.21050
 6500.00000    8.61240   57.58830   24.36640   30.67670   31.54100   32.99680    0.06900    -999.25  -39.61390
 6550.00000    8.59620   57.96170   11.68140   22.00670   32.01170  130.57850    0.07150    -999.25  -27.58650
 6600.00000    8.51930   58.68970   30.95890   25.46620   27.20660   33.46160    0.07700    -999.25   34.79640
 6650.00000    8.42300   55.90600   22.62570   60.96620   58.07440   56.50600    0.05770    -999.25   13.62440
 6700.00000    8.41080   55.21020   17.72250  140.78380  149.85770  125.37850    0.05310    -999.25   13.61960
 6750.00000    8.92460   61.94450   47.24510   24.60120   26.02000   32.03390    0.09970    -999.25   29.41670
 6800.00000    8.91250   64.05060   56.03270   19.07230   19.78040   21.85020    0.11440    -999.25   29.13540
 6850.00000    9.22660   89.57830  139.19330   10.59670   11.01080   14.59890    0.30580    -999.25   51.34370
 6900.00000    9.31270  106.75390    -999.25    5.57270    4.65080    6.25490    0.43290    -999.25   54.47300
 6950.00000    8.71250   50.91140    9.61660 1630.17150 1675.74840 1724.41060    0.02320    -999.25   10.59050
 7000.00000    8.86000   51.70600    9.62270  190.74070  237.55300  172.31040    0.02870    -999.25    9.78300
 7050.00000    9.00560   50.31590   10.46440 1658.07080 1750.66360 1725.25810    0.01920    -999.25   34.74820
 7100.00000    9.18750   51.07710    7.78880 1580.74510 1658.97300 1474.50850    0.02470    -999.25    8.22320
 7150.00000    8.77480   50.89600    8.77350  255.30830  150.10490  171.24350    0.02280    -999.25   23.30700
 7200.00000    8.72660   51.22010    5.05420  146.08030  360.27010  882.75240    0.02610    -999.25  -30.01140
 7250.00000    9.11520   51.13940    6.11980  174.89020  335.21830  271.24150    0.02470    -999.25  -56.88250
 7300.00000    8.88890   52.93290    7.87550   41.03880   74.48460  464.52990    0.03780    -999.25 -141.97370
 7350.00000    9.30420   50.93800   10.39190 1666.87240 1778.12810 1728.61330    0.02370    -999.25 -194.24370
 7400.00000    9.40360   50.59150    8.13380 1645.43400 1728.72420 1592.68040    0.02080    -999.25 -199.45780
 7450.00000    8.84860   50.52540    8.45400 1677.18790 1770.96480 1722.50420    0.02040    -999.25 -159.64870
 7500.00000    8.62170   50.81350    8.45310 1633.53190 1751.65950 1699.36760    0.02300    -999.25 -122.97710
 7550.00000    7.86370   55.02420    5.36980   29.40360   61.07950  190.32900    0.05120    -999.25 -166.47820
 7600.00000    8.46590   53.12330    6.83460   24.31250   46.29240  435.39400    0.03820    -999.25 -169.11590
 7650.00000    8.91770   50.42300   10.25100  449.32930 1579.75870 1343.01270    0.02010    -999.25 -106.87720
 7700.00000    8.61030   56.72230   23.52050    5.52910    7.07090   10.65960    0.06410    -999.25  -94.05500
 7750.00000    8.37910   50.62530   11.76470   54.09340   88.78030  225.64920    0.02170    -999.25 -101.57010
 7800.00000    8.79560   52.12330   21.18820   54.45540   40.57920   55.03120    0.03320    -999.25  -74.77870
 7850.00000    8.60470   53.34480   23.16230   12.92060   13.83910   33.98120    0.04020    -999.25  -65.48430
 7900.00000    8.68710   55.60740   40.04570   16.89670   17.34590   20.51620    0.05830    -999.25  -39.39030
 7950.00000    8.48180   51.95260    8.28740 1564.22580 1651.78300  998.92130    0.03030    -999.25  -40.24860
 8000.00000    8.58500   61.31360   56.05100   10.60230   10.89040   11.03280    0.09360    -999.25  -18.52030
 8050.00000   10.21660   71.57990   66.59810    6.11420    6.37040    7.67450    0.17500    -999.25    5.82450
 8100.00000    9.19980   59.20330   42.93310   10.94350   11.07340   22.05560    0.07910    -999.25    8.83620
 8150.00000   12.81050   76.72670   78.79100    4.61810    4.17370    5.41610    0.20800    -999.25  -49.80400
