~Version ---------------------------------------------------
VERS.      2.0 : CWLS log ASCII Standard -VERSION 2.0
WRAP.       NO : One line per depth step
CREA. 11/10/17 : LAS Creation Date
~Well ------------------------------------------------------
STRT.FT                          1150.0 : START DEPTH
STOP.FT                         11400.0 : STOP DEPTH
STEP.FT                        50.00000 : STEP LENGTH
NULL.                           -999.25 : NULL VALUE
COMP.              PETROFINA CANADA LTD : COMPANY
WELL. FINA AMOCO HB KAYBOBS 11-33-60-20 : WELL
FLD .                                   : FIELD
LOC .                                   : LOCATION
CTRY.                            CANADA : COUNTRY
SRVC.                      Schlumberger : SERVICE COMPANY
DATE.                       07-Apr-1977 : LOGDATE
PROV.                           Alberta : PROVINCE
UWI .                  100113306020W500 : UNIQUE WELL ID
SLAT.WGS84                     54.23446 : SURFACE LATITUDE
SLON.WGS84                    -116.9427 : SURFACE LONGITUDE
~Curve Information -----------------------------------------
DEPT    .FT    : Depth Curve
CALDED  .IN    : CALIPER CNFD LOG
CALSED  .IN    : CALIPER FROM BCS LOG [ADJ. TO GRDED]
CALWS   .IN    : CALIPER [CALSED]
CONDWS  .MMHO  : CONDUCTIVITY [1000/DRESWS]
DCORWS  .G/C3  : DENSITY CORRECTION [DRHOED]
DENWS   .G/C3  : FORMATION BULK DENSITY [RHOBED]
DPHILSED.V/V   : DENSITY POROSITY LIMESTONE [M=2.71, F=1.00] FROM CNFD LOG [ADJ. TO RHOBED]
DPHISSED.V/V   : DENSITY POROSITY SANDSTONE [M=2.65, F=1.00] FROM CNFD LOG [ADJ. TO RHOBED]
DPOLSWS .V/V   : DENSITY POROSITY LIMESTONE [CALCULATED FROM DENWS, M=2.71, F=1.00]
DRESWS  .OHMM  : DEEP RESISTIVITY [ILDED]
DRHOED  .G/C3  : DENSITY CORRECTION FROM CNFD LOG
DTED    .US/F  : INTERVAL TRANSIT TIME FROM BCS LOG [ADJ. TO GRDED]
DTWS    .US/F  : COMPRESSIONAL SONIC [DTWS]
GRDED   .GAPI  : GAMMA RAY FROM CNFD LOG
GRSED   .GAPI  : GAMMA RAY FROM BCS LOG [ADJ. TO GRDED]
GRWS    .GAPI  : GAMMA RAY [GRSED]
ILDED   .OHMM  : DEEP INDUCTION FROM DILL LOG
ILMED   .OHMM  : MEDIUM INDUCTION FROM DILL LOG
LL8ED   .OHMM  : LATEROLOG FROM DILL LOG
MRESWS  .OHMM  : MEDIUM RESISTIVITY [ILMED]
NPHILSED.V/V   : NEUTRON POROSITY LIMESTONE FROM CNFD LOG [ADJ. TO RHOBED]
NPHISSED.V/V   : NEUTRON POROSITY SANDSTONE FROM CNFD LOG [ADJ. TO RHOBED]
NPOLSWS .V/V   : NEUTRON POROSITY LIMESTONE [NPHISSED MATRIX CONVERSION FOR LIMESTONE, SPL. TO NPHILSED @ 7450']
RHOBED  .G/C3  : BULK DENSITY FROM CNFD LOG
SPRED   .MV    : SPONTANEOUS POTENTIAL FROM DILL LOG
SPWS    .MV    : SPONTANEOUS POTENTIAL [BASELINE 0 MV, SPRED]
SRESWS  .OHMM  : SHALLOW RESISTIVITY [LL8ED]
~Params ----------------------------------------------------
PD  .                     GL : PERMANENT DATUM
EPD .FT                 2961 : ELEVATION PERMANENT DATUM
LMF .                     KB : LOG MEASURED FROM
DAPD.FT                   18 : FEET ABOVE PERMANENT DATUM
EKB .FT                 2979 : KELLY BUSHING
EGL .FT                 2961 : GROUND LEVEL
DATE.               04/07/77 : RUN DATE
RUN .                      1 : RUN NUMBER
DD  .FT                11429 : DEPTH DRILLER
DL  .FT                11423 : DEPTH LOGGER
BLI .FT                11417 : BOTTOM LOG INTERVAL
TLI .FT                 1195 : TOP LOG INTERVAL
CBD .FT                 1195 : CASING BOTTOM DRILLER
CBL .FT                 1195 : CASING BOTTOM LOGGER
BS  .IN                 8.75 : BIT SIZE
BSD .FT                11429 : BIT SIZE AT DEPTH
DFT .               GEL CHEM : DRILLING FLUID TYPE
DFD .                      9 : DRILLING FLUID DENSITY
DFV .                     98 : DRILLING FLUID VISCOSITY
DFPH.                    9.5 : DRILLING FLUID PH
MSS .               FLOWLINE : MUD SAMPLE SOURCE
RMS .OHMM               1.54 : RESISTIVITY MUD SAMPLE
MST .DEGF                 65 : MUD SAMPLE TEMPERATURE
RMB .OHMM               0.51 : RESISTIVITY MUD AT BHT
TCS .HRS                   4 : TIME CIRCULATED STOPPED
LUN .             OSU C 3704 : LOGGING UNIT NUMBER
LUL .                    EDM : LOGGING UNIT LOCATION
ENGI.               MCDONALD : RECORDING ENGINEER
WITN.               BOLEANTU : WITNESSED BY
CLNT.                A2DTECH : CLIENT CODE
ORIG.            2" 5" PRINT : ORIGIN OF DATA
UWI .       100113306020W500 : UNIQUE WELL ID
DICO. A2D Technologies, Inc. : DIGITIZING COMPANY
~Other -----------------------------------------------------
~ASCII -----------------------------------------------------
# ...
 2450.00000    -999.25   10.07410   10.07410  231.83030    -999.25    -999.25    -999.25    -999.25    -999.25    4.31350    -999.25  108.66190  108.66190    -999.25   83.48290   83.48290    4.31350    3.45440    3.98910    3.45440    -999.25    -999.25    -999.25    -999.25 -303.34940   -5.53750    3.98910
 2500.00000    8.94640   10.28440   10.28440  155.66870    0.11490    1.88850    -999.25    0.29080    0.48040    6.42390    0.11490  126.35530  126.35530  111.63070   87.73600   89.84680    6.42390    6.01140   12.79920    6.01140    -999.25    0.44930    0.40760    1.88850 -304.33110   -7.03330   12.79920
 2550.00000    8.81280   10.65600   10.65600  110.77450    0.07850    2.36990    -999.25    0.02100    0.19890    9.02760    0.07850   99.19870   99.19870   94.17860   79.36030   76.83010    9.02760    8.78510   10.11080    8.78510    -999.25    0.20760    0.16410    2.36990 -301.92030   -5.13400   10.11080
 2600.00000    8.64580   10.54420   10.54420  285.73060    0.14210    2.29380    -999.25    0.05850    0.24340    3.49980    0.14210  102.55910  102.55910  109.37400   95.57770   96.89870    3.49980    3.21060    3.70580    3.21060    -999.25    0.28420    0.24020    2.29380 -301.79270   -5.52300    3.70580
 2650.00000    8.60700   10.46540   10.46540  165.11730    0.12820    2.28640    -999.25    0.07940    0.24770    6.05630    0.12820  101.10020  101.10020  106.79920   94.06060   94.06060    6.05630    5.43530    6.09690    5.43530    -999.25    0.23620    0.19240    2.28640 -301.76370   -6.00810    6.09690
 2700.00000    8.51850   11.11580   11.11580  108.30830    0.03690    2.43780    -999.25   -0.04020    0.15920    9.23290    0.03690   93.37380   93.37380   98.99490   83.56070   83.56070    9.23290    7.57940    7.73750    7.57940    -999.25    0.22450    0.18080    2.43780 -301.05980   -5.81820    7.73750
 2750.00000    8.51000   10.80670   10.80670  121.02140    0.02010    2.47340    -999.25   -0.05980    0.13840    8.26300    0.02010   83.83920   83.83920   84.56270   72.90960   72.67680    8.26300    7.12510    7.31570    7.12510    -999.25    0.16980    0.12680    2.47340 -302.53810   -7.81060    7.31570
 2800.00000    8.45840   11.45090   11.45090  241.40110   -0.00740    2.46280    -999.25   -0.04920    0.14450    4.14260   -0.00740   94.68180   94.68180  105.89520   88.08800   88.08800    4.14260    3.61280    4.07740    3.61280    -999.25    0.29360    0.24960    2.46280 -297.89910   -3.68310    4.07740
 2850.00000    8.55610   10.75430   10.75430  223.33890    0.00410    2.46400    -999.25   -0.05640    0.14390    4.47750    0.00410   92.61900   92.61900  101.27550   78.95470   82.75810    4.47750    3.79770    4.56300    3.79770    -999.25    0.21580    0.17220    2.46400 -297.28670   -3.58740    4.56300
 2900.00000    8.54910   10.93460   10.93460  203.91520    0.02860    2.40930    -999.25   -0.02550    0.17580    4.90400    0.02860   96.06690   96.06690  111.36020   96.61700   97.39700    4.90400    4.38910    4.51680    4.38910    -999.25    0.25720    0.21330    2.40930 -298.23210   -5.04680    4.51680
 2950.00000    8.50220   10.32190   10.32190   71.72060    0.04870    2.39850    -999.25   -0.00930    0.18220   13.94300    0.04870   84.85360   84.85360   65.52810   59.22360   49.46520   13.94300   13.42400   12.83080   13.42400    -999.25    0.19920    0.15580    2.39850 -301.91230   -9.24110   12.83080
 3000.00000    8.46140    9.99370    9.99370   87.36220    0.04230    2.35460    -999.25    0.01240    0.20780   11.44660    0.04230   86.70100   86.70100   64.51640   58.91800   54.87060   11.44660   10.42260    9.93570   10.42260    -999.25    0.25580    0.21190    2.35460 -299.98340   -7.82630    9.93570
 3050.00000    8.63330   10.32210   10.32210  196.97590    0.15030    2.15160    -999.25    0.14040    0.32650    5.07810    0.15030   96.77580   96.77580   87.67510   76.15840   76.15840    5.07810    4.40960    4.93480    4.40960    -999.25    0.28580    0.24190    2.15160 -295.38580   -3.74020    4.93480
 3100.00000    8.59060   10.71740   10.71740  220.55580    0.02950    2.40790    -999.25   -0.01620    0.17670    4.53400    0.02950   86.28870   86.28870   88.89410   77.52520   77.52520    4.53400    4.10100    5.36540    4.10100    -999.25    0.26420    0.22020    2.40790 -296.47720   -5.34820    5.36540
 3150.00000    8.41170    9.38000    9.38000   60.49130    0.08710    2.42720    -999.25   -0.02920    0.16540   16.53130    0.08710   83.49800   83.49800   60.96850   52.25010   53.76140   16.53130   14.39290   13.24630   14.39290    -999.25    0.18000    0.13690    2.42720 -305.54830  -14.93340   13.24630
 3200.00000    8.60830   10.18430   10.18430  138.60590    0.11020    2.23940    -999.25    0.08160    0.27520    7.21470    0.11020   83.87100   83.87100   99.48820   90.92640   90.92640    7.21470    6.35140    6.13670    6.35140    -999.25    0.27140    0.22740    2.23940 -295.15730   -5.05640    6.13670
 3250.00000    8.66890   10.35130   10.35130  176.50380    0.05930    2.44080    -999.25   -0.03990    0.15740    5.66560    0.05930   91.65980   91.65980   85.47360   70.94030   69.63770    5.66560    4.97940    5.58330    4.97940    -999.25    0.27360    0.22960    2.44080 -292.69260   -3.10580    5.58330
 3300.00000    8.55050   11.18600   11.18600  222.92040    0.19370    2.10720    -999.25    0.16510    0.35250    4.48600    0.19370  114.16970  114.16970   85.56420   76.25940   72.12340    4.48600    3.88630    4.31460    3.88630    -999.25    0.38870    0.34560    2.10720 -290.29430   -1.21910    4.31460
 3350.00000    8.69280   10.04700   10.04700  138.65780    0.19790    2.31890    -999.25    0.03130    0.22870    7.21200    0.19790   81.49670   81.49670   77.50520   67.25680   66.70490    7.21200    6.12280    6.10790    6.12280    -999.25    0.26590    0.22190    2.31890 -290.10140   -1.54270    6.10790
 3400.00000    8.89620    9.35950    9.35950   77.89440    0.00200    2.41710    -999.25   -0.02240    0.17130   12.83790    0.00200   82.62500   82.62500   63.48050   46.06710   45.69790   12.83790   12.13530   11.82790   12.13530    -999.25    0.18250    0.13930    2.41710 -292.77220   -4.72760   11.82790
 3450.00000    9.19360    9.49590    9.49590  124.83930    0.16800    2.24530    -999.25    0.06780    0.27180    8.01030    0.16800   85.97180   85.97180   83.06170   65.16770   69.59340    8.01030    7.81340    6.50130    7.81340    -999.25    0.25690    0.21300    2.24530 -291.91430   -4.38380    6.50130
 3500.00000    8.93670    9.68800    9.68800   96.50930    0.19170    2.33770    -999.25    0.03520    0.21770   10.36170    0.19170   79.03320   79.03320   63.21990   57.15230   57.15230   10.36170    9.90830   10.62440    9.90830    -999.25    0.16850    0.12560    2.33770 -289.87240   -2.85600   10.62440
 3550.00000    9.02280    9.56850    9.56850  111.78610    0.07090    2.29740    -999.25    0.05180    0.24130    8.94700    0.07090   82.03960   82.03960   80.17290   71.02600   72.72360    8.94700    8.07160    9.31710    8.07160    -999.25    0.23770    0.19390    2.29740 -289.05100   -2.54610    9.31710
 3600.00000    8.94010    9.34950    9.34950   52.95210    0.03710    2.46060    -999.25   -0.04820    0.14580   18.88500    0.03710   81.09160   81.09160   60.53730   50.76940   53.87820   18.88500   17.96130   18.64050   17.96130    -999.25    0.17260    0.12960    2.46060 -290.42260   -4.43430   18.64050
 3650.00000    8.87190    9.66660    9.66660  124.40290    0.20040    2.09490    -999.25    0.20160    0.35970    8.03840    0.20040   98.86180   98.86180   69.80200   62.54180   62.54180    8.03840    6.84170    6.02440    6.84170    -999.25    0.30130    0.25730    2.09490 -290.99120   -5.51700    6.02440
 3700.00000    8.76000    9.40440    9.40440   89.77220    0.14580    2.46470    -999.25   -0.05090    0.14350   11.13930    0.14580   80.22870   80.22870   73.15290   68.92690   68.92690   11.13930   10.65900   11.24820   10.65900    -999.25    0.18500    0.14180    2.46470 -286.78260   -1.82240   11.24820
