~Version ---------------------------------------------------
VERS.      2.0 : CWLS log ASCII Standard -VERSION 2.0
WRAP.       NO : One line per depth step
CREA. 11/08/17 : LAS Creation Date
~Well ------------------------------------------------------
STRT.FT                            600.0 : START DEPTH
STOP.FT                           5750.0 : STOP DEPTH
STEP.FT                         50.00000 : STEP LENGTH
NULL.                            -999.25 : NULL VALUE
COMP. CANADIAN NATURAL RESOURCES LIMITED : COMPANY
WELL.       SHELL ET AL NIPISI 4-14-78-8 : WELL
FLD .                                    : FIELD
LOC .                                    : LOCATION
CTRY.                             CANADA : COUNTRY
SRVC.                       Schlumberger : SERVICE COMPANY
DATE.                        09-Sep-1967 : LOGDATE
PROV.                            Alberta : PROVINCE
UWI .                   100041407808W500 : UNIQUE WELL ID
SLAT.WGS84                  55.754074781 : SURFACE LATITUDE
SLON.WGS84               -115.1363126814 : SURFACE LONGITUDE
~Curve Information -----------------------------------------
DEPT  .FT    : Depth Curve
CALSED.IN    : CALIPER FROM SONIC LOG [DEPTH SHIFTED TO RES.]
CALWS .IN    : CALIPER [CALSED]
CILDED.MMHO  : CONDUCTIVITY FROM IEL LOG
CONDWS.MMHO  : CONDUCTIVITY [CILDED]
DRESWS.OHMM  : DEEP RESISTIVITY [ILDED]
DTED  .US/F  : DELTA TIME FROM SONIC LOG [DEPTH SHIFTED TO RES.]
DTWS  .US/F  : DELTA TIME [DTED]
GRED  .GAPI  : GAMMA RAY
GRSED .GAPI  : GAMMA RAY FROM SONIC LOG  [DEPTH SHIFTED TO RES.]
GRWS  .GAPI  : GAMMA RAY [SPLICE 585' GRSED 5738' GRED]
ILDED .OHMM  : INDUCTION LOG DEEP RESISTIVITY
SNED  .OHMM  : 16 INCH SHORT NORMAL RESISTIVITY FROM IEL LOG
SPRED .MV    : SPONTANEOUS POTENTIAL FROM IEL LOG
SPWS  .MV    : SPONTANEOUS POTENTIAL [BASELINE 0 MV] [SPRED]
SRESWS.OHMM  : SHALLOW RESISTIVITY [SNED]
~Params ----------------------------------------------------
PD  .                     GL : PERMANENT DATUM
EPD .FT                 2183 : ELEVATION PERMANENT DATUM
LMF .                     KB : LOG MEASURED FROM
EKB .FT                 2195 : KELLY BUSHING
EGL .FT                 2183 : GROUND LEVEL
DATE.               09/09/67 : RUN DATE
RUN .                      1 : RUN NUMBER
DD  .FT                 5775 : DEPTH DRILLER
DL  .FT                 5774 : DEPTH LOGGER
BLI .FT                 5773 : BOTTOM LOG INTERVAL
TLI .FT                  607 : TOP LOG INTERVAL
CBD .FT                  607 : CASING BOTTOM DRILLER
CBL .FT                  607 : CASING BOTTOM LOGGER
BS  .IN                7.875 : BIT SIZE
BSD .FT                 5775 : BIT SIZE AT DEPTH
DFT .                    GEL : DRILLING FLUID TYPE
DFD .                    9.7 : DRILLING FLUID DENSITY
DFV .                     90 : DRILLING FLUID VISCOSITY
DFPH.                    9.5 : DRILLING FLUID PH
DFL .                      7 : DRILLING FLUID LOSS
RMS .OHMM               1.69 : RESISTIVITY MUD SAMPLE
MST .DEGF                 59 : MUD SAMPLE TEMPERATURE
RMF .OHMM               1.24 : RESISTIVITY MUD FILTRATE SAMPLE
MFST.DEGF                 62 : MUD FILTRATE SAMPLE TEMPERATURE
RMC .OHMM               1.94 : RESISTIVITY MUD CAKE
MCST.DEGF                 62 : MUD CAKE SAMPLE TEMPERATURE
TCS .HRS                   3 : TIME CIRCULATED STOPPED
LUN .                   7501 : LOGGING UNIT NUMBER
LUL .                     SL : LOGGING UNIT LOCATION
ENGI.                  MOORE : RECORDING ENGINEER
WITN.                  MOORE : WITNESSED BY
CLNT.                A2DTECH : CLIENT CODE
ORIG.            2" 5" PRINT : ORIGIN OF DATA
UWI .       100041407808W500 : UNIQUE WELL ID
DICO. A2D Technologies, Inc. : DIGITIZING COMPANY
~Other -----------------------------------------------------
SPWS APPEARS TO REVERSE BELOW THE HIGHER RES. ZONE NEAR MIDWELL, PROBABLY DUE TO FACIES CHANGE. NO SAMPLE OR MUD LOG TO CONFIRM.
~ASCII -----------------------------------------------------
  600.00000    9.58940    9.58940    -999.25    -999.25    -999.25    -999.25    -999.25    -999.25    -999.25    -999.25    -999.25    -999.25    -999.25    -999.25    -999.25
  650.00000   15.00260   15.00260  254.75410  254.75410    4.31020    -999.25    -999.25    -999.25    -999.25    -999.25    4.31020    4.47500 -109.56440   -0.07130    4.47500
  700.00000   14.49120   14.49120  160.26780  160.26780    6.63030    -999.25    -999.25    -999.25    -999.25    -999.25    6.63030    5.86840 -117.06210  -12.96040    5.86840
  750.00000   15.00390   15.00390  157.39390  157.39390    6.79190    -999.25    -999.25    -999.25    -999.25    -999.25    6.79190    5.75990 -107.66500   -9.20870    5.75990
  800.00000   15.00880   15.00880  173.34050  173.34050    6.08060    -999.25    -999.25    -999.25    -999.25    -999.25    6.08060    5.39240  -98.08330   -5.24420    5.39240
  850.00000   15.00400   15.00400  208.76330  208.76330    4.77920    -999.25    -999.25    -999.25    -999.25    -999.25    4.77920    5.07810  -91.33940   -4.17400    5.07810
  900.00000   15.00000   15.00000  187.92220  187.92220    5.54100    -999.25    -999.25    -999.25    -999.25    -999.25    5.54100    5.16950  -83.81880   -1.30170    5.16950
  950.00000    9.33820    9.33820  179.03170  179.03170    6.14970    -999.25    -999.25    -999.25    -999.25    -999.25    6.14970    4.41720  -81.70440   -3.33960    4.41720
 1000.00000   13.49460   13.49460  302.15150  302.15150    3.85310    -999.25    -999.25    -999.25    -999.25    -999.25    3.85310    4.25020  -81.85340   -4.22570    4.25020
 1050.00000   13.23690   13.23690  357.58040  357.58040    2.89870    -999.25    -999.25    -999.25    -999.25    -999.25    2.89870    3.13370  -81.93390   -4.68520    3.13370
 1100.00000   14.26940   14.26940  316.05520  316.05520    3.26670    -999.25    -999.25    -999.25    -999.25    -999.25    3.26670    3.63820  -79.69940   -2.83350    3.63820
 1150.00000   12.07030   12.07030  288.68110  288.68110    3.73370    -999.25    -999.25    -999.25    -999.25    -999.25    3.73370    4.11680  -79.92030   -3.43330    4.11680
 1200.00000   14.89730   14.89730  538.80130  538.80130    1.85600    -999.25    -999.25    -999.25    -999.25    -999.25    1.85600    2.27790  -76.91710   -0.77780    2.27790
 1250.00000    8.77270    8.77270  202.49080  202.49080    5.36300    -999.25    -999.25    -999.25    -999.25    -999.25    5.36300    7.38100 -102.94960  -26.65210    7.38100
 1300.00000    8.33820    8.33820  198.69400  198.69400    5.41100    -999.25    -999.25    -999.25    -999.25    -999.25    5.41100    8.40900 -105.18600  -28.73120    8.40900
 1350.00000    8.64670    8.64670  213.58260  213.58260    5.13080    -999.25    -999.25    -999.25    -999.25    -999.25    5.13080    5.65650  -89.67800  -13.06420    5.65650
 1400.00000    8.32440    8.32440  144.53470  144.53470    7.31440    -999.25    -999.25    -999.25    -999.25    -999.25    7.31440   13.76760 -103.61780  -26.84670   13.76760
 1450.00000    8.54650    8.54650  131.76310  131.76310    7.83570    -999.25    -999.25    -999.25    -999.25    -999.25    7.83570   16.67470 -111.11870  -34.18860   16.67470
 1500.00000   10.36720   10.36720  189.85370  189.85370    5.87900    -999.25    -999.25    -999.25    -999.25    -999.25    5.87900    6.52730  -95.87650  -18.78830    6.52730
 1550.00000    9.30360    9.30360  229.29920  229.29920    4.95560    -999.25    -999.25    -999.25    -999.25    -999.25    4.95560    5.94290  -98.63270  -21.38710    5.94290
 1600.00000    9.75970    9.75970  202.85500  202.85500    5.46510    -999.25    -999.25    -999.25    -999.25    -999.25    5.46510    6.52330  -88.03680  -10.63220    6.52330
 1650.00000    8.85530    8.85530   94.94930   94.94930   11.01060    -999.25    -999.25    -999.25    -999.25    -999.25   11.01060   23.42930  -90.57710  -13.01520   23.42930
 1700.00000    9.24630    9.24630  186.12110  186.12110    5.85480    -999.25    -999.25    -999.25    -999.25    -999.25    5.85480    9.99320 -109.40080  -31.68000    9.99320
 1750.00000   11.50260   11.50260  212.26290  212.26290    4.76590    -999.25    -999.25    -999.25    -999.25    -999.25    4.76590    5.43390  -80.68410   -3.29090    5.43390
 1800.00000   13.40920   13.40920  212.48170  212.48170    5.00850  132.27290  132.27290    -999.25   52.30640   52.30640    5.00850    5.41710  -83.60430   -6.89430    5.41710
 1850.00000    9.99640    9.99640  115.25610  115.25610    8.90970  101.55810  101.55810    -999.25   57.68670   57.68670    8.90970   10.86890  -90.75980  -14.73980   10.86890
 1900.00000   10.72330   10.72330  110.86850  110.86850    9.45870   96.61740   96.61740    -999.25   72.05500   72.05500    9.45870   10.89910  -93.90730  -18.57050   10.89910
 1950.00000    9.83660    9.83660  109.05650  109.05650    8.77440   92.80820   92.80820    -999.25   46.20560   46.20560    8.77440   13.71600  -89.81110  -15.16430   13.71600
 2000.00000   13.38790   13.38790  196.34700  196.34700    6.02230   99.65120   99.65120    -999.25   44.16780   44.16780    6.02230    7.12660  -90.28350  -16.32340    7.12660
 2050.00000    9.69520    9.69520   80.18520   80.18520   12.86310   79.39880   79.39880    -999.25   45.20470   45.20470   12.86310   15.79980  -93.79650  -20.51960   15.79980
 2100.00000    9.71730    9.71730   23.84230   23.84230   49.67600   69.47490   69.47490    -999.25   26.23970   26.23970   49.67600   48.62720  -95.73750  -23.15070   48.62720
 2150.00000    9.44950    9.44950  133.30840  133.30840    7.87590   83.81610   83.81610    -999.25   24.74780   24.74780    7.87590   13.87510  -93.96030  -22.05660   13.87510
 2200.00000    9.38890    9.38890   53.66910   53.66910   21.11130   62.84370   62.84370    -999.25   19.10770   19.10770   21.11130   29.92820  -91.55630  -20.34270   29.92820
 2250.00000   10.48210   10.48210  181.00620  181.00620    6.11310   84.36110   84.36110    -999.25   48.96590   48.96590    6.11310    6.82800  -83.56790  -13.04090    6.82800
 2300.00000    9.76470    9.76470   63.95530   63.95530   15.39230   69.38220   69.38220    -999.25   38.58830   38.58830   15.39230   30.32820  -76.45110   -6.60730   30.32820
 2350.00000   10.36480   10.36480  213.53270  213.53270    5.30890  100.86840  100.86840    -999.25   31.57800   31.57800    5.30890    6.11710  -74.27970   -5.12600    6.11710
 2400.00000   10.49460   10.49460  185.70450  185.70450    6.04720   94.40100   94.40100    -999.25   32.88840   32.88840    6.04720    6.60270  -73.86020   -5.38960    6.60270
 2450.00000    8.74480    8.74480   79.47200   79.47200   12.83000   68.28950   68.28950    -999.25   19.84930   19.84930   12.83000   15.45220  -82.29340  -14.42210   15.45220
 2500.00000    8.84720    8.84720   78.33480   78.33480   12.91470   69.02480   69.02480    -999.25   25.66420   25.66420   12.91470   15.54290  -79.98550  -12.65320   15.54290
 2550.00000    9.98310    9.98310  178.23990  178.23990    6.07860   85.04330   85.04330    -999.25   34.14360   34.14360    6.07860    7.57100  -70.97430   -4.17830    7.57100
 2600.00000    8.87470    8.87470   61.99610   61.99610   16.29290   66.72950   66.72950    -999.25   25.46340   25.46340   16.29290   19.59080  -78.97430  -12.51980   19.59080
 2650.00000    8.49740    8.49740   51.45600   51.45600   19.55430   63.85170   63.85170    -999.25   24.05490   24.05490   19.55430   30.87000  -83.61060  -16.67060   30.87000
 2700.00000    9.83260    9.83260  166.59370  166.59370    6.76830   87.16590   87.16590    -999.25   57.05710   57.05710    6.76830    9.38180  -70.92720   -3.49690    9.38180
 2750.00000   10.42210   10.42210  259.93980  259.93980    4.51880  111.02250  111.02250    -999.25  175.50720  175.50720    4.51880    5.19600  -74.47760   -6.55930    5.19600
 2800.00000    8.86490    8.86490   40.37390   40.37390   24.87360   59.34860   59.34860    -999.25   25.24940   25.24940   24.87360   34.35140  -85.29990  -16.89620   34.35140
 2850.00000    9.06370    9.06370   41.86330   41.86330   22.95520   56.82910   56.82910    -999.25   14.67420   14.67420   22.95520   65.15120 -139.90860  -71.01460   65.15120
