~Version ---------------------------------------------------
VERS.      2.0 : CWLS log ASCII Standard -VERSION 2.0
WRAP.       NO : One line per depth step
CREA. 12/15/17 : LAS Creation Date
~Well ------------------------------------------------------
STRT.FT                          300.0 : START DEPTH
STOP.FT                         9800.0 : STOP DEPTH
STEP.FT                       50.00000 : STEP LENGTH
NULL.                          -999.25 : NULL VALUE
COMP.        CANADIAN GULF OIL COMPANY : COMPANY
WELL.              CGOC  IOSEGUN 15-28 : WELL
FLD .                                  : FIELD
LOC .                                  : LOCATION
CTRY.                           CANADA : COUNTRY
SRVC. Schlumberger Well Surveying Corp : SERVICE COMPANY
DATE.                      08-Aug-1954 : LOGDATE
PROV.                          Alberta : PROVINCE
UWI .                 100152806721W500 : UNIQUE WELL ID
SLAT.WGS84                    54.83244 : SURFACE LATITUDE
SLON.WGS84                   -117.1373 : SURFACE LONGITUDE
~Curve Information -----------------------------------------
DEPT   .FT         : Depth Curve
CONDWS .MMHO       : CONDUCTIVITY [1000/DRESWS]
DRESWS .OHMM       : DEEP RESISTIVITY [LNED]
GRN1ED .UgRa-Eq/T  : GAMMA RAY FROM GRN LOG [ADJ. TO EL LOG]
GRNED  .GAPI       : GAMMA RAY FROM NEUTRON LOG [ADJ. TO EL LOG]
GRWS   .GAPI       : GAMMA RAY [GRNED SPL. TO GRN1ED*16.50 @ 9390']
LNED   .OHMM       : 64 INCH LONG NORMAL RESISTIVITY FROM EL LOG
LT18ED .OHMM       : LATERAL 18' FROM EL LOG
NEUT1ED.NAPI       : NEUTRON FROM GRN LOG [ADJ. TO EL LOG]
NEUTED .NAPI       : NEUTRON FROM NEUTRON LOG [ADJ. TO EL LOG]
NEUTWS .NAPI       : NEUTRON [NEUTED SPL. TO NEUT1ED @ 9596']
SNED   .OHMM       : 16 INCH SHORT NORMAL RESISTIVITY FROM EL LOG
SPRED  .MV         : SPONTANEOUS POTENTIAL FROM EL LOG
SPWS   .MV         : SPONTANEOUS POTENTIAL [BASELINE 0 MV, SPRED]
SRESWS .OHMM       : SHALLOW RESISTIVITY [SNED]
~Params ----------------------------------------------------
LMF .                     KB : LOG MEASURED FROM
DMF .                     KB : DRILLING MEASURED FROM
EKB .FT                 2318 : KELLY BUSHING
DATE.               08/08/54 : RUN DATE
RUN .                      2 : RUN NUMBER
DD  .FT                 9832 : DEPTH DRILLER
DL  .FT                 9832 : DEPTH LOGGER
BLI .FT                 9832 : BOTTOM LOG INTERVAL
TLI .FT                 9667 : TOP LOG INTERVAL
CBD .FT                  597 : CASING BOTTOM DRILLER
CBL .FT                  597 : CASING BOTTOM LOGGER
BS  .IN                    9 : BIT SIZE
BSD .FT                 9832 : BIT SIZE AT DEPTH
DFT .                AQUAGEL : DRILLING FLUID TYPE
DFD .                   10.5 : DRILLING FLUID DENSITY
DFV .                    250 : DRILLING FLUID VISCOSITY
DFPH.                     10 : DRILLING FLUID PH
DFL .                    5.2 : DRILLING FLUID LOSS
MSS .               FLOWLINE : MUD SAMPLE SOURCE
RMS .OHMM                2.0 : RESISTIVITY MUD SAMPLE
MST .DEGF                 59 : MUD SAMPLE TEMPERATURE
RMB .OHMM                0.7 : RESISTIVITY MUD AT BHT
TCS .HRS                   2 : TIME CIRCULATED STOPPED
LUN .                    770 : LOGGING UNIT NUMBER
LUL .                     PR : LOGGING UNIT LOCATION
ENGI.                 CARSON : RECORDING ENGINEER
WITN.              SCHOMAKER : WITNESSED BY
CLNT.                A2DTECH : CLIENT CODE
ORIG.            2" 5" PRINT : ORIGIN OF DATA
UWI .       100152806721W500 : UNIQUE WELL ID
DICO. A2D Technologies, Inc. : DIGITIZING COMPANY
~Other -----------------------------------------------------
~ASCII -----------------------------------------------------
  300.00000    -999.25    -999.25    -999.25   20.14660   40.14660    -999.25    -999.25    -999.25    -999.25    -999.25    -999.25    -999.25    -999.25    -999.25
  350.00000    -999.25    -999.25    -999.25   21.44080   41.44080    -999.25    -999.25    -999.25    -999.25    -999.25    -999.25    -999.25    -999.25    -999.25
  400.00000    -999.25    -999.25    -999.25   26.87740   46.87740    -999.25    -999.25    -999.25    -999.25    -999.25    -999.25    -999.25    -999.25    -999.25
  450.00000    -999.25    -999.25    -999.25   24.36860   44.36860    -999.25    -999.25    -999.25    -999.25    -999.25    -999.25    -999.25    -999.25    -999.25
  500.00000    -999.25    -999.25    -999.25   19.02860   39.02860    -999.25    -999.25    -999.25    -999.25    -999.25    -999.25    -999.25    -999.25    -999.25
  550.00000    -999.25    -999.25    -999.25   26.40920   46.40920    -999.25    -999.25    -999.25    -999.25    -999.25    -999.25    -999.25    -999.25    -999.25
  600.00000    -999.25    -999.25    -999.25   22.88510   42.88510    -999.25    -999.25    -999.25    -999.25    -999.25    5.13430    -999.25    -999.25    5.13430
  650.00000  119.64470    8.36010    -999.25   44.19510   44.19510    8.36010    4.88030    -999.25    -999.25    -999.25    5.70830 -155.75870   -5.65840    5.70830
  700.00000  161.39180    6.19610    -999.25   49.75440   49.75440    6.19610    7.12410    -999.25    -999.25    -999.25    5.04300 -155.73910   -5.63880    5.04300
  750.00000  139.28550    7.17950    -999.25   37.11450   37.11450    7.17950    7.52750    -999.25    -999.25    -999.25    5.62950 -152.52250   -2.42220    5.62950
  800.00000  154.14380    6.48740    -999.25   34.79250   34.79250    6.48740    7.73590    -999.25    -999.25    -999.25    4.60880 -152.68730   -2.58700    4.60880
  850.00000  116.07530    8.61510    -999.25   32.80180   32.80180    8.61510    5.90120    -999.25    -999.25    -999.25    7.26900 -153.37250   -3.31090    7.26900
  900.00000  109.69500    9.12500    -999.25   27.84260   27.84260    9.12500   15.75020    -999.25    -999.25    -999.25    9.97780 -160.07650  -10.12180    9.97780
  950.00000  140.78360    7.10310    -999.25   38.98810   38.98810    7.10310    9.29260    -999.25    -999.25    -999.25    6.15600 -153.25980   -3.41300    6.15600
 1000.00000  156.54840    6.38780    -999.25   35.30700   35.30700    6.38780    6.09330    -999.25    -999.25    -999.25    4.54670 -151.59760   -1.85820    4.54670
 1050.00000   91.82210   10.89150    -999.25   31.76820   31.76820   10.89150    8.22870    -999.25    -999.25    -999.25    9.34690 -158.62330   -8.99080    9.34690
 1100.00000   38.37500   26.05860    -999.25   21.99820   21.99820   26.05860   19.16360    -999.25    -999.25    -999.25   16.31520 -158.59720   -9.07270   16.31520
 1150.00000  102.61910    9.74550    -999.25   36.30500   36.30500    9.74550    9.35610    -999.25    -999.25    -999.25    7.37410 -152.98070   -3.56310    7.37410
 1200.00000  172.04300    5.81250    -999.25   33.71740   33.71740    5.81250   13.76170    -999.25    -999.25    -999.25    4.95050 -153.38870   -4.07900    4.95050
 1250.00000   83.27710   12.00810    -999.25   21.36450   21.36450   12.00810    7.84410    -999.25    -999.25    -999.25    9.94440 -155.19060   -5.98840    9.94440
 1300.00000   74.97770   13.36090    -999.25   16.40340   16.40340   13.36090   30.96280    -999.25    -999.25    -999.25   16.24310 -159.98330  -10.88790   16.24310
 1350.00000  110.32170    9.06440    -999.25   34.93370   34.93370    9.06440    2.47910    -999.25    -999.25    -999.25    6.40710 -153.54840   -4.56100    6.40710
 1400.00000   96.23140   10.39200    -999.25   26.86810   26.86810   10.39200    5.30740    -999.25    -999.25    -999.25    7.62830 -153.73720   -4.85670    7.62830
 1450.00000  121.42850    8.23530    -999.25   33.11540   33.11540    8.23530   14.59860    -999.25    -999.25    -999.25    5.50480 -151.46420   -2.69170    5.50480
 1500.00000  139.13430    7.18730    -999.25   31.99760   31.99760    7.18730    8.69300    -999.25    -999.25    -999.25    5.66550 -151.52600   -2.86090    5.66550
 1550.00000  112.16800    8.91530    -999.25   32.19470   32.19470    8.91530    6.74760    -999.25    -999.25    -999.25    7.34720 -152.12730   -3.56910    7.34720
 1600.00000  128.28240    7.79530    -999.25   38.63550   38.63550    7.79530    3.73970    -999.25    -999.25    -999.25    5.99600 -151.38390   -2.93360    5.99600
 1650.00000  118.73000    8.42270    -999.25   32.17650   32.17650    8.42270    9.46600    -999.25    -999.25    -999.25    5.82590 -152.20430   -3.86090    5.82590
 1700.00000  132.91690    7.52350    -999.25   34.14890   34.14890    7.52350    8.90640    -999.25    -999.25    -999.25    6.42090 -151.45450   -3.21910    6.42090
 1750.00000  135.40410    7.38530    -999.25   32.02040   32.02040    7.38530    8.07460    -999.25    -999.25    -999.25    6.54050 -151.02930   -2.90130    6.54050
 1800.00000  125.76140    7.95170    -999.25   40.71780   40.71780    7.95170    8.17660    -999.25    -999.25    -999.25    6.91080 -151.38630   -3.22980    6.91080
 1850.00000   80.56390   12.41250    -999.25   23.03990   23.03990   12.41250   15.35800    -999.25    -999.25    -999.25   13.96780 -170.13540  -21.88510   13.96780
 1900.00000   99.43510   10.05850    -999.25   27.85990   27.85990   10.05850   10.84450    -999.25    -999.25    -999.25    9.08790 -169.08250  -20.73930    9.08790
 1950.00000  135.95270    7.35550    -999.25   35.40430   35.40430    7.35550    6.46390    -999.25    -999.25    -999.25    6.91750 -153.34700   -4.91010    6.91750
 2000.00000  157.55970    6.34680    -999.25   27.75170   27.75170    6.34680   12.75570    -999.25    -999.25    -999.25    6.71060 -153.94580   -5.41560    6.71060
 2050.00000  115.85500    8.63210    -999.25   50.41710   50.41710    8.63210    7.79770    -999.25    -999.25    -999.25    7.67210 -156.37460   -7.75150    7.67210
 2100.00000   85.73540   11.66380    -999.25   51.02010   51.02010   11.66380   13.64390    -999.25    -999.25    -999.25    8.66930 -158.11260   -9.39580    8.66930
 2150.00000   99.57130   10.04330    -999.25   61.44430   61.44430   10.04330   12.30130    -999.25    -999.25    -999.25    8.28750 -158.65010   -9.84040    8.28750
 2200.00000   86.28430   11.58960    -999.25   64.66130   64.66130   11.58960   10.28500    -999.25    -999.25    -999.25    8.84860 -156.61600   -7.71260    8.84860
 2250.00000   80.77610   12.37990    -999.25   70.15520   70.15520   12.37990   11.67400    -999.25    -999.25    -999.25    9.56200 -155.85830   -6.86160    9.56200
 2300.00000  100.98280    9.90270    -999.25   65.69090   65.69090    9.90270   10.60920    -999.25    -999.25    -999.25    7.62210 -157.17920   -8.08970    7.62210
 2350.00000   92.12170   10.85520    -999.25   57.04900   57.04900   10.85520   11.17880    -999.25    -999.25    -999.25    8.13150 -162.91260  -13.72940    8.13150
 2400.00000   66.21750   15.11080    -999.25   49.04230   49.04230   15.11080   16.38690    -999.25    -999.25    -999.25   13.46550 -179.40700  -30.13090   13.46550
 2450.00000   77.05640   12.97750    -999.25   52.41170   52.41170   12.97750   15.67050    -999.25    -999.25    -999.25    9.71100 -161.53410  -12.16430    9.71100
 2500.00000  101.00400    9.90060    -999.25   60.65740   60.65740    9.90060   12.65540    -999.25    -999.25    -999.25    7.77830 -162.63950  -13.17640    7.77830
 2550.00000   95.51470   10.46960    -999.25   65.42790   65.42790   10.46960   12.77550    -999.25    -999.25    -999.25    8.00570 -164.05350  -14.49750    8.00570
 2600.00000   87.21360   11.46610    -999.25   65.29400   65.29400   11.46610   13.49000    -999.25    -999.25    -999.25    8.85650 -164.08530  -14.43560    8.85650
 2650.00000   81.40630   12.28410    -999.25   47.71900   47.71900   12.28410   12.09140    -999.25    -999.25    -999.25    8.92200 -163.64560  -13.90310    8.92200
 2700.00000   77.65600   12.87730    -999.25   54.34720   54.34720   12.87730   15.61960    -999.25    -999.25    -999.25    9.11690 -164.45320  -14.61690    9.11690
