~Version ---------------------------------------------------
VERS. 2.0 : CWLS log ASCII Standard -VERSION 2.0
WRAP. YES : Multiple lines per depth step
~Well ------------------------------------------------------
STRT.m                        450.0 : START DEPTH
STOP.m                       3400.0 : STOP DEPTH
STEP.m                     50.00000 : STEP LENGTH
NULL.                       -999.25 : NULL VALUE
COMP. AMOCO CANADA PETROLEUM CO LTD : COMPANY
WELL.    AMOCO HB PEMBINA 7-1-48-10 : WELL
FLD .                               : FIELD
LOC .                               : LOCATION
CTRY.                        CANADA : COUNTRY
SRVC.                       Unknown : SERVICE COMPANY
DATE.                   18-Dec-1980 : LOGDATE
PROV.                       Alberta : PROVINCE
UWI .              100070104810W500 : UNIQUE WELL ID
SLAT.WGS84                 53.11174 : SURFACE LATITUDE
SLON.WGS84                -115.3255 : SURFACE LONGITUDE
~Curve Information -----------------------------------------
DEPT    .m      : Depth Curve
CALDED  .MM     : CALIPER  CNLD (ADJ TO RES.)
CALSED  .MM     : CALIPER  SONIC (ADJ TO RES.)
CALWS   .MM     : CALIPER (CALDED)
CONDWS  .MMHO   : CONDUCTIVITY (1000/DRESWS)
DCORWS  .KG/M3  : DENSITY CORRECTION (DRHOED)
DENWS   .KG/M3  : BULK DENSITY  (RHOBED)
DPHILSED.V/V    : DENSITY POROSITY LIMESTONE  (ADJ TO RES.)
DPHISSED.V/V    : DENSITY POROSITY SANDSTONE  (ADJ TO RES.)
DPOLSWS .V/V    : DENSITY POROSITY (M=2710 F=1000 FROM DENWS)
DRESWS  .OHMM   : DEEP RESISTIVITY (ILDED)
DRHOED  .KG/M3  : DENSITY CORRECTION (ADJ TO RES.) (FILLED MISSING)
DTED    .US/M   : DELTA TIME  (ADJ TO RES.)
DTWS    .US/M   : DELTA TIME  (DTED)
GRDED   .GAPI   : GAMMA RAY  CNLD (ADJ TO RES.)
GRSED   .GAPI   : GAMMA RAY  SONIC (ADJ TO RES.)
GRWS    .GAPI   : GAMMA RAY (GRDED)
ILDED   .OHMM   : DEEP INDUCTION RESISTIVITY  (FILLED MISSING)
ILMED   .OHMM   : MEDIUM INDUCTION RESISTIVITY (FILLED MISSING)
MRESWS  .OHMM   : MEDIUM RESISTIVITY (ILMED)
NPHILSED.V/V    : NEUTRON POROSITY LIMESTONE (ADJ TO RES.)
NPHISSED.V/V    : NEUTRON POROSITY SANDSTONE (ADJ TO RES.)
NPOLSWS .V/V    : NEUTRON POROSITY LIMESTONE (NPHISS CONVERTED TO LS/NPHILSED)
RHOBED  .KG/M3  : BULK DENSITY (ADJ TO RES.)
SFLED   .OHMM   : SPHERICALLY FOCUSED RESISTIVITY
SPRED   .MV     : Spontaneous Potential  DIL
SPWS    .MV     : SPONTANEOUS POTENTIAL (SPRED) BASELINE 0 MV
SRESWS  .OHMM   : SHALLOW RESISTIVITY (SFLED)
~Params ----------------------------------------------------
PD  .                                 GL : PERMANENT DATUM
EPD .M                            904.78 : ELEVATION PERMANENT DATUM
LMF .                                 KB : LOG MEASURED FROM
DAPD.M                              7.57 : FEET ABOVE PERMANENT DATUM
DMF .                                 KB : DRILLING MEASURED FROM
EKB .M                            912.35 : KELLY BUSHING
EGL .M                            904.78 : GROUND LEVEL
DATE.                           12/18/80 : RUN DATE
RUN .                                  2 : RUN NUMBER
DD  .M                              3430 : DEPTH DRILLER
DL  .M                              3432 : DEPTH LOGGER
BLI .M                              3431 : BOTTOM LOG INTERVAL
TLI .M                              2758 : TOP LOG INTERVAL
CS  .MM                              244 : CASING SIZE
CBD .M                              2760 : CASING BOTTOM DRILLER
CBL .M                              2758 : CASING BOTTOM LOGGER
BS  .MM                              216 : BIT SIZE
BSD .M                              3430 : BIT SIZE AT DEPTH
DFT .                          GEL BENEX : DRILLING FLUID TYPE
DFD .                               1100 : DRILLING FLUID DENSITY
DFV .                                 74 : DRILLING FLUID VISCOSITY
DFPH.                                 10 : DRILLING FLUID PH
DFL .                                 10 : DRILLING FLUID LOSS
MSS .                           FLOWLINE : MUD SAMPLE SOURCE
RMS .OHMM                           1.49 : RESISTIVITY MUD SAMPLE
MST .DEGC                           23.3 : MUD SAMPLE TEMPERATURE
RMF .OHMM                           1.26 : RESISTIVITY MUD FILTRATE SAMPLE
MFST.DEGC                           22.2 : MUD FILTRATE SAMPLE TEMPERATURE
RMC .OHMM                            1.2 : RESISTIVITY MUD CAKE
MCST.DEGC                           22.2 : MUD CAKE SAMPLE TEMPERATURE
MFSS.                              PRESS : MUD FILTRATE SAMPLE SOURCE
RMB .OHMM                           0.64 : RESISTIVITY MUD AT BHT
TCS .HRS                             800 : TIME CIRCULATED STOPPED
TLAB.HRS                            2000 : TIME LOGGER AT BOTTOM
LUN .                               8112 : LOGGING UNIT NUMBER
LUL .                              EDSON : LOGGING UNIT LOCATION
ENGI.                              LLOYD : RECORDING ENGINEER
CLNT.                            A2DTECH : CLIENT CODE
ORIG. 5"/100M 6.5"/100M 16.5"/100M PRINT : ORIGIN OF DATA
UWI .                   100070104810W500 : UNIQUE WELL ID
DICO.             A2D Technologies, Inc. : DIGITIZING COMPANY
~Other -----------------------------------------------------
~ASCII -----------------------------------------------------
  450.00000    -999.25    -999.25    -999.25    -999.25    -999.25    -999.25    -999.25    -999.25    -999.25    -999.25    -999.25    -999.25    -999.25   37.78110   38.44030   37.78110    -999.25    -999.25    -999.25    -999.25    0.49570    0.51070    -999.25    -999.25    -999.25    -999.25    -999.25
  500.00000  384.32710  324.87790  384.32710   73.05460   30.38420 1961.05220    -999.25    0.41750    0.43800   13.68840   30.38420  376.44820  376.44820   91.22300   90.81160   91.22300   13.68840   10.47290   10.47290    -999.25    0.53340    0.54840 1961.05220   44.49500  -48.09220    7.56060   44.49500
  550.00000  363.22720  311.10530  363.22720  120.22270  186.64440 2165.11870    -999.25    0.29790    0.31860    8.31790  186.64440  315.35400  315.35400   74.00810   74.73650   74.00810    8.31790    6.18730    6.18730    -999.25    0.37020    0.40830 2165.11870    5.86060  -68.52060  -11.99620    5.86060
  600.00000  317.18090  307.79090  317.18090   73.71370   46.79260 2378.37260    -999.25    0.16460    0.19390   13.56600   46.79260  281.33000  281.33000   61.42760   59.73060   61.42760   13.56600   11.19410   11.19410    -999.25    0.29540    0.35120 2378.37260   11.72360  -84.61760  -27.09590   11.72360
  650.00000  345.50020  319.02450  345.50020   70.42750   48.70270 2519.86770    -999.25    0.08000    0.11120   14.19900   48.70270  240.93030  240.93030   51.06010   48.88320   51.06010   14.19900   12.65960   12.65960    -999.25    0.20140    0.27220 2519.86770   10.65250  -89.01940  -30.50040   10.65250
  700.00000  319.03240  323.86280  319.03240  145.88960  101.13400 2456.07540    -999.25    0.11620    0.14850    6.85450  101.13400  297.04710  297.04710   81.21990   74.33450   81.21990    6.85450    5.79330    5.79330    -999.25    0.34550    0.38990 2456.07540    5.34290  -83.72070  -24.20440    5.34290
  750.00000  322.13080  335.56030  322.13080  196.29010   49.28490 2465.15280    -999.25    0.11200    0.14320    5.09450   49.28490  303.30550  303.30550   90.92800   75.50810   90.92800    5.09450    4.23420    4.23420    -999.25    0.37520    0.41200 2465.15280    4.36760  -84.13670  -23.62320    4.36760
  800.00000  310.06430  320.83890  310.06430  279.99440   49.16050 2339.59570    -999.25    0.18880    0.21660    3.57150   49.16050  328.35400  328.35400  105.34900  106.85340  105.34900    3.57150    3.17850    3.17850    -999.25    0.43950    0.45780 2339.59570    3.00690  -84.52670  -23.01590    3.00690
  850.00000  349.53680  325.91260  349.53680  153.41890   35.30660 2483.45700    -999.25    0.10070    0.13250    6.51810   35.30660  278.58920  278.58920   65.69020   62.52790   65.69020    6.51810    5.77370    5.77370    -999.25    0.27360    0.33370 2483.45700    6.41530  -89.46830  -26.96020    6.41530
  900.00000  368.30150  333.02460  368.30150  199.29850   48.79370 2438.97730    -999.25    0.12870    0.15850    5.01760   48.79370  317.93190  317.93190   82.81030   75.69540   82.81030    5.01760    4.48690    4.48690    -999.25    0.41120    0.43800 2438.97730    4.15170  -89.82610  -26.32070    4.15170
  950.00000  326.32550  316.05200  326.32550  144.66550   79.32150 2455.65430    -999.25    0.12090    0.14870    6.91250   79.32150  294.82590  294.82590   72.74970   73.93530   72.74970    6.91250    5.90390    5.90390    -999.25    0.32350    0.37320 2455.65430    5.58560  -91.78040  -27.27770    5.58560
 1000.00000  342.48680  315.81440  342.48680  152.55530  194.84740 2334.11010    -999.25    0.19110    0.21980    6.55500  194.84740  268.96390  268.96390   68.10780   67.42310   68.10780    6.55500    5.46570    5.46570    -999.25    0.25840    0.32120 2334.11010    6.26490  -91.33890  -25.83890    6.26490
 1050.00000  314.08340  317.06450  314.08340  109.82610   48.07730 2467.81350    -999.25    0.11080    0.14160    9.10530   48.07730  277.24650  277.24650   82.89330   71.29620   82.89330    9.10530    7.70990    7.70990    -999.25    0.34380    0.38870 2467.81350    6.74810  -91.69870  -25.20150    6.74810
 1100.00000  317.34350  315.91060  317.34350  216.82570    7.11540 2409.85960    -999.25    0.14630    0.17550    4.61200    7.11540  296.85490  296.85490   81.90880   76.46150   81.90880    4.61200    4.10190    4.10190    -999.25    0.37070    0.40870 2409.85960    3.80140  -90.00560  -22.51110    3.80140
 1150.00000  350.12630  315.68970  350.12630   92.19990  233.43280 2369.34160    -999.25    0.17010    0.19920   10.84600  233.43280  250.97470  250.97470   63.77430   65.15140   63.77430   10.84600    9.79800    9.79800    -999.25    0.31510    0.36670 2369.34160   12.10870  -90.82200  -22.33020   12.10870
 1200.00000  342.54950  308.96190  342.54950   80.96900   50.01990 2423.45480    -999.25    0.13820    0.16760   12.35040   50.01990  253.61310  253.61310   41.45240   49.55070   41.45240   12.35040   10.51780   10.51780    -999.25    0.24120    0.30680 2423.45480   11.95290  -94.61200  -25.12290   11.95290
 1250.00000  311.75440  306.33510  311.75440   35.05050   49.57580 2405.20260    -999.25    0.14890    0.17820   28.53030   49.57580  252.00520  252.00520   33.93020   34.44300   33.93020   28.53030   24.46790   24.46790    -999.25    0.37920    0.41490 2405.20260   28.71650 -103.67580  -33.18940   28.71650
 1300.00000  350.69040  313.60890  350.69040  143.77320   48.55180 2172.68730    -999.25    0.28400    0.31420    6.95540   48.55180  324.74080  324.74080   56.01680   61.78950   56.01680    6.95540    5.65750    5.65750    -999.25    0.52600    0.54100 2172.68730    5.01690  -88.78460  -17.30100    5.01690
 1350.00000  328.97340  319.64580  328.97340   95.93250  199.18430 2211.51900    -999.25    0.26880    0.29150   10.42400  199.18430  271.34550  271.34550   46.76660   43.43830   46.76660   10.42400    8.53750    8.53750    -999.25    0.38970    0.42260 2211.51900    7.68570  -93.77090  -21.29000    7.68570
 1400.00000  358.41240  328.67870  358.41240  128.23800  211.74580 2117.20210    -999.25    0.32170    0.34670    7.79800  211.74580  267.48650  267.48650   56.44300   62.23830   56.44300    7.79800    7.33940    7.33940    -999.25    0.40750    0.43530 2117.20210    6.96840  -88.59350  -15.11530    6.96840
 1450.00000  315.48910  337.65160  315.48910  100.45100  140.86720 2485.36300    -999.25    0.09950    0.13140    9.95510  140.86720  278.08640  278.08640   86.88370   89.08820   86.88370    9.95510    8.74090    8.74090    -999.25    0.39870    0.42900 2485.36300    8.65120  -91.90140  -17.42590    8.65120
 1500.00000  317.98580  328.30460  317.98580   89.78510   58.10780 2545.82760    -999.25    0.06400    0.09600   11.13770   58.10780  266.43310  266.43310   90.33360   89.53170   90.33360   11.13770   10.13020   10.13020    -999.25    0.32620    0.37530 2545.82760   10.88580  -92.28240  -16.80960   10.88580
 1550.00000  318.21780  327.20280  318.21780   76.87700   92.42380 2527.75120    -999.25    0.07250    0.10660   13.00780   92.42380  287.33000  287.33000  114.08130  119.08440  114.08130   13.00780   11.76580   11.76580    -999.25    0.40030    0.43020 2527.75120   14.73390  -92.45790  -15.98790   14.73390
 1600.00000  365.81750  332.65610  365.81750  106.77140  220.64350 2236.39770    -999.25    0.25410    0.27700    9.36580  220.64350  261.40940  261.40940   92.70870   91.27910   92.70870    9.36580    8.27970    8.27970    -999.25    0.35310    0.39570 2236.39770    8.90780  -91.68420  -14.21690    8.90780
 1650.00000  370.61890  335.64840  370.61890  119.06040  103.78540 2040.64070    -999.25    0.36990    0.39140    8.39910  103.78540  264.17120  264.17120   88.06920   97.52870   88.06920    8.39910    7.25810    7.25810    -999.25    0.39820    0.42870 2040.64070    7.92660  -92.92750  -14.46290    7.92660
 1700.00000  338.82210  312.87780  338.82210   75.59210  150.68320 2436.73270    -999.25    0.12230    0.15980   13.22890  150.68320  246.72160  246.72160   82.01120   84.25200   82.01120   13.22890   11.71530   11.71530    -999.25    0.23330    0.30010 2436.73270   12.56040  -93.92880  -14.46690   12.56040
