~Version ---------------------------------------------------
VERS.      2.0 : CWLS log ASCII Standard -VERSION 2.0
WRAP.       NO : One line per depth step
CREA. 11/10/17 : LAS Creation Date
~Well ------------------------------------------------------
STRT.FT                            300.0 : START DEPTH
STOP.FT                          12850.0 : STOP DEPTH
STEP.FT                         50.00000 : STEP LENGTH
NULL.                            -999.25 : NULL VALUE
COMP.            TRIAD OIL COMPANY, LTD. : COMPANY
WELL. TRIAD H.B. MOOSE CREEK 10-27-51-17 : WELL
FLD .                                    : FIELD
LOC .                                    : LOCATION
CTRY.                             CANADA : COUNTRY
SRVC.                       Schlumberger : SERVICE COMPANY
DATE.                        21-May-1958 : LOGDATE
PROV.                            Alberta : PROVINCE
UWI .                   100102705117W500 : UNIQUE WELL ID
SLAT.WGS84                      53.43327 : SURFACE LATITUDE
SLON.WGS84                     -116.4188 : SURFACE LONGITUDE
~Curve Information -----------------------------------------
DEPT  .FT         : Depth Curve
CALSED.IN         : CALIPER FROM SONIC LOG
CALWS .IN         : CALIPER [MCALED SPL. CALSED @ 8179'-9461']
CONDWS.MMHO       : CONDUCTIVITY [1000/DRESWS]
DRESWS.OHMM       : DEEP RESISTIVITY [LNED]
DTED  .US/F       : DELTA-TIME FROM SONIC LOG
DTWS  .US/F       : COMPRESSIONAL SONIC [DTED]
GRNED .UgRa-Eq/T  : GAMMA RAY [GRNED*16.5] FROM GRN LOG
GRSED .GAPI       : GAMMA RAY FROM SONIC LOG
GRWS  .GAPI       : GAMMA RAY [GRNED SPL. TO GRSED @ 8179'-9461']
LATED .OHMM       : LATERAL 18' 8" RESISTIVITY FROM RESISTIVITY LOG
LNED  .OHMM       : LONG NORMAL 64" RESISTIVITY FROM RESISTIVITY LOG
MCALED.IN         : MICRO CALIPER FROM MICROLOG
NEUTED.CPS        : NEUTRON FROM GRN LOG
NEUTWS.CPS        : NEUTRON [NEUTED]
SNED  .OHMM       : SHORT NORMAL 16" RESISTIVITY FROM RESISTIVITY LOG
SPRED .MV         : SPONTANEOUS POTENTIAL FROM RESISTIVITY LOG
SPWS  .MV         : SPONTANEOUS POTENTIAL [BASELINE 0 MV, SPRED]
SRESWS.OHMM       : SHALLOW RESISTIVITY [SNED]
~Params ----------------------------------------------------
LMF .                     KB : LOG MEASURED FROM
DMF .                     KB : DRILLING MEASURED FROM
EKB .FT                 3293 : KELLY BUSHING
DATE.               05/21/58 : RUN DATE
RUN .                      2 : RUN NUMBER
DD  .FT                12881 : DEPTH DRILLER
DL  .FT                12871 : DEPTH LOGGER
BLI .FT                12870 : BOTTOM LOG INTERVAL
TLI .FT                 8178 : TOP LOG INTERVAL
CBD .FT                 8182 : CASING BOTTOM DRILLER
CBL .FT                 8178 : CASING BOTTOM LOGGER
BS  .IN                8.625 : BIT SIZE
BSD .FT                12861 : BIT SIZE AT DEPTH
DFT .                   LIME : DRILLING FLUID TYPE
DFD .                   10.2 : DRILLING FLUID DENSITY
DFV .                     72 : DRILLING FLUID VISCOSITY
MSS .               FLOWLINE : MUD SAMPLE SOURCE
RMS .OHMM               0.52 : RESISTIVITY MUD SAMPLE
MST .DEGF                 65 : MUD SAMPLE TEMPERATURE
RMF .OHMM               0.25 : RESISTIVITY MUD FILTRATE SAMPLE
MFST.DEGF                 85 : MUD FILTRATE SAMPLE TEMPERATURE
RMC .OHMM               0.68 : RESISTIVITY MUD CAKE
MCST.DEGF                 85 : MUD CAKE SAMPLE TEMPERATURE
TCS .HRS                 300 : TIME CIRCULATED STOPPED
LUN .                   1571 : LOGGING UNIT NUMBER
LUL .                    EDM : LOGGING UNIT LOCATION
ENGI.                  JAMES : RECORDING ENGINEER
WITN.                 AITKEN : WITNESSED BY
CLNT.                A2DTECH : CLIENT CODE
ORIG.            2" 5" PRINT : ORIGIN OF DATA
UWI .       100102705117W500 : UNIQUE WELL ID
DICO. A2D Technologies, Inc. : DIGITIZING COMPANY
~Other -----------------------------------------------------
~ASCII -----------------------------------------------------
# ...
 11950.00000    -999.25    8.02620   40.01970   24.98770    -999.25    -999.25  109.11280    -999.25  109.11280   28.75740   24.98770    8.02620  247.87430  247.87430   13.39420  -50.18970  -34.95390   13.39420
 12000.00000    -999.25    8.02920   38.14810   26.21360    -999.25    -999.25  110.13910    -999.25  110.13910   32.27920   26.21360    8.02920  238.05530  238.05530   13.58870  -50.12410  -34.99820   13.58870
 12050.00000    -999.25    8.02420   32.90750   30.38820    -999.25    -999.25  118.15320    -999.25  118.15320   42.27890   30.38820    8.02420  224.01320  224.01320   13.65310  -43.76490  -28.74840   13.65310
 12100.00000    -999.25    8.01000   36.48170   27.41100    -999.25    -999.25  112.12250    -999.25  112.12250   40.44680   27.41100    8.01000  242.49630  242.49630   13.23540  -33.02680  -18.12070   13.23540
 12150.00000    -999.25    8.00370   18.78640   53.24220    -999.25    -999.25   65.70470    -999.25   65.70470   38.35350   53.24220    8.00370  298.68270  298.68270   22.97100  -23.45710   -8.66040   22.97100
 12200.00000    -999.25    8.00510   16.99970   58.82470    -999.25    -999.25  105.77330    -999.25  105.77330  100.00000   58.82470    8.00510  237.37070  237.37070   19.68420  -22.61400   -7.83500   19.68420
 12250.00000    -999.25    7.97240    4.41770  226.36200    -999.25    -999.25  147.68820    -999.25  147.68820  105.08070  226.36200    7.97240  261.81120  261.81120   55.44360  -27.15100  -12.30000   55.44360
 12300.00000    -999.25    8.00040    3.99580  250.26580    -999.25    -999.25  147.97610    -999.25  147.97610  511.18100  250.26580    8.00040  238.18710  238.18710   35.24770  -34.12250  -19.19990   35.24770
 12350.00000    -999.25    7.88470   18.10340   55.23830    -999.25    -999.25  107.23520    -999.25  107.23520  138.36730   55.23830    7.88470  218.74760  218.74760   14.90230  -28.08750  -13.09240   14.90230
 12400.00000    -999.25    7.97400    2.08260  480.16300    -999.25    -999.25   48.01420    -999.25   48.01420  393.98860  480.16300    7.97400  332.21200  332.21200   71.17930  -29.50690  -14.44010   71.17930
 12450.00000    -999.25    7.93520    1.53600  651.03530    -999.25    -999.25   21.90870    -999.25   21.90870  268.92810  651.03530    7.93520  405.29310  405.29310   85.96940  -52.83960  -37.75590   85.96940
 12500.00000    -999.25    7.33190    1.57380  635.40940    -999.25    -999.25   67.35300    -999.25   67.35300  408.88450  635.40940    7.33190  253.83710  253.83710   57.09060  -74.60270  -59.51900   57.09060
 12550.00000    -999.25    7.07920    2.27800  438.99290    -999.25    -999.25   23.83340    -999.25   23.83340  648.43030  438.99290    7.07920  383.45810  383.45810   37.35060  -83.72060  -68.63690   37.35060
 12600.00000    -999.25    -999.25   21.89620   45.67000    -999.25    -999.25   26.02050    -999.25   26.02050   84.46520   45.67000    -999.25  289.18850  289.18850   15.32050 -102.53670  -87.45300   15.32050
 12650.00000    -999.25    -999.25    2.50400  399.36280    -999.25    -999.25   27.79670    -999.25   27.79670  350.64090  399.36280    -999.25  339.58810  339.58810   65.87830  -81.05490  -65.97120   65.87830
 12700.00000    -999.25    -999.25    2.08680  479.19470    -999.25    -999.25   24.69720    -999.25   24.69720  383.18710  479.19470    -999.25  358.51210  358.51210   64.88020  -70.92230  -55.83860   64.88020
 12750.00000    -999.25    -999.25    2.60780  383.46450    -999.25    -999.25   45.29410    -999.25   45.29410  718.26150  383.46450    -999.25  369.15080  369.15080   34.62730  -40.91640  -25.83270   34.62730
 12800.00000    -999.25    -999.25   15.25190   65.56710    -999.25    -999.25   29.16460    -999.25   29.16460  289.83830   65.56710    -999.25  318.24090  318.24090   15.27550  -84.55830  -69.47470   15.27550
 12850.00000    -999.25    -999.25    3.87250  258.23330    -999.25    -999.25   43.54680    -999.25   43.54680   25.09760  258.23330    -999.25  343.46960  343.46960   58.30530  -78.66200  -63.57830   58.30530
