~Version ---------------------------------------------------
VERS.      2.0 : CWLS log ASCII Standard -VERSION 2.0
WRAP.       NO : One line per depth step
CREA. 12/12/17 : LAS Creation Date
~Well ------------------------------------------------------
STRT.FT                       450.0 : START DEPTH
STOP.FT                      6550.0 : STOP DEPTH
STEP.FT                    50.00000 : STEP LENGTH
NULL.                       -999.25 : NULL VALUE
COMP.      CHEVRON STANDARD LIMITED : COMPANY
WELL. CHEVRON GIFT LAKE 11-11-78-12 : WELL
FLD .                               : FIELD
LOC .                               : LOCATION
CTRY.                        CANADA : COUNTRY
SRVC.                  Schlumberger : SERVICE COMPANY
DATE.                   09-Mar-1976 : LOGDATE
PROV.                       Alberta : PROVINCE
UWI .              100111107812W500 : UNIQUE WELL ID
SLAT.WGS84                 55.74751 : SURFACE LATITUDE
SLON.WGS84                -115.7501 : SURFACE LONGITUDE
~Curve Information -----------------------------------------
DEPT  .FT    : Depth Curve
CALSED.IN    : CALIPER FROM SONIC LOG [ADJ. TO RESISTIVITY LOG]
CALWS .IN    : CALIPER [CALSED]
CONDWS.MMHO  : CONDUCTIVITY [1000/DRESWS]
DFLED .OHMM  : DIGITAL FOCUSED LATEROLOG FROM RESISTIVITY LOG
DRESWS.OHMM  : DEEP RESISTIVITY [ILDED]
DTED  .US/F  : DELTA-T FROM SONIC LOG [ADJ. TO RESISTIVITY LOG]
DTWS  .US/F  : COMPRESSIONAL SONIC [DTED]
GRED  .GAPI  : GAMMA RAY FROM CEMENT BOND LOG
GRSED .GAPI  : GAMMA RAY FROM SONIC LOG [ADJ. TO RESISTIVITY LOG]
GRWS  .GAPI  : GAMMA RAY [GRED SPL. TO GRSED @ 695']
ILDED .OHMM  : DEEP INDUCTION  RESISTIVITY FROM RESISTIVITY LOG
ILMED .OHMM  : MEDIUM INDUCTION RESISTIVITY FROM RESISTIVITY LOG
MRESWS.OHMM  : MEDIUM RESISTIVITY [ILMED]
SPRED .MV    : SPONTANEOUS POTENTIAL FROM RESISTIVITY LOG
SPWS  .MV    : SPONTANEOUS POTENTIAL [BASELINE 0 MV,SPRED]
SRESWS.OHMM  : SHALLOW RESISTIVITY [DFLED]
~Params ----------------------------------------------------
PD  .                     GL : PERMANENT DATUM
EPD .FT               2302.2 : ELEVATION PERMANENT DATUM
LMF .                     KB : LOG MEASURED FROM
DAPD.FT                 12.4 : FEET ABOVE PERMANENT DATUM
EKB .FT               2314.6 : KELLY BUSHING
EGL .FT               2302.2 : GROUND LEVEL
DATE.               03/09/76 : RUN DATE
RUN .                      1 : RUN NUMBER
DD  .FT                 6585 : DEPTH DRILLER
DL  .FT                 6586 : DEPTH LOGGER
BLI .FT                 6580 : BOTTOM LOG INTERVAL
TLI .FT                  716 : TOP LOG INTERVAL
CBD .FT                  717 : CASING BOTTOM DRILLER
CBL .FT                  716 : CASING BOTTOM LOGGER
BS  .IN                7.875 : BIT SIZE
BSD .FT                 6585 : BIT SIZE AT DEPTH
DFT .               GEL CHEM : DRILLING FLUID TYPE
DFD .                    9.3 : DRILLING FLUID DENSITY
DFV .                     70 : DRILLING FLUID VISCOSITY
DFPH.                    9.5 : DRILLING FLUID PH
DFL .                      9 : DRILLING FLUID LOSS
MSS .               FLOWLINE : MUD SAMPLE SOURCE
RMS .OHMM               0.61 : RESISTIVITY MUD SAMPLE
MST .DEGF                 57 : MUD SAMPLE TEMPERATURE
RMF .OHMM               0.52 : RESISTIVITY MUD FILTRATE SAMPLE
MFST.DEGF                0.9 : MUD FILTRATE SAMPLE TEMPERATURE
RMC .OHMM                0.9 : RESISTIVITY MUD CAKE
MCST.DEGF                 65 : MUD CAKE SAMPLE TEMPERATURE
TCS .HRS                 1.5 : TIME CIRCULATED STOPPED
LUN .                   7635 : LOGGING UNIT NUMBER
LUL .                    EDM : LOGGING UNIT LOCATION
ENGI.                SWANSON : RECORDING ENGINEER
WITN.                   WONG : WITNESSED BY
CLNT.                A2DTECH : CLIENT CODE
ORIG.            2" 5" PRINT : ORIGIN OF DATA
UWI .       100111107812W500 : UNIQUE WELL ID
DICO. A2D Technologies, Inc. : DIGITIZING COMPANY
~Other -----------------------------------------------------
DIL-SONIC-CBL LOG RUN
~ASCII -----------------------------------------------------
  450.00000    -999.25    -999.25    -999.25    -999.25    -999.25    -999.25    -999.25   19.84770    -999.25   19.84770    -999.25    -999.25    -999.25    -999.25    -999.25    -999.25
  500.00000    -999.25    -999.25    -999.25    -999.25    -999.25    -999.25    -999.25   40.27170    -999.25   40.27170    -999.25    -999.25    -999.25    -999.25    -999.25    -999.25
  550.00000    -999.25    -999.25    -999.25    -999.25    -999.25    -999.25    -999.25    -999.25    -999.25    -999.25    -999.25    -999.25    -999.25    -999.25    -999.25    -999.25
  600.00000    -999.25    -999.25    -999.25    -999.25    -999.25    -999.25    -999.25    -999.25    -999.25    -999.25    -999.25    -999.25    -999.25    -999.25    -999.25    -999.25
  650.00000    -999.25    -999.25    -999.25    -999.25    -999.25    -999.25    -999.25    -999.25    -999.25    -999.25    -999.25    -999.25    -999.25    -999.25    -999.25    -999.25
  700.00000    -999.25    -999.25    -999.25    -999.25    -999.25    -999.25    -999.25    -999.25   75.28240   75.28240    -999.25    -999.25    -999.25    -999.25    -999.25    -999.25
  750.00000   10.15370   10.15370  116.95910    6.29300    8.55000  154.11460  154.11460    -999.25   62.88760   62.88760    8.55000    4.30510    4.30510 -129.21380   -8.23040    6.29300
  800.00000   10.37230   10.37230  163.76260    5.60790    6.10640  131.06090  131.06090    -999.25   79.81850   79.81850    6.10640    5.14390    5.14390 -142.04070  -23.96890    5.60790
  850.00000   11.17800   11.17800  171.06830    4.94440    5.84570  131.07240  131.07240    -999.25   76.69000   76.69000    5.84570    5.13850    5.13850 -131.88180  -16.74080    4.94440
  900.00000   12.57590   12.57590  254.55010    4.23470    3.92850  142.07520  142.07520    -999.25   92.29170   92.29170    3.92850    3.40030    3.40030 -133.18510  -20.95570    4.23470
  950.00000   11.57520   11.57520  182.53050    5.06210    5.47860  134.35360  134.35360    -999.25   85.90210   85.90210    5.47860    4.68060    4.68060 -127.46450  -18.16590    5.06210
 1000.00000   11.25390   11.25390  277.43870    4.04660    3.60440  140.29160  140.29160    -999.25   95.08140   95.08140    3.60440    3.37510    3.37510 -129.65690  -23.26990    4.04660
 1050.00000   11.75230   11.75230  216.14140    4.83200    4.62660  133.27280  133.27280    -999.25   94.28110   94.28110    4.62660    4.08640    4.08640 -124.39260  -20.91720    4.83200
 1100.00000   13.80870   13.80870  204.66120    4.84040    4.88620  137.55860  137.55860    -999.25   82.21270   82.21270    4.88620    4.31710    4.31710 -114.53830  -13.99370    4.84040
 1150.00000   11.87100   11.87100  392.57250    3.12600    2.54730  150.15330  150.15330    -999.25  132.85650  132.85650    2.54730    2.32670    2.32670 -119.19990  -21.56690    3.12600
 1200.00000   11.04620   11.04620  374.79310    3.14250    2.66840  158.31800  158.31800    -999.25   93.93950   93.93950    2.66840    2.33970    2.33970 -110.59910  -15.89690    3.14250
 1250.00000   11.19490   11.19490  314.48520    3.57290    3.17980  137.94400  137.94400    -999.25   96.59610   96.59610    3.17980    2.86890    2.86890 -104.98950  -13.19890    3.57290
 1300.00000   10.89490   10.89490  213.26510    6.33580    4.68900  113.34310  113.34310    -999.25   79.50210   79.50210    4.68900    4.35470    4.35470  -93.35260   -4.47360    6.33580
 1350.00000   10.65820   10.65820  232.36340    3.76400    4.30690  138.68890  138.68890    -999.25  116.73980  116.73980    4.30690    3.85030    3.85030 -102.51490  -16.56670    3.76400
 1400.00000    9.20150    9.20150  136.94320    5.48720    7.30230  119.13360  119.13360    -999.25   47.75390   47.75390    7.30230   13.15010   13.15010 -103.88080  -19.43040    5.48720
 1450.00000   10.23640   10.23640  355.91120    3.03730    2.82480  168.64720  168.64720    -999.25   48.61630   48.61630    2.82480    1.95700    1.95700  -88.20360   -5.24190    3.03730
 1500.00000    8.72220    8.72220  204.13160    7.11390    4.89880  125.23580  125.23580    -999.25   56.18420   56.18420    4.89880    5.83730    5.83730 -103.25960  -21.77690    7.11390
 1550.00000   10.42790   10.42790  431.53670    2.47520    2.31730  144.43960  144.43960    -999.25   68.31550   68.31550    2.31730    2.15880    2.15880  -87.60770   -7.60390    2.47520
 1600.00000    9.94330    9.94330  228.26320    3.77120    4.38360  125.87280  125.87280    -999.25   50.70480   50.70480    4.38360    3.95050    3.95050  -92.65170  -14.13660    3.77120
 1650.00000    9.06720    9.06720   82.08770   21.96590   12.18210  109.88200  109.88200    -999.25   60.66630   60.66630   12.18210   14.91180   14.91180  -98.61370  -21.57760   21.96590
 1700.00000    8.93180    8.93180   55.55730  260.48740   18.66040   54.20150   54.20150    -999.25   47.85910   47.85910   18.66040   11.31590   11.31590  -86.13200  -10.58460  260.48740
 1750.00000    9.97620    9.97620  331.01620    3.60060    3.02100  115.91840  115.91840    -999.25   75.44840   75.44840    3.02100    2.89400    2.89400  -94.68910  -20.62060    3.60060
 1800.00000    9.02180    9.02180  181.79170    6.26160    5.50080  103.13230  103.13230    -999.25   57.32110   57.32110    5.50080    5.15390    5.15390 -106.67260  -34.08310    6.26160
 1850.00000    9.81420    9.81420  293.87470    3.81710    3.40300  112.40870  112.40870    -999.25   66.11900   66.11900    3.40300    3.18310    3.18310 -113.57400  -42.47320    3.81710
 1900.00000   10.53940   10.53940  208.44620    6.02990    4.79740  106.76640  106.76640    -999.25   68.99620   68.99620    4.79740    4.41450    4.41450  -97.53860  -27.91670    6.02990
 1950.00000   10.24780   10.24780  292.68860    4.17380    3.41690  115.44290  115.44290    -999.25   65.02290   65.02290    3.41690    3.22990    3.22990  -97.41300  -29.27980    4.17380
 2000.00000   10.82620   10.82620  235.62120    3.87320    4.24410  110.10570  110.10570    -999.25   67.92080   67.92080    4.24410    4.07510    4.07510  -99.54720  -32.89300    3.87320
 2050.00000   10.41250   10.41250  221.03360    4.57510    4.52420  106.98710  106.98710    -999.25   66.93900   66.93900    4.52420    4.18620    4.18620  -84.45440  -19.27910    4.57510
 2100.00000   10.21870   10.21870  178.97410    6.31280    5.58790   98.65800   98.65800    -999.25   71.43680   71.43680    5.58790    4.79320    4.79320  -96.66680  -32.98020    6.31280
 2150.00000    9.67390    9.67390  170.06220    6.12820    5.88020  105.83270  105.83270    -999.25   71.72330   71.72330    5.88020    4.67450    4.67450 -108.66330  -46.45570    6.12820
 2200.00000    9.40080    9.40080  159.83290    5.59650    6.25680   98.79090   98.79090    -999.25   66.77450   66.77450    6.25680    5.14940    5.14940 -116.88280  -56.16390    5.59650
 2250.00000   12.48350   12.48350  382.48230    3.93360    2.61450  106.36350  106.36350    -999.25   59.78820   59.78820    2.61450    2.22100    2.22100  -98.56060  -39.32070    3.93360
 2300.00000    9.18900    9.18900   10.78130  223.69710   92.75290  103.11890  103.11890    -999.25   26.16790   26.16790   92.75290  203.00810  203.00810 -119.82420  -62.06320  223.69710
 2350.00000    9.06610    9.06610   94.83740   25.86960   10.55100   80.10420   80.10420    -999.25   61.08050   61.08050   10.55100   13.38450   13.38450 -117.03100  -60.75870   25.86960
 2400.00000    9.27550    9.27550   73.26010   22.03880   13.65000   80.47700   80.47700    -999.25   24.55950   24.55950   13.65000   15.95760   15.95760 -113.10500  -58.31170   22.03880
 2450.00000    8.72110    8.72110   17.84500   37.18520   56.30190   68.79550   68.79550    -999.25   25.57820   25.57820   56.30190   17.96120   17.96120 -110.96870  -57.66410   37.18520
 2500.00000    8.53550    8.53550   33.41500  401.73090   29.92670   67.31640   67.31640    -999.25   12.07050   12.07050   29.92670   34.60290   34.60290  -90.72940  -38.90370  401.73090
 2550.00000    8.54770    8.54770   64.67850   17.04670   15.46110   70.92520   70.92520    -999.25   21.36050   21.36050   15.46110   23.29260   23.29260  -94.59240  -44.24570   17.04670
