~Version ---------------------------------------------------
VERS.      2.0 : CWLS log ASCII Standard -VERSION 2.0
WRAP.       NO : One line per depth step
CREA. 01/03/18 : LAS Creation Date
~Well ------------------------------------------------------
STRT.FT                     1000.0 : START DEPTH
STOP.FT                     9900.0 : STOP DEPTH
STEP.FT                   50.00000 : STEP LENGTH
NULL.                      -999.25 : NULL VALUE
COMP.       CALIFORNIA STANDARD CO : COMPANY
WELL. CAL STAN MEEKWAP 10-11-65-19 : WELL
FLD .                              : FIELD
LOC .                              : LOCATION
CTRY.                       CANADA : COUNTRY
SRVC.       Schlumberger of Canada : SERVICE COMPANY
DATE.                  22-Nov-1960 : LOGDATE
PROV.                      Alberta : PROVINCE
UWI .             100101106519W500 : UNIQUE WELL ID
SLAT.WGS84                54.61203 : SURFACE LATITUDE
SLON.WGS84               -116.7575 : SURFACE LONGITUDE
~Curve Information -----------------------------------------
DEPT  .FT         : Depth Curve
CALWS .IN         : CALIPER [CALSED]
CILDED.MMHO       : CONDUCTIVITY FROM RESISTIVITY LOG
CONDWS.MMHO       : CONDUCTIVITY [1000/DRESWS]
DRESWS.OHMM       : DEEP RESISTIVITY [ILDED] IF ILDED<5;1000/CILDED;ELSE ILDED
DTED  .US/F       : DELTA TIME FROM SONIC LOG
DTWS  .US/F       : DELTA TIME [DTED]
GRSED .UgRa-Eq/T  : GAMMA RAY FROM SONIC LOG
GRWS  .GAPI       : GAMMA RAY [GRSED] [CONVERTED SCALE *16.5 API]
ILDED .OHMM       : INDUCTION LOG DEEP RESISTIVITY
MCALED.IN         : MICROCALIPER
SNED  .OHMM       : 16 INCH SHORT NORMAL RESISTIVITY FROM IEL
SPRED .MV         : SPONTANEOUS POTENTIAL FROM RESISTIVITY LOG
SPWS  .MV         : SPONTANEOUS POTENTIAL [BASELINE 0 MV] [SPRED]
SRESWS.OHMM       : SHALLOW RESISTIVITY [SNED]
~Params ----------------------------------------------------
LMF .                     KB : LOG MEASURED FROM
DMF .                     KB : DRILLING MEASURED FROM
EKB .FT                 2664 : KELLY BUSHING
EGL .FT               2652.4 : GROUND LEVEL
DATE.               11/22/60 : RUN DATE
RUN .                      1 : RUN NUMBER
DD  .FT                 9934 : DEPTH DRILLER
DL  .FT                 9940 : DEPTH LOGGER
BLI .FT                 9934 : BOTTOM LOG INTERVAL
TLI .FT                 1001 : TOP LOG INTERVAL
CBD .FT               1000.5 : CASING BOTTOM DRILLER
CBL .FT                 1001 : CASING BOTTOM LOGGER
BS  .IN                    9 : BIT SIZE
BSD .FT                 9934 : BIT SIZE AT DEPTH
DFT .                    GEL : DRILLING FLUID TYPE
DFD .                   10.6 : DRILLING FLUID DENSITY
DFV .                     93 : DRILLING FLUID VISCOSITY
DFPH.                    9.5 : DRILLING FLUID PH
DFL .                    8.8 : DRILLING FLUID LOSS
RMS .OHMM               0.73 : RESISTIVITY MUD SAMPLE
MST .DEGF                182 : MUD SAMPLE TEMPERATURE
RMB .OHMM               0.73 : RESISTIVITY MUD AT BHT
TCS .HRS                   3 : TIME CIRCULATED STOPPED
LUN .                   1534 : LOGGING UNIT NUMBER
LUL .                    EDM : LOGGING UNIT LOCATION
ENGI.               WILLIAMS : RECORDING ENGINEER
WITN.                  CHANT : WITNESSED BY
CLNT.                A2DTECH : CLIENT CODE
ORIG.            2" 5" PRINT : ORIGIN OF DATA
UWI .       100101106519W500 : UNIQUE WELL ID
DICO. A2D Technologies, Inc. : DIGITIZING COMPANY
~Other -----------------------------------------------------
~ASCII -----------------------------------------------------
# ...
 3450.00000    -999.25  123.78130  125.34160    7.97820   89.94300   89.94300    6.87280  113.40120    7.97820    -999.25    8.38930  -77.84010   -9.30740    8.38930
 3500.00000    -999.25  146.07270  150.18850    6.65830   92.20500   92.20500    7.26820  119.92530    6.65830    -999.25    7.40340  -77.21370   -9.07020    7.40340
 3550.00000    -999.25  131.23710  133.21970    7.50640   86.37450   86.37450    6.26130  103.31150    7.50640    -999.25    7.98750  -76.85880   -9.10450    7.98750
 3600.00000    -999.25  175.12610  182.07970    5.49210   98.99700   98.99700    7.37500  121.68750    5.49210    -999.25    7.07230  -74.87360   -7.50840    7.07230
 3650.00000    -999.25  169.86330  178.33900    5.60730   97.53520   97.53520    7.77400  128.27100    5.60730    -999.25    7.09600  -73.76780   -6.79180    7.09600
 3700.00000    -999.25  173.63320  180.57390    5.53790   97.76200   97.76200    7.91860  130.65690    5.53790    -999.25    6.91950  -72.14020   -5.55340    6.91950
 3750.00000    -999.25  149.01480  150.07130    6.66350   96.01000   96.01000    7.51200  123.94800    6.66350    -999.25    8.34890  -71.79150   -5.59380    8.34890
 3800.00000    -999.25  141.38070  140.13450    7.13600   98.28400   98.28400    6.91890  114.16190    7.13600    -999.25    9.00370  -71.39870   -5.59020    9.00370
 3850.00000    -999.25  122.90830  117.89530    8.48210  103.09980  103.09980    8.21700  135.58050    8.48210    -999.25   12.11660  -70.06660   -4.64730   12.11660
 3900.00000    -999.25  109.51950  109.13930    9.16260   95.65330   95.65330    8.74910  144.36020    9.16260    -999.25   12.89400  -69.10960   -4.07940   12.89400
 3950.00000    -999.25   83.87200   77.64040   12.87990  106.32600  106.32600   14.16190  233.67130   12.87990    -999.25   19.06360  -68.03550   -3.39450   19.06360
 4000.00000    -999.25  225.52850  225.52850    4.43400   96.57370   96.57370    6.78630  111.97400    4.18800    -999.25    5.48550  -69.52320   -5.27140    5.48550
 4050.00000    -999.25  192.65230  192.65230    5.19070   98.14370   98.14370    6.62830  109.36700    4.84400    -999.25    6.29760  -67.79940   -3.93670    6.29760
 4100.00000    -999.25  157.63390  158.92440    6.29230   90.39400   90.39400    6.18590  102.06740    6.29230    -999.25    7.80940  -68.63790   -5.16440    7.80940
 4150.00000    -999.25  226.68570  226.68570    4.41140   96.85180   96.85180    7.11600  117.41400    4.18550    -999.25    5.66310  -67.21430   -4.13000    5.66310
 4200.00000    -999.25  148.11260  148.72760    6.72370   92.44850   92.44850    5.86950   96.84680    6.72370    -999.25    7.96390  -68.90780   -6.21260    7.96390
 4250.00000    -999.25  284.10380  284.10380    3.51980   98.80770   98.80770    5.98310   98.72120    3.19500    -999.25    4.31440  -66.58800   -4.28200    4.31440
 4300.00000    -999.25  234.72750  234.72750    4.26030   93.40750   93.40750    7.21710  119.08220    3.99850    -999.25    5.42300  -65.87850   -3.96170    5.42300
 4350.00000    -999.25  241.46500  241.46500    4.14140   97.20080   97.20080    7.53160  124.27140    3.83620    -999.25    4.91530  -65.67690   -4.14930    4.91530
 4400.00000    -999.25  305.25940  305.25940    3.27590   97.75800   97.75800    8.52410  140.64770    2.95260    -999.25    3.87240  -63.86060   -2.72210    3.87240
 4450.00000    -999.25  426.47570  426.47570    2.34480  112.72030  112.72030    7.70440  127.12260    2.09410    -999.25    2.66530  -64.00660   -3.25730    2.66530
 4500.00000   15.24020  257.92280  257.92280    3.87710   89.68620   89.68620    6.59790  108.86540    3.37850   15.24020    3.70400  -68.22080   -8.03510    3.70400
 4550.00000   14.25960  256.13770  256.13770    3.90410   96.23770   96.23770    5.97730   98.62550    3.46340   14.25960    4.14920  -67.99690   -8.62580    4.14920
 4600.00000   11.64650  139.72920  141.92450    7.04600   82.79100   82.79100    6.11360  100.87440    7.04600   11.64650    8.23180  -68.89920  -10.34270    8.23180
 4650.00000   11.35250  199.25310  199.25310    5.01870   86.57080   86.57080    4.79890   79.18180    4.61030   11.35250    5.24570  -67.82710  -10.08520    5.24570
 4700.00000    9.27840  145.88640  145.01790    6.89570   79.91580   79.91580    4.92600   81.27900    6.89570    9.27840   10.59180  -76.76380  -19.83650   10.59180
 4750.00000   10.03950   67.88950   62.40720   16.02380  125.93670  125.93670    3.48780   57.54870   16.02380   10.03950   19.46090  -80.07840  -23.96570   19.46090
 4800.00000   11.44510   65.73180   53.46420   18.70410   77.16050   77.16050    3.43150   56.61980   18.70410   11.44510   20.81580  -79.33530  -24.03720   20.81580
 4850.00000    9.53860   88.61320   82.05530   12.18690  115.27330  115.27330    4.51200   74.44800   12.18690    9.53860   18.19420  -73.32560  -18.84220   18.19420
 4900.00000    9.68580   54.00150   43.71580   22.87500  122.83670  122.83670    2.42120   39.94980   22.87500    9.68580   22.43830  -67.96820  -14.29940   22.43830
 4950.00000   10.07470   59.00070   48.02150   20.82400   70.00800   70.00800    4.65120   76.74480   20.82400   10.07470   25.75720  -74.73230  -21.87810   25.75720
 5000.00000   10.70450  103.92520  102.90820    9.71740   94.26050   94.26050    5.02730   82.95050    9.71740   10.70450   14.25900  -68.40830  -16.36870   14.25900
 5050.00000   10.13760  106.25710  107.54420    9.29850   76.54600   76.54600    4.99060   82.34490    9.29850   10.13760   10.84360  -69.88550  -18.66050   10.84360
 5100.00000    9.25010  110.39530  109.39840    9.14090   82.21600   82.21600    3.97920   65.65680    9.14090    9.25010   15.69010  -73.46640  -23.05600   15.69010
 5150.00000    9.81640  119.65980  118.67180    8.42660   84.62950   84.62950    5.77940   95.36010    8.42660    9.81640   14.09660  -58.19300   -8.59720   14.09660
 5200.00000    9.71880  108.97300  108.64490    9.20430   76.76100   76.76100    5.80740   95.82210    9.20430    9.71880   11.87120  -56.24140   -7.46020   11.87120
 5250.00000    8.44460   79.63780   75.64640   13.21940   74.82150   74.82150    3.07020   50.65830   13.21940    8.44460   21.61320  -99.36650  -51.39990   21.61320
 5300.00000    9.89320  132.22780  132.58030    7.54260   78.40850   78.40850    5.30970   87.61010    7.54260    9.89320    9.02340  -48.87870   -1.72670    9.02340
 5350.00000    9.87030  120.82590  121.55100    8.22700   76.81930   76.81930    5.01480   82.74420    8.22700    9.87030   10.19490  -51.09820   -4.76080   10.19490
 5400.00000   10.18490  109.67400  107.89000    9.26870   79.30400   79.30400    5.85190   96.55630    9.26870   10.18490   11.25570  -50.74300   -5.22020   11.25570
 5450.00000    9.83190  128.77560  131.89830    7.58160   78.06350   78.06350    5.03250   83.03620    7.58160    9.83190    9.82170  -50.96230   -6.25420    9.82170
 5500.00000   11.06000  211.50700  211.50700    4.72800   87.26000   87.26000    5.56900   91.88850    4.36140   11.06000    6.19270  -47.92330   -4.02980    6.19270
 5550.00000    9.48330   57.25380   51.72480   19.33310   65.59420   65.59420    5.19270   85.67960   19.33310    9.48330   24.00440  -48.40350   -5.32460   24.00440
 5600.00000    9.05860  131.86780  133.88670    7.46900   81.66320   81.66320    1.85690   30.63890    7.46900    9.05860   13.58860 -100.22260  -57.95830   13.58860
 5650.00000   11.71330  191.35410  191.35410    5.22590   79.13200   79.13200    6.52310  107.63120    4.80090   11.71330    5.85860  -45.21580   -3.76610    5.85860
 5700.00000   12.11810  250.98580  250.98580    3.98430   90.02830   90.02830    5.66600   93.48900    3.54870   12.11810    4.74750  -43.95080   -3.31570    4.74750
 5750.00000   11.75630  205.99320  205.99320    4.85450  102.00530  102.00530    5.63890   93.04180    4.64720   11.75630    7.14290  -43.09870   -3.27820    7.14290
 5800.00000   10.64270   45.05290   38.51990   25.96060   94.39030   94.39030    9.50840  156.88860   25.96060   10.64270   34.62910  -45.72030   -6.71440   34.62910
 5850.00000    9.29500   14.88800    7.43620  134.47800   57.83420   57.83420    1.95840   32.31360  134.47800    9.29500  144.36330  -69.66690  -31.47560  144.36330
