~Version ---------------------------------------------------
VERS. 2.0 : CWLS log ASCII Standard -VERSION 2.0
WRAP.  NO : ONE LINE PER DEPTH STEP
~Well ------------------------------------------------------
STRT.F                      557.7428 : START DEPTH
STOP.F                    10838.7428 : STOP DEPTH
STEP.F                       0.50000 : STEP LENGTH
NULL.                        -999.25 : NULL VALUE
COMP.           PETROFINA CANADA LTD : COMPANY
WELL. FINA AMOCO HB FOXCK 6-35-60-18 : WELL
FLD .                                : FIELD
LOC .                                : LOCATION
CTRY.                         CANADA : COUNTRY
SRVC.         Schlumberger of Canada : SERVICE COMPANY
DATE.                    29-Aug-1976 : LOGDATE
PROV.                        Alberta : PROVINCE
UWI .               100063506018W500 : UNIQUE WELL ID
SLAT.WGS84                  54.22952 : SURFACE LATITUDE
SLON.WGS84                 -116.5928 : SURFACE LONGITUDE
~Curve Information -----------------------------------------
DEPT   .F                 : 
SPR    .MV                : SPONTANEOUS POTENTIAL FROM RESISTIVITY
ILD    .OHMM              : DEEP INDUCTION RESISTIVITY
ILM    .OHMM              : INDUCTION MEDIUM RESISTIVITY
LL8    .OHMM              : LATEROLOG-8 RESISTIVITY
CALD   .IN   70 280 01 00 : CALIPER
DCOR   .G/C3 45 356 01 00 : DENSITY CORRECTION
GRD    .GAPI 45 310 01 00 : GAMMA RAY FROM DENSITY LOG
RHOB   .G/C3 45 350 01 00 : BULK DENSITY
DPOR_SS.DEC               : DENSITY POROSITY SANDSTONE
NPOR_S .DEC               : ENCHANCED THERMAL NEUTRON POROSITY IN SELECTED LITHOLOGY SANDSTONE
DPOR_LS.DEC               : DENSITY POROSITY LIMESTONE
NPOR_LS.DEC               : ENCHANCED THERMAL NEUTRON POROSITY IN SELECTED LITHOLOGY SANDSTONE
DT     .US/F 60 520 00 00 : ACOUSTIC TRANSIT TIME SLOWNESS, DELTA T
CALS   .IN                : 
GRS    .GAPI              : GAMMA RAY FROM SONIC LOG
GR     .GAPI              : GAMMA RAY
~Params ----------------------------------------------------
PD  .                     GL : PERMANENT DATUM
EPD .FT                 3085 : ELEVATION PERMANENT DATUM
LMF .                     KB : LOG MEASURED FROM
DAPD.FT                 15.7 : FEET ABOVE PERMANENT DATUM
EKB .FT               3100.9 : KELLY BUSHING
EDF .FT               3085.2 : DRILLING FLOOR
EGL .FT               3085.5 : GROUND LEVEL
DATE.               08/29/76 : RUN DATE
RUN .                      1 : RUN NUMBER
DD  .FT                10843 : DEPTH DRILLER
DL  .FT                10840 : DEPTH LOGGER
BLI .FT                10834 : BOTTOM LOG INTERVAL
TLI .FT                 1119 : TOP LOG INTERVAL
CBD .FT                 1119 : CASING BOTTOM DRILLER
CBL .FT                 1119 : CASING BOTTOM LOGGER
BS  .IN                 8.75 : BIT SIZE
BSD .FT                10843 : BIT SIZE AT DEPTH
DFT .               GEL CHEM : DRILLING FLUID TYPE
DFD .                    9.3 : DRILLING FLUID DENSITY
DFV .                    150 : DRILLING FLUID VISCOSITY
DFPH.                   10.5 : DRILLING FLUID PH
DFL .                    7.0 : DRILLING FLUID LOSS
MSS .            CIRCULATION : MUD SAMPLE SOURCE
RMS .OHMM               2.43 : RESISTIVITY MUD SAMPLE
MST .DEGF                 76 : MUD SAMPLE TEMPERATURE
RMF .OHMM               2.33 : RESISTIVITY MUD FILTRATE SAMPLE
MFST.DEGF                 73 : MUD FILTRATE SAMPLE TEMPERATURE
RMC .OHMM               2.22 : RESISTIVITY MUD CAKE
MCST.DEGF                 67 : MUD CAKE SAMPLE TEMPERATURE
RMB .OHMM               0.86 : RESISTIVITY MUD AT BHT
TCS .HRS                   3 : TIME CIRCULATED STOPPED
LUN .                   7691 : LOGGING UNIT NUMBER
LUL .                    WCT : LOGGING UNIT LOCATION
ENGI.              CROCKFORD : RECORDING ENGINEER
WITN.                 HALKOW : WITNESSED BY
CLNT.                A2DTECH : CLIENT CODE
ORIG.            2" 5" PRINT : ORIGIN OF DATA
UWI .       100063506018W500 : UNIQUE WELL ID
DICO. A2D Technologies, Inc. : DIGITIZING COMPANY
~Other -----------------------------------------------------
~ASCII -----------------------------------------------------
# ...
 1138.24280  -38.90100    7.77010    7.08910   14.70480    -999.25    -999.25    -999.25    -999.25    -999.25    -999.25    -999.25    -999.25   94.35480    9.77510   65.28470   63.25710
 1138.74280  -40.28770    7.34470    7.06990   11.68540    -999.25    -999.25    -999.25    -999.25    -999.25    -999.25    -999.25    -999.25   88.38120    9.69450   64.06590   66.07850
 1139.24280  -41.51640    6.85800    6.52240    7.38720    -999.25    -999.25    -999.25    -999.25    -999.25    -999.25    -999.25    -999.25   84.89680    9.61510   63.12690   70.27520
 1139.74280  -42.16010    6.30870    5.54870    5.11190    -999.25    -999.25    -999.25    -999.25    -999.25    -999.25    -999.25    -999.25   89.32250    9.58140   64.30510   74.47200
 1140.24280  -42.64100    5.79310    4.76980    4.63920    -999.25    -999.25    -999.25    -999.25    -999.25    -999.25    -999.25    -999.25  100.02080    9.67380   67.75210   76.37170
 1140.74280  -43.04530    5.31970    4.30730    4.88840    -999.25    -999.25    -999.25    -999.25    -999.25    -999.25    -999.25    -999.25  108.86520    9.90020   71.58660   72.95720
 1141.24280  -43.44960    4.88950    4.07530    5.01040    -999.25    -999.25    -999.25    -999.25    -999.25    -999.25    -999.25    -999.25  115.07760   10.20930   74.70120   69.54280
 1141.74280  -43.83250    4.60930    3.90660    5.02050    -999.25    -999.25    -999.25    -999.25    -999.25    -999.25    -999.25    -999.25  119.50860   10.36400   75.23130   66.17090
 1142.24280  -44.20670    4.47720    3.76700    4.96320    -999.25    -999.25    -999.25    -999.25    -999.25    -999.25    -999.25    -999.25  120.54740   10.48450   73.33060   64.78450
 1142.74280  -44.61420    4.39970    3.65380    4.72300    -999.25    -999.25    -999.25    -999.25    -999.25    -999.25    -999.25    -999.25  118.03210   10.72290   71.45360   63.39810
 1143.24280  -45.14060    4.37100    3.57670    4.39220    -999.25    -999.25    -999.25    -999.25    -999.25    -999.25    -999.25    -999.25  114.92680   10.52030   70.74900   62.01170
 1143.74280  -45.78110    4.35990    3.53230    4.28560    -999.25    -999.25    -999.25    -999.25    -999.25    -999.25    -999.25    -999.25  114.82890   10.11010   71.14510   60.87480
 1144.24280  -46.30530    4.36960    3.50580    4.49210    -999.25    -999.25    -999.25    -999.25    -999.25    -999.25    -999.25    -999.25  120.58890    9.89270   72.10590   59.82550
 1144.74280  -46.57710    4.39180    3.49590    4.83730    -999.25    -999.25    -999.25    -999.25    -999.25    -999.25    -999.25    -999.25  130.97560    9.88350   72.62090   58.77620
 1145.24280  -46.59390    4.43880    3.51020    5.20890    -999.25    -999.25    -999.25    -999.25    -999.25    -999.25    -999.25    -999.25  142.58820   10.39230   72.21760   59.28370
 1145.74280  -46.47030    4.50550    3.54220    5.51430    -999.25    -999.25    -999.25    -999.25    -999.25    -999.25    -999.25    -999.25  148.21800   10.66800   71.73850   61.62460
 1146.24280  -46.29700    4.57320    3.60290    5.65030    -999.25    -999.25    -999.25    -999.25    -999.25    -999.25    -999.25    -999.25  145.77110    9.86730   73.03940   63.96560
 1146.74280  -46.03590    4.64600    3.70140    5.69600    -999.25    -999.25    -999.25    -999.25    -999.25    -999.25    -999.25    -999.25  135.30420    9.30950   75.51050   66.90080
 1147.24280  -45.73880    4.76510    3.80890    5.75290    -999.25    -999.25    -999.25    -999.25    -999.25    -999.25    -999.25    -999.25  121.44820    9.74820   77.51270   72.57310
 1147.74280  -45.51200    4.93080    3.91890    5.82650    -999.25    -999.25    -999.25    -999.25    -999.25    -999.25    -999.25    -999.25  114.17690   10.21840   79.46440   78.24530
 1148.24280  -45.31230    5.10270    4.03370    5.85880    -999.25    -999.25    -999.25    -999.25    -999.25    -999.25    -999.25    -999.25  112.63550   10.22150   80.62060   84.49720
 1148.74280  -45.15640    5.32310    4.18570    5.81840    -999.25    -999.25    -999.25    -999.25    -999.25    -999.25    -999.25    -999.25  113.78360   10.02490   80.22300   87.79680
 1149.24280  -45.08490    5.59770    4.38100    5.73680    -999.25    -999.25    -999.25    -999.25    -999.25    -999.25    -999.25    -999.25  115.10050    9.99650   79.33270   91.47200
 1149.74280  -45.07840    5.88560    4.58780    5.59500    -999.25    -999.25    -999.25    -999.25    -999.25    -999.25    -999.25    -999.25  111.26010    9.97100   78.23630   95.14720
 1150.24280  -45.11120    6.18610    4.79780    5.40850    -999.25    -999.25    -999.25    -999.25    -999.25    -999.25    -999.25    -999.25  105.26390    9.94340   76.87580   94.48000
 1150.74280  -44.96060    6.50280    5.01830    5.25040    -999.25    -999.25    -999.25    -999.25    -999.25    -999.25    -999.25    -999.25  102.93950    9.92010   75.66320   91.11730
 1151.24280  -44.40270    6.82560    5.25670    5.60140    -999.25    -999.25    -999.25    -999.25    -999.25    -999.25    -999.25    -999.25  101.97010    9.89830   74.28520   87.75450
 1151.74280  -43.91340    7.06920    5.46560    6.79060    -999.25    -999.25    -999.25    -999.25    -999.25    -999.25    -999.25    -999.25  100.34850    9.89220   72.35980   84.79310
 1152.24280  -44.15930    7.15920    5.59730    7.33340    -999.25    -999.25    -999.25    -999.25    -999.25    -999.25    -999.25    -999.25   97.51040    9.94880   70.25930   82.62450
 1152.74280  -44.84270    7.09780    5.64250    6.56180    -999.25    -999.25    -999.25    -999.25    -999.25    -999.25    -999.25    -999.25   94.86290    9.89840   69.14420   80.45590
 1153.24280  -45.22200    6.89530    5.60030    5.88220    -999.25    -999.25    -999.25    -999.25    -999.25    -999.25    -999.25    -999.25   93.36030    9.74960   69.36930   78.40660
 1153.74280  -45.27150    6.63630    5.45550    5.84680    -999.25    -999.25    -999.25    -999.25    -999.25    -999.25    -999.25    -999.25   93.87570    9.80440   70.24810   78.39690
 1154.24280  -45.33550    6.38780    5.19960    5.64670    -999.25    -999.25    -999.25    -999.25    -999.25    -999.25    -999.25    -999.25   96.72610   10.00140   71.45460   78.38730
 1154.74280  -45.34620    6.11850    4.90150    4.94310    -999.25    -999.25    -999.25    -999.25    -999.25    -999.25    -999.25    -999.25  100.13850   10.18660   73.11520   78.37770
 1155.24280  -45.25880    5.74370    4.62170    4.53930    -999.25    -999.25    -999.25    -999.25    -999.25    -999.25    -999.25    -999.25  103.19970   10.35090   75.07820   79.46770
 1155.74280  -45.15250    5.29740    4.35790    4.55800    -999.25    -999.25    -999.25    -999.25    -999.25    -999.25    -999.25    -999.25  105.78990   10.51530   76.97910   80.87810
 1156.24280  -45.05250    4.88590    4.04880    4.64050    -999.25    -999.25    -999.25    -999.25    -999.25    -999.25    -999.25    -999.25  108.23530   10.82230   77.68080   82.28850
 1156.74280  -44.95110    4.50630    3.68480    4.69280    -999.25    -999.25    -999.25    -999.25    -999.25    -999.25    -999.25    -999.25  110.25490   11.12220   76.83540   83.71820
 1157.24280  -44.87980    4.15650    3.33700    4.62440    -999.25    -999.25    -999.25    -999.25    -999.25    -999.25    -999.25    -999.25  110.68430   11.18380   76.18510   85.16780
 1157.74280  -44.85870    3.83190    3.02300    4.31100    -999.25    -999.25    -999.25    -999.25    -999.25    -999.25    -999.25    -999.25  110.15400   11.15380   77.22440   86.61730
 1158.24280  -44.94100    3.58640    2.78330    3.77650    -999.25    -999.25    -999.25    -999.25    -999.25    -999.25    -999.25    -999.25  110.73920   11.00320   79.31770   87.90750
 1158.74280  -45.10790    3.56000    2.74490    3.22830    -999.25    -999.25    -999.25    -999.25    -999.25    -999.25    -999.25    -999.25  113.15040   10.82670   80.47890   88.60760
 1159.24280  -45.11180    3.69550    2.91260    3.01710    -999.25    -999.25    -999.25    -999.25    -999.25    -999.25    -999.25    -999.25  118.08170   10.60380   80.37870   89.30770
