~Version ---------------------------------------------------
VERS.      2.0 : CWLS log ASCII Standard -VERSION 2.0
WRAP.       NO : One line per depth step
CREA. 10/24/17 : LAS Creation Date
~Well ------------------------------------------------------
STRT.FT                        1200.0 : START DEPTH
STOP.FT                       11700.0 : STOP DEPTH
STEP.FT                      50.00000 : STEP LENGTH
NULL.                         -999.25 : NULL VALUE
COMP.            MOBIL OIL CANADA LTD : COMPANY
WELL. MOBIL ICG MARSH HEAD 11-3-60-20 : WELL
FLD .                                 : FIELD
LOC .                                 : LOCATION
CTRY.                          CANADA : COUNTRY
SRVC.                    Schlumberger : SERVICE COMPANY
DATE.                     05-Jan-1976 : LOGDATE
PROV.                         Alberta : PROVINCE
UWI .                100110306020W500 : UNIQUE WELL ID
SLAT.WGS84                   54.15991 : SURFACE LATITUDE
SLON.WGS84                  -116.9171 : SURFACE LONGITUDE
~Curve Information -----------------------------------------
DEPT    .FT    : Depth Curve
CALDED  .IN    : CALIPER FROM DENSITY LOG [ADJ. TO RESISTIVITY LOG]
CALSED  .IN    : CALIPER FROM SONIC LOG [ADJ. TO RESISTIVITY LOG]
CALWS   .IN    : CALIPER [CALDED SPL. TO CALSED FROM 2516'-2535']
CONDWS  .MMHO  : CONDUCTIVITY [1000/DRESWS]
DCORWS  .G/C3  : DENSITY CORRECTION [DRHOED]
DENWS   .G/C3  : FORMATION BULK DENSITY [RHOBED]
DPHILSED.V/V   : DENSITY POROSITY LIMESTONE  FROM DENSITY LOG [ADJ. TO RESISTIVITY LOG]
DPOLSWS .V/V   : DENSITY POROSITY LIMESTONE [CALC FROM DENWS,M=2.71, F=1.00]
DRESWS  .OHMM  : DEEP RESISTIVITY [ILDED]
DRHOED  .G/C3  : DENSITY CORRECTION FROM DENSITY LOG [ADJ. TO RESISTIVITY LOG]
DTED    .US/F  : DELTA TIME FROM SONIC LOG [ADJ. TO RESISTIVITY LOG]
DTWS    .US/F  : COMPRESSIONAL SONIC [DTED]
GRDED   .GAPI  : GAMMA RAY FROM DENSITY LOG [ADJ. TO RESISTIVITY LOG]
GRSED   .GAPI  : GAMMA RAY FROM SONIC LOG [ADJ. TO RESISTIVITY LOG]
GRWS    .GAPI  : GAMMA RAY [GRDED SPL. TO GRSED FROM 2507'-2550']
ILDED   .OHMM  : DEEP INDUCTION RESISTIVITY FROM RESISTIVITY LOG
ILMED   .OHMM  : MEDIUM INDUCTION RESISTIVITY FROM RESISTIVITY LOG
LL8ED   .OHMM  : 8 INCH LATEROLOG RESISTIVITY FROM RESISTIVITY LOG
MRESWS  .OHMM  : MEDIUM RESISTIVITY [ILMED]
NPHILSED.V/V   : NEUTRON POROSITY LIMESTONE FROM DENSITY LOG [ADJ. TO RESISTIVITY LOG]
NPOLSWS .V/V   : NEUTRON POROSITY LIMESTONE [NPHILSED]
RHOBED  .G/C3  : BULK DENSITY FROM DENSITY LOG [ADJ. TO RESISTIVITY LOG]
SPRED   .MV    : SPONTANEOUS POTENTIAL FROM RESISTIVITY LOG
SPWS    .MV    : SPONTANEOUS POTENTIAL [BASELINE 0 MV, SPRED]
SRESWS  .OHMM  : SHALLOW RESISTIVITY [LL8ED]
~Params ----------------------------------------------------
PD  .                     GL : PERMANENT DATUM
EPD .FT               3132.5 : ELEVATION PERMANENT DATUM
LMF .                     KB : LOG MEASURED FROM
DAPD.FT                 14.5 : FEET ABOVE PERMANENT DATUM
EKB .FT                 3147 : KELLY BUSHING
EGL .FT               3132.5 : GROUND LEVEL
DATE.               01/05/76 : RUN DATE
RUN .                      1 : RUN NUMBER
DD  .FT                11725 : DEPTH DRILLER
DL  .FT                11730 : DEPTH LOGGER
BLI .FT                11724 : BOTTOM LOG INTERVAL
TLI .FT                 1203 : TOP LOG INTERVAL
CBD .FT                 1203 : CASING BOTTOM DRILLER
CBL .FT                 1203 : CASING BOTTOM LOGGER
BS  .IN                 8.75 : BIT SIZE
BSD .FT                11725 : BIT SIZE AT DEPTH
DFT .                    GEL : DRILLING FLUID TYPE
DFD .                    9.6 : DRILLING FLUID DENSITY
DFV .                    110 : DRILLING FLUID VISCOSITY
DFPH.                   10.5 : DRILLING FLUID PH
DFL .                    9.8 : DRILLING FLUID LOSS
MSS .               FLOWLINE : MUD SAMPLE SOURCE
RMS .OHMM               2.42 : RESISTIVITY MUD SAMPLE
MST .DEGF                 74 : MUD SAMPLE TEMPERATURE
RMF .OHMM               1.63 : RESISTIVITY MUD FILTRATE SAMPLE
MFST.DEGF                 74 : MUD FILTRATE SAMPLE TEMPERATURE
RMB .OHMM               0.67 : RESISTIVITY MUD AT BHT
TCS .HRS                   3 : TIME CIRCULATED STOPPED
LUN .                   7658 : LOGGING UNIT NUMBER
LUL .                     RD : LOGGING UNIT LOCATION
ENGI.              DODSWORTH : RECORDING ENGINEER
WITN.   OLINYK LINDENSCHMIDT : WITNESSED BY
CLNT.                A2DTECH : CLIENT CODE
ORIG.            2" 5" PRINT : ORIGIN OF DATA
UWI .       100110306020W500 : UNIQUE WELL ID
DICO. A2D Technologies, Inc. : DIGITIZING COMPANY
~Other -----------------------------------------------------
DIL-LL-CNFD-BHC LOG RUN
CNFD DATA MISSING AROUND 25256' (MAY BE DUE TO LOG SPLICING)
~ASCII -----------------------------------------------------
# ...
 9600.00000   12.60720    9.38710   12.60720    6.28900    0.14940    2.40160    0.18280    0.18040  159.00750    0.14940   49.98620   49.98620   16.53600   15.44370   16.53600  159.00750  151.96370  754.34030  151.96370    0.01510    0.01510    2.40160  -90.29530  -84.34100  754.34030
 9650.00000   12.40320    9.40450   12.40320    5.57440    0.22570    2.45690    0.15150    0.14800  179.39220    0.22570   49.73080   49.73080   15.09740   18.13170   15.09740  179.39220  203.32570  707.04460  203.32570    0.00420    0.00420    2.45690  -95.75150  -88.72810  707.04460
 9700.00000   12.59240    9.36810   12.59240    6.98980    0.16610    2.38280    0.19530    0.19130  143.06660    0.16610   50.64100   50.64100   16.58870   16.52560   16.58870  143.06660  122.49160  293.10480  122.49160    0.00540    0.00540    2.38280  -95.89060  -87.79810  293.10480
 9750.00000   11.57080    9.34200   11.57080   15.99680    0.19030    2.50910    0.12000    0.11750   62.51250    0.19030   50.38350   50.38350   15.97510   11.77070   15.97510   62.51250   51.58180   91.96550   51.58180    0.00060    0.00060    2.50910  -92.64520  -83.48360   91.96550
 9800.00000   10.39170    9.22230   10.39170   10.85860    0.01380    2.60730    0.05770    0.06010   92.10190    0.01380   48.63350   48.63350   10.20080   14.48460   10.20080   92.10190  116.96890  207.91480  116.96890   -0.00180   -0.00180    2.60730  -94.09740  -83.87210  207.91480
 9850.00000   12.72780    9.68300   12.72780    5.94780    0.18530    2.25400    0.27140    0.26670  168.12950    0.18530   50.30480   50.30480   14.90210   14.55330   14.90210  168.12950  126.74940 1420.55240  126.74940    0.03750    0.03750    2.25400  -91.88140  -80.58160 1420.55240
 9900.00000    9.34140    9.06190    9.34140   18.03070    0.00900    2.84080   -0.07970   -0.07650   55.46090    0.00900   48.33630   48.33630   19.33690   19.37790   19.33690   55.46090  136.33160 1528.52920  136.33160   -0.00080   -0.00080    2.84080  -85.53550  -73.16660 1528.52920
 9950.00000   12.46300    9.60110   12.46300    7.58870    0.17820    2.19910    0.30110    0.29880  131.77530    0.17820   50.16570   50.16570   21.41500   21.26800   21.41500  131.77530   66.50340  136.99930   66.50340    0.06120    0.06120    2.19910 -105.17520  -91.73730  136.99930
 10000.00000    9.10930    9.54910    9.10930   32.84140    0.02430    2.65380    0.03060    0.03290   30.44940    0.02430   55.09810   55.09810   25.19490   24.52880   25.19490   30.44940   26.18970   81.76020   26.18970    0.06510    0.06510    2.65380 -139.04760 -124.54060   81.76020
 10050.00000    9.14240    9.59260    9.14240   12.16730   -0.00330    2.64270    0.03930    0.03940   82.21310   -0.00330   50.76970   50.76970   27.23280   27.43090   27.23280   82.21310   97.85260  314.47980   97.85260    0.00900    0.00900    2.64270  -92.53400  -76.96320  314.47980
 10100.00000    9.15520    9.61030    9.15520   17.03640   -0.00590    2.64710    0.03520    0.03680   58.69790   -0.00590   52.50430   52.50430   38.48830   37.50280   38.48830   58.69790   61.92290  103.55350   61.92290    0.02560    0.02560    2.64710  -73.36740  -56.72220  103.55350
 10150.00000    9.16260    9.59380    9.16260   20.46830    0.01540    2.65900    0.02940    0.02980   48.85600    0.01540   53.29240   53.29240   39.69510   32.98270   39.69510   48.85600   52.16310   83.14310   52.16310    0.02470    0.02470    2.65900  -76.42050  -58.70620   83.14310
 10200.00000    9.13160    9.50860    9.13160   13.92700    0.01320    2.66520    0.02630    0.02620   71.80290    0.01320   51.57990   51.57990   32.12020   29.43130   32.12020   71.80290   75.99620  147.18310   75.99620    0.01400    0.01400    2.66520  -85.50250  -66.71910  147.18310
 10250.00000    9.16210    9.53970    9.16210   23.58550    0.00210    2.63220    0.04540    0.04550   42.39900    0.00210   53.40560   53.40560   38.92900   39.69330   38.92900   42.39900   46.00260   66.84630   46.00260    0.03520    0.03520    2.63220  -84.67970  -64.82720   66.84630
 10300.00000    9.15820    9.48120    9.15820   19.34380    0.00730    2.65090    0.03410    0.03450   51.69780    0.00730   53.14870   53.14870   37.21150   33.76150   37.21150   51.69780   57.10260   89.52790   57.10260    0.02700    0.02700    2.65090  -80.95790  -60.04170   89.52790
 10350.00000    9.15470    9.47040    9.15470   14.45160    0.01150    2.66340    0.02960    0.02730   69.19670    0.01150   52.44240   52.44240   33.72390   31.42320   33.72390   69.19670   72.66770  121.92150   72.66770    0.02340    0.02340    2.66340  -80.76640  -58.77570  121.92150
 10400.00000    9.14120    9.65010    9.14120   13.11480    0.00000    2.64240    0.03690    0.03950   76.24960    0.00000   52.26430   52.26430   27.85060   29.58410   27.85060   76.24960   96.02070  233.57740   96.02070    0.01690    0.01690    2.64240  -66.09060  -43.03080  233.57740
 10450.00000    9.24850    9.62850    9.24850   29.47100    0.00060    2.64840    0.03600    0.03600   33.93170    0.00060   56.16650   56.16650   45.43560   44.21660   45.43560   33.93170   35.71320   52.59440   35.71320    0.05660    0.05660    2.64840  -41.42140  -17.29260   52.59440
 10500.00000    9.23300    9.82410    9.23300   69.63350    0.02100    2.62130    0.04960    0.05190   14.36090    0.02100   65.25350   65.25350   83.88170   74.81790   83.88170   14.36090   15.80560   25.18870   15.80560    0.12750    0.12750    2.62130  -27.49630   -3.18130   25.18870
 10550.00000    9.31370    9.65300    9.31370   19.68490    0.02030    2.59970    0.06430    0.06450   50.80460    0.02030   64.73960   64.73960   91.95940   87.17650   91.95940   50.80460   66.07720  193.15760   66.07720    0.12460    0.12460    2.59970  -31.68050  -11.18250  193.15760
 10600.00000   10.33550   10.02040   10.33550   80.36260    0.16790    2.49050    0.12830    0.12840   12.44360    0.16790   62.20170   62.20170   70.69200   70.88910   70.69200   12.44360   14.19850   44.54230   14.19850    0.10840    0.10840    2.49050  -27.37090  -10.72820   44.54230
 10650.00000   10.29380    9.70220   10.29380   65.10420    0.11940    2.45250    0.14620    0.15060   15.36000    0.11940   68.46780   68.46780   90.22490   83.93490   90.22490   15.36000   15.88890   33.94230   15.88890    0.13000    0.13000    2.45250  -22.83050  -10.02400   33.94230
 10700.00000    9.11770    9.59790    9.11770   65.32960    0.00110    2.64310    0.03590    0.03920   15.30700    0.00110   63.17190   63.17190   78.94510   74.89430   78.94510   15.30700   16.04830   20.98760   16.04830    0.11520    0.11520    2.64310  -12.15520   -3.18480   20.98760
 10750.00000    9.20410    9.60120    9.20410   64.65340   -0.00980    2.65000    0.03430    0.03510   15.46710   -0.00980   63.12320   63.12320   87.72820   76.01550   87.72820   15.46710   16.48780   22.73510   16.48780    0.11910    0.11910    2.65000   -8.40690   -3.27270   22.73510
 10800.00000    9.21530    9.62630    9.21530   42.10790   -0.00170    2.66620    0.02330    0.02560   23.74940   -0.00170   59.19250   59.19250   68.48680   60.58150   68.48680   23.74940   26.09230   38.41420   26.09230    0.07450    0.07450    2.66620   -5.19160   -3.87430   38.41420
 10850.00000    9.17750    9.59840    9.17750   38.65330   -0.00490    2.64620    0.03740    0.03730   25.87100   -0.00490   68.31610   68.31610  108.84530   97.84020  108.84530   25.87100   29.57210   32.83960   29.57210    0.15980    0.15980    2.64620   -0.53200   -3.07010   32.83960
 10900.00000    9.24960    9.61690    9.24960   81.03330   -0.00030    2.63040    0.04600    0.04650   12.34060   -0.00030   66.06110   66.06110   86.57240   80.39030   86.57240   12.34060   13.18260   22.93760   13.18260    0.13640    0.13640    2.63040    0.04490   -4.29620   22.93760
 10950.00000   10.40780   10.00240   10.40780   66.84670    0.10640    2.60380    0.06170    0.06210   14.95960    0.10640   77.66780   77.66780  124.79450  110.19630  124.79450   14.95960   14.08360   27.34890   14.08360    0.19570    0.19570    2.60380   -3.63030   -7.97140   27.34890
