~Version ---------------------------------------------------
VERS. 2.0 : CWLS log ASCII Standard -VERSION 2.0
WRAP.  NO : One line per depth step
~Well ------------------------------------------------------
STRT.M                       350.0 : START DEPTH
STOP.M                      1800.0 : STOP DEPTH
STEP.M                    50.00000 : STEP LENGTH
NULL.                      -999.25 : NULL VALUE
COMP. HUSKY OIL OPERATIONS LIMITED : COMPANY
WELL.       HUSKY NIPISI 9-33-80-9 : WELL
FLD .                              : FIELD
LOC .                              : LOCATION
CTRY.                       CANADA : COUNTRY
SRVC.                 Schlumberger : SERVICE COMPANY
DATE.                  13-Mar-1986 : LOGDATE
PROV.                      Alberta : PROVINCE
UWI .             100093308009W500 : UNIQUE WELL ID
SLAT.WGS84           55.9805450439 : SURFACE LATITUDE
SLON.WGS84         -115.3355407715 : SURFACE LONGITUDE
~Curve Information -----------------------------------------
DEPT   .M      : DEPTH METERS
CALD   .MM     : CALIPER FROM DENSITY LOG
DPHI_LS.DEC    : DENSITY POROSITY [M=2710 F=1000] FROM DENSITY
DPHI_SS.DEC    : DENSITY POROSITY [M=2650 F=1000] FROM DENSITY LOG
DRHO   .KG/M3  : DENSITY CORRECTION FROM DENSITY LOG
ILD    .OHMM   : INDUCTION LOG DEEP RESISTIVITY
ILM    .OHMM   : INDUCTION LOG MEDIUM RESISTIVITY
NPHI_LS.DEC    : NEUTRON POROSITY LIMESTONE FROM DENSITY LOG
NPHI_SS.DEC    : NEUTRON POROSITY SANDSTONE FROM DENSITY LOG
PEF    .B/E    : PHOTOELECTRIC FACTOR FROM DENSITY LOG
RHOB   .KG/M3  : BULK DENSITY FROM DENSITY LOG
SFLU   .OHMM   : SPHERICALLY FOCUSED LOG RESISTIVITY
SGRD   .GAPI   : GAMMA RAY FROM DENSITY LOG
SPR    .MV     : SPONTANEOUS POTENTIAL FROM RESISTIVITY LOG
~Params ----------------------------------------------------
PD  .                          GL : PERMANENT DATUM
EPD .M                      640.7 : ELEVATION PERMANENT DATUM
LMF .                          KB : LOG MEASURED FROM
DAPD.M                        4.2 : FEET ABOVE PERMANENT DATUM
DMF .                          KB : DRILLING MEASURED FROM
EKB .M                      644.9 : KELLY BUSHING
EGL .M                      640.7 : GROUND LEVEL
DATE.                    13/03/86 : RUN DATE
RUN .                           1 : RUN NUMBER
DD  .M                       1805 : DEPTH DRILLER
DL  .M                     1805.2 : DEPTH LOGGER
BLI .M                     1804.5 : BOTTOM LOG INTERVAL
TLI .M                        335 : TOP LOG INTERVAL
CS  .MM                     206.5 : CASING SIZE
CBD .M                        335 : CASING BOTTOM DRILLER
CBL .M                        335 : CASING BOTTOM LOGGER
BS  .MM                       200 : BIT SIZE
BSD .M                       1805 : BIT SIZE AT DEPTH
DFT .                    CHEM GEL : DRILLING FLUID TYPE
DFD .                        1130 : DRILLING FLUID DENSITY
DFV .                          58 : DRILLING FLUID VISCOSITY
DFPH.                        10.5 : DRILLING FLUID PH
DFL .                          12 : DRILLING FLUID LOSS
MSS .                    FLOWLINE : MUD SAMPLE SOURCE
RMS .OHMM                    1.43 : RESISTIVITY MUD SAMPLE
MST .DEGC                      15 : MUD SAMPLE TEMPERATURE
RMF .OHMM                    1.25 : RESISTIVITY MUD FILTRATE SAMPLE
MFST.DEGC                      14 : MUD FILTRATE SAMPLE TEMPERATURE
RMC .OHMM                   0.678 : RESISTIVITY MUD CAKE
MCST.DEGC                      44 : MUD CAKE SAMPLE TEMPERATURE
MFSS.                           P : MUD FILTRATE SAMPLE SOURCE
MCSS.                           P : MUD CAKE SAMPLE SOURCE
RMB .OHMM                   0.798 : RESISTIVITY MUD AT BHT
TCS .HRS                     1200 : TIME CIRCULATED STOPPED
TLAB.HRS                     1553 : TIME LOGGER AT BOTTOM
LUN .                        8163 : LOGGING UNIT NUMBER
LUL .                          SL : LOGGING UNIT LOCATION
ENGI.                       GRANT : RECORDING ENGINEER
WITN.                    CHARTLER : WITNESSED BY
CLNT.                     A2DTECH : CLIENT CODE
ORIG. 6.5" /100M 16.5"/100M PRINT : ORIGIN OF DATA
UWI .            100093308009W500 : UNIQUE WELL ID
DICO.      A2D Technologies, Inc. : DIGITIZING COMPANY
~Other -----------------------------------------------------
~ASCII -----------------------------------------------------
  350.00000  227.31150    -999.25    0.33190  -13.72480    4.98690    5.52420    -999.25    0.49790    2.45780 2102.79490    5.50880   59.79140  -35.49330
  400.00000  285.64180    -999.25    0.68100   24.92690    3.29040    3.61270    -999.25    0.56880    1.49090 1464.62820    2.97120   52.31280  -16.93340
  450.00000  268.74990    -999.25    0.25510   52.17860    4.38750    4.21550    -999.25    0.46590    2.16840 2228.06230    4.76390   65.31110  -22.71050
  500.00000  395.65140    -999.25    0.58870   28.57050    5.02930    4.25530    -999.25    0.49510    1.67860 1680.55370    4.03650   55.85320  -19.09750
  550.00000  236.78340    0.14970    0.10820   27.96850  115.12630   96.38470    0.14630    0.19960    3.91080 2462.68460  233.41000   16.75360  -23.28940
  600.00000  311.50610    0.16320    -999.25   11.63210   13.08970    8.82150    0.37980    -999.25    3.39420 2424.93530   66.29480   21.10850  -25.11770
  650.00000  281.13330    0.06400    -999.25   -1.36500    9.48820    8.64820    0.11600    -999.25    3.94090 2601.53050    9.79780   33.73250  -26.14890
  700.00000  331.15400    0.57020    -999.25   18.27440    3.22150    2.85290    0.33500    -999.25    1.60590 1751.68360    3.33820   32.50950  -18.87570
  750.00000  297.88680    0.04840    -999.25    9.75790   14.39280   13.86170    0.05940    -999.25    4.23790 2629.87180   14.85980   24.28890  -14.20310
  800.00000  252.41170    0.04380    -999.25   13.68710   20.21330   19.46730    0.06730    -999.25    4.16750 2639.36840   29.15040   21.02260  -24.61610
  850.00000  269.84410    0.03320    -999.25    2.12780   36.95710   31.57960    0.02010    -999.25    5.17580 2651.18770   40.08990   23.24430  -26.83260
  900.00000  278.98560    0.04800    -999.25    4.04870   44.69870   47.81100    0.01840    -999.25    5.25780 2626.92630  212.91980   12.97470  -76.44070
  950.00000  252.64620    0.10340    -999.25   15.71390   21.71190   31.41830    0.07360    -999.25    4.61910 2539.57230   95.94510   13.12330  -84.93320
 1000.00000  278.24360    0.04350    -999.25    6.09550   82.08380   73.99170    0.02500    -999.25    4.90350 2638.36820 1811.73350   12.24300  -58.85390
 1050.00000  256.76440    0.05480    -999.25   -2.68870   84.99640   71.86880    0.02930    -999.25    5.09130 2614.34180 1263.65920   10.81620  -51.64400
 1100.00000  268.35950    0.01870    -999.25   -2.41810   37.31930   33.27820    0.02360    -999.25    4.68370 2679.76780   41.40510   15.17010  -50.19080
 1150.00000  261.82720    0.00570    -999.25   17.42010   24.54910   36.77290    0.13150    -999.25    2.75000 2703.21950   97.00850   16.17740  -74.64040
 1200.00000  264.27220    0.03630    -999.25   -8.08300    8.40290    8.06140    0.16990    -999.25    2.77630 2648.21360    8.36500   44.13120  -35.96560
 1250.00000  281.02180    0.37030    -999.25   98.40210    4.08710    3.43200    0.37220    -999.25    2.08060 2097.81150    3.79370   60.26270  -24.65370
 1300.00000  365.12230    0.24830    -999.25  164.60240    4.28040    4.12050    0.28520    -999.25    2.60690 2279.99240    4.37290   57.90030  -18.48490
 1350.00000  372.52870    0.35660    -999.25  126.60070    2.71460    2.46330    0.42940    -999.25    2.47940 2090.87180    2.89360   72.48300  -20.41010
 1400.00000  241.94680    0.04530    -999.25    3.21060    9.31130    8.96760    0.14860    -999.25    4.16960 2638.00490   10.20130   48.89420   -4.54740
 1450.00000  251.75210    0.07240    -999.25   17.00040    7.10330    6.84120    0.16990    -999.25    3.97050 2586.76320    7.71420   52.05600   -3.76030
 1500.00000  433.19170    0.42600    -999.25  115.67770    3.09830    2.88670    0.46710    -999.25    1.93200 1982.64330    3.51140   63.90900  -14.86280
 1550.00000  375.44400    0.33470    -999.25  184.02050    3.92150    3.20390    0.43090    -999.25    1.89340 2162.81860    3.46750   63.68650  -14.84690
 1600.00000  284.06790    0.24730    -999.25  121.41050   15.03460   13.05810    0.13580    -999.25    2.78660 2300.09280   18.22290   56.10000   -4.35910
 1650.00000  273.94290    0.03620    -999.25   -7.40670   11.73260   11.21030    0.12070    -999.25    4.03630 2649.95390   14.17310   48.99980    7.33820
 1700.00000  195.85780    0.22710    -999.25   -0.72550    4.88010    4.56800    0.17780    -999.25    2.20070 2321.05620    7.57740   93.16080  -82.79280
 1750.00000  223.69320    0.23460    -999.25    0.02810   10.57580    8.32040    0.21850    -999.25    3.14580 2284.39140   44.23310   49.99740  -20.38290
 1800.00000  196.28560    0.00700    -999.25   53.36260 1624.12590 1600.43640    -999.25    -999.25    3.79970 2695.45680 1953.26950    -999.25   -8.84010
