~Version ---------------------------------------------------
VERS. 2.0 : CWLS log ASCII Standard -VERSION 2.0
WRAP.  NO : ONE LINE PER DEPTH STEP
~Well ------------------------------------------------------
STRT.M                            300.0 : START DEPTH
STOP.M                           1750.0 : STOP DEPTH
STEP.M                         50.00000 : STEP LENGTH
NULL.                           -999.25 : NULL VALUE
COMP.           PETROMARK MINERALS LTD. : COMPANY
WELL. PETROMARK BLUESKY NIPISI 6-6-81-8 : WELL
FLD .                            NIPISI : FIELD
LOC .                                   : LOCATION
CTRY.                            CANADA : COUNTRY
SRVC.            Schlumberger of Canada : SERVICE COMPANY
DATE.                       15-Nov-1979 : LOGDATE
PROV.                           Alberta : PROVINCE
UWI .                  100060608108W500 : UNIQUE WELL ID
SLAT.WGS84                55.9924125671 : SURFACE LATITUDE
SLON.WGS84              -115.2462844849 : SURFACE LONGITUDE
~Curve Information -----------------------------------------
DEPT.M    0   1   0  0 : 1 MEASURED DEPTH
GRS .GAPI 60 310 01 00 : GAMMA RAY FROM SONIC LOG
DT  .US/M 60 500 00 00 : DELTA-T (INTERVAL TRANSIT TIME)
CALS.MM   60 280 50 00 : CALIPER FROM SONIC LOG
ILD .OHMM 07 120 46 00 : INDUCTION DEEP RESISTIVITY
ILM .OHMM 07 120 44 00 : INDUCTION MEDIUM RESISTIVITY
SFLU.OHMM 07 220 01 00 : SHALLOW FOCUSED RESISTIVITY (UNAVERAGED)
SPR .MV   07 010 01 00 : SPONTANEOUS POTENTIAL FROM RESISTIVITY LOG
~Params ----------------------------------------------------
PD  .                         GL : PERMANENT DATUM
EPD .M                    647.76 : ELEVATION PERMANENT DATUM
LMF .                         KB : LOG MEASURED FROM
DAPD.M                       3.9 : FEET ABOVE PERMANENT DATUM
DMF .                         KB : DRILLING MEASURED FROM
EKB .M                    651.66 : KELLY BUSHING
EGL .M                    647.76 : GROUND LEVEL
DATE.                   11/15/79 : RUN DATE
RUN .                          1 : RUN NUMBER
DD  .M                    1785.0 : DEPTH DRILLER
DL  .M                    1782.5 : DEPTH LOGGER
BLI .M                    1780.5 : BOTTOM LOG INTERVAL
TLI .M                       179 : TOP LOG INTERVAL
CS  .MM                      219 : CASING SIZE
CBD .M                       179 : CASING BOTTOM DRILLER
CBL .M                       179 : CASING BOTTOM LOGGER
BS  .MM                      200 : BIT SIZE
BSD .M                      1785 : BIT SIZE AT DEPTH
DFT .                   GEL CHEM : DRILLING FLUID TYPE
DFD .                       1150 : DRILLING FLUID DENSITY
DFV .                       74.0 : DRILLING FLUID VISCOSITY
DFPH.                       10.0 : DRILLING FLUID PH
MSS .                   FLOWLINE : MUD SAMPLE SOURCE
RMS .OHMM                   1.32 : RESISTIVITY MUD SAMPLE
MST .C                        20 : MUD SAMPLE TEMPERATURE
RMF .OHMM                   1.04 : RESISTIVITY MUD FILTRATE SAMPLE
MFST.C                      18.8 : MUD FILTRATE SAMPLE TEMPERATURE
MFSS.                     FILTER : MUD FILTRATE SAMPLE SOURCE
MCSS.                      PRESS : MUD CAKE SAMPLE SOURCE
RMB .OHMM                   0.73 : RESISTIVITY MUD AT BHT
TCS .HRS                     100 : TIME CIRCULATED STOPPED
TLAB.HRS                     715 : TIME LOGGER AT BOTTOM
LUN .                       7767 : LOGGING UNIT NUMBER
LUL .                        EDM : LOGGING UNIT LOCATION
ENGI.                  WESTACOTT : RECORDING ENGINEER
WITN.                DESAULNIERS : WITNESSED BY
CLNT.                    A2DTECH : CLIENT CODE
ORIG. 6.5"/100M 16.5"/100M PRINT : ORIGIN OF DATA
UWI .           100060608108W500 : UNIQUE WELL ID
DICO.     A2D Technologies, Inc. : DIGITIZING COMPANY
~Other -----------------------------------------------------
~ASCII -----------------------------------------------------
  300.00000   95.63040  427.62060  370.39760    3.55910    3.25170    4.03150  -21.03140
  350.00000   71.31870  317.23770  219.32800    7.98710   11.40170   24.06440  -38.70440
  400.00000   92.91280  404.44230  237.83860    4.18060    4.35710    4.43760  -32.27310
  450.00000   89.08590  381.97800  277.56990    4.00340    4.18860    4.32890  -31.48170
  500.00000   80.84640  373.85020  312.94260    4.49470    4.70120    4.54050  -32.25350
  550.00000   59.22910  299.75480  305.99310    6.66780    6.36150    7.02340  -34.63240
  600.00000   40.75490  286.40280  286.24120    8.05610    7.46040    8.68480  -25.59300
  650.00000   39.99240  211.05980  271.50800   16.32140   14.69070   18.53620  -22.52080
  700.00000   34.34920  228.84360  288.42680   10.68880   10.37920   11.27540  -29.81330
  750.00000   36.25640  246.63840  276.47750    8.72960    8.97530   10.00540  -18.98580
  800.00000  146.84890  398.05080  374.93430    2.57950    2.67880    3.11180  -25.81580
  850.00000   23.62590  175.47210  251.30810   70.47660   78.18160  175.64960  -69.37960
  900.00000   14.65560  187.83450  218.88660   19.57890   38.00470  112.10710  -92.62710
  950.00000   19.17530  183.82420  246.76830   30.57720   43.67730  118.94210  -93.01660
 1000.00000   17.76920  171.29670  245.03590   81.01800   97.29840  186.06480  -83.94720
 1050.00000   16.88770  174.89980  241.21720   47.46750   41.92940  134.97220  -69.12700
 1100.00000   21.10910  158.45160  228.63500   22.43460   46.09350  189.12070  -84.13920
 1150.00000   12.96970  158.71610  241.19980  126.47750  147.76530  383.74740  -83.18430
 1200.00000   57.96580  208.42930  230.85630   18.50210   17.79890   20.07510  -26.65110
 1250.00000   76.98460  251.68050  256.04480    5.50010    5.72500    6.63630  -32.54710
 1300.00000   86.32890  306.93100  369.08270    3.04180    3.13540    3.61940  -51.32220
 1350.00000   61.00610  239.74750  250.71600    7.92350    8.29610    9.58960  -27.34080
 1400.00000   48.47350  214.50800  232.33100   10.27460   11.09030   13.05520  -26.96270
 1450.00000  113.28820  329.01610  314.17020    2.60180    2.70610    3.29790  -48.81950
 1500.00000   92.90610  281.32210  273.11780    4.29620    4.56760    5.72450  -45.24170
 1550.00000   36.93140  193.07990  228.80850   17.46070   18.23020   30.01590  -28.12080
 1600.00000   21.94330  178.85110  221.90350   35.04000   41.84500   51.04480  -48.91180
 1650.00000   27.49650  165.65350  226.87850   41.45360   48.45360  110.37070  -75.89990
 1700.00000   27.01400  193.52320  234.39040   25.41000   27.26190   39.23380  -34.42890
 1750.00000  170.91360  243.20780  203.34060    1.68760    2.62450    4.12620  -81.01070
