~Version ---------------------------------------------------
VERS. 2.0 : CWLS log ASCII Standard -VERSION 2.0
WRAP.  NO : ONE LINE PER DEPTH STEP
~Well ------------------------------------------------------
STRT.F                              1350.0 : START DEPTH
STOP.F                             12000.0 : STOP DEPTH
STEP.F                            50.00000 : STEP LENGTH
NULL.                              -999.25 : NULL VALUE
COMP.                 CHEVRON STANDARD LTD : COMPANY
WELL. CHEVRON AMOCO WASKAHIGAN 10-17-64-24 : WELL
FLD .                                      : FIELD
LOC .                                      : LOCATION
CTRY.                               CANADA : COUNTRY
SRVC.                         Schlumberger : SERVICE COMPANY
DATE.                          17-Sep-1977 : LOGDATE
PROV.                              Alberta : PROVINCE
UWI .                     100101706424W500 : UNIQUE WELL ID
SLAT.WGS84                        54.54045 : SURFACE LATITUDE
SLON.WGS84                       -117.5875 : SURFACE LONGITUDE
~Curve Information -----------------------------------------
DEPT   .F                 : 
SPR    .MV   99 010 00 00 : SELF POTENTIAL
ILD    .OHMM 06 121 12 00 : INDUCTION LOG RESISTIVITY
ILM    .OHMM 07 120 44 00 : INDUCTION LOG MEDIUM RESISTIVITY
DFL    .OHMM 07 220 01 00 : DIGITAL FOCUSED LATEROLOG
GRS    .GAPI              : GAMMA RAY FROM SONIC LOG
CALS   .IN                : CALIPER FROM SONIC LOG
TENS   .LB   60 635 01 00 : TENSION FROM SONIC LOG
DRHO   .G/C3 00 000 00 01 : DENSITY CORRECTION
RHOB   .G/C3 45 350 01 00 : BULK DENSITY
CALD   .IN   70 280 01 00 : CALIPER FROM DENSITY LOG
GRD    .GAPI              : GAMMA RAY FROM DENSITY LOG
TEND   .LB                : TENSION FROM DENSITY LOG
DPHI_SS.DEC  45 890 12 00 : DENSITY POROSITY SANDSTONE
NPHI_SS.DEC               : NEUTRON POROSITY SANDSTONE
NPHI_LS.DEC               : NEUTRON POROSITY IN SELECTED LITHOLOGY SANDSTONE
DPHI_LS.DEC  45 890 00 00 : DENSITY POROSITY
DT     .US/F 60 520 00 00 : DELTA TIME FROM SONIC LOG
~Params ----------------------------------------------------
PD  .                     GL : PERMANENT DATUM
EPD .FT               2874.1 : ELEVATION PERMANENT DATUM
LMF .                     KB : LOG MEASURED FROM
DAPD.FT                 18.5 : FEET ABOVE PERMANENT DATUM
EKB .FT               2892.6 : KELLY BUSHING
EGL .FT               2874.1 : GROUND LEVEL
DATE.               09/17/77 : RUN DATE
RUN .                      1 : RUN NUMBER
DD  .FT                11989 : DEPTH DRILLER
DL  .FT                11985 : DEPTH LOGGER
BLI .FT                11979 : BOTTOM LOG INTERVAL
TLI .FT                 1516 : TOP LOG INTERVAL
CBD .FT              1516.87 : CASING BOTTOM DRILLER
CBL .FT                 1516 : CASING BOTTOM LOGGER
BS  .IN                 8.75 : BIT SIZE
BSD .FT                11989 : BIT SIZE AT DEPTH
DFT .                    GEL : DRILLING FLUID TYPE
DFD .                      9 : DRILLING FLUID DENSITY
DFV .                     90 : DRILLING FLUID VISCOSITY
DFPH.                    9.5 : DRILLING FLUID PH
DFL .                    8.4 : DRILLING FLUID LOSS
MSS .               FLOWLINE : MUD SAMPLE SOURCE
RMS .OHMM               1.53 : RESISTIVITY MUD SAMPLE
MST .DEGF                 68 : MUD SAMPLE TEMPERATURE
RMF .OHMM               1.36 : RESISTIVITY MUD FILTRATE SAMPLE
MFST.DEGF                 62 : MUD FILTRATE SAMPLE TEMPERATURE
RMC .OHMM               1.37 : RESISTIVITY MUD CAKE
MCST.DEGF                 62 : MUD CAKE SAMPLE TEMPERATURE
TCS .HRS                   5 : TIME CIRCULATED STOPPED
LUN .                   7772 : LOGGING UNIT NUMBER
LUL .                    EDM : LOGGING UNIT LOCATION
ENGI.         BERNISKY TRACY : RECORDING ENGINEER
WITN.             RICHARDSON : WITNESSED BY
CLNT.                A2DTECH : CLIENT CODE
ORIG.            2" 5" PRINT : ORIGIN OF DATA
UWI .       100101706424W500 : UNIQUE WELL ID
DICO. A2D Technologies, Inc. : DIGITIZING COMPANY
~Other -----------------------------------------------------
~ASCII -----------------------------------------------------
# ...
 7500.00000  -98.62300   16.03160   17.40700   25.12310   99.29070    9.22860 3333.10960    0.04040    2.61440    9.63000  104.86050 3486.75490   -0.02260    0.19100    -999.25    -999.25   64.16000
 7550.00000 -120.49850   10.70980   11.99390   14.58820   84.87010    8.98940 3306.65330    0.02130    2.57940    9.43990   90.15570 3487.00930    0.03270    0.13380    -999.25    -999.25   64.09620
 7600.00000 -109.38110   26.04510   28.21380   30.15650   73.32170    9.16440 3289.76460    0.02230    2.63470    9.51290   85.30630 3459.86770   -0.00430    0.11660    -999.25    -999.25   60.91460
 7650.00000  -87.80270   33.13530   38.03400   39.82140   82.06870    9.05220 4378.52590    0.03920    2.69090    9.59230   91.39980 3428.65040   -0.01130    0.11020    -999.25    -999.25   61.49020
 7700.00000  -86.81530   32.76170   36.10070   37.76410   83.36340    8.87030 4233.10110    0.04990    2.70790    9.21150   92.80530 3402.57620   -0.05070    0.10170    -999.25    -999.25   59.55290
 7750.00000  -78.93320   29.91890   41.42820   52.21020   98.24210    9.13890 4219.27000    0.12310    2.72950    9.47700  109.46730 3387.96530   -0.05010    0.15040    -999.25    -999.25   64.23840
 7800.00000 -102.77410   40.92320   48.39830   65.24730  113.00900    9.04410 4159.55220    0.04260    2.70650    9.41380  117.71780 3351.60450   -0.02140    0.16770    -999.25    -999.25   61.38980
 7850.00000    -999.25   15.13350   28.44020   55.74680   12.01250    8.45600 4115.80860    0.05180    2.51460    8.63350   15.86510 3373.43900    0.02820    0.09840    -999.25    -999.25   58.81650
 7900.00000 -170.91350    1.53900    2.29720   17.34250   28.06950    8.14350 4299.48730    0.09980    2.41160    8.24090   30.26350 3341.87060    0.15530    0.24480    -999.25    -999.25   65.93260
 7950.00000 -115.57580   49.42100   84.19470 1355.90370   47.48310    8.83630 4314.65230    0.05500    2.80340    9.30140   52.34400 3272.49370   -0.05200    0.07770    -999.25    -999.25   52.68680
 8000.00000 -155.75020   19.12320   39.43430  123.84770   17.49850    7.95890 4381.82520    0.14530    2.62800    8.27020   18.38620 3328.24220    0.01820    0.18950    -999.25    -999.25   55.87560
 8050.00000 -140.98160 1501.67150 1563.07810 1424.15820   18.75730    9.01930 4215.85210    0.03800    2.93380    9.52120   22.11120 3292.74760   -0.16050    0.02780    -999.25    -999.25   48.56560
 8100.00000 -106.59120  219.30260  288.93740  201.98710   40.13660    8.80820 4528.57230    0.03460    2.80180    8.99310   41.08960 3277.19970   -0.08740    0.10900    -999.25    -999.25   49.95200
 8150.00000 -110.55030  151.42020  235.81390  382.72400   39.63800    8.66310 4460.21970    0.01160    2.77230    8.60270   76.23270 3316.64840   -0.09660    0.10620    -999.25    -999.25   49.97050
 8200.00000 -200.56530    8.75170   19.91620   81.90350   16.83290    8.77950 4458.21000    -999.25    -999.25    -999.25    -999.25    -999.25    -999.25    -999.25    -999.25    -999.25   50.69920
 8250.00000    -999.25   10.07920   19.02360   52.54490   16.12170    8.34390 4438.26660    -999.25    -999.25    -999.25    -999.25    -999.25    -999.25    -999.25    -999.25    -999.25   53.18020
 8300.00000 -178.96530  119.23590  614.84330  628.17990   23.01800    8.82430 4260.76950    -999.25    -999.25    -999.25    -999.25    -999.25    -999.25    -999.25    -999.25    -999.25   49.71760
 8350.00000 -131.15020   32.65590   32.15270   39.18970   72.06560    9.10890 4151.12210    -999.25    -999.25    -999.25    -999.25    -999.25    -999.25    -999.25    -999.25    -999.25   59.94970
 8400.00000 -155.51860   10.58550   12.67530   37.00690   35.86780    8.74440 4144.66460    -999.25    -999.25    -999.25    -999.25    -999.25    -999.25    -999.25    -999.25    -999.25   55.31860
 8450.00000 -145.31550    9.87360   13.77000   22.85680   85.43030    8.85140 3999.46850    -999.25    -999.25    -999.25    -999.25    -999.25    -999.25    -999.25    -999.25    -999.25   64.01760
 8500.00000 -113.08000    9.24720   11.70450   25.22810   42.55450    8.79350 3970.53590    -999.25    -999.25    -999.25    -999.25    -999.25    -999.25    -999.25    -999.25    -999.25   57.47610
 8550.00000 -129.58040    6.38860    7.44060   20.21260   37.47490    8.91470 3856.60550    -999.25    -999.25    -999.25    -999.25    -999.25    -999.25    -999.25    -999.25    -999.25   54.70680
 8600.00000    -999.25  844.40140 1509.82620 1445.78210    8.74240    8.97700 3721.28080    -999.25    -999.25    -999.25    -999.25    -999.25    -999.25    -999.25    -999.25    -999.25   51.54230
 8650.00000 -169.92180  121.98460  391.64030  452.33870   11.92220    8.72200 3624.91500    -999.25    -999.25    -999.25    -999.25    -999.25    -999.25    -999.25    -999.25    -999.25   48.20630
 8700.00000 -135.98340  479.33090 1288.98000 1249.21310   12.54180    9.19270 3849.83860    -999.25    -999.25    -999.25    -999.25    -999.25    -999.25    -999.25    -999.25    -999.25   48.86960
 8750.00000  -47.77420   12.66570   14.50090   29.30100   83.61470    9.03970 3489.31470    -999.25    -999.25    -999.25    -999.25    -999.25    -999.25    -999.25    -999.25    -999.25   59.83570
 8800.00000  -64.69980    6.44530    7.65170   22.14300   64.08650    9.00920 3515.93900    -999.25    -999.25    -999.25    -999.25    -999.25    -999.25    -999.25    -999.25    -999.25   60.00320
 8850.00000  -49.68690   21.04070   23.57000   32.65120   68.36630    8.91180 3345.35450    -999.25    -999.25    -999.25    -999.25    -999.25    -999.25    -999.25    -999.25    -999.25   57.76370
 8900.00000  -36.33170   57.57890   76.98740  146.12080   41.99060    8.95620 3254.62330    -999.25    -999.25    -999.25    -999.25    -999.25    -999.25    -999.25    -999.25    -999.25   53.61260
 8950.00000  -11.68740   72.57360  175.05070  217.12300   45.27520    9.08120 4616.00590    -999.25    -999.25    -999.25    -999.25    -999.25    -999.25    -999.25    -999.25    -999.25   54.42880
 9000.00000    0.92670  132.40460  263.49480  191.88000   25.03490    8.86320 4685.91020    -999.25    -999.25    -999.25    -999.25    -999.25    -999.25    -999.25    -999.25    -999.25   51.52320
 9050.00000  -32.09150   32.56900   33.44220   40.05150   37.15960    8.88930 4613.72510    -999.25    -999.25    -999.25    -999.25    -999.25    -999.25    -999.25    -999.25    -999.25   58.00930
 9100.00000  -58.26840   45.93120   52.57640   58.21940   25.43790    8.87190 4622.26710    -999.25    -999.25    -999.25    -999.25    -999.25    -999.25    -999.25    -999.25    -999.25   54.29510
 9150.00000  -57.81880   38.71220   41.78280   53.10600   50.28770    8.75110 4526.18990    -999.25    -999.25    -999.25    -999.25    -999.25    -999.25    -999.25    -999.25    -999.25   55.72030
 9200.00000  -57.53820   92.10620  121.21180  132.68780   35.36860    8.66760 4406.95360    -999.25    -999.25    -999.25    -999.25    -999.25    -999.25    -999.25    -999.25    -999.25   53.91030
 9250.00000  -15.45720   59.45890   68.83210   97.79670   50.55930    8.78510 4290.52780    -999.25    -999.25    -999.25    -999.25    -999.25    -999.25    -999.25    -999.25    -999.25   55.69310
 9300.00000   -0.34280   60.03150   84.75350  126.24070   77.09100    8.78450 4182.34910    -999.25    -999.25    -999.25    -999.25    -999.25    -999.25    -999.25    -999.25    -999.25   59.58860
 9350.00000  -13.35490  306.55190  580.04270  574.07650   23.75280    8.63130 4202.52640    -999.25    -999.25    -999.25    -999.25    -999.25    -999.25    -999.25    -999.25    -999.25   51.98320
 9400.00000  -16.39910 1545.47030  209.67000 1394.47160   21.53240    8.89550 4125.58940    -999.25    -999.25    -999.25    -999.25    -999.25    -999.25    -999.25    -999.25    -999.25   50.55430
 9450.00000  -58.30830 1785.19190 1218.70370 1426.84010  262.53850    8.73090 4052.28370    -999.25    -999.25    -999.25    -999.25    -999.25    -999.25    -999.25    -999.25    -999.25   81.92030
 9500.00000 -106.26250 1486.74890 1456.03480 1430.95680   13.57120    9.02690 4621.02250    -999.25    -999.25    -999.25    -999.25    -999.25    -999.25    -999.25    -999.25    -999.25   47.84220
