~Version ---------------------------------------------------
VERS. 2.0 : CWLS log ASCII Standard -VERSION 2.0
WRAP.  NO : ONE LINE PER DEPTH STEP
~Well ------------------------------------------------------
STRT.F                        1400.0 : START DEPTH
STOP.F                        9900.0 : STOP DEPTH
STEP.F                      50.00000 : STEP LENGTH
NULL.                        -999.25 : NULL VALUE
COMP.         PHILLIPS PETROLEUM CO. : COMPANY
WELL.            PHILLIPS KAYBOB B-1 : WELL
FLD .                                : FIELD
LOC .                                : LOCATION
CTRY.                         CANADA : COUNTRY
SRVC. HALLIBURTON OIL WELL CEMENT CO : SERVICE COMPANY
DATE.                    14-Sep-1957 : LOGDATE
PROV.                        Alberta : PROVINCE
UWI .               100050506418W500 : UNIQUE WELL ID
SLAT.WGS84                  54.50709 : SURFACE LATITUDE
SLON.WGS84                 -116.6935 : SURFACE LONGITUDE
~Curve Information -----------------------------------------
DEPT.F                 : 
LAT9.OHMM 01 070 09 00 : LATERAL 9'
LT16.OHMM 01 070 16 00 : LATERAL 16'
SN  .OHMM 01 040 18 00 : SHORT NORMAL RESISTIVITY
SPR .MV   01 010 01 00 : SPONTANEOUS POTENTIAL FROM RESISTIVITY LOG
NEUT.CPS  35 330 30 00 : NEUTRON
GRN .CPS  35 310 30 00 : GAMMA RAY FROM GRN LOG
MCAL.IN   15 280 01 00 : MLT (MICROLOG) CALIPER
GR  .GAPI 81 310 01 00 : GAMMA RAY
~Params ----------------------------------------------------
PD  .                              GL : PERMANENT DATUM
EPD .FT                          2600 : ELEVATION PERMANENT DATUM
LMF .                              KB : LOG MEASURED FROM
DMF .                              KB : DRILLING MEASURED FROM
EKB .FT                          2600 : KELLY BUSHING
DATE.                        09/14/57 : RUN DATE
RUN .                               1 : RUN NUMBER
DD  .FT                          9955 : DEPTH DRILLER
DL  .FT                          9949 : DEPTH LOGGER
CS  .IN                        13.375 : CASING SIZE
CBD .FT                          1512 : CASING BOTTOM DRILLER
CBL .FT                          1510 : CASING BOTTOM LOGGER
BS  .IN                             9 : BIT SIZE
BSD .FT                          9955 : BIT SIZE AT DEPTH
DFT . OIL EMULSION GEL CAUSTIC MILBAR : DRILLING FLUID TYPE
DFD .                            11.2 : DRILLING FLUID DENSITY
DFV .                              64 : DRILLING FLUID VISCOSITY
DFPH.                               9 : DRILLING FLUID PH
DFL .                             4.8 : DRILLING FLUID LOSS
RMS .OHMM                         1.7 : RESISTIVITY MUD SAMPLE
MST .DEGF                          70 : MUD SAMPLE TEMPERATURE
RMB .OHMM                        0.64 : RESISTIVITY MUD AT BHT
MRT .DEGF                         192 : MAXIMUM RECORDED TEMPERATURE
LUN .                             447 : LOGGING UNIT NUMBER
ENGI.                         EDWARDS : RECORDING ENGINEER
WITN.                    MOTE HANKINS : WITNESSED BY
CLNT.                         A2DTECH : CLIENT CODE
ORIG.                     2" 5" PRINT : ORIGIN OF DATA
UWI .                100050506418W500 : UNIQUE WELL ID
DICO.          A2D Technologies, Inc. : DIGITIZING COMPANY
~Other -----------------------------------------------------
~ASCII -----------------------------------------------------
# ...
 5400.00000   13.80110    2.40880   16.45410 -112.12970  340.07020   72.41580   10.08920   41.18230
 5450.00000   15.48680    8.31630   16.34760  -74.34750  345.16710   77.53990   10.05220   50.13000
 5500.00000   16.64020   12.02140   21.95540  -10.45990  351.16730   85.12330    9.81620   67.90600
 5550.00000    6.70900    5.63940   11.94100   -8.64690  317.37810   94.31310   10.12270   54.80190
 5600.00000   10.97210    7.27000    9.08090  -41.21950  263.92000   84.59720   11.75110   59.35780
 5650.00000   49.40780   26.68120   27.56780  -35.41710  361.89370   67.18680   10.39610   29.10590
 5700.00000   23.82760    5.48870   15.84460   -5.30890  332.69940   98.90380   11.35280   60.14480
 5750.00000  131.23950   36.73230   58.93300  -79.97870  407.45330   44.80990    9.94410   26.07600
 5800.00000    5.62040    4.78970    4.41840  -18.79860  230.04130   97.04560   12.48610   67.36950
 5850.00000    7.31440    3.90350    6.98310    -999.25  235.47740   96.60090   11.84540   59.65500
 5900.00000   60.08280   26.11840   42.42540  -62.52320  242.74710  136.17780   10.43740  100.12200
 5950.00000   41.06040   24.90310   20.88620  -61.42790  250.36070  100.36070   12.87840   70.65390
 6000.00000  381.28170  730.81120  248.27280  -65.76370  439.35030   86.44220    9.52440   25.58680
 6050.00000   19.62150   11.33010   18.43450  -70.59640  359.62300   82.55630    9.73910   55.18660
 6100.00000   21.67140   12.95110   19.49790  -70.36520  384.16530   83.15660    9.70510    -999.25
 6150.00000   14.42690   10.90400   26.36680  -72.10800  400.57130   88.28720    9.61030    -999.25
 6200.00000  131.45380   62.13960   50.72400  -72.84770  486.84000   30.36410   10.03740    -999.25
 6250.00000  188.20700   72.56460   54.36670  -81.11360  464.09670   28.89580    9.49030    -999.25
 6300.00000  502.67590  399.86070  133.95200  -75.57330  622.66660   45.10980    9.49650    -999.25
 6350.00000  187.28590  125.96350  111.27430  -71.94350  527.60970   47.95540   10.27470    -999.25
 6400.00000   31.04680   48.09420   32.63850  -71.31760  437.72230   54.02050    9.48560    -999.25
 6450.00000   36.65290   14.36420   75.67590  -69.47750  558.14110   38.90840    9.50700    -999.25
 6500.00000  109.30570   44.94740   53.37800  -68.87860  479.08010   73.72950    9.87510    -999.25
 6550.00000  316.30360  316.49540  112.83820  -83.58740  545.75760   26.74890    9.50160    -999.25
 6600.00000  356.06070  173.50730  106.67430  -78.03870  516.30510   24.94770    9.17340    -999.25
 6650.00000  281.86870  342.84300  142.55930  -73.65750  578.42110   22.43210    9.55220    -999.25
 6700.00000   40.28700   62.57950   10.18230  -53.82850  319.83890   96.11260    9.83810    -999.25
 6750.00000    5.33630    3.73450    5.86260  -38.52050  304.40140   85.23950    9.91230    -999.25
 6800.00000   11.49620    9.15770   17.21660  -36.98060  373.71810   56.27720    9.93170    -999.25
 6850.00000   74.63670   33.18340   26.59500  -33.49210  361.59380   88.73870   10.13290    -999.25
 6900.00000   39.34650   19.92580   32.64420  -42.27940  423.85390   61.70140   10.03420    -999.25
 6950.00000  270.07580  350.30870  129.59880  -36.80880  609.22450   29.41500   10.05580    -999.25
 7000.00000  133.06920   71.94710   61.45020  -16.53460  530.95720   37.99930    9.62660    -999.25
 7050.00000   67.46120   49.11960   52.36780  -22.52820  498.41780   47.46310    9.46300    -999.25
 7100.00000   87.15930   52.58600   67.16900  -18.34460  480.85130   38.95040    9.49870    -999.25
 7150.00000  305.35560  281.66500   51.46890   -8.10140  482.94920   38.25060    9.60390    -999.25
 7200.00000  212.60780  309.73420  215.41270  -13.17600  513.16630   48.31110    9.48270    -999.25
 7250.00000  134.73190  109.94920   73.14410   -3.72420  462.71330   62.79280    9.42280    -999.25
 7300.00000  579.18290  350.48610   96.55410  -15.16560  552.74070   40.50880    9.44010    -999.25
 7350.00000  549.96440  618.60500  208.03830   -1.21900  578.99220   39.40250    9.28220    -999.25
 7400.00000  410.31220  748.46300  216.35170  -19.57030  672.77650   28.56090    9.32650    -999.25
 7450.00000  540.32500 1102.58980  171.09980   -0.26710  606.39220   27.59430    9.34710    -999.25
 7500.00000  406.11700  651.70990  199.66000   -4.15970  590.66010   25.80990    9.75620    -999.25
 7550.00000  389.48890  623.74820  135.67720  -56.13150  592.50110   25.70890   10.20610    -999.25
 7600.00000  454.38930  815.20570  185.34290  -86.87310  632.33690   23.61620   10.04260    -999.25
 7650.00000  254.26790  405.33370  247.55380  -68.52830  589.55050   20.22250   10.69500    -999.25
 7700.00000  334.74950  432.64050  135.07170  -85.89040  577.06930   25.71690    9.90480    -999.25
 7750.00000  283.86740  403.21630  195.62690  -92.96460  648.41190   22.59160   10.02700    -999.25
 7800.00000  337.61920  609.41560  183.30370  -82.55500  623.95480   25.63790   10.19920    -999.25
 7850.00000  440.74970  782.97110  245.71830  -66.82750  614.69060   25.05960   10.20460    -999.25
 7900.00000  591.32150 1424.19010  170.78390  -81.81080  607.47530   23.87640   10.16030    -999.25
 7950.00000  325.02450  578.07340  136.12020  -82.04200  596.67460   19.39010    9.69160    -999.25
 8000.00000  321.04500  406.47430  151.58230  -77.88270  622.29100   24.28260    9.38800    -999.25
 8050.00000  141.76840  196.63080  106.46330  -97.67990  560.52730   32.52250   10.29570    -999.25
 8100.00000  214.01080  302.47310  143.47490  -90.73650  536.42120   30.66210    9.69410    -999.25
 8150.00000  339.27560  357.47230  144.28800  -83.75150  499.56440   30.97060    9.94010    -999.25
 8200.00000   45.03410   57.39830   35.51660  -96.14090  462.55850   45.20430    9.70140    -999.25
 8250.00000  219.74990  227.42980  140.36870  -95.36550  489.25420   34.43030    9.45570    -999.25
 8300.00000  265.08940  366.25550  137.67890  -75.64020  519.13230   38.82320   10.04270    -999.25
 8350.00000  173.41700  100.20940   86.40570  -70.45380  487.28390   63.85660    9.98140    -999.25
 8400.00000  131.56880   90.94400   76.66040  -62.82030  500.19170   48.47830   10.35060    -999.25
 8450.00000   61.56800   44.95460   40.00340  -39.48860  424.84860   51.82540   10.33480    -999.25
 8500.00000   35.42660   19.74900   25.62610  -15.84020  410.87130   65.51490   10.33700    -999.25
 8550.00000   51.79280   36.24050   32.03160  -15.44490  426.25630   63.13380   10.08470    -999.25
 8600.00000   31.18400   20.79940   17.85960  -28.79280  329.22360   80.85710   10.32200    -999.25
 8650.00000   76.36330   25.67100   30.94820  -15.17920  404.31840   66.80210   10.16500    -999.25
 8700.00000   24.09840   25.92050   13.51100   -9.01640  299.27890   79.77380   10.94530    -999.25
 8750.00000   10.41450    6.27240    8.88830  -13.56150  260.89380   83.65890   13.32360    -999.25
 8800.00000    9.47930    6.54150    7.28310  -43.62910  245.95760   80.59820   15.08070    -999.25
 8850.00000   10.62510    7.53820    7.93360  -33.11760  240.67650   98.82440   14.75850    -999.25
 8900.00000   13.94690    8.35330    7.12450  -34.28120  231.47110   93.68330   14.68680    -999.25
 8950.00000    9.66710    5.85080    7.94930  -42.31920  245.63250   88.33520   14.53580    -999.25
 9000.00000   27.98340   19.49950   21.76540  -36.51730  359.44560   88.13150    9.86540    -999.25
 9050.00000   24.83690   14.58650   20.53010  -33.31000  358.23800  102.55050    9.63690    -999.25
 9100.00000   20.67370   11.03810   19.12290  -35.85680  341.28650  104.99250   10.07480    -999.25
 9150.00000   22.69690   13.33990   19.68540  -34.23100  315.05120  106.00120    9.68420    -999.25
 9200.00000   16.61090   11.54380   14.12730  -29.52140  264.22920  108.63640   12.70260    -999.25
 9250.00000   24.81450   10.86160   20.63500  -39.31130  319.49420   87.52940    9.66200    -999.25
 9300.00000   17.70350   10.20800   16.98010  -40.27920  323.18620  101.32740   10.05920    -999.25
 9350.00000  427.60200  355.70740  296.15530  -54.40200  393.12380  103.88240    9.48830    -999.25
