~Version ---------------------------------------------------
VERS.      2.0 : CWLS log ASCII Standard -VERSION 2.0
WRAP.       NO : One line per depth step
CREA. 12/17/14 : LAS Creation Date
~Well ------------------------------------------------------
STRT.M                             300.0 : START DEPTH
STOP.M                            2600.0 : STOP DEPTH
STEP.M                          50.00000 : STEP LENGTH
NULL.                            -999.25 : NULL VALUE
COMP.             TRI LINK RESOURCES LTD : COMPANY
WELL. TRI LINK ET AL CARSONN 10-28-62-12 : WELL
FLD .                                    : FIELD
LOC .                                    : LOCATION
CTRY.                             CANADA : COUNTRY
SRVC.                       Schlumberger : SERVICE COMPANY
DATE.                        24-Oct-1980 : LOGDATE
PROV.                            Alberta : PROVINCE
UWI .                   100102806212W500 : UNIQUE WELL ID
SLAT.WGS84                      54.39587 : SURFACE LATITUDE
SLON.WGS84                     -115.7323 : SURFACE LONGITUDE
~Curve Information -----------------------------------------
DEPT  .M     : Depth Curve
CALSED.MM    : CALIPER  SONIC (ADJ TO RES.)
CALWS .MM    : CALIPER (CALSED)
CONDWS.MMHO  : CONDUCTIVITY (1000/DRESWS)
DRESWS.OHMM  : DEEP RESISTIVITY (ILDED)
DTED  .US/M  : DELTA TIME  (ADJ TO RES.)
DTWS  .US/M  : DELTA TIME  (DTED)
GRSED .GAPI  : GAMMA RAY  SONIC (ADJ TO RES.)
GRWS  .GAPI  : GAMMA RAY (GRSED)
ILDED .OHMM  : DEEP INDUCTION RESISTIVITY
ILMED .OHMM  : MEDIUM INDUCTION RESISTIVITY
MRESWS.OHMM  : MEDIUM RESISTIVITY (ILMED)
SFLED .OHMM  : SPHERICALLY FOCUSED RESISTIVITY
SPRED .MV    : Spontaneous Potential  DIL
SPWS  .MV    : SPONTANEOUS POTENTIAL BASELINE 0 MV (SPRED)
SRESWS.OHMM  : SHALLOW RESISTIVITY (SFLED)
~Params ----------------------------------------------------
PD  .                         GL : PERMANENT DATUM
EPD .M                     939.9 : ELEVATION PERMANENT DATUM
LMF .                         KB : LOG MEASURED FROM
DAPD.M                       5.2 : FEET ABOVE PERMANENT DATUM
DMF .                         KB : DRILLING MEASURED FROM
EKB .M                     945.1 : KELLY BUSHING
EGL .M                     939.9 : GROUND LEVEL
DATE.                   10/24/80 : RUN DATE
RUN .                          1 : RUN NUMBER
DD  .M                      2654 : DEPTH DRILLER
DL  .M                      2649 : DEPTH LOGGER
BLI .M                      2648 : BOTTOM LOG INTERVAL
TLI .M                       191 : TOP LOG INTERVAL
CS  .MM                      244 : CASING SIZE
CBD .M                       193 : CASING BOTTOM DRILLER
CBL .M                       191 : CASING BOTTOM LOGGER
BS  .MM                      216 : BIT SIZE
BSD .M                      2654 : BIT SIZE AT DEPTH
DFT .                        GEL : DRILLING FLUID TYPE
DFD .                       1150 : DRILLING FLUID DENSITY
DFV .                        160 : DRILLING FLUID VISCOSITY
DFPH.                          9 : DRILLING FLUID PH
DFL .                          8 : DRILLING FLUID LOSS
MSS .                CIRCULATION : MUD SAMPLE SOURCE
RMS .OHMM                   2.55 : RESISTIVITY MUD SAMPLE
MST .DEGC                   17.8 : MUD SAMPLE TEMPERATURE
RMF .OHMM                   2.24 : RESISTIVITY MUD FILTRATE SAMPLE
MFST.DEGC                   17.8 : MUD FILTRATE SAMPLE TEMPERATURE
MFSS.                      PRESS : MUD FILTRATE SAMPLE SOURCE
RMB .OHMM                    1.2 : RESISTIVITY MUD AT BHT
TCS .HRS                     915 : TIME CIRCULATED STOPPED
TLAB.HRS                     430 : TIME LOGGER AT BOTTOM
LUN .                       7809 : LOGGING UNIT NUMBER
LUL .                        EDM : LOGGING UNIT LOCATION
ENGI.               VERKAIK LOWE : RECORDING ENGINEER
WITN.                       ROSS : WITNESSED BY
CLNT.                    A2DTECH : CLIENT CODE
ORIG. 6.5"/100M 16.5"/100M PRINT : ORIGIN OF DATA
UWI .           100102806212W500 : UNIQUE WELL ID
DICO.     A2D Technologies, Inc. : DIGITIZING COMPANY
~Other -----------------------------------------------------
~ASCII -----------------------------------------------------
  300.00000  281.18440  281.18440  187.04870    5.34620  412.56440  412.56440   82.15760   82.15760    5.34620    4.70980    4.70980    3.78250 -142.49560  -11.41290    3.78250
  350.00000  222.91480  222.91480  130.62670    7.65540  355.88790  355.88790   68.80740   68.80740    7.65540    7.12110    7.12110    6.95260 -142.66390   -8.25040    6.95260
  400.00000  240.26380  240.26380  226.83450    4.40850  364.49690  364.49690   89.57630   89.57630    4.40850    4.12140    4.12140    4.64220 -136.21800   -2.30850    4.64220
  450.00000  220.07780  220.07780  114.01210    8.77100  306.40270  306.40270   78.00800   78.00800    8.77100    8.18300    8.18300   13.31570 -142.19390   -8.78830   13.31570
  500.00000  228.45520  228.45520  204.75440    4.88390  329.69670  329.69670   82.04520   82.04520    4.88390    4.72560    4.72560    4.55610 -135.87490   -2.97320    4.55610
  550.00000  241.61370  241.61370  360.28250    2.77560  366.22380  366.22380   84.40130   84.40130    2.77560    2.64610    2.64610    2.87460 -136.57320   -4.17550    2.87460
  600.00000  229.76450  229.76450  242.32440    4.12670  346.42970  346.42970   70.31960   70.31960    4.12670    3.92310    3.92310    4.27850 -135.40580   -3.51200    4.27850
  650.00000  294.87500  294.87500  297.70770    3.35900  408.70950  408.70950   64.29600   64.29600    3.35900    3.11390    3.11390    3.11220 -134.85030   -3.46040    3.11220
  700.00000  210.59450  210.59450   97.51530   10.25480  325.15950  325.15950   49.73120   49.73120   10.25480    9.91270    9.91270    9.93060 -154.00350  -23.11760    9.93060
  750.00000  230.96950  230.96950  168.28780    5.94220  341.06490  341.06490   71.59850   71.59850    5.94220    5.52290    5.52290    5.75840 -137.65330   -7.27130    5.75840
  800.00000  260.28690  260.28690  242.66540    4.12090  352.45040  352.45040   67.45530   67.45530    4.12090    3.75740    3.75740    3.88450 -133.99960   -4.12160    3.88450
  850.00000  237.01230  237.01230  217.68940    4.59370  308.22460  308.22460   64.37200   64.37200    4.59370    4.15020    4.15020    3.85030 -133.77080   -4.39670    3.85030
  900.00000  271.02230  271.02230  190.24430    5.25640  337.40240  337.40240   78.41660   78.41660    5.25640    5.07720    5.07720    5.53430 -135.29320   -6.88570    5.53430
  950.00000  290.20220  290.20220  183.41220    5.45220  361.43020  361.43020   98.61740   98.61740    5.45220    4.83750    4.83750    5.18520 -139.23610  -12.38880    5.18520
 1000.00000  236.61880  236.61880  145.95340    6.85150  311.90300  311.90300  105.37550  105.37550    6.85150    6.62980    6.62980    6.23940 -135.60720  -10.32010    6.23940
 1050.00000  240.02490  240.02490  148.07790    6.75320  296.53230  296.53230  103.70700  103.70700    6.75320    6.05470    6.05470    6.43360 -137.17560  -13.44880    6.43360
 1100.00000  231.81630  231.81630  158.95220    6.29120  340.16060  340.16060  109.39490  109.39490    6.29120    5.31340    5.31340    5.49050 -134.51360  -12.34700    5.49050
 1150.00000  245.22670  245.22670  145.15470    6.88920  306.80580  306.80580  106.80140  106.80140    6.88920    6.00910    6.00910    6.21180 -130.14130   -9.53490    6.21180
 1200.00000  248.56740  248.56740  143.85380    6.95150  327.80820  327.80820  124.51490  124.51490    6.95150    6.63350    6.63350    8.08330 -122.80170   -3.75550    8.08330
 1250.00000  256.02350  256.02350  172.33360    5.80270  296.26870  296.26870   94.61340   94.61340    5.80270    5.46310    5.46310    6.10550 -122.90530   -5.92160    6.10550
 1300.00000  257.10640  257.10640  172.01340    5.81350  305.88360  305.88360  108.89560  108.89560    5.81350    5.52000    5.52000    6.09890 -118.19200   -3.89460    6.09890
 1350.00000  315.83130  315.83130  444.56300    2.24940  355.72090  355.72090   82.35270   82.35270    2.24940    2.14810    2.14810    2.52440 -112.60310   -0.99200    2.52440
 1400.00000  201.33280  201.33280  108.74530    9.19580  270.21860  270.21860   93.28070   93.28070    9.19580    8.77650    8.77650    9.71850 -117.72210   -8.79730    9.71850
 1450.00000  198.74110  198.74110   88.49710   11.29980  257.74890  257.74890   56.51930   56.51930   11.29980   15.20250   15.20250   26.42730 -163.67780  -57.43930   26.42730
 1500.00000  242.51150  242.51150  138.25520    7.23300  274.92700  274.92700   82.54080   82.54080    7.23300    7.54050    7.54050    6.99510 -109.77340   -6.22120    6.99510
 1550.00000  226.08000  226.08000  164.45480    6.08070  260.83630  260.83630   72.84040   72.84040    6.08070    6.79090    6.79090    7.55400 -117.09270  -16.22680    7.55400
 1600.00000  221.00280  221.00280  114.31580    8.74770  248.96030  248.96030   86.95710   86.95710    8.74770    9.08310    9.08310   11.53510 -101.86130   -3.68180   11.53510
 1650.00000  227.95460  227.95460  106.92100    9.35270  244.82500  244.82500  100.15400  100.15400    9.35270    9.74130    9.74130    9.66400 -104.69390   -9.45240    9.66400
 1700.00000  211.57040  211.57040  127.51520    7.84220  192.69240  192.69240   39.02380   39.02380    7.84220    9.51680    9.51680   12.58530 -150.49580  -58.71750   12.58530
 1750.00000  220.92850  220.92850   71.75510   13.93630  172.79620  172.79620   48.22620   48.22620   13.93630   24.17230   24.17230   80.61160 -126.09030  -37.77520   80.61160
 1800.00000  219.95030  219.95030   17.31150   57.76500  180.98510  180.98510   26.93100   26.93100   57.76500   54.39220   54.39220  145.17970 -129.47290  -44.53770  145.17970
 1850.00000  209.91490  209.91490   66.00700   15.14990  188.28930  188.28930   31.78350   31.78350   15.14990   14.83970   14.83970   24.10940 -134.18440  -52.23390   24.10940
 1900.00000  210.58240  210.58240   80.26520   12.45870  210.13680  210.13680   72.02230   72.02230   12.45870   11.88830   11.88830   18.03430  -88.33030   -9.36450   18.03430
 1950.00000  210.06780  210.06780   18.40820   54.32360  170.31240  170.31240   28.77170   28.77170   54.32360   43.91300   43.91300   64.93660 -113.27930  -37.62800   64.93660
 2000.00000  214.50810  214.50810    8.72130  114.66200  161.65660  161.65660   17.14560   17.14560  114.66200   84.43310   84.43310  125.25040 -172.01360 -100.66610  125.25040
 2050.00000  214.70190  214.70190    0.49630 2014.86170  159.30560  159.30560   18.43180   18.43180 2014.86170  432.95610  432.95610 1025.77220 -154.81590  -87.77230 1025.77220
 2100.00000  211.26560  211.26560    8.35940  119.62560  171.11760  171.11760   21.34690   21.34690  119.62560   98.21510   98.21510  397.26680 -175.76910 -113.02940  397.26680
 2150.00000  206.23570  206.23570   33.35980   29.97620  168.56380  168.56380   23.57820   23.57820   29.97620   42.45080   42.45080  290.07930 -190.08340 -131.64760  290.07930
 2200.00000  211.65920  211.65920  157.33660    6.35580  183.20290  183.20290   43.84120   43.84120    6.35580    8.29620    8.29620   38.01130 -193.32110 -139.18910   38.01130
 2250.00000  235.48000  235.48000   48.62420   20.56590  195.57840  195.57840   59.27370   59.27370   20.56590   19.74570   19.74570   22.54170  -57.87220   -8.04410   22.54170
 2300.00000  216.30390  216.30390   95.13390   10.51150  206.72150  206.72150   59.21120   59.21120   10.51150   10.90800   10.90800   12.26430  -57.77840  -12.25420   12.26430
 2350.00000  211.92310  211.92310   55.37830   18.05760  187.86470  187.86470   45.12050   45.12050   18.05760   16.06920   16.06920   17.97930  -53.76190  -12.54150   17.97930
 2400.00000  271.68280  271.68280  211.91830    4.71880  259.64830  259.64830   74.94740   74.94740    4.71880    4.54950    4.54950    5.26340  -58.92610  -22.00960    5.26340
 2450.00000  213.98910  213.98910   91.78440   10.89510  209.68150  209.68150   61.50790   61.50790   10.89510   11.74240   11.74240   14.13250  -44.90340  -12.29080   14.13250
 2500.00000  268.09560  268.09560  175.57410    5.69560  252.05020  252.05020   83.94990   83.94990    5.69560    5.37940    5.37940    6.13580  -63.26310  -34.95430    6.13580
 2550.00000  212.42470  212.42470  103.68500    9.64460  220.54830  220.54830   76.89860   76.89860    9.64460   10.18660   10.18660   13.10380  -31.38100   -7.37610   13.10380
