~Version ---------------------------------------------------
VERS.      2.0 : CWLS log ASCII Standard -VERSION 2.0
WRAP.       NO : One line per depth step
CREA. 08/31/17 : LAS Creation Date
~Well ------------------------------------------------------
STRT.FT                            1500.0 : START DEPTH
STOP.FT                           12250.0 : STOP DEPTH
STEP.FT                          50.00000 : STEP LENGTH
NULL.                             -999.25 : NULL VALUE
COMP.            CHEVRON STANDARD LIMITED : COMPANY
WELL. CHEVRON NORCEN PL BRAZEAU 7-4-49-12 : WELL
FLD .                                     : FIELD
LOC .                                     : LOCATION
CTRY.                              CANADA : COUNTRY
SRVC.                        Schlumberger : SERVICE COMPANY
DATE.                         05-Jun-1978 : LOGDATE
PROV.                             Alberta : PROVINCE
UWI .                    100070404912W500 : UNIQUE WELL ID
SLAT.WGS84                       53.19691 : SURFACE LATITUDE
SLON.WGS84                      -115.6898 : SURFACE LONGITUDE
~Curve Information -----------------------------------------
DEPT    .FT    : Depth Curve
CALDED  .IN    : CALIPER FROM CNFD LOG
CALSED  .IN    : CALIPER FROM SONIC LOG [ADJ.TO GRDED]
CALWS   .IN    : CALIPER [CALSED]
CONDWS  .MMHO  : CONDUCTIVITY [1000/DRESWS]
DCORED  .G/C3  : DENSITY CORRECTION FROM CNFD LOG
DCORWS  .G/C3  : DENSITY CORRECTION [DCORED]
DENWS   .G/C3  : FORMATION BULK DENSITY [CALCULATED FROM DPOLSWS, M=2.71, F=1.00]
DPHILSED.V/V   : DENSITY POROSITY LIMESTONE [M=2.71, F=1.0] FROM CNFD LOG [ADJ.TO RHOBED]
DPHISSED.V/V   : DENSITY POROSITY SANDSTONE [M=2.65, F=1.0] FROM CNFD LOG [ADJ.TO RHOBED]
DPOLSWS .V/V   : DENSITY POROSITY LIMESTONE [DPHISSED CONVERTED TO LIMESTONE MATRIX,M=2.71, F=1.0, SPL.TO DPHILSED @ 2605.3']
DRESWS  .OHMM  : DEEP RESISTIVITY [ILDED]
DTED    .US/F  : DELTA-T FROM BCS LOG [ADJ.TO GRDED]
DTWS    .US/F  : COMPRESSIONAL SONIC [DTED]
GRDED   .GAPI  : GAMMA RAY FROM CNFD LOG
GRSED   .GAPI  : GAMMA RAY FROM BCS LOG [ADJ.TO GRDED]
GRWS    .GAPI  : GAMMA RAY [GRSED]
ILDED   .OHMM  : DEEP INDUCTION FROM DIL-LAT LOG
ILMED   .OHMM  : MEDIUM INDUCTION FROM DIL-LAT LOG
LL8ED   .OHMM  : LATEROLOG-8 FROM DIL-LAT LOG
MRESWS  .OHMM  : MEDIUM RESISTIVITY [ILMED]
NPHILSED.V/V   : NEUTRON POROSITY LIMESTONE FROM CNFD LOG [ADJ.TO RHOBED]
NPHISSED.V/V   : NEUTRON POROSITY SANDSTONE FROM CNFD LOG [ADJ.TO RHOBED]
NPOLSWS .V/V   : NEUTRON POROSITY LIMESTONE [NPHISSED CONVERTED TO LIMESTONE MATRIX & SPL. TO NPHILSED @ 2605']
RHOBED  .G/C3  : FORMATION BULK DENSITY FROM CNFD LOG
SPRED   .MV    : SPONTANEOUS POTENTIAL FROM DIL-LAT LOG
SPWS    .MV    : SPONTANEOUS POTENTIAL [BASELINE 0 MV,SPRED]
SRESWS  .OHMM  : SHALLOW RESISTIVITY [LL8ED]
~Params ----------------------------------------------------
PD  .                     GL : PERMANENT DATUM
EPD .FT               3221.1 : ELEVATION PERMANENT DATUM
LMF .                     KB : LOG MEASURED FROM
DAPD.FT                 18.9 : FEET ABOVE PERMANENT DATUM
DMF .                     KB : DRILLING MEASURED FROM
EKB .FT                 3240 : KELLY BUSHING
EGL .FT               3221.1 : GROUND LEVEL
DATE.               06/05/78 : RUN DATE
RUN .                      1 : RUN NUMBER
DD  .FT                12300 : DEPTH DRILLER
DL  .FT                12303 : DEPTH LOGGER
BLI .FT                12297 : BOTTOM LOG INTERVAL
TLI .FT                 1518 : TOP LOG INTERVAL
CBD .FT                 1518 : CASING BOTTOM DRILLER
CBL .FT                 1518 : CASING BOTTOM LOGGER
BS  .IN                 8.75 : BIT SIZE
BSD .FT                12300 : BIT SIZE AT DEPTH
DFT .                    GEL : DRILLING FLUID TYPE
DFD .                     11 : DRILLING FLUID DENSITY
DFV .                     68 : DRILLING FLUID VISCOSITY
DFPH.                   10.5 : DRILLING FLUID PH
MSS .               FLOWLINE : MUD SAMPLE SOURCE
RMS .OHMM               3.34 : RESISTIVITY MUD SAMPLE
MST .DEGF                 68 : MUD SAMPLE TEMPERATURE
TCS .HRS                 350 : TIME CIRCULATED STOPPED
LUN .                   7802 : LOGGING UNIT NUMBER
LUL .                    EDM : LOGGING UNIT LOCATION
ENGI.            STEENBERGEN : RECORDING ENGINEER
WITN.             RICHARDSON : WITNESSED BY
CLNT.                A2DTECH : CLIENT CODE
ORIG.            2" 5" PRINT : ORIGIN OF DATA
UWI .       100070404912W500 : UNIQUE WELL ID
DICO. A2D Technologies, Inc. : DIGITIZING COMPANY
~Other -----------------------------------------------------
~ASCII -----------------------------------------------------
# ...
 8000.00000   11.29110    9.82590    9.82590   42.23290    0.01160    0.01160    2.60840    -999.25    0.02520    0.05940   23.67820   63.62320   63.62320   67.39780   74.70780   74.70780   23.67820   24.72480   28.83050   24.72480    -999.25    0.09610    0.05510    2.61680  -28.02910  -21.64060   28.83050
 8050.00000   14.05050   10.58660   10.58660   38.83710    0.09870    0.09870    2.42310    -999.25    0.13750    0.16780   25.74860   75.83970   75.83970   82.75040   75.34580   75.34580   25.74860   24.70430   37.28450   24.70430    -999.25    0.27030    0.22630    2.45940  -17.67970  -11.29120   37.28450
 8100.00000   12.93510   10.26830   10.26830   42.62280    0.15780    0.15780    2.31470    -999.25    0.20320    0.23120   23.46160   68.59970   68.59970   96.35940   96.91360   96.91360   23.46160   25.15550   27.47900   25.15550    -999.25    0.23420    0.19040    2.34160  -26.86180  -20.47330   27.47900
 8150.00000   12.78980    9.69790    9.69790   62.33560    0.14460    0.14460    2.48730    -999.25    0.09860    0.13020   16.04220   72.59380   72.59380   64.85770   62.49450   62.49450   16.04220   12.32090   19.55650   12.32090    -999.25    0.19630    0.15290    2.50120  -26.71820  -20.32970   19.55650
 8200.00000   13.64670    9.62930    9.62930   25.34330    0.13700    0.13700    2.44940    -999.25    0.12160    0.15240   39.47360   66.73020   66.73020   69.67920   61.99270   61.99270   39.47360   52.55090   74.80540   52.55090    -999.25    0.13640    0.09400    2.46470  -23.62970  -17.24120   74.80540
 8250.00000   10.27730    8.85310    8.85310    9.13510    0.01530    0.01530    2.51670    -999.25    0.08080    0.11310  109.46800   59.92140   59.92140   24.71860   28.16650   28.16650  109.46800  129.21470  184.14490  129.21470    -999.25    0.04260    0.01030    2.52020  -40.62810  -34.23960  184.14490
 8300.00000   14.01540    9.59160    9.59160   66.54110    0.10880    0.10880    2.48780    -999.25    0.09830    0.12990   15.02830   78.12450   78.12450   91.21100   88.63510   88.63510   15.02830   13.07350   19.71170   13.07350    -999.25    0.25870    0.21480    2.50240   -7.33720   -0.94870   19.71170
 8350.00000    9.81190    9.01460    9.01460    2.93320    0.00760    0.00760    2.63840    -999.25    0.00700    0.04180  340.92870   60.27070   60.27070   27.57750   29.21680   29.21680  340.92870  235.20060  270.10460  235.20060    -999.25    0.00920   -0.01300    2.63600  -20.74730  -14.92050  270.10460
 8400.00000    9.53950    8.80280    8.80280    5.08820    0.03070    0.03070    2.58200    -999.25    0.04120    0.07480  196.53230   56.22710   56.22710   22.19610   22.29190   22.29190  196.53230  287.80690  189.11370  287.80690    -999.25    0.06910    0.03130    2.60180  -63.46170  -59.76930  189.11370
 8450.00000    9.30290    8.72230    8.72230    0.68740    0.06230    0.06230    2.68030    -999.25   -0.01830    0.01740 1460.44580   53.36340   53.36340   33.64970   30.12170   30.12170 1460.44580 1315.72450  676.84060 1315.72450    -999.25    0.07660    0.03760    2.68370  -18.47420  -16.93030  676.84060
 8500.00000   11.96520    9.07850    9.07850   55.58610    0.13090    0.13090    2.55660    -999.25    0.05660    0.08970   17.99010   60.15230   60.15230   59.51920   58.48370   58.48370   17.99010   19.36510   18.20660   19.36510    -999.25    0.13090    0.08850    2.54680  -27.39830  -27.98880   18.20660
 8550.00000   12.05510    9.29180    9.29180   19.84760    0.13940    0.13940    2.66830    0.02440    -999.25    0.02440   50.38380   52.05290   52.05290   35.26460   36.38580   36.38580   50.38380   47.41150   60.91230   47.41150    0.04390    -999.25    0.04390    2.67940  -23.54170  -26.26660   60.91230
 8600.00000    9.22390    8.85620    8.85620   91.18350    0.02210    0.02210    2.68420    0.01510    -999.25    0.01510   10.96690   53.40720   53.40720   27.01170   28.98540   28.98540   10.96690   18.08170   45.13630   18.08170    0.12380    -999.25    0.12380    2.68740 -105.08890 -109.96230   45.13630
 8650.00000   10.63680    9.17700    9.17700    7.17890    0.08900    0.08900    2.72440   -0.00840    -999.25   -0.00840  139.29740   48.67040   48.67040   15.48630   16.35710   16.35710  139.29740  170.39280  875.56120  170.39280    0.00190    -999.25    0.00190    2.72350 -102.28090 -109.28870  875.56120
 8700.00000   11.30140    9.19970    9.19970   50.32930    0.18850    0.18850    2.71800   -0.00470    -999.25   -0.00470   19.86940   57.46020   57.46020   85.45190   82.20900   82.20900   19.86940   23.03890   30.55730   23.03890    0.07880    -999.25    0.07880    2.71490  -25.44130  -34.59760   30.55730
 8750.00000   12.89030    9.37540    9.37540   43.33620    0.07540    0.07540    2.48580    0.13110    -999.25    0.13110   23.07540   55.46150   55.46150   31.83790   29.37350   29.37350   23.07540   29.09170   30.93930   29.09170    0.05940    -999.25    0.05940    2.49570  -57.34260  -68.63330   30.93930
 8800.00000   11.49510    9.26720    9.26720   17.38040    0.07060    0.07060    2.72030   -0.00600    -999.25   -0.00600   57.53620   50.27630   50.27630   23.63910   21.65380   21.65380   57.53620   96.52390  347.39040   96.52390    0.00580    -999.25    0.00580    2.74130  -23.72600  -37.15110  347.39040
 8850.00000   11.11520    9.40340    9.40340   21.82670    0.00910    0.00910    2.68930    0.01210    -999.25    0.01210   45.81540   51.58320   51.58320   14.49220   15.59140   15.59140   45.81540   62.22650  391.91390   62.22650    0.00880    -999.25    0.00880    2.71090  -29.69120  -45.26480  391.91390
 8900.00000   12.75970    9.67170    9.67170  149.00020    0.14300    0.14300    2.61180    0.05740    -999.25    0.05740    6.71140   62.46010   62.46010   38.02220   37.11970   37.11970    6.71140    7.42370   16.11140    7.42370    0.09100    -999.25    0.09100    2.61600  -44.33880  -62.04680   16.11140
 8950.00000    9.89180    9.08660    9.08660    9.63100    0.01610    0.01610    2.73620   -0.01530    -999.25   -0.01530  103.83400   52.50650   52.50650   35.63980   38.45400   38.45400  103.83400  110.10230  176.20560  110.10230    0.01350    -999.25    0.01350    2.72720    4.86450  -14.99190  176.20560
 9000.00000   10.14490    9.32690    9.32690   22.40750    0.01990    0.01990    2.73820   -0.01650    -999.25   -0.01650   44.62790   53.94680   53.94680   35.63600   39.30240   39.30240   44.62790   50.51300   71.80450   50.51300    0.02590    -999.25    0.02590    2.74660   10.55830  -10.52960   71.80450
 9050.00000    9.82950    9.10290    9.10290    8.52490   -0.00050   -0.00050    2.70090    0.00530    -999.25    0.00530  117.30380   54.94450   54.94450   43.16460   45.41360   45.41360  117.30380  133.22560  169.20370  133.22560    0.02670    -999.25    0.02670    2.69520   -0.84730  -21.26860  169.20370
 9100.00000    9.71980    9.05070    9.05070    4.04950    0.01170    0.01170    2.71500   -0.00290    -999.25   -0.00290  246.94110   53.01500   53.01500   39.51970   42.57700   42.57700  246.94110  491.58370  557.13720  491.58370    0.01240    -999.25    0.01240    2.71150   -9.59100  -29.34120  557.13720
 9150.00000    9.76870    9.01600    9.01600   11.12400    0.01830    0.01830    2.68830    0.01270    -999.25    0.01270   89.89560   61.00660   61.00660  100.18080  101.80880  101.80880   89.89560  139.81170  149.16660  139.81170    0.08440    -999.25    0.08440    2.69110    8.06480  -10.91290  149.16660
 9200.00000   10.38320    9.18900    9.18900    1.29930    0.15630    0.15630    2.68910    0.01220    -999.25    0.01220  781.18480   53.08310   53.08310   29.51140   22.57050   22.57050  781.18480  290.87910 1397.27170  290.87910    0.01910    -999.25    0.01910    2.66980  -27.85180  -45.86400 1397.27170
 9250.00000   11.53470    9.70700    9.70700    0.62130    0.07110    0.07110    2.57730    0.07760    -999.25    0.07760 1609.45420   51.29150   51.29150   16.82670   20.22740   20.22740 1609.45420  758.80350  378.76710  758.80350    0.01370    -999.25    0.01370    2.58830  -61.91580  -78.96880  378.76710
