~Version ---------------------------------------------------
VERS.      2.0 : CWLS log ASCII Standard -VERSION 2.0
WRAP.       NO : One line per depth step
CREA. 12/18/17 : LAS Creation Date
~Well ------------------------------------------------------
STRT.FT                           850.0 : START DEPTH
STOP.FT                          9400.0 : STOP DEPTH
STEP.FT                        50.00000 : STEP LENGTH
NULL.                           -999.25 : NULL VALUE
COMP.  THE BRITISH-AMERICAN OIL PROD CO : COMPANY
WELL. B.A. SWEATHOUSE CREEK 14-16-68-18 : WELL
FLD .                                   : FIELD
LOC .                                   : LOCATION
CTRY.                            CANADA : COUNTRY
SRVC.                      Schlumberger : SERVICE COMPANY
DATE.                       21-Mar-1962 : LOGDATE
PROV.                           Alberta : PROVINCE
UWI .                  100141606818W500 : UNIQUE WELL ID
SLAT.WGS84                     54.89228 : SURFACE LATITUDE
SLON.WGS84                    -116.6852 : SURFACE LONGITUDE
~Curve Information -----------------------------------------
DEPT  .FT      : Depth Curve
CILDED.MMHO    : DEEP INDUCTION CONDUCTIVITY FROM RESISTIVITY LOG
CONDWS.MMHO    : CONDUCTIVITY [1000/DRESWS]
DRESWS.OHMM    : DEEP RESISTIVITY [1000/CILDED,IF ILDED<5,ILDED]
DTED  .US/F    : DELTA-T FROM SONIC LOG
DTWS  .US/F    : COMPRESSIONAL SONIC [DTED]
GRNED .MG/TON  : GAMMA RAY FROM GRN LOG [ADJ. TO RESISTIVITY LOG]
GRSED .GAPI    : GAMMA RAY FROM SONIC LOG
GRWS  .GAPI    : GAMMA RAY [GRSED SPL. TO GRNED*16.5 (GAPI) @ 9414']
ILDED .OHMM    : DEEP INDUCTION RESISTIVITY FROM RESISTIVITY LOG
NEUTED.CPS     : NEUTRON FROM GRN LOG [ADJ. TO RESISTIVITY LOG]
NEUTWS.CPS     : NEUTRON [NEUTED]
SNED  .OHMM    : 16 INCH  SHORT NORMAL FROM RESISTIVITY LOG
SPRED .MV      : SPONTANEOUS POTENTIAL FROM RESISTIVITY LOG
SPWS  .MV      : SPONTANEOUS POTENTIAL [BASELINE 0 MV,SPRED]
SRESWS.OHMM    : SHALLOW RESISTIVITY [SNED]
~Params ----------------------------------------------------
PD  .                     GL : PERMANENT DATUM
EPD .FT               2692.3 : ELEVATION PERMANENT DATUM
LMF .                     KB : LOG MEASURED FROM
DAPD.FT                 14.7 : FEET ABOVE PERMANENT DATUM
DMF .                     KB : DRILLING MEASURED FROM
EKB .FT                 2707 : KELLY BUSHING
EGL .FT               2692.3 : GROUND LEVEL
DATE.             03/21/1962 : RUN DATE
RUN .                      1 : RUN NUMBER
DD  .FT                 9428 : DEPTH DRILLER
DL  .FT                 9434 : DEPTH LOGGER
BLI .FT                 9430 : BOTTOM LOG INTERVAL
TLI .FT                  944 : TOP LOG INTERVAL
CBD .FT                  944 : CASING BOTTOM DRILLER
CBL .FT                  944 : CASING BOTTOM LOGGER
BS  .IN                 6.25 : BIT SIZE
BSD .FT                 9428 : BIT SIZE AT DEPTH
DFT .                    GEL : DRILLING FLUID TYPE
DFD .                    9.7 : DRILLING FLUID DENSITY
DFV .                     92 : DRILLING FLUID VISCOSITY
DFPH.                    9.5 : DRILLING FLUID PH
DFL .                    6.7 : DRILLING FLUID LOSS
MSS .                    2.3 : MUD SAMPLE SOURCE
RMS .OHMM                 70 : RESISTIVITY MUD SAMPLE
MST .DEGF                1.8 : MUD SAMPLE TEMPERATURE
RMF .OHMM                 70 : RESISTIVITY MUD FILTRATE SAMPLE
MFST.DEGF                2.5 : MUD FILTRATE SAMPLE TEMPERATURE
RMC .OHMM                 68 : RESISTIVITY MUD CAKE
RMB .OHMM                0.7 : RESISTIVITY MUD AT BHT
TCS .HRS                   9 : TIME CIRCULATED STOPPED
LUN .                   1574 : LOGGING UNIT NUMBER
LUL .                    EDM : LOGGING UNIT LOCATION
ENGI.                 BENNER : RECORDING ENGINEER
WITN.           DAAE TKACHUK : WITNESSED BY
CLNT.                A2DTECH : CLIENT CODE
ORIG.            2" 5" PRINT : ORIGIN OF DATA
UWI .       100141606818W500 : UNIQUE WELL ID
DICO. A2D Technologies, Inc. : DIGITIZING COMPANY
~Other -----------------------------------------------------
IEL-BCS-GRN LOG RUN
~ASCII -----------------------------------------------------
# ...
 5450.00000   58.80140   63.28190   15.80230   54.07330   54.07330    2.15230   33.05480   33.05480   15.80230  308.17050  308.17050   49.68960 -149.74210 -124.39830   49.68960
 5500.00000   14.02360   22.05490   45.34130   47.39110   47.39110    2.12220   38.34510   38.34510   45.34130  368.38360  368.38360   81.00110  -82.79820  -59.44050   81.00110
 5550.00000   49.37430   48.99750   20.40920   53.72720   53.72720    1.36780   20.03130   20.03130   20.40920  305.37960  305.37960   47.18560 -136.09010 -114.71850   47.18560
 5600.00000    5.57810   16.33230   61.22830   53.82660   53.82660    0.91550   16.89900   16.89900   61.22830  425.39370  425.39370   74.48550  -52.64930  -33.26380   74.48550
 5650.00000   98.65410   97.71920   10.23340   64.05230   64.05230    4.75700   69.32980   69.32980   10.23340  219.92590  219.92590   14.98830  -41.46150  -21.55270   14.98830
 5700.00000  118.59320  116.12650    8.61130   57.09330   57.09330    1.54970   30.74130   30.74130    8.61130  282.54750  282.54750   22.08190 -111.82890  -90.23810   22.08190
 5750.00000  321.53180  250.14380    3.99770   68.19980   68.19980    2.07660   34.51750   34.51750    3.99770  257.00450  257.00450   14.20620 -124.38400 -101.11120   14.20620
 5800.00000   23.03560   29.45880   33.94570   58.37550   58.37550    2.16320   26.53860   26.53860   33.94570  316.63820  316.63820   30.16580  -95.27730  -70.32240   30.16580
 5850.00000  144.08940  128.49180    7.78260   51.53870   51.53870    4.79950   76.61430   76.61430    7.78260  216.76370  216.76370   13.44680  -78.82560  -52.18870   13.44680
 5900.00000   74.93500   76.94020   12.99710   60.82300   60.82300    1.45980   20.44770   20.44770   12.99710  298.65100  298.65100   49.23710 -203.93490 -175.61600   49.23710
 5950.00000   66.33860   66.34860   15.07190   60.05470   60.05470    1.56350   24.21940   24.21940   15.07190  325.40880  325.40880   50.00000 -191.62120 -161.62030   50.00000
 6000.00000   28.14930   33.82760   29.56170   56.47090   56.47090    1.16260   17.70880   17.70880   29.56170  340.31730  340.31730   68.69070 -163.65550 -131.97250   68.69070
 6050.00000   53.40740   54.93840   18.20220   59.57450   59.57450    0.54460   10.48870   10.48870   18.20220  360.17540  360.17540   32.03970  -84.83180  -51.46680   32.03970
 6100.00000  239.64250  239.64250    4.17290   67.97060   67.97060    3.92960   59.34210   59.34210    4.81330  236.22100  236.22100    7.35620  -64.55040  -29.50340    7.35620
 6150.00000  105.18840   81.06160   12.33630   50.08040   50.08040    3.33830   56.84000   56.84000   12.33630  308.31560  308.31560   11.27400 -121.12350  -84.39450   11.27400
 6200.00000   79.86960   75.24960   13.28910   67.26950   67.26950    4.02290   57.03980   57.03980   13.28910  247.72710  247.72710   16.60780  -87.82480  -49.41370   16.60780
 6250.00000    6.94340   14.67460   68.14490   57.10030   57.10030    1.78030   22.34280   22.34280   68.14490  344.32660  344.32660   70.16280 -109.82440  -69.73130   70.16280
 6300.00000   40.69190   44.05270   22.70010   63.07250   63.07250    3.18340   53.16940   53.16940   22.70010  308.53330  308.53330   31.77640  -86.28100  -44.50590   31.77640
 6350.00000   19.08010   24.30250   41.14810   58.36230   58.36230    1.92690   33.63350   33.63350   41.14810  352.84750  352.84750   45.37070 -104.37360  -60.91640   45.37070
 6400.00000   19.28890   25.38350   39.39560   58.37390   58.37390    2.17700   27.54380   27.54380   39.39560  342.61770  342.61770   42.08260 -100.18720  -55.04800   42.08260
 6450.00000   22.80080   27.02670   37.00040   57.09230   57.09230    1.87880   29.73260   29.73260   37.00040  346.27900  346.27900   40.78260 -113.55130  -66.73010   40.78260
 6500.00000   16.92130   21.92320   45.61370   57.66260   57.66260    1.81170   28.30550   28.30550   45.61370  345.45700  345.45700   48.96830 -104.41540  -55.91220   48.96830
 6550.00000    6.56680    9.29740  107.55700   55.70830   55.70830    1.51550   25.49860   25.49860  107.55700  379.13890  379.13890   93.98100  -92.77070  -42.58540   93.98100
 6600.00000   30.03060   33.83480   29.55540   66.60270   66.60270    3.46930   52.51000   52.51000   29.55540  298.17680  298.17680   35.91130  -64.77920  -12.91190   35.91130
 6650.00000   42.96900   46.55170   21.48150   69.03510   69.03510    3.51840   54.38580   54.38580   21.48150  276.64890  276.64890   26.25050  -65.30660  -12.21040   26.25050
 6700.00000   93.41250   93.92580   10.64670   65.96670   65.96670    4.15610   59.61540   59.61540   10.64670  250.10880  250.10880   14.71740  -98.31400  -45.50580   14.71740
 6750.00000    2.51960    4.51210  221.62400   55.12250   55.12250    1.00310   15.01710   15.01710  221.62400  397.83800  397.83800  144.22680 -121.00400  -68.48380  144.22680
 6800.00000   14.06500   18.48780   54.08960   57.67600   57.67600    1.06310   13.98780   13.98780   54.08960  374.07330  374.07330   76.71700 -195.31430 -143.08210   76.71700
 6850.00000    3.14250    3.72790  268.24850   54.38830   54.38830    1.07080   12.48490   12.48490  268.24850  417.21700  417.21700  128.74590 -144.50520  -92.56090  128.74590
 6900.00000    7.43690    7.84440  127.48020   54.95340   54.95340    0.88320   13.56330   13.56330  127.48020  410.37050  410.37050   86.36890 -178.44430 -126.78800   86.36890
 6950.00000    4.49660    5.33790  187.33980   53.64250   53.64250    0.73490   14.82770   14.82770  187.33980  410.80310  410.80310  101.31560 -155.80780 -104.43950  101.31560
 7000.00000    3.56030    5.09630  196.22040   53.64230   53.64230    1.03130   15.43740   15.43740  196.22040  399.77760  399.77760  113.92880 -177.42870 -126.34840  113.92880
 7050.00000   16.06320   20.06780   49.83100   52.26010   52.26010    1.14370   15.22700   15.22700   49.83100  373.56000  373.56000  104.43490 -200.86090 -150.06860  104.43490
 7100.00000   14.79370   19.53390   51.19300   54.78740   54.78740    0.60710   14.27380   14.27380   51.19300  387.35200  387.35200  127.05420 -185.66930 -135.16500  127.05420
 7150.00000    4.99220    3.95840  252.62600   52.41320   52.41320    0.38110   11.45100   11.45100  252.62600  380.68880  380.68880  137.79700 -148.51160  -98.29530  137.79700
 7200.00000    4.22290    2.00000  500.00000   52.41520   52.41520    0.73850   12.21950   12.21950  500.00000  420.71400  420.71400  192.47630 -129.20400  -79.27570  192.47630
 7250.00000    4.07290    1.80740  553.26780   52.54630   52.54630    0.85730   15.06060   15.06060  553.26780  424.32650  424.32650  201.87630 -126.54430  -76.90400  201.87630
 7300.00000    4.07290    1.80550  553.86670   52.79790   52.79790    1.19090   14.88380   14.88380  553.86670  426.81480  426.81480  223.79910 -114.04760  -64.69530  223.79910
 7350.00000    4.07290    2.00000  500.00000   52.76580   52.76580    0.88660   16.40420   16.40420  500.00000  412.13880  412.13880  192.79530 -136.22770  -87.16340  192.79530
 7400.00000    4.07290    9.57700  104.41710   53.17190   53.17190    0.81090   11.58000   11.58000  104.41710  414.93640  414.93640  114.38430 -136.84100  -88.06470  114.38430
 7450.00000   20.04590   27.34080   36.57540   55.66870   55.66870    0.95890   16.32030   16.32030   36.57540  358.58120  358.58120   79.94320 -196.22140 -147.73310   79.94320
 7500.00000   38.06520   29.20220   34.24400   53.63120   53.63120    1.27830   17.67740   17.67740   34.24400  334.87020  334.87020   37.60230 -108.75750  -60.55720   37.60230
 7550.00000  626.86650  626.86650    1.59520   66.69350   66.69350    2.56410   42.29260   42.29260    2.87630  231.92700  231.92700   14.52810 -136.80800  -88.89570   14.52810
 7600.00000   13.98600   17.61340   56.77490   53.20010   53.20010    0.96020   19.74330   19.74330   56.77490  303.49630  303.49630   78.45260 -142.62830  -95.00400   78.45260
 7650.00000    5.82600   15.53340   64.37740   50.83880   50.83880    1.74480   28.02030   28.02030   64.37740  300.73600  300.73600   50.02350 -118.92340  -71.58710   50.02350
 7700.00000   46.69330   51.35840   19.47100   56.45680   56.45680    1.43550   23.94660   23.94660   19.47100  291.25030  291.25030   24.20010 -112.01270  -64.96440   24.20010
