~Version ---------------------------------------------------
VERS.      2.0 : CWLS log ASCII Standard -VERSION 2.0
WRAP.       NO : One line per depth step
CREA. 08/26/14 : LAS Creation Date
~Well ------------------------------------------------------
STRT.FT                         1100.0 : START DEPTH
STOP.FT                        10800.0 : STOP DEPTH
STEP.FT                       50.00000 : STEP LENGTH
NULL.                          -999.25 : NULL VALUE
COMP. AMOCO CANADA PETROLEUM CO., LTD. : COMPANY
WELL.       AMOCO N-2 ANTE 11-25-65-23 : WELL
FLD .                                  : FIELD
LOC .                                  : LOCATION
CTRY.                           CANADA : COUNTRY
SRVC.           Schlumberger of Canada : SERVICE COMPANY
DATE.                      30-Oct-1976 : LOGDATE
PROV.                          Alberta : PROVINCE
UWI .                 100112506523W500 : UNIQUE WELL ID
SLAT.WGS84                    54.65705 : SURFACE LATITUDE
SLON.WGS84                   -117.3447 : SURFACE LONGITUDE
~Curve Information -----------------------------------------
DEPT   .FT    : DEPTH FEET
CALD   .IN    : CALIPER FROM DENSITY LOG
CALS   .IN    : CALIPER FROM SONIC LOG [TAKEN FROM SUBSC. LAS FILE]
DPHI_SS.V/V   : DENSITY POROSITY [M=2.65 F=1.0] FROM DENSITY LOG
DPHI_LS.V/V   : DENSITY POROSITY [M=2.71 F=1.0] FROM DENSITY LOG
DRHO   .G/C3  : DENSITY CORRECTION FROM DENSITY LOG
DT     .US/F  : DELTA TIME FROM SONIC LOG
GRD    .GAPI  : GAMMA RAY FROM DENSITY LOG [TAKEN FROM SUBSC. LAS FILE]
GRS    .GAPI  : GAMMA RAY FROM SONIC LOG
ILD    .OHMM  : INDUCTION LOG DEEP RESISTIVITY
ILM    .OHMM  : INDUCTION LOG MEDIUM RESISTIVITY
LL8    .OHMM  : 8 INCH LATEROLOG RESISTIVITY
NPHI_SS.V/V   : NEUTRON POROSITY SANDSTONE FROM DENSITY LOG
NPHI_LS.V/V   : NEUTRON POROSITY LIMESTONE FROM DENSITY LOG
RHOB   .G/C3  : BULK DENSITY FROM DENSITY LOG
SPR    .MV    : SPONTANEOUS POTENTIAL FROM RESISTIVITY LOG
~Params ----------------------------------------------------
PD  .                     GL : PERMANENT DATUM
EPD .FT                 2441 : ELEVATION PERMANENT DATUM
LMF .                     KB : LOG MEASURED FROM
DAPD.FT                 13.6 : FEET ABOVE PERMANENT DATUM
EKB .FT               2454.6 : KELLY BUSHING
EGL .FT                 2441 : GROUND LEVEL
DATE.               10/30/76 : RUN DATE
RUN .                      1 : RUN NUMBER
DD  .FT                10805 : DEPTH DRILLER
DL  .FT                10818 : DEPTH LOGGER
BLI .FT                10812 : BOTTOM LOG INTERVAL
TLI .FT                 1155 : TOP LOG INTERVAL
CBD .FT                 1153 : CASING BOTTOM DRILLER
CBL .FT                 1155 : CASING BOTTOM LOGGER
BS  .IN                 8.75 : BIT SIZE
BSD .FT                10805 : BIT SIZE AT DEPTH
DFT .                    GEL : DRILLING FLUID TYPE
DFD .                      9 : DRILLING FLUID DENSITY
DFV .                    115 : DRILLING FLUID VISCOSITY
DFPH.                    9.5 : DRILLING FLUID PH
DFL .                    8.6 : DRILLING FLUID LOSS
MSS .             CIRCULATED : MUD SAMPLE SOURCE
RMS .OHMM               3.02 : RESISTIVITY MUD SAMPLE
MST .DEGF                 62 : MUD SAMPLE TEMPERATURE
RMF .OHMM               2.62 : RESISTIVITY MUD FILTRATE SAMPLE
MFST.DEGF                 52 : MUD FILTRATE SAMPLE TEMPERATURE
MFSS.             CALCULATED : MUD FILTRATE SAMPLE SOURCE
MCSS.             CALCULATED : MUD CAKE SAMPLE SOURCE
TCS .HRS                   3 : TIME CIRCULATED STOPPED
LUN .                   7809 : LOGGING UNIT NUMBER
LUL .                    EDM : LOGGING UNIT LOCATION
ENGI.               SEDGWICK : RECORDING ENGINEER
WITN.              SCHWIEDER : WITNESSED BY
CLNT.                A2DTECH : CLIENT CODE
ORIG.            2" 5" PRINT : ORIGIN OF DATA
UWI .       100112506523W500 : UNIQUE WELL ID
DICO. A2D Technologies, Inc. : DIGITIZING COMPANY
~Other -----------------------------------------------------
~ASCII -----------------------------------------------------
# ...
 3400.00000   10.12710    9.59900    0.22550    -999.25    0.23700   83.29540  100.18500   94.01610   13.60670   13.19090   12.32480    0.29260    -999.25    2.24080  -59.46880
 3450.00000   10.50380    9.29900    0.18640    -999.25    0.14680   87.75600   89.68500   95.00860   13.55390   12.49560   11.95000    0.33840    -999.25    2.33770  -60.34070
 3500.00000   10.31940   10.00000    0.11240    -999.25    0.11280   87.22040  109.69500  120.59630    9.68110    9.34640    8.68570    0.33650    -999.25    2.48930  -57.89990
 3550.00000    9.59750    9.69900    0.12850    -999.25    0.11690   87.54910  112.39500  118.74330    8.92260    8.35600    7.61530    0.37550    -999.25    2.45080  -58.65790
 3600.00000   10.89620   11.00000    0.15120    -999.25    0.11510   95.31490  111.69000  107.03590    7.86380    7.60330    7.30040    0.42260    -999.25    2.44160  -57.18220
 3650.00000   10.85890   10.75000    0.09360    -999.25    0.08850   94.93890  110.89500  114.69520    7.02870    7.40840    7.64510    0.41210    -999.25    2.49100  -58.34280
 3700.00000   10.60990   10.79900    0.06310    -999.25    0.05430   96.54880  115.78500  121.71490    6.75940    7.30920    8.24800    0.41840    -999.25    2.54390  -55.29770
 3750.00000   10.62530   10.29900    0.08840    -999.25    0.04090   96.98590  119.79000  125.22510    7.28630    7.94810    8.60060    0.44640    -999.25    2.50880  -56.04330
 3800.00000   11.32510   10.19900    0.25160    -999.25    0.24070  100.00780  124.39500  132.09070    7.71120    8.18240    8.84720    0.43490    -999.25    2.23910  -55.23830
 3850.00000    9.74180    9.19900    0.14060    -999.25    0.19230   95.00440  127.78500  134.68280    8.42850    9.11380    9.95560    0.38930    -999.25    2.41430  -54.38190
 3900.00000    9.88850    9.64900    0.20410    -999.25    0.24880   95.15620  114.00000  112.59960    7.41680    8.01810    8.53860    0.40680    -999.25    2.33610  -54.46390
 3950.00000    9.20610    9.44900    0.07210    -999.25    0.07270   89.46760  129.88500  129.10910    9.43450   10.19680   11.03970    0.41270    -999.25    2.49910  -53.88930
 4000.00000    9.16560    9.19900    0.06130    -999.25    0.06340   89.74110  133.29000  131.50790   11.56160   13.06700   19.38260    0.37790    -999.25    2.57900  -52.76100
 4050.00000    9.35310    9.29900    0.09350    -999.25    0.03240   91.77020  137.49000  134.35870   11.27370   13.58790   19.39190    0.41820    -999.25    2.47020  -52.09010
 4100.00000    9.98110   10.14900    0.21650    -999.25    0.24930   85.97050  104.08500  104.28880    8.54360    9.16250    9.54320    0.36190    -999.25    2.31780  -54.00600
 4150.00000    9.02800    9.64900    0.10460    -999.25    0.11540   87.38560  104.68500  107.23940    6.65460    7.02250    7.35820    0.37960    -999.25    2.49330  -53.11900
 4200.00000    9.09550    9.39900    0.10640    -999.25    0.04720   88.19510  103.50000  102.00560    6.86450    7.31070    7.49810    0.31060    -999.25    2.52960  -53.27260
 4250.00000    9.14990    9.19900    0.11510    -999.25    0.11340   82.28010  106.99500  110.54670    8.29960    8.71770    9.12080    0.32550    -999.25    2.49960  -52.24740
 4300.00000    9.49890    9.50000    0.09930    -999.25    0.16940   80.56790  102.09000  111.90760    8.09580    8.78540    9.46850    0.37210    -999.25    2.49440  -52.28130
 4350.00000   10.32740   10.09900    0.17520    -999.25    0.20990   91.30600  105.99000  118.26210    5.27360    5.43120    5.76220    0.40280    -999.25    2.39810  -50.77610
 4400.00000   10.42430    9.89900    0.08430    -999.25    0.16170   77.18390   94.09500   96.14750    8.14910    8.66080    9.38570    0.29130    -999.25    2.49920  -51.15270
 4450.00000   10.25360    9.75000    0.18890    -999.25    0.24230   88.51330  109.18500  118.06210    5.13450    5.55820    6.02760    0.41210    -999.25    2.37680  -50.41510
 4500.00000   10.23660    9.84900    0.22360    -999.25    0.19890   90.94010  112.78500  120.82570    5.10160    5.52950    6.01640    0.42540    -999.25    2.30940  -49.58750
 4550.00000   10.48930    9.89900    0.21550    -999.25    0.13220  103.84830  128.19000  130.28370    3.01240    3.26120    3.80940    0.50250    -999.25    2.33720  -48.89390
 4600.00000   11.78970   10.69900    0.25470    -999.25    0.14400  101.54270   94.99500  103.47690    2.48240    2.70360    3.55060    0.50670    -999.25    2.22020  -49.60220
 4650.00000   11.75370   10.34900    0.23740    -999.25    0.17860  103.83880   96.99000  115.27030    3.05810    3.22120    3.74140    0.48590    -999.25    2.28080  -48.99100
 4700.00000   11.55650   10.69900    0.19760    -999.25    0.14230   88.90370  102.39000  107.25500    4.48970    4.89010    5.22720    0.43320    -999.25    2.38110  -48.10860
 4750.00000   11.09700   10.84900    0.22080    -999.25    0.20680   95.92110  102.19500  116.08840    3.80880    4.12870    4.48910    0.45460    -999.25    2.32880  -48.50030
 4800.00000    9.31910    9.39900    0.08030    -999.25    0.19530   72.43930   94.89000   96.80610   12.20640   13.76910   15.50990    0.22260    -999.25    2.57890  -48.55730
 4850.00000    9.02420    8.59900    0.06040    -999.25    0.03170   75.38560   87.49500   73.81390   12.10150   13.65310   13.99120    0.24450    -999.25    2.51750  -62.84960
 4900.00000   10.93970   10.39900    0.21820    -999.25    0.17590  110.93540   87.39000   91.96250    3.42830    3.68480    4.12490    0.49700    -999.25    2.32790  -47.07710
 4950.00000    9.50220    9.54900    0.07080    -999.25    0.02990   79.26180   80.19000   84.73930   10.00380   11.11600   14.30000    0.30610    -999.25    2.50240  -48.49190
 5000.00000    9.25660    9.14900    0.07830    -999.25    0.10090   76.19950   69.88500   68.13100   17.13060   18.18710   19.76170    0.30090    -999.25    2.52000  -76.18060
 5050.00000   10.07770    9.79900    0.04440    -999.25    0.04800   77.23560   89.08500   97.83790   10.58310   10.93960   11.75210    0.32510    -999.25    2.59280  -48.90510
 5100.00000   10.26780   10.25000    0.39800    -999.25    0.03750  111.43240   70.99500   61.21300   19.92840   23.20550   66.47700    0.46700    -999.25    2.13870  -47.36850
 5150.00000   10.42490   10.19900    0.09890    -999.25    0.01480   75.07990   84.19500   84.15360   12.88810   14.02410   15.80520    0.27170    -999.25    2.46430  -56.61000
 5200.00000    8.44960    8.59900    0.16380    -999.25    0.10920   82.31180   31.50000   27.75180    9.20830   12.73940   18.81370    0.26650    -999.25    2.39350 -101.96600
 5250.00000    9.77960    9.09900    0.07540    -999.25    0.01480   80.10070   76.09500   84.86890   14.20730   17.57170   22.20050    0.27770    -999.25    2.53700  -65.65410
 5300.00000    9.66060    9.50000    0.06270    -999.25    0.03540   78.18900   97.29000  100.35730   12.39500   13.62460   18.16250    0.31900    -999.25    2.59470  -40.59770
 5350.00000   13.71190   10.75000    0.32020    -999.25    0.24600   79.80160   92.19000   94.02750    7.25410    7.64750    8.29310    0.41480    -999.25    2.19320  -39.89470
 5400.00000   11.22160   10.29900    0.19760    -999.25    0.25180   77.44090   83.08500   87.97230    8.21820    8.92350   10.81100    0.36000    -999.25    2.31030  -40.05840
 5450.00000   10.40890   10.19900    0.05830    -999.25    0.03140   75.68200   80.29500   76.49640   10.13900   10.96460   11.65630    0.26710    -999.25    2.59020  -52.49330
 5500.00000   10.47010   10.75000    0.10840    -999.25    0.03650   71.63540   72.99000   75.43440   10.30540   10.77910   11.35190    0.27920    -999.25    2.52110  -51.18970
 5550.00000   10.16020    9.75000    0.04050    -999.25    0.03020   76.09270   76.29000   77.62410    8.39810    9.05570    9.73290    0.30810    -999.25    2.58110  -47.89730
 5600.00000    9.74380   10.00000    0.04550    -999.25    0.01430   75.16540   88.59000   87.66240    9.50020   10.27690   11.31940    0.29910    -999.25    2.56690  -47.09240
 5650.00000    9.72640    9.69900    0.01890    -999.25    0.03580   74.00440   79.78500   83.84270   11.93690   13.60730   14.26760    0.26140    -999.25    2.63430  -45.83960
