~Version ---------------------------------------------------
VERS. 2.0 : CWLS log ASCII Standard -VERSION 2.0
WRAP.  NO : ONE LINE PER DEPTH STEP
~Well ------------------------------------------------------
STRT.M                          300.0 : START DEPTH
STOP.M                         1700.0 : STOP DEPTH
STEP.M                       50.00000 : STEP LENGTH
NULL.                         -999.25 : NULL VALUE
COMP.      SIGNALTA RESOURCES LIMITED : COMPANY
WELL. SIGNALTA ET AL NIPISI 10-8-80-7 : WELL
FLD .                          NIPISI : FIELD
LOC .                                 : LOCATION
CTRY.                          CANADA : COUNTRY
SRVC.                  Atlas Wireline : SERVICE COMPANY
DATE.                     02-Mar-1988 : LOGDATE
PROV.                         Alberta : PROVINCE
UWI .                100100808007W500 : UNIQUE WELL ID
SLAT.WGS84              55.9222160256 : SURFACE LATITUDE
SLON.WGS84            -115.0537618452 : SURFACE LONGITUDE
~Curve Information -----------------------------------------
DEPT    .M      : DEPTH METERS
ACED    .US/M   : DELTA TIME (ACOUSTIC) FROM SONIC LOG [DEPTH ADJ TO RES.]
C24ED   .MM     : CALIPER 24 FROM SONIC LOG [DEPTH ADJ TO RES.]
CALWS   .MM     : CALIPER [C24ED]
CNCLSED .V/V    : NEUTRON POROSITY LIMESTONE FROM DENSITY LOG
CONDWS  .MMHO   : CONDUCTIVITY [1000/DRESWS]
DCORWS  .KG/M3  : DENSITY CORRECTION [ZCORED]
DENWS   .KG/M3  : BULK DENSITY [M=2710 F=1000] [CALCULATED FROM DPOWS]
DPOLSWS .V/V    : DENSITY POROSITY [M=2710 F=1000] [PORDZLSED]
DRESWS  .OHMM   : DEEP RESISTIVITY [RILDED]
DTWS    .US/M   : DELTA TIME [ACED]
GRSED   .GAPI   : GAMMA RAY FROM SONIC LOG [DEPTH ADJ TO RES.]
GRWS    .GAPI   : GAMMA RAY [GRSED] CSG @ 191.5M
MRESWS  .OHMM   : MEDIUM RESISTIVITY [RILMED]
NPOLSWS .V/V    : NEUTRON POROSITY LIMESTONE [CNCLSED]
PORZLSED.V/V    : DENSITY POROSITY [M=2710 F=1000] FROM DENSITY LOG
RFOCED  .OHMM   : FOCUSED RESISTIVITY
RILDED  .OHMM   : INDUCTION LOG DEEP RESISTIVITY
RILMED  .OHMM   : INDUCTION LOG MEDIUM RESISTIVITY
SPRED   .MV     : SPONTANEOUS POTENTIAL FROM RESISTIVITY LOG
SPWS    .MV     : SPONTANEOUS POTENTIAL [BASELINE 0 MV] [SPRED]
SRESWS  .OHMM   : SHALLOW RESISTIVITY [RFOCED]
ZCORED  .KG/M3  : DENSITY CORRECTION FROM DENSITY LOG
ZDENED  .KG/M3  : BULK DENSITY FROM DENSITY LOG
~Params ----------------------------------------------------
PD  .                          GL : PERMANENT DATUM
EPD .M                        658 : ELEVATION PERMANENT DATUM
LMF .                          KB : LOG MEASURED FROM
DAPD.M                        4.9 : FEET ABOVE PERMANENT DATUM
DMF .                          KB : DRILLING MEASURED FROM
EKB .M                      662.9 : KELLY BUSHING
EGL .M                        658 : GROUND LEVEL
DATE.                    03/02/88 : RUN DATE
RUN .                           1 : RUN NUMBER
DD  .M                       1710 : DEPTH DRILLER
DL  .M                     1708.6 : DEPTH LOGGER
BLI .M                       1708 : BOTTOM LOG INTERVAL
TLI .M                      191.5 : TOP LOG INTERVAL
CS  .MM                     219.1 : CASING SIZE
CBD .M                      191.5 : CASING BOTTOM DRILLER
CBL .M                      191.5 : CASING BOTTOM LOGGER
BS  .MM                       200 : BIT SIZE
BSD .M                       1710 : BIT SIZE AT DEPTH
DFT .                    GEL CHEM : DRILLING FLUID TYPE
DFD .                        1135 : DRILLING FLUID DENSITY
DFV .                          63 : DRILLING FLUID VISCOSITY
DFPH.                          11 : DRILLING FLUID PH
DFL .                         8.5 : DRILLING FLUID LOSS
MSS .                    FLOWLINE : MUD SAMPLE SOURCE
RMS .OHMM                     1.1 : RESISTIVITY MUD SAMPLE
MST .DEGC                    16.6 : MUD SAMPLE TEMPERATURE
RMF .OHMM                    0.85 : RESISTIVITY MUD FILTRATE SAMPLE
MFST.DEGC                    18.5 : MUD FILTRATE SAMPLE TEMPERATURE
RMC .OHMM                     1.4 : RESISTIVITY MUD CAKE
MCST.DEGC                    16.6 : MUD CAKE SAMPLE TEMPERATURE
MFSS.                           M : MUD FILTRATE SAMPLE SOURCE
MCSS.                           M : MUD CAKE SAMPLE SOURCE
RMB .OHMM                    0.73 : RESISTIVITY MUD AT BHT
TCS .HRS                     7.55 : TIME CIRCULATED STOPPED
LUN .                     HL 6437 : LOGGING UNIT NUMBER
LUL .                    EDMONTON : LOGGING UNIT LOCATION
ENGI.                      GRIEVE : RECORDING ENGINEER
WITN.                      STUMPF : WITNESSED BY
CLNT.                     A2DTECH : CLIENT CODE
ORIG. 6.5"/100M 16.5" /100M PRINT : ORIGIN OF DATA
UWI .            100100808007W500 : UNIQUE WELL ID
DICO.      A2D Technologies, Inc. : DIGITIZING COMPANY
~Other -----------------------------------------------------
~ASCII -----------------------------------------------------
  300.00000  475.05720  261.28170  261.28170    -999.25  305.36220    -999.25    -999.25    -999.25    3.27480  475.05720   85.03960   85.03960    2.99100    -999.25    -999.25    3.34140    3.27480    2.99100  -30.68660   -3.41030    3.34140    -999.25    -999.25
  350.00000  764.59950  214.86010  214.86010    -999.25  228.16980    -999.25    -999.25    -999.25    4.38270  764.59950   58.32030   58.32030    4.23770    -999.25    -999.25    4.74150    4.38270    4.23770  -39.34180  -12.80070    4.74150    -999.25    -999.25
  400.00000  366.97740  203.15540  203.15540    -999.25  105.31750    -999.25    -999.25    -999.25    9.49510  366.97740   53.60730   53.60730   12.45560    -999.25    -999.25   10.68890    9.49510   12.45560  -42.80520  -16.80380   10.68890    -999.25    -999.25
  450.00000  366.38490  237.17230  237.17230    -999.25  137.18740    -999.25    -999.25    -999.25    7.28930  366.38490   57.15800   57.15800    9.00300    -999.25    -999.25    8.49830    7.28930    9.00300  -44.51950  -18.67610    8.49830    -999.25    -999.25
  500.00000  254.92990  224.35870  224.35870    -999.25  109.00730    -999.25    -999.25    -999.25    9.17370  254.92990   53.55010   53.55010    9.58590    -999.25    -999.25    8.87320    9.17370    9.58590  -45.05480  -19.36930    8.87320    -999.25    -999.25
  550.00000  354.96040  276.47590  276.47590    -999.25  151.60930    -999.25    -999.25    -999.25    6.59590  354.96040   64.74630   64.74630    6.45470    -999.25    -999.25    5.62430    6.59590    6.45470  -39.84150  -14.31390    5.62430    -999.25    -999.25
  600.00000  215.34850  259.74710  259.74710    -999.25    3.30800    -999.25    -999.25    -999.25  302.29660  215.34850   14.97750   14.97750 1992.64040    -999.25    -999.25 2024.08560  302.29660 1992.64040  -55.08480  -29.71520 2024.08560    -999.25    -999.25
  650.00000  238.98560  282.64800  282.64800    -999.25   81.52020    -999.25    -999.25    -999.25   12.26690  238.98560   33.67350   33.67350   11.58520    -999.25    -999.25   11.53360   12.26690   11.58520  -28.70610   -3.56600   11.53360    -999.25    -999.25
  700.00000  212.75850  222.09390  222.09390    -999.25   58.75960    -999.25    -999.25    -999.25   17.01850  212.75850   20.17000   20.17000   16.70240    -999.25    -999.25   20.44200   17.01850   16.70240  -55.61460  -31.42820   20.44200    -999.25    -999.25
  750.00000  215.96690  223.80450  223.80450    -999.25   58.12200    -999.25    -999.25    -999.25   17.20520  215.96690   22.23970   22.23970   18.14760    -999.25    -999.25   20.25200   17.20520   18.14760  -44.05840  -20.82570   20.25200    -999.25    -999.25
  800.00000  181.52000  248.17100  248.17100    -999.25   24.76900    -999.25    -999.25    -999.25   40.37310  181.52000   18.31570   18.31570   49.51920    -999.25    -999.25   97.31180   40.37310   49.51920  -73.82530  -35.80340   97.31180    -999.25    -999.25
  850.00000  184.22360  265.89500  265.89500    -999.25   41.87340    -999.25    -999.25    -999.25   23.88150  184.22360   15.03910   15.03910   29.44120    -999.25    -999.25   78.79670   23.88150   29.44120  -89.04950  -50.06080   78.79670    -999.25    -999.25
  900.00000  204.34460  282.45250  282.45250    -999.25   88.53630    -999.25    -999.25    -999.25   11.29480  204.34460   14.24210   14.24210   18.69440    -999.25    -999.25   45.21430   11.29480   18.69440  -95.52960  -55.57420   45.21430    -999.25    -999.25
  950.00000  173.93750  223.15700  223.15700    -999.25   16.53580    -999.25    -999.25    -999.25   60.47490  173.93750   13.11420   13.11420   83.53130    -999.25    -999.25  231.84030   60.47490   83.53130  -88.52800  -47.60590  231.84030    -999.25    -999.25
 1000.00000  173.58210  225.49410  225.49410    -999.25   18.09070    -999.25    -999.25    -999.25   55.27710  173.58210   14.91220   14.91220   86.74170    -999.25    -999.25  254.64450   55.27710   86.74170 -111.06460  -69.17580  254.64450    -999.25    -999.25
 1050.00000  267.26820  302.65510  302.65510    -999.25  212.71620    -999.25    -999.25    -999.25    4.70110  267.26820   53.83200   53.83200    6.88440    -999.25    -999.25   12.17410    4.70110    6.88440  -74.74810  -31.89260   12.17410    -999.25    -999.25
 1100.00000  173.17090  225.29580  225.29580    -999.25   45.90440    -999.25    -999.25    -999.25   21.78440  173.17090   40.02210   40.02210   27.16930    -999.25    -999.25   22.20050   21.78440   27.16930  -54.81800  -12.60510   22.20050    -999.25    -999.25
 1150.00000  189.74140  216.34640  216.34640    -999.25   73.89290    -999.25    -999.25    -999.25   13.53310  189.74140   44.11530   44.11530   16.24240    -999.25    -999.25   35.10260   13.53310   16.24240  -69.88640  -28.40800   35.10260    -999.25    -999.25
 1200.00000  200.96630  260.79980  260.79980    -999.25   77.36880    -999.25    -999.25    -999.25   12.92510  200.96630   38.79930   38.79930   16.07700    -999.25    -999.25   17.28250   12.92510   16.07700  -33.28770   -5.33200   17.28250    -999.25    -999.25
 1250.00000  264.52350  286.55810  286.55810    -999.25  197.71830    -999.25    -999.25    -999.25    5.05770  264.52350   88.54730   88.54730    4.81080    -999.25    -999.25    5.05190    5.05770    4.81080  -32.62340   -5.81660    5.05190    -999.25    -999.25
 1300.00000  223.93360  226.44270  226.44270    -999.25   79.40480    -999.25    -999.25    -999.25   12.59370  223.93360   52.03950   52.03950   12.81990    -999.25    -999.25   11.75490   12.59370   12.81990  -31.13580   -5.47790   11.75490    -999.25    -999.25
 1350.00000  225.11180  221.70760  221.70760    -999.25   97.62100    -999.25    -999.25    -999.25   10.24370  225.11180   46.88260   46.88260   10.14200    -999.25    -999.25    9.60220   10.24370   10.14200  -29.25930   -4.75030    9.60220    -999.25    -999.25
 1400.00000  254.57400  214.99950  214.99950    -999.25  160.58070    -999.25    -999.25    -999.25    6.22740  254.57400   58.52160   58.52160    6.16510    -999.25    -999.25    5.95830    6.22740    6.16510  -27.01390   -3.52590    5.95830    -999.25    -999.25
 1450.00000  344.88130  275.72450  275.72450    -999.25  438.84670    -999.25    -999.25    -999.25    2.27870  344.88130   88.30620   88.30620    2.08820    -999.25    -999.25    2.84700    2.27870    2.08820  -43.34540  -20.50690    2.84700    -999.25    -999.25
 1500.00000  245.24440  220.07130  220.07130    0.22470  168.29630  162.50000 2382.50000    0.19150    5.94190  245.24440   64.43560   64.43560    7.15080    0.22470    0.19150    7.62480    5.94190    7.15080  -32.79330  -10.60430    7.62480  162.50000 2316.70000
 1550.00000  254.17370  218.71010  218.71010    0.19870  148.90700    2.30000 2642.29980    0.03960    6.71560  254.17370   56.57440   56.57440    7.00550    0.19870    0.03960    6.21020    6.71560    7.00550  -27.84620   -6.30660    6.21020    2.30000 2626.10010
 1600.00000  256.27460  206.63490  206.63490    0.23530  165.30840  185.80000 2541.10010    0.09880    6.04930  256.27460   71.02660   71.02660    6.52950    0.23530    0.09880    7.25910    6.04930    6.52950  -29.51220   -8.62210    7.25910  185.80000 2491.60010
 1650.00000  185.33390  191.29980  191.29980    0.06100   28.70100   38.20000 2702.10010    0.00460   34.84200  185.33390   19.87110   19.87110   36.20120    0.06100    0.00460   33.67600   34.84200   36.20120  -39.78330  -12.34490   33.67600   38.20000 2685.50000
 1700.00000    -999.25    -999.25    -999.25    0.03670   30.90930   34.70000 2935.70000   -0.13200   32.35270    -999.25    -999.25    -999.25   31.09730    0.03670   -0.13200   53.64220   32.35270   31.09730  -49.06990  -10.99100   53.64220   34.70000 2910.00000
