~Version ---------------------------------------------------
VERS.      2.0 : CWLS log ASCII Standard -VERSION 2.0
WRAP.       NO : One line per depth step
CREA. 09/17/14 : LAS Creation Date
~Well ------------------------------------------------------
STRT.M                        600.0 : START DEPTH
STOP.M                       4650.0 : STOP DEPTH
STEP.M                     50.00000 : STEP LENGTH
NULL.                       -999.25 : NULL VALUE
COMP.     GULF CANADA RESOURCES INC : COMPANY
WELL. GULF ET AL HANLAN 11-25-47-18 : WELL
FLD .                        HANLAN : FIELD
LOC .                               : LOCATION
CTRY.                        CANADA : COUNTRY
SRVC.                  Schlumberger : SERVICE COMPANY
DATE.                   07-Oct-1981 : LOGDATE
PROV.                       Alberta : PROVINCE
UWI .              100112504718W500 : UNIQUE WELL ID
SLAT.WGS84                 53.08538 : SURFACE LATITUDE
SLON.WGS84                -116.5027 : SURFACE LONGITUDE
~Curve Information -----------------------------------------
DEPT    .M      : DEPTH METER
CALDED  .MM     : CALIPER FROM DENSITY LOG [ADJ. TO RESISTIVITY LOG]
CALSED  .MM     : CALIPER FROM SONIC LOG [ADJ. TO RESISTIVITY LOG]
CALWS   .MM     : CALIPER [CALDED]
CONDWS  .MMHO   : CONDUCTIVITY [1000/DRESWS]
CORRED  .KG/M3  : DENSITY CORRECTION FROM DENSITY LOG [ADJ. TO RESISTIVITY LOG]
DCORWS  .KG/M3  : DENSITY CORRECTION [CORRED]
DENWS   .KG/M3  : FORMATION BULK DENSITY [CALC. FROM DPOLSWS, M=2710, F=1000]
DPHILSED.V/V    : DENSITY POROSITY LIMESTONE [M=2710, F=1000] FROM DENSITY LOG [ADJ. TO RESISTIVITY LOG]
DPHISSED.V/V    : DENSITY POROSITY SANDSTONE [M=2650, F=1000] FROM DENSITY LOG [ADJ. TO RESISTIVITY LOG]
DPOLSWS .V/V    : DENSITY POROSITY LIMESTONE [DPHISSED CONVEERTED INTO LIMESTONE MATRIX , M=2710, F=1000 & SPL. TO DPHILSED @ 3600 M]
DRESWS  .OHMM   : DEEP RESISTIVITY [ILDED SPL. TO LLDED @ 3235.5 M]
DTED    .US/M   : DELTA TIME FROM SONIC LOG [ADJ. TO RESISTIVITY LOG]
DTWS    .US/M   : COMPRESSIONAL SONIC [DTED]
GRDED   .GAPI   : GAMMA RAY FROM DENSITY LOG [ADJ. TO RESISTIVITY LOG]
GRRED   .GAPI   : GAMMA RAY FROM DLL LOG
GRSED   .GAPI   : GAMMA RAY FROM SONIC LOG [ADJ. TO RESISTIVITY LOG]
GRWS    .GAPI   : GAMMA RAY [GRSED SPL. TO GRRED @ 3219.2 M]
ILDED   .OHMM   : DEEP INDUCTION FROM DIL-SFL LOG
ILMED   .OHMM   : MEDIUM INDUCTION FROM DIL-SFL LOG
LLDED   .OHMM   : DEEP LATEROLOG FROM DLL LOG [ADJ. TO DIL-MSFL LOG]
LLSED   .OHMM   : SHALLOW LATEROLOG FROM DLL LOG [ADJ. TO DIL-MSFL LOG]
MRESWS  .OHMM   : MEDIUM RESISTIVITY [ILMED]
NPHILSED.V/V    : NEUTRON POROSITY LIMESTONE FROM DENSITY LOG [ADJ. TO RESISTIVITY LOG]
NPHISSED.V/V    : NEUTRON POROSITY SANDSTONE FROM DENSITY LOG [ADJ. TO RESISTIVITY LOG]
NPOLSWS .V/V    : NEUTRON POROSITY LIMESTONE [NPHISSED MATRIX CONVERSION FOR LIMESTONE & SPL. TO NPHILSED @ 3593.5 M]
PEFED   .B/E    : PHOTOELECTRIC FACTOR FROM DENSITY LOG [ADJ. TO RESISTIVITY LOG]
PEFWS   .B/E    : PHOTOELECTRIC FACTOR [PEFED]
RHOBED  .KG/M3  : BULK DENSITY FROM DENSITY LOG [ADJ. TO DPHISSED/DPHILSED/RESISTIVITY LOG]
SFLED   .OHMM   : SHALLOW FOCUSED FROM DIL-SFL LOG
SPRED   .MV     : SPONTANEOUS POTENTIAL FROM DIL-SFL LOG
SPWS    .MV     : SPONTANEOUS POTENTIAL [BASELINE 0 MV,SPRED]
SRESWS  .OHMM   : SHALLOW RESISTIVITY [SFLED SPL. TO LLSED @ 3235.5 M]
~Params ----------------------------------------------------
PD  .                         GL : PERMANENT DATUM
EPD .M                   1212.95 : ELEVATION PERMANENT DATUM
LMF .                         KB : LOG MEASURED FROM
DAPD.M                      9.93 : FEET ABOVE PERMANENT DATUM
DMF .                         KB : DRILLING MEASURED FROM
EKB .M                   1222.88 : KELLY BUSHING
EGL .M                   1212.95 : GROUND LEVEL
DATE.                   10/07/81 : RUN DATE
RUN .                          2 : RUN NUMBER
DD  .M                      4665 : DEPTH DRILLER
DL  .M                      4665 : DEPTH LOGGER
BLI .M                    4661.1 : BOTTOM LOG INTERVAL
TLI .M                    3235.5 : TOP LOG INTERVAL
CS  .MM                      244 : CASING SIZE
CBD .M                      3236 : CASING BOTTOM DRILLER
CBL .M                    3235.5 : CASING BOTTOM LOGGER
BS  .MM                      216 : BIT SIZE
BSD .M                      4665 : BIT SIZE AT DEPTH
DFT .                   GEL CHEM : DRILLING FLUID TYPE
DFD .                       1160 : DRILLING FLUID DENSITY
DFV .                         78 : DRILLING FLUID VISCOSITY
DFPH.                       10.5 : DRILLING FLUID PH
DFL .                          8 : DRILLING FLUID LOSS
MSS .                CIRCULATION : MUD SAMPLE SOURCE
RMS .OHMM                   0.84 : RESISTIVITY MUD SAMPLE
MST .DEGC                   23.3 : MUD SAMPLE TEMPERATURE
RMF .OHMM                   0.62 : RESISTIVITY MUD FILTRATE SAMPLE
MFST.DEGC                   23.9 : MUD FILTRATE SAMPLE TEMPERATURE
RMB .OHMM                   0.27 : RESISTIVITY MUD AT BHT
TCS .HRS                    1000 : TIME CIRCULATED STOPPED
TLAB.HRS                     830 : TIME LOGGER AT BOTTOM
LUN .                       8110 : LOGGING UNIT NUMBER
LUL .                        EDS : LOGGING UNIT LOCATION
ENGI.             BEBB LABRECQUB : RECORDING ENGINEER
WITN.                      PERRY : WITNESSED BY
CLNT.                    A2DTECH : CLIENT CODE
ORIG. 6.5"/100M 16.5"/100M PRINT : ORIGIN OF DATA
UWI .           100112504718W500 : UNIQUE WELL ID
DICO.     A2D Technologies, Inc. : DIGITIZING COMPANY
~Other -----------------------------------------------------
DIL-MSFL-DLL-CNL-FDC-BHC LOG RUN
~ASCII -----------------------------------------------------
# ...
 1700.00000  398.54090  363.38710  398.54090   84.34330  150.12390  150.12390 2023.66000    -999.25    0.37960    0.40140   11.85630  248.72030  248.72030   64.28040    -999.25   67.11730   67.11730   11.85630   11.22180    -999.25    -999.25   11.22180    -999.25    0.27650    0.23250    -999.25    -999.25 2017.84230   11.80940   -0.54700   -2.04250   11.80940
 1750.00000  392.64310  344.01670  392.64310  130.96890  183.04020  183.04020 2308.78000    -999.25    0.20680    0.23460    7.63540  277.19970  277.19970  101.85100    -999.25   94.91400   94.91400    7.63540    7.03640    -999.25    -999.25    7.03640    -999.25    0.37840    0.33510    -999.25    -999.25 2304.66310    6.78080   -6.23490   -6.86470    6.78080
 1800.00000  400.17690  338.56620  400.17690   53.99540  190.23280  190.23280 2226.44500    -999.25    0.25670    0.28280   18.52010  238.54550  238.54550   64.07730    -999.25   61.18340   61.18340   18.52010   16.20760    -999.25    -999.25   16.20760    -999.25    0.29350    0.24950    -999.25    -999.25 2210.91360   15.61530   -9.24950   -8.70510   15.61530
 1850.00000  320.94870  347.48240  320.94870   45.55100   51.08840   51.08840 2571.62500    -999.25    0.04750    0.08090   21.95340  228.35860  228.35860   49.56790    -999.25   53.46580   53.46580   21.95340   20.65600    -999.25    -999.25   20.65600    -999.25    0.19500    0.15160    -999.25    -999.25 2562.15770   24.06370   -8.82750   -8.24020   24.06370
 1900.00000  388.12230  348.70950  388.12230  103.42650   87.73030   87.73030 2034.22000    -999.25    0.37320    0.39520    9.66870  262.74580  262.74580   75.65040    -999.25   80.10080   80.10080    9.66870    8.33360    -999.25    -999.25    8.33360    -999.25    0.42020    0.37780    -999.25    -999.25 2015.62940    8.04920   -2.79210   -3.64910    8.04920
 1950.00000  333.88850  346.57720  333.88850   60.16740   48.63720   48.63720 2446.72000    -999.25    0.12320    0.15400   16.62030  242.81770  242.81770   79.64090    -999.25   74.64140   74.64140   16.62030   12.66960    -999.25    -999.25   12.66960    -999.25    0.37930    0.33610    -999.25    -999.25 2450.40160   12.68160    0.99310   -1.30830   12.68160
 2000.00000  329.51510  315.34590  329.51510   28.43290   90.43430   90.43430 2224.46500    -999.25    0.25790    0.28390   35.17050  232.02860  232.02860   42.05400    -999.25   45.40080   45.40080   35.17050   30.47490    -999.25    -999.25   30.47490    -999.25    0.33790    0.29410    -999.25    -999.25 2215.92600   37.45010  -22.69630  -26.04940   37.45010
 2050.00000  316.34940  339.17320  316.34940   83.59040   20.23810   20.23810 2496.55000    -999.25    0.09300    0.12480   11.96310  266.65920  266.65920   63.06000    -999.25   64.28250   64.28250   11.96310   10.30600    -999.25    -999.25   10.30600    -999.25    0.44240    0.40050    -999.25    -999.25 2479.28690    8.72050    1.71140   -1.76790    8.72050
 2100.00000  332.95010  342.60600  332.95010   70.10360   23.83000   23.83000 2553.80500    -999.25    0.05830    0.09130   14.26460  261.85710  261.85710   62.31280    -999.25   55.40030   55.40030   14.26460   11.53070    -999.25    -999.25   11.53070    -999.25    0.31020    0.26630    -999.25    -999.25 2559.79220   10.52740    0.77080   -3.89030   10.52740
 2150.00000  371.77400  330.82080  371.77400   33.11940  186.37310  186.37310 2252.02000    -999.25    0.24120    0.26780   30.19380  239.28660  239.28660   52.80960    -999.25   58.05200   58.05200   30.19380   25.73180    -999.25    -999.25   25.73180    -999.25    0.32750    0.28370    -999.25    -999.25 2253.86040   24.29180   -3.87440   -9.42990   24.29180
 2200.00000  406.94330  342.04770  406.94330   67.77780   67.89810   67.89810 1848.59500    -999.25    0.48570    0.50370   14.75410  263.02870  263.02870   64.15320    -999.25   61.60740   61.60740   14.75410   13.17750    -999.25    -999.25   13.17750    -999.25    0.39590    0.35290    -999.25    -999.25 1822.26120   12.67190    2.38280   -3.81330   12.67190
 2250.00000  438.25730  336.12600  438.25730   50.25380  124.96430  124.96430 2153.02000    -999.25    0.30120    0.32570   19.89900  251.33110  251.33110   59.40490    -999.25   58.20510   58.20510   19.89900   18.08550    -999.25    -999.25   18.08550    -999.25    0.33750    0.29370    -999.25    -999.25 2144.54130   20.49010   -0.78950   -6.84230   20.49010
 2300.00000  366.70870  333.58450  366.70870   17.24880  223.18140  223.18140 2396.56000    -999.25    0.15360    0.18330   57.97510  201.52990  201.52990   45.75990    -999.25   47.52960   47.52960   57.97510   46.25720    -999.25    -999.25   46.25720    -999.25    0.19650    0.15310    -999.25    -999.25 2396.77150  100.79270   -0.55940   -6.55090  100.79270
 2350.00000  410.79060  347.74430  410.79060   41.35750  159.97060  159.97060 2082.73000    -999.25    0.34380    0.36680   24.17940  225.08970  225.08970   70.10470    -999.25   77.11220   77.11220   24.17940   21.33780    -999.25    -999.25   21.33780    -999.25    0.36180    0.31830    -999.25    -999.25 2089.64430   23.85300    1.54950   -7.04700   23.85300
 2400.00000  337.56460  337.91850  337.56460   58.63310   78.35210   78.35210 2586.31000    -999.25    0.03860    0.07230   17.05520  232.37970  232.37970   84.91620    -999.25   85.33320   85.33320   17.05520   15.81630    -999.25    -999.25   15.81630    -999.25    0.40670    0.36400    -999.25    -999.25 2581.80470   16.72120    1.36080   -9.84070   16.72120
 2450.00000  348.84170  345.65900  348.84170   51.63100   39.23850   39.23850 2583.34000    -999.25    0.04040    0.07410   19.36820  236.99950  236.99950   82.90300    -999.25   85.46460   85.46460   19.36820   18.32130    -999.25    -999.25   18.32130    -999.25    0.44340    0.40150    -999.25    -999.25 2578.49560   22.93660    9.21370   -4.59290   22.93660
 2500.00000  326.52140  332.37570  326.52140   58.27000   14.32960   14.32960 2633.50000    -999.25    0.01000    0.04470   17.16150  244.09720  244.09720   77.85400    -999.25   76.97550   76.97550   17.16150   16.25960    -999.25    -999.25   16.25960    -999.25    0.39120    0.34820    -999.25    -999.25 2627.58200   19.01010    8.78490   -7.62670   19.01010
 2550.00000  331.95080  335.81210  331.95080  110.55950   26.53930   26.53930 2559.08500    -999.25    0.05510    0.08830    9.04490  266.41030  266.41030   87.93700    -999.25   91.38910   91.38910    9.04490    8.46310    -999.25    -999.25    8.46310    -999.25    0.44740    0.40560    -999.25    -999.25 2554.89990    9.18450   11.91760   -7.09900    9.18450
 2600.00000  324.17540  331.38480  324.17540  105.16910   17.88380   17.88380 2609.08000    -999.25    0.02480    0.05900    9.50850  252.89640  252.89640   85.10550    -999.25   90.41120   90.41120    9.50850    9.08080    -999.25    -999.25    9.08080    -999.25    0.39200    0.34900    -999.25    -999.25 2600.36470    9.59120   20.06970   -1.55190    9.59120
 2650.00000  322.08730  333.03920  322.08730   87.61630   21.57380   21.57380 2617.66000    -999.25    0.01960    0.05400   11.41340  242.93890  242.93890   78.42280    -999.25   74.94220   74.94220   11.41340   11.71380    -999.25    -999.25   11.71380    -999.25    0.37420    0.33090    -999.25    -999.25 2616.74660   13.16100   20.96670   -1.57910   13.16100
 2700.00000  318.79540  336.91750  318.79540  109.09050   19.43990   19.43990 2598.52000    -999.25    0.03120    0.06520    9.16670  255.23030  255.23030   89.11180    -999.25   79.11710   79.11710    9.16670    8.88000    -999.25    -999.25    8.88000    -999.25    0.32690    0.28310    -999.25    -999.25 2594.06320    9.57750   18.49320   -4.94250    9.57750
 2750.00000  311.24800  321.24920  311.24800   16.61140   25.90300   25.90300 2477.41000    -999.25    0.10460    0.13600   60.19970  242.47800  242.47800   32.02350    -999.25   26.16950   26.16950   60.19970   44.93380    -999.25    -999.25   44.93380    -999.25    0.11770    0.07550    -999.25    -999.25 2471.09670   53.54370  -14.49480  -38.82040   53.54370
