~Version ---------------------------------------------------
VERS.      2.0 : CWLS log ASCII Standard -VERSION 2.0
WRAP.       NO : One line per depth step
CREA. 07/10/13 : LAS Creation Date
~Well ------------------------------------------------------
STRT.FT                         55.3 : START DEPTH
STOP.FT                      11119.8 : STOP DEPTH
STEP.FT                      0.50000 : STEP LENGTH
NULL.                        -999.25 : NULL VALUE
COMP.         PACIFIC PETROLEUMS LTD : COMPANY
WELL. PACIFIC ET AL TONY 10-18-63-21 : WELL
FLD .                     TONY TOWER : FIELD
LOC .                                : LOCATION
CTRY.                         CANADA : COUNTRY
SRVC.                   Schlumberger : SERVICE COMPANY
DATE.                    24-Sep-1975 : LOGDATE
PROV.                        Alberta : PROVINCE
UWI .               100101806321W500 : UNIQUE WELL ID
SLAT.WGS84                  54.45338 : SURFACE LATITUDE
SLON.WGS84                 -117.1585 : SURFACE LONGITUDE
~Curve Information -----------------------------------------
DEPT   .FT    : DEPTH FEET
CALD   .IN    : CALIPER FROM DENSITY LOG
DCOR   .G/C3  : DENSITY CORRECTION FROM DENSITY LOG
DPHI_LS.DEC   : DENSITY POROSITY LIMESTONE [M=2.71,F=1.0] FROM DENSITY LOG
DPHI_SS.DEC   : DENSITY POROSITY SANDSTONE [M=2.65,F=1.0] FROM DENSITY LOG
GRD    .GAPI  : GAMMA RAY FROM DENSITY LOG
ILD    .OHMM  : DEEP INDUCTION FROM RESISTIVITY LOG
ILM    .OHMM  : MEDIUM INDUCTION FROM RESISTIVITY LOG
LL8    .OHMM  : LATEROLOG FROM RESISTIVITY LOG
NPHI_LS.DEC   : NEUTRON POROSITY LIMESTONE FROM DENSITY LOG
NPHI_SS.DEC   : NEUTRON POROSITY SANDSTONE FROM DENSITY LOG
RHOB   .G/C3  : BULK DENSITY FROM DENSITY LOG
SPR    .MV    : SPONTANEOUS POTENTIAL FROM RESISTIVITY LOG
~Params ----------------------------------------------------
PD  .                     GL : PERMANENT DATUM
EPD .FT                 2714 : ELEVATION PERMANENT DATUM
LMF .                     KB : LOG MEASURED FROM
DAPD.FT                 13.7 : FEET ABOVE PERMANENT DATUM
EKB .FT               2727.7 : KELLY BUSHING
EGL .FT                 2714 : GROUND LEVEL
DATE.               09/24/75 : RUN DATE
RUN .                      1 : RUN NUMBER
DD  .FT                11125 : DEPTH DRILLER
DL  .FT                11121 : DEPTH LOGGER
BLI .FT                11115 : BOTTOM LOG INTERVAL
TLI .FT                 1125 : TOP LOG INTERVAL
CBD .FT                 1125 : CASING BOTTOM DRILLER
CBL .FT                 1125 : CASING BOTTOM LOGGER
BS  .IN                 8.75 : BIT SIZE
BSD .FT                11125 : BIT SIZE AT DEPTH
DFT .               GEL CHEM : DRILLING FLUID TYPE
DFD .                    9.3 : DRILLING FLUID DENSITY
DFV .                    147 : DRILLING FLUID VISCOSITY
DFPH.                    9.5 : DRILLING FLUID PH
DFL .                    9.2 : DRILLING FLUID LOSS
MSS .               FLOWLINE : MUD SAMPLE SOURCE
RMS .OHMM               1.62 : RESISTIVITY MUD SAMPLE
MST .DEGF                 72 : MUD SAMPLE TEMPERATURE
RMF .OHMM               1.26 : RESISTIVITY MUD FILTRATE SAMPLE
MFST.DEGF                 68 : MUD FILTRATE SAMPLE TEMPERATURE
RMB .OHMM               0.41 : RESISTIVITY MUD AT BHT
TCS .HRS                 3.5 : TIME CIRCULATED STOPPED
LUN .                   7691 : LOGGING UNIT NUMBER
LUL .                    EDM : LOGGING UNIT LOCATION
ENGI.              CROCKFORD : RECORDING ENGINEER
WITN.                   ROSS : WITNESSED BY
CLNT.                A2DTECH : CLIENT CODE
ORIG.            2" 5" PRINT : ORIGIN OF DATA
UWI .       100101806321W500 : UNIQUE WELL ID
DICO. A2D Technologies, Inc. : DIGITIZING COMPANY
~Other -----------------------------------------------------
~ASCII -----------------------------------------------------
# ...
 1119.30000    -999.25    -999.25    -999.25    -999.25   47.06800    -999.25    -999.25    -999.25    -999.25    0.44640    -999.25    -999.25
 1119.80000    -999.25    -999.25    -999.25    -999.25   44.72690    -999.25    -999.25    -999.25    -999.25    0.43600    -999.25    -999.25
 1120.30000    -999.25    -999.25    -999.25    -999.25   42.99130    -999.25    -999.25    -999.25    -999.25    0.42430    -999.25    -999.25
 1120.80000    -999.25    -999.25    -999.25    -999.25   42.18690    -999.25    -999.25    -999.25    -999.25    0.42790    -999.25    -999.25
 1121.30000    -999.25    -999.25    -999.25    -999.25   41.92450    -999.25    -999.25    -999.25    -999.25    0.43700    -999.25    -999.25
 1121.80000    -999.25    -999.25    -999.25    -999.25   42.02040    -999.25    -999.25    -999.25    -999.25    0.44150    -999.25    -999.25
 1122.30000    -999.25    -999.25    -999.25    -999.25   42.94800    -999.25    -999.25    -999.25    -999.25    0.44350    -999.25    -999.25
 1122.80000    -999.25    -999.25    -999.25    -999.25   43.85580    -999.25    -999.25    -999.25    -999.25    0.43660    -999.25    -999.25
 1123.30000    -999.25    -999.25    -999.25    -999.25   44.70850    -999.25    -999.25    -999.25    -999.25    0.42890    -999.25    -999.25
 1123.80000    -999.25    -999.25    -999.25    -999.25   45.51010    -999.25    -999.25    -999.25    -999.25    0.42750    -999.25    -999.25
 1124.30000    -999.25    -999.25    -999.25    -999.25   46.59580    -999.25    -999.25    -999.25    -999.25    0.43030    -999.25    -999.25
 1124.80000    9.36750   -0.27270    -999.25    0.21170   48.27950    -999.25    -999.25    0.49080    -999.25    0.42580    2.28800  -85.84850
 1125.30000    9.41870   -0.27100    -999.25    0.20720   51.12430    -999.25    -999.25    0.71370    -999.25    0.41870    2.29030  -87.90790
 1125.80000    9.47910   -0.26820    -999.25    0.20280   54.67080    9.98080    -999.25    1.58580    -999.25    0.42360    2.30980  -91.72680
 1126.30000    9.51680   -0.26510    -999.25    0.18120   58.62120    9.93450    -999.25    5.50140    -999.25    0.43770    2.32250  -92.89040
 1126.80000    9.55300   -0.20910    -999.25    0.13900   62.40610    6.23630    -999.25    6.80800    -999.25    0.44060    2.33870  -90.82370
 1127.30000    9.58740   -0.03190    -999.25    0.11360   66.19100    2.47530    -999.25    8.22560    -999.25    0.40020    2.41860  -88.82760
 1127.80000    9.63610    0.10240    -999.25    0.20030   67.85270    2.36290    -999.25   11.11550    -999.25    0.33810    2.50540  -88.40890
 1128.30000    9.70800    0.06050    -999.25    0.17570   67.00790    4.31200    -999.25   12.49020    -999.25    0.29460    2.40190  -89.08940
 1128.80000    9.70910    0.06920    -999.25    0.15900   66.16960   10.18620    6.63020   11.00970    -999.25    0.27310    2.33270  -89.51620
 1129.30000    9.74340    0.07260    -999.25    0.16420   66.11740   34.27880    6.76860    9.99950    -999.25    0.26430    2.39170  -90.30150
 1129.80000    9.78500    0.06990    -999.25    0.17590   66.46660  663.09050    7.75840    9.08190    -999.25    0.26390    2.40430  -91.06050
 1130.30000    9.80790    0.06360    -999.25    0.18590   66.77470  187.80580    9.62290    8.43190    -999.25    0.28310    2.37610  -92.39580
 1130.80000    9.81080    0.05530    -999.25    0.20270   66.46650   13.46780   11.09730    8.37920    -999.25    0.30110    2.36160  -93.21380
 1131.30000    9.82560    0.04660    -999.25    0.21220   66.16160   10.75040    9.26700    8.87290    -999.25    0.31230    2.33360  -93.89500
 1131.80000    9.84040    0.03520    -999.25    0.22160   65.95780    8.91400    7.41880    9.48540    -999.25    0.31870    2.32160  -94.80650
 1132.30000    9.84650    0.02340    -999.25    0.23140   65.97160    7.84130    7.20850   10.16280    -999.25    0.32280    2.30060  -95.40740
 1132.80000    9.83780    0.02080    -999.25    0.23670   66.42120    7.78300    7.55660   10.05240    -999.25    0.32370    2.29030  -95.47540
 1133.30000    9.78210    0.02360    -999.25    0.24070   67.33070    8.03830    7.59380    8.58050    -999.25    0.32560    2.27220  -94.99530
 1133.80000    9.71720    0.05100    -999.25    0.23170   69.09030    7.89740    6.60540    6.10710    -999.25    0.33040    2.26580  -94.13540
 1134.30000    9.68850    0.08290    -999.25    0.22970   71.48780    7.11450    5.54140    4.83270    -999.25    0.33730    2.27320  -92.94730
 1134.80000    9.88540    0.11600    -999.25    0.22820   73.88520    6.40810    4.77610    4.87080    -999.25    0.34460    2.28150  -92.63100
 1135.30000   10.21700    0.14560    -999.25    0.20250   76.28860    5.77250    4.53410    5.25140    -999.25    0.35230    2.28460  -92.52850
 1135.80000   10.34170    0.17510    -999.25    0.19510   78.64620    5.28210    4.36460    5.66640    -999.25    0.35920    2.29540  -92.59540
 1136.30000    9.83150    0.15970    -999.25    0.22790   79.72450    5.13070    4.27510    5.69060    -999.25    0.33930    2.35430  -93.03320
 1136.80000    9.70570    0.09360    -999.25    0.21700   79.97120    5.24690    4.26620    5.45950    -999.25    0.32840    2.30560  -93.80520
 1137.30000    9.66850    0.03080    -999.25    0.19000   80.22040    5.52420    4.38290    5.46880    -999.25    0.32190    2.27580  -94.15480
 1137.80000    9.66490    0.02440    -999.25    0.17930   80.51360    5.82320    4.51410    5.59580    -999.25    0.32020    2.29870  -94.39470
 1138.30000    9.78500    0.03090    -999.25    0.17230   80.71350    6.05560    4.62410    5.47500    -999.25    0.32570    2.36090  -94.96280
 1138.80000    9.85210    0.06330    -999.25    0.16720   80.29050    6.10150    4.68530    5.32980    -999.25    0.33170    2.37300  -94.95930
 1139.30000    9.63620    0.10210    -999.25    0.16590   78.99380    5.93930    4.72530    5.25270    -999.25    0.33270    2.38470  -94.38820
 1139.80000    9.62220    0.13500    -999.25    0.17350   77.51690    5.67380    4.66110    5.83620    -999.25    0.33740    2.38960  -93.97460
 1140.30000    9.68170    0.16150    -999.25    0.17970   76.25000    5.42010    4.32740    5.94180    -999.25    0.35260    2.37910  -93.73210
 1140.80000   10.07370    0.18550    -999.25    0.18530   76.76410    5.25560    4.00400    5.09350    -999.25    0.35090    2.36970  -93.77620
 1141.30000   10.53770    0.18930    -999.25    0.20790   78.24940    5.24980    3.82560    4.33500    -999.25    0.33760    2.36310  -93.81500
 1141.80000   11.00880    0.19000    -999.25    0.24310   79.73470    5.16890    3.77640    3.87900    -999.25    0.34010    2.34400  -94.19480
 1142.30000   11.90480    0.18860    -999.25    0.27500   80.18510    4.97850    3.74390    4.05630    -999.25    0.36340    2.27880  -94.51850
 1142.80000   12.37160    0.17260    -999.25    0.29700   79.99520    4.79500    3.70190    4.55150    -999.25    0.37400    2.21910  -94.85490
 1143.30000   12.07350    0.14330    -999.25    0.28080   78.97220    4.66400    3.65470    4.55810    -999.25    0.37720    2.17000  -94.78260
 1143.80000   11.23440    0.14670    -999.25    0.26950   77.63890    4.59530    3.60810    4.41530    -999.25    0.37830    2.17430  -94.41740
 1144.30000   10.24950    0.14570    -999.25    0.27540   77.34900    4.58700    3.58540    4.34860    -999.25    0.37130    2.20920  -94.88940
 1144.80000    9.81080    0.12630    -999.25    0.26200   77.81620    4.62270    3.60110    4.40240    -999.25    0.36750    2.21150  -95.35410
 1145.30000    9.94300    0.09730    -999.25    0.23480   78.18180    4.73280    3.62980    4.37150    -999.25    0.37960    2.21650  -95.91080
 1145.80000   10.23370    0.10590    -999.25    0.22910   78.54100    4.88280    3.67980    4.26280    -999.25    0.39560    2.25260  -96.08580
 1146.30000   10.81730    0.15900    -999.25    0.21120   78.68230    4.85950    3.77530    4.15680    -999.25    0.41680    2.28520  -96.01140
 1146.80000   12.05770    0.18050    -999.25    0.22260   78.78850    4.84230    3.87330    4.14470    -999.25    0.43490    2.31620  -95.72740
