~Version ---------------------------------------------------
VERS.      2.0 : CWLS log ASCII Standard -VERSION 2.0
WRAP.       NO : One line per depth step
CREA. 09/06/13 : LAS Creation Date
~Well ------------------------------------------------------
STRT.M                    450.0 : START DEPTH
STOP.M                   4100.0 : STOP DEPTH
STEP.M                 50.00000 : STEP LENGTH
NULL.                   -999.25 : NULL VALUE
COMP.       CANTERRA ENERGY LTD : COMPANY
WELL. CANTERRA EDSON 6-21-51-18 : WELL
FLD .                     EDSON : FIELD
LOC .                           : LOCATION
CTRY.                    CANADA : COUNTRY
SRVC.              Schlumberger : SERVICE COMPANY
DATE.               24-Jan-1986 : LOGDATE
PROV.                   Alberta : PROVINCE
UWI .          100062105118W500 : UNIQUE WELL ID
SLAT.WGS84             53.41479 : SURFACE LATITUDE
SLON.WGS84            -116.5963 : SURFACE LONGITUDE
~Curve Information -----------------------------------------
DEPT    .M      : DEPTH METER
CALDED  .MM     : CALIPER FROM DENSITY LOG [ADJ. TO RESISTIVITY LOG]
CALSED  .MM     : CALIPER FROM DENSITY LOG [ADJ. TO RESISTIVITY LOG]
CALWS   .MM     : CALIPER [CALDED]
CONDWS  .MMHO   : CONDUCTIVITY [1000/DRESWS]
DCORWS  .KG/M3  : DENSITY CORRECTION [DRHOED]
DENWS   .KG/M3  : FORMATION BULK DENSITY [RHOBED]
DPHISSED.V/V    : DENSITY POROSITY SANDSTONE [M=2650,F=1000] FROM DENSITY LOG
DPOLSWS .V/V    : DENSITY POROSITY LIMESTONE [CALC FROM DENWS,M=2710,F=1000]
DRESWS  .OHMM   : DEEP RESISTIVITY [ILDED SPL. TO LLDED @2999M]
DRHOED  .KG/M3  : BULK DENSITY CORRECTION  FROM DENSITY LOG [ADJ. TO RESISTIVITY LOG]
DTED    .US/M   : DELTA-T FROM SONIC LOG [ADJ. TO RESISTIVITY LOG]
DTWS    .US/M   : COMPRESSIONAL SONIC [DTED]
GRRED   .GAPI   : GAMMA RAY FROM RESISTIVITY LOG
GRSED   .GAPI   : GAMMA RAY FROM SONIC LOG [ADJ. TO RESISTIVITY LOG]
GRWS    .GAPI   : GAMM ARY [SGRDDED SPL. TO GRRED @3001M-3014M]
ILDED   .OHMM   : DEEP INDUCTION RESISTIVITY FROM RESISTIVITY LOG
ILMED   .OHMM   : MEDIUM INDUCTION RESISTIVITY FROM RESISTIVITY LOG
LLDED   .OHMM   : DEEP RESISTIVITY FROM LATEROLOG
LLSED   .OHMM   : SHALLOW RESISTIVITY FROM LATEROLOG
MRESWS  .OHMM   : MEDIUM RESISTIVITY [ILMED]
NPHILSED.V/V    : NEUTRON POROSITY LIMESTONE FROM DENSITY LOG [ADJ. TO RESISTIVITY LOG]
NPHISSED.V/V    : NEUTRON POROSITY SANDSTONE FROM DENSITY LOG [ADJ. TO RESISTIVITY LOG]
NPOLSWS .V/V    : NEUTRON POROSITY LIMESTONE [NPHILSED]
PEFED   .B/E    : PHOTOELECTRIC FACTOR FROM DENSITY LOG [ADJ. TO RESISTIVITY LOG]
PEFWS   .B/E    : PHOTOELECTRIC FACTOR [PEFED]
PROXED  .OHMM   : PROXIMITY RESISTIVITY FROM RESISTIVITY LOG
RHOBED  .KG/M3  : BULK DENSITY FROM DENSITY LOG [ADJ. TO RESISTIVITY LOG]
SGRDDED .GAPI   : GAMMA RAY FROM DENSITY LOG [ADJ. TO RESISTIVITY LOG]
SPRED   .MV     : SPONTANEOUS POTENTIAL FROM RESISTIVITY LOG
SPWS    .MV     : SPONTANEOUS POTENTIAL [BASELINE 0 MV,SPRED]
SRESWS  .OHMM   : SHALLOW RESISTIVITY [LLSED]
TENDED  .N      : TENSION FROM DENSITY LOG [ADJ. TO RESISTIVITY LOG]
TENRED  .N      : TENSION FROM RESISTIVITY LOG
TENSED  .N      : TENSION FROM SONIC LOG [ADJ. TO RESISTIVITY LOG]
~Params ----------------------------------------------------
PD  .                         GL : PERMANENT DATUM
EPD .M                      1000 : ELEVATION PERMANENT DATUM
LMF .                         KB : LOG MEASURED FROM
DAPD.M                      10.6 : FEET ABOVE PERMANENT DATUM
DMF .                         KB : DRILLING MEASURED FROM
EKB .M                    1010.6 : KELLY BUSHING
EGL .M                      1000 : GROUND LEVEL
DATE.                   01/24/86 : RUN DATE
RUN .                          2 : RUN NUMBER
DD  .M                      4115 : DEPTH DRILLER
DL  .M                      4115 : DEPTH LOGGER
BLI .M                      4110 : BOTTOM LOG INTERVAL
TLI .M                      3020 : TOP LOG INTERVAL
CS  .MM                      244 : CASING SIZE
CBD .M                      3020 : CASING BOTTOM DRILLER
CBL .M                      3030 : CASING BOTTOM LOGGER
BS  .MM                      216 : BIT SIZE
BSD .M                      4115 : BIT SIZE AT DEPTH
DFT .                   GEL CHEM : DRILLING FLUID TYPE
DFD .                       1140 : DRILLING FLUID DENSITY
DFV .                         79 : DRILLING FLUID VISCOSITY
DFPH.                         11 : DRILLING FLUID PH
DFL .                        6.5 : DRILLING FLUID LOSS
MSS .                      PRESS : MUD SAMPLE SOURCE
RMS .OHMM                   0.73 : RESISTIVITY MUD SAMPLE
MST .DEGC                     23 : MUD SAMPLE TEMPERATURE
RMF .OHMM                   0.57 : RESISTIVITY MUD FILTRATE SAMPLE
MFST.DEGC                     21 : MUD FILTRATE SAMPLE TEMPERATURE
MFSS.                       MEAS : MUD FILTRATE SAMPLE SOURCE
MCSS.                       MEAS : MUD CAKE SAMPLE SOURCE
RMB .OHMM                  0.238 : RESISTIVITY MUD AT BHT
TCS .HRS                     730 : TIME CIRCULATED STOPPED
TLAB.HRS                    1850 : TIME LOGGER AT BOTTOM
LUN .                       8393 : LOGGING UNIT NUMBER
LUL .                        EDM : LOGGING UNIT LOCATION
ENGI.                      YOUNG : RECORDING ENGINEER
WITN.                    TIMMONS : WITNESSED BY
CLNT.                    A2DTECH : CLIENT CODE
ORIG. 6.5"/100M 16.5"/100M PRINT : ORIGIN OF DATA
UWI .           100062105118W500 : UNIQUE WELL ID
DICO.     A2D Technologies, Inc. : DIGITIZING COMPANY
~Other -----------------------------------------------------
DIL-SFL-CNL-LDT-BCS LOG RAN
SGRDDED ID DUPLICATE WITH GRRED @3018M-4005 HENCE SGRDDED SHOWING GAP
GRRED VARIFY BOTH LOG ID:-DILSFL_10110535,CNLD_9698906 @3018M-4005
~ASCII -----------------------------------------------------
# ...
 2550.00000  317.72770  269.38920  317.72770  105.72610   -2.86780 2622.59160    0.01650    0.05110    9.45840   -2.86780  251.25140  251.25140   93.61430   93.32290   93.61430    9.45840    9.76220    -999.25    -999.25    9.76220    0.22530    0.26770    0.22530    3.16020    3.16020    -999.25 2622.59160   90.51480    -999.25    -999.25    -999.25    -999.25 65749.82830 14805.53220
 2600.00000  315.12330  266.48630  315.12330  113.32860   -0.31150 2571.26420    0.04690    0.08110    8.82390   -0.31150  295.79150  295.79150  168.99150  168.75440  168.99150    8.82390    9.22060    -999.25    -999.25    9.22060    0.26180    0.30220    0.26180    3.42420    3.42420    -999.25 2571.26420  167.98930    -999.25    -999.25    -999.25    -999.25 67242.75430 15088.01070
 2650.00000  313.91990  266.82300  313.91990  365.44360   13.34980 2645.46480   -0.00010    0.03770    2.73640   13.34980  298.51850  298.51850  102.68520  103.01180  102.68520    2.73640    3.02580    -999.25    -999.25    3.02580    0.29440    0.33710    0.29440    3.51420    3.51420    -999.25 2645.46480   97.50050    -999.25    -999.25    -999.25    -999.25 68577.43340 15364.89060
 2700.00000  312.41460  265.67870  312.41460  100.48640    1.09390 2653.87650   -0.00260    0.03280    9.95160    1.09390  250.21770  250.21770   85.71520   85.84760   85.71520    9.95160   10.27270    -999.25    -999.25   10.27270    0.25680    0.30010    0.25680    3.31500    3.31500    -999.25 2653.87650   84.91510    -999.25    -999.25    -999.25    -999.25 69599.32110 15587.84180
 2750.00000  354.55050  304.09170  354.55050   56.36090   46.29510 1834.46530    0.43190    0.51200   17.74280   46.29510  359.75450  359.75450   78.92910   79.71950   78.92910   17.74280   21.67410    -999.25    -999.25   21.67410    0.45360    0.42900    0.45360    1.72750    1.72750    -999.25 1834.46530   65.41590    -999.25    -999.25    -999.25    -999.25 70734.27770 15612.26270
 2800.00000  315.08510  271.42420  315.08510   50.83290    3.33540 2689.57720   -0.02490    0.01190   19.67230    3.33540  220.11750  220.11750   71.90260   71.88810   71.90260   19.67230   20.33430    -999.25    -999.25   20.33430    0.20550    0.24650    0.20550    3.49160    3.49160    -999.25 2689.57720   71.07940    -999.25    -999.25    -999.25    -999.25 71599.17880 15875.31050
 2850.00000  317.85190  287.28210  317.85190   20.01770   -1.60010 2580.20820    0.04820    0.07590   49.95570   -1.60010  226.57590  226.57590   27.88570   28.29320   27.88570   49.95570   60.47290    -999.25    -999.25   60.47290    0.07400    0.11500    0.07400    1.90770    1.90770    -999.25 2580.20820   31.45910    -999.25    -999.25    -999.25    -999.25 72083.71380 16192.36720
 2900.00000  314.86800  272.24170  314.86800   33.69080   15.01200 2654.06490   -0.00260    0.03270   29.68170   15.01200  214.97680  214.97680   78.80490   77.83210   78.80490   29.68170   32.64700    -999.25    -999.25   32.64700    0.17770    0.22240    0.17770    3.00720    3.00720    -999.25 2654.06490   71.30630    -999.25    -999.25    -999.25    -999.25 73211.91580 16424.87500
 2950.00000  313.97000  270.80320  313.97000   24.09060   -1.55030 2664.83390   -0.00860    0.02640   41.51000   -1.55030  203.41480  203.41480   75.06390   74.33630   75.06390   41.51000   43.02780    -999.25    -999.25   43.02780    0.17350    0.21440    0.17350    2.97910    2.97910    -999.25 2664.83390   73.78070    -999.25    -999.25    -999.25    -999.25 74576.61600 16718.06840
 3000.00000  309.08510  271.64040  309.08510    -999.25   75.17210 2603.67290    0.03010    0.06220    -999.25   75.17210  181.73690  181.73690   18.69660   18.60850   18.69660    -999.25 1982.17520    -999.25    -999.25 1982.17520    0.02420    0.05790    0.02420    1.79980    1.79980    -999.25 2603.67290   18.00720    -999.25    -999.25    -999.25    -999.25 75868.47700 17030.63670
 3050.00000  246.60450  236.71890  246.60450    1.49440    0.83510 2554.43900    -999.25    0.09100  669.16710    0.83510  222.46340  222.46340  300.08220    -999.25  300.08220    -999.25    -999.25  669.16710  583.34780    -999.25    0.16350    -999.25    0.16350    6.29780    6.29780  213.37170 2554.43900    -999.25  -68.65290 -102.21170  583.34780 17223.99020 6919.22920 1485.41550
 3100.00000  248.31810  235.10790  248.31810    5.01470   -4.44520 2820.59020    -999.25   -0.06470  199.41520   -4.44520  168.07790  168.07790   37.07770   55.80910   37.07770    -999.25    -999.25  199.41520  216.62600    -999.25    0.05710    -999.25    0.05710    3.88440    3.88440   30.26370 2820.59020    -999.25  -90.32380 -119.23470  216.62600 17522.02730 7094.27070 1513.58170
 3150.00000  265.07850  272.11430  265.07850    0.04930   15.82090 2928.11340    -999.25   -0.12760 20302.36520   15.82090  169.40540  169.40540   10.19840    8.94780   10.19840    -999.25    -999.25 20302.36520 10504.36820    -999.25    0.00950    -999.25    0.00950    5.19360    5.19360  371.35310 2928.11340    -999.25  -70.54960  -94.81260 10504.36820 17520.67580 7133.81500 1543.48450
 3200.00000  243.42100  232.15870  243.42100   12.13560   20.91010 2779.24070    -999.25   -0.04050   82.40200   20.91010  174.55250  174.55250   48.29650   57.78130   48.29650    -999.25    -999.25   82.40200   53.85910    -999.25    0.06960    -999.25    0.06960    3.10440    3.10440   33.95040 2779.24070    -999.25  -52.77850  -72.39360   53.85910 18152.52150 7306.71870 1574.27870
 3250.00000  254.23200  238.76410  254.23200   25.08500   50.69330 2695.65340    -999.25    0.00840   39.86440   50.69330  185.07110  185.07110   41.53080   47.63330   41.53080    -999.25    -999.25   39.86440   36.48670    -999.25    0.07430    -999.25    0.07430    3.94120    3.94120   36.24190 2695.65340    -999.25  -86.73600 -101.70320   36.48670 18263.06840 7397.16040 1578.62370
 3300.00000  260.12350  245.18200  260.12350   23.92930   -4.55660 2679.04820    -999.25    0.01810   41.78980   -4.55660  188.16570  188.16570   46.92240   50.19480   46.92240    -999.25    -999.25   41.78980   36.25380    -999.25    0.06420    -999.25    0.06420    4.09270    4.09270   32.55370 2679.04820    -999.25  -60.59140  -70.91070   36.25380 18757.36720 7501.30350 1615.38290
 3350.00000  250.30080  238.42460  250.30080    0.71270    0.76970 2707.68360    -999.25    0.00140 1403.19450    0.76970  164.90390  164.90390   22.48690   26.79750   22.48690    -999.25    -999.25 1403.19450 1600.17720    -999.25    0.01810    -999.25    0.01810    5.46990    5.46990  445.49250 2707.68360    -999.25  -28.16260  -35.31330 1600.17720 18937.59770 7602.98940 1636.44590
 3400.00000  244.67820  235.42470  244.67820    0.02810    2.11380 2703.96140    -999.25    0.00350 35536.13280    2.11380  156.34500  156.34500    6.59620    9.49450    6.59620    -999.25    -999.25 35536.13280 19472.12890    -999.25    0.01070    -999.25    0.01070    4.93030    4.93030 1803.02090 2703.96140    -999.25 -107.27730 -113.03850 19472.12890 19003.32620 7685.27030 1650.29150
 3450.00000  242.09870  236.91590  242.09870    0.32360    8.49070 2683.36020    -999.25    0.01560 3089.83080    8.49070  158.90070  158.90070    7.61170    8.40170    7.61170    -999.25    -999.25 3089.83080 1418.43350    -999.25    0.01210    -999.25    0.01210    5.07090    5.07090  197.58030 2683.36020    -999.25 -120.57530 -124.86160 1418.43350 19092.46290 7772.22820 1662.19890
 3500.00000  242.64830  235.78920  242.64830    0.32440   -4.71330 2681.13940    -999.25    0.01690 3082.21530   -4.71330  156.59310  156.59310   11.10350   13.85550   11.10350    -999.25    -999.25 3082.21530 1713.99570    -999.25    0.01280    -999.25    0.01280    4.77220    4.77220  553.91210 2681.13940    -999.25  -88.13680  -90.81140 1713.99570 19810.87500 7908.05020 1714.78640
 3550.00000  244.30930  241.58610  244.30930    2.58120   13.73120 2721.75260    -999.25   -0.00690  387.41080   13.73120  164.57410  164.57410    8.94260   10.68850    8.94260    -999.25    -999.25  387.41080  280.24900    -999.25    0.02830    -999.25    0.02830    4.41600    4.41600    3.58630 2721.75260    -999.25 -121.27990 -122.34280  280.24900 19730.61520 8000.63100 1735.42770
