~Version ---------------------------------------------------
VERS.      2.0 : CWLS log ASCII Standard -VERSION 2.0
WRAP.       NO : ONE LINE PER DEPTH STEP
CREA. 08/27/13 : LAS CREATION DATE
~Well ------------------------------------------------------
STRT.M                             350.0 : START DEPTH
STOP.M                            3450.0 : STOP DEPTH
STEP.M                          50.00000 : STEP LENGTH
NULL.                            -999.25 : NULL VALUE
COMP. CANADIAN NATURAL RESOURCES LIMITED : COMPANY
WELL.          RAX WASKAHIGAN 3-32-63-22 : WELL
FLD .                                 WC : FIELD
LOC .                                    : LOCATION
CTRY.                             CANADA : COUNTRY
SRVC.                       Schlumberger : SERVICE COMPANY
DATE.                        20-Aug-1985 : LOGDATE
PROV.                            Alberta : PROVINCE
UWI .                   100033206322W500 : UNIQUE WELL ID
SLAT.WGS84                      54.49004 : SURFACE LATITUDE
SLON.WGS84                     -117.2927 : SURFACE LONGITUDE
~Curve Information -----------------------------------------
DEPT    .M      : DEPTH METERS
C2ED    .MM     : CALIPER 2 FROM DENSITY LOG, DEPTH ADJUSTED WITH [GRRED]
CALDED  .MM     : CALIPER FROM DENSITY LOG, DEPTH ADJUSTED WITH [GRRED]
CALRED  .MM     : CALIPER FROM RESISTIVITY LOG
CALWS   .MM     : CALIPER [CALRED]
CONDWS  .MMHO   : CONDUCTIVITY [1000/DRESWS]
DCORWS  .KG/M3  : DENSITY CORRECTION {DRHOED]
DENWS   .KG/M3  : BULK DENSITY [RHOBED]
DPHILSED.V/V    : DENSITY POROSITY [M=2710 F=1000] FROM DENSITY LOG, DEPTH ADJUSTED WITH [GRRED]
DPHISSED.V/V    : DENSITY POROSITY [M=2650 F=1000] FROM DENSITY LOG, DEPTH ADJUSTED WITH [GRRED]
DPOLSWS .V/V    : DENSITY POROSITY LIMESTONE [CALCULATED FROM DENWS]
DRESWS  .OHMM   : DEEP RESISTIVITY [ILDED]
DRHOED  .KG/M3  : DENSITY CORRECTION FROM DENSITY LOG, DEPTH ADJUSTED WITH [GRRED]
DTED    .US/M   : DELTA TIME FROM SONIC LOG
DTWS    .US/M   : DELTA TIME [DTED]
GRDED   .GAPI   : GAMMA RAY FROM DENSITY LOG, DEPTH ADJUSTED WITH [GRRED]
GRRED   .GAPI   : GAMMA RAY FROM RESISTIVITY LOG
GRWS    .GAPI   : GAMMA RAY [GRRED]
ILDED   .OHMM   : INDUCTION LOG DEEP RESISTIVITY
ILMED   .OHMM   : INDUCTION LOG MEDIUM RESISTIVITY
MRESWS  .OHMM   : MEDIUM RESISTIVITY [ILMED]
NPHILSED.V/V    : NEUTRON POROSITY LIMESTONE FROM DENSITY LOG, DEPTH ADJUSTED WITH [GRRED]
NPHISSED.V/V    : NEUTRON POROSITY SANDSTONE FROM DENSITY LOG, DEPTH ADJUSTED WITH [GRRED]
NPOLSWS .V/V    : NEUTRON POROSITY LIMESTONE [NPHILSED]<2128> MATRIX CONVERTED [NPHISSED] TO LIMESTONE
PEFED   .B/E    : PHOTOELECTRIC FACTOR FROM DENSITY LOG, DEPTH ADJUSTED WITH [GRRED]
PEFWS   .B/E    : PHOTOELECTRIC FACTOR [PEFED]
RHOBED  .KG/M3  : BULK DENSITY FROM DENSITY LOG, DEPTH ADJUSTED WITH [GRRED]
SFLUED  .OHMM   : SPHERICALLY FOCUSED LOG RESISTIVITY
SPRED   .MV     : SPONTANEOUS POTENTIAL FROM RESISTIVITY LOG
SPWS    .MV     : SPONTANEOUS POTENTIAL [BASELINE 0 MV] [SPRED]
SRESWS  .OHMM   : SHALLOW RESISTIVITY [SFLUED]
TENDED  .N      : TENSION FROM DENSITY LOG , DEPTH ADJUSTED WITH [GRRED]
TENRED  .N      : TENSION FROM RESISTIVITY LOG
~Params ----------------------------------------------------
PD  .                     GL : PERMANENT DATUM
EPD .M                 821.2 : ELEVATION PERMANENT DATUM
LMF .                     KB : LOG MEASURED FROM
DAPD.M                   6.4 : FEET ABOVE PERMANENT DATUM
DMF .                     KB : DRILLING MEASURED FROM
EKB .M                 827.6 : KELLY BUSHING
EDF .M                 827.2 : DRILLING FLOOR
EGL .M                 821.2 : GROUND LEVEL
DATE.               08/20/85 : RUN DATE
RUN .                      1 : RUN NUMBER
DD  .M                  3450 : DEPTH DRILLER
DL  .M                3454.7 : DEPTH LOGGER
BLI .M                  3454 : BOTTOM LOG INTERVAL
TLI .M                 444.5 : TOP LOG INTERVAL
CS  .MM                244.5 : CASING SIZE
CBD .M                   444 : CASING BOTTOM DRILLER
CBL .M                   444 : CASING BOTTOM LOGGER
BS  .MM                  222 : BIT SIZE
BSD .M                  3450 : BIT SIZE AT DEPTH
DFT .               GEL CHEM : DRILLING FLUID TYPE
DFD .                   1125 : DRILLING FLUID DENSITY
DFV .                    135 : DRILLING FLUID VISCOSITY
DFPH.                   10.5 : DRILLING FLUID PH
DFL .                    8.2 : DRILLING FLUID LOSS
MSS .               FLOWLINE : MUD SAMPLE SOURCE
RMS .OHMM                1.9 : RESISTIVITY MUD SAMPLE
MST .DEGC               18.0 : MUD SAMPLE TEMPERATURE
RMF .OHMM               1.76 : RESISTIVITY MUD FILTRATE SAMPLE
MFST.DEGC               18.0 : MUD FILTRATE SAMPLE TEMPERATURE
RMC .OHMM               1.59 : RESISTIVITY MUD CAKE
MCST.DEGC               19.0 : MUD CAKE SAMPLE TEMPERATURE
MFSS.                   MEAS : MUD FILTRATE SAMPLE SOURCE
MCSS.                   MEAS : MUD CAKE SAMPLE SOURCE
RMB .OHMM              0.528 : RESISTIVITY MUD AT BHT
TCS .HRS                1030 : TIME CIRCULATED STOPPED
TLAB.HRS                2100 : TIME LOGGER AT BOTTOM
LUN .                   8204 : LOGGING UNIT NUMBER
LUL .                     GP : LOGGING UNIT LOCATION
ENGI.          HOWELL MACKAY : RECORDING ENGINEER
WITN.         SALAZAR SHARPE : WITNESSED BY
CLNT.                A2DTECH : CLIENT CODE
ORIG.       6.5" 16.5" PRINT : ORIGIN OF DATA
UWI .       100033206322W500 : UNIQUE WELL ID
DICO. A2D Technologies, Inc. : DIGITIZING COMPANY
~Other -----------------------------------------------------
~ASCII -----------------------------------------------------
# ...
 2550.00000  207.12170  233.62300  233.70100  233.70100    1.15070    5.96660 2673.90000    0.02280    -999.25    0.02110  869.07140    5.96660  171.14940  171.14940   31.18170   34.47450   34.47450  869.07140  938.66850  938.66850    0.02190    -999.25    0.02190    4.91190    4.91190 2673.90000 1742.83110  -26.23640  -44.77220 1742.83110 1546117.24960 1487682.58600
 2600.00000  201.89090  228.88760  231.40470  231.40470   27.88320  -14.71630 2676.50000    0.02070    -999.25    0.01960   35.86390  -14.71630  191.18190  191.18190   59.98670   63.35320   63.35320   35.86390   38.96560   38.96560    0.05440    -999.25    0.05440    4.86500    4.86500 2676.50000   48.04400   -5.68000  -15.05940   48.04400 1551284.11350 1532032.16320
 2650.00000  236.56850  230.83950  230.72490  230.72490   12.28050  -16.39860 2674.60000    0.02120    -999.25    0.02070   81.43010  -16.39860  187.75600  187.75600   60.16350   56.30700   56.30700   81.43010   83.08370   83.08370    0.05710    -999.25    0.05710    4.41250    4.41250 2674.60000  105.97260  -38.88270  -40.66590  105.97260 1559531.58800 1556367.31360
 2700.00000  224.98310  289.29340  235.06650  235.06650    0.51750  293.92350 2545.40000    0.10410    -999.25    0.09630 1932.24210  293.92350  161.33740  161.33740   16.83490   18.99570   18.99570 1932.24210 1504.67440 1504.67440    0.00330    -999.25    0.00330    4.39630    4.39630 2545.40000 1977.44400 -209.76190 -209.22360 1977.44400 1655826.94810 1563235.76210
 2750.00000  227.41840  285.78500  253.25410  253.25410    0.86800  130.78690 2336.00000    0.22900    -999.25    0.21870 1152.00790  130.78690  174.29870  174.29870   11.02160    9.64260    9.64260 1152.00790  554.51060  554.51060    0.01470    -999.25    0.01470    4.20250    4.20250 2336.00000  628.29130 -191.31480 -190.56790  628.29130 1622714.25740 1591722.18900
 2800.00000  262.22200  216.52430  232.54670  232.54670   10.15610  -10.24980 2657.00000    0.03180    -999.25    0.03100   98.46340  -10.24980  168.14400  168.14400   10.87750   10.38390   10.38390   98.46340   85.26520   85.26520    0.01070    -999.25    0.01070    6.01040    6.01040 2657.00000   95.84770 -134.26250 -133.30690   95.84770 1622836.51120 1630595.31180
 2850.00000  359.77660  213.90480  237.26990  237.26990    6.49600  -12.22150 2665.30000    0.02660    -999.25    0.02610  153.94060  -12.22150  170.70060  170.70060   12.32650   12.96360   12.96360  153.94060   89.94660   89.94660    0.01200    -999.25    0.01200    4.92020    4.92020 2665.30000  137.55020 -109.72720 -108.56300  137.55020 1651795.99460 1638364.63780
 2900.00000  224.60030  251.58690  232.00320  232.00320    1.07540  149.14010 2694.50000    0.00970    -999.25    0.00910  929.91330  149.14010  162.50150  162.50150   15.55520   16.56260   16.56260  929.91330  256.10600  256.10600    0.01980    -999.25    0.01980    3.45120    3.45120 2694.50000  835.21030  -77.59450  -76.22170  835.21030 1672324.70810 1656740.97330
 2950.00000  223.65790  326.47560  239.75770  239.75770    1.43110  186.74040 2475.40000    0.13240    -999.25    0.13720  698.77780  186.74040  167.28250  167.28250   27.40900   25.38740   25.38740  698.77780  227.59500  227.59500    0.01680    -999.25    0.01680    3.56290    3.56290 2475.40000 1045.18100  -77.86750  -76.28600 1045.18100 1694099.66850 1702007.56620
 3000.00000  213.92780  223.89550  227.81710  227.81710    5.67180  -16.13860 2685.80000    0.01460    -999.25    0.01420  176.31070  -16.13860  166.62900  166.62900   26.70380   26.52470   26.52470  176.31070  204.32140  204.32140    0.00860    -999.25    0.00860    5.47840    5.47840 2685.80000  231.58200  -96.50220  -94.71210  231.58200 1757802.39920 1710516.03680
 3050.00000  231.74970  226.77620  226.34640  226.34640    4.24160  -26.17810 2669.00000    0.02410    -999.25    0.02400  235.76210  -26.17810  169.74980  169.74980   28.26830   27.13580   27.13580  235.76210  224.08750  224.08750    0.00860    -999.25    0.00860    5.57010    5.57010 2669.00000  472.90740  -77.17500  -75.17620  472.90740 1790776.69790 1739124.01700
 3100.00000  239.20470  245.74060  250.86310  250.86310  150.27200   -7.31110 2287.10000    0.22510    -999.25    0.24730    6.65460   -7.31110  235.42470  235.42470   55.78870   55.70910   55.70910    6.65460    6.91070    6.91070    0.14790    -999.25    0.14790    3.23420    3.23420 2287.10000   11.56560  -19.00560  -16.19830   11.56560 1778100.10310 1761665.48610
 3150.00000  241.15920  320.34730  261.36890  261.36890  212.70260  293.56540 2543.60000    0.09870    -999.25    0.09730    4.70140  293.56540  233.17730  233.17730   67.77260   73.23940   73.23940    4.70140    4.94800    4.94800    0.20710    -999.25    0.20710    3.31810    3.31810 2543.60000    6.62850  -39.56150  -35.39630    6.62850 1795221.77680 1753449.05780
 3200.00000  232.45080  234.92730  233.36320  233.36320  147.64070  -19.36250 2656.90000    0.03470    -999.25    0.03110    6.77320  -19.36250  221.87550  221.87550   75.66060   78.69080   78.69080    6.77320    7.24010    7.24010    0.15870    -999.25    0.15870    5.12760    5.12760 2656.90000    9.06930  -31.70120  -26.17810    9.06930 1845017.98370 1812151.91090
 3250.00000  230.58920  278.65220  243.17230  243.17230  219.60650  153.40290 2582.10000    0.07530    -999.25    0.07480    4.55360  153.40290  241.39520  241.39520   90.03240  100.92730  100.92730    4.55360    4.90130    4.90130    0.20550    -999.25    0.20550    3.94750    3.94750 2582.10000    6.10940  -45.47580  -38.59480    6.10940 1852184.27590 1817366.83940
 3300.00000  235.09610  228.38610  229.61140  229.61140   15.28050  -24.75250 2455.80000    0.14940    -999.25    0.14870   65.44280  -24.75250  262.00460  262.00460  190.03260  214.01980  214.01980   65.44280   72.14690   72.14690    0.19450    -999.25    0.19450    3.41760    3.41760 2455.80000  111.91020  -45.62350  -37.38460  111.91020 1845438.43140 1811317.68800
 3350.00000  231.36050  229.95300  234.94410  234.94410   14.04490  -28.61370 2661.10000    0.02440    -999.25    0.02860   71.20030  -28.61370  177.33900  177.33900   30.33140   35.58440   35.58440   71.20030   74.38730   74.38730    0.02860    -999.25    0.02860    6.19400    6.19400 2661.10000   68.60200  -34.50940  -24.91250   68.60200 1845385.98440 1840917.75330
 3400.00000  230.45050  226.10930  231.83070  231.83070    2.80740  -18.88810 2653.60000    0.03100    -999.25    0.03300  356.19610  -18.88810  171.31590  171.31590   27.95360   27.59670   27.59670  356.19610  394.12330  394.12330    0.02100    -999.25    0.02100    5.91060    5.91060 2653.60000 1117.72900  -57.38690  -46.43210 1117.72900 1867519.64150 1837996.40580
 3450.00000  375.74440    -999.25    -999.25    -999.25   75.43180  -16.54050 2585.00000    0.07440    -999.25    0.07310   13.25700  -16.54050    -999.25    -999.25    -999.25    -999.25    -999.25   13.25700   13.28010   13.28010    -999.25    -999.25    -999.25    3.54610    3.54610 2585.00000   17.35920 -106.86260  -94.54990   17.35920 1853930.94340 1819479.56780
