~Version ---------------------------------------------------
VERS.      2.0 : CWLS log ASCII Standard -VERSION 2.0
WRAP.       NO : One line per depth step
CREA. 12/18/17 : LAS Creation Date
~Well ------------------------------------------------------
STRT.FT                         850.0 : START DEPTH
STOP.FT                        9350.0 : STOP DEPTH
STEP.FT                      50.00000 : STEP LENGTH
NULL.                         -999.25 : NULL VALUE
COMP. CALIFORNIA STANDARD OIL COMPANY : COMPANY
WELL.  CALSTAN GOOSE RIVER 4-34-67-18 : WELL
FLD .                                 : FIELD
LOC .                                 : LOCATION
CTRY.                          CANADA : COUNTRY
SRVC.                    Schlumberger : SERVICE COMPANY
DATE.                     23-Feb-1963 : LOGDATE
PROV.                         Alberta : PROVINCE
UWI .                100043406718W500 : UNIQUE WELL ID
SLAT.WGS84                   54.83765 : SURFACE LATITUDE
SLON.WGS84                  -116.6666 : SURFACE LONGITUDE
~Curve Information -----------------------------------------
DEPT  .FT    : Depth Curve
CALSED.IN    : CALIPER FROM SONIC LOG
CALWS .IN    : CALIPER [CALSED]
CILDED.MMHO  : DEEP INDUCTION CONDUCTIVITY FROM RESISTIVITY LOG
CONDWS.MMHO  : CONDUCTIVITY [1000/DRESWS]
DRESWS.OHMM  : DEEP RESISTIVITY [1000/CILDED IF ILDED<=1, IDLED]
DTED  .US/F  : DELTA-T FROM SONIC LOG
DTWS  .US/F  : COMPRESSIONAL SONIC [DTED]
GRSED .GAPI  : GAMMA RAY FROM SONIC LOG
GRWS  .GAPI  : GAMMA RAY [GRSED]
ILDED .OHMM  : DEEP INDUCTION RESISTIVITY FROM RESISTIVITY LOG
SNED  .OHMM  : SHORT NORMAL RESISTIVITY FROM RESISTIVITY LOG
SPRED .MV    : SPONTANEOUS POTENTIAL FROM RESISTIVITY LOG
SPWS  .MV    : SPONTANEOUS POTENTIAL [BASELINE 0 MV, SPRED]
SRESWS.OHMM  : SHALLOW RESISTIVITY [SNED]
~Params ----------------------------------------------------
PD  .                     GL : PERMANENT DATUM
EPD .FT                 2528 : ELEVATION PERMANENT DATUM
LMF .                     KB : LOG MEASURED FROM
DAPD.FT                   13 : FEET ABOVE PERMANENT DATUM
EKB .FT                 2541 : KELLY BUSHING
EGL .FT                 2528 : GROUND LEVEL
DATE.               02/23/63 : RUN DATE
RUN .                      2 : RUN NUMBER
DD  .FT                 9393 : DEPTH DRILLER
DL  .FT                 9370 : DEPTH LOGGER
BLI .FT                 9369 : BOTTOM LOG INTERVAL
TLI .FT                 7200 : TOP LOG INTERVAL
CBD .FT                  949 : CASING BOTTOM DRILLER
CBL .FT                  948 : CASING BOTTOM LOGGER
BS  .IN                 8.75 : BIT SIZE
BSD .FT                 9393 : BIT SIZE AT DEPTH
DFT .               GEL CHEM : DRILLING FLUID TYPE
DFD .                    9.3 : DRILLING FLUID DENSITY
DFV .                    165 : DRILLING FLUID VISCOSITY
DFPH.                    9.5 : DRILLING FLUID PH
DFL .                    7.6 : DRILLING FLUID LOSS
MSS .            CIRCULATION : MUD SAMPLE SOURCE
RMS .OHMM               2.03 : RESISTIVITY MUD SAMPLE
MST .DEGF                 45 : MUD SAMPLE TEMPERATURE
RMF .OHMM               1.49 : RESISTIVITY MUD FILTRATE SAMPLE
MFST.DEGF                 63 : MUD FILTRATE SAMPLE TEMPERATURE
RMC .OHMM               2.37 : RESISTIVITY MUD CAKE
MCST.DEGF                 63 : MUD CAKE SAMPLE TEMPERATURE
RMB .OHMM               0.69 : RESISTIVITY MUD AT BHT
TCS .HRS                   3 : TIME CIRCULATED STOPPED
LUN .                   1534 : LOGGING UNIT NUMBER
LUL .                     VV : LOGGING UNIT LOCATION
ENGI.                MCKEOWN : RECORDING ENGINEER
WITN.                  SMITH : WITNESSED BY
CLNT.                A2DTECH : CLIENT CODE
ORIG.            2" 5" PRINT : ORIGIN OF DATA
UWI .       100043406718W500 : UNIQUE WELL ID
DICO. A2D Technologies, Inc. : DIGITIZING COMPANY
~Other -----------------------------------------------------
~ASCII -----------------------------------------------------
# ...
 3300.00000    8.88590    8.88590  116.24630  113.43230    8.81760   87.31710   87.31710   88.08510   88.08510    8.84300   10.49620 -129.24970   -8.71780   10.49620
 3350.00000    9.58060    9.58060  174.88620  171.04840    5.84630   90.75540   90.75540   87.96920   87.96920    5.80180    7.05260 -124.91160   -4.77510    7.05260
 3400.00000    9.48690    9.48690  170.54350  171.22450    5.84030   95.00770   95.00770   90.93120   90.93120    5.83840    7.29010 -125.83380   -6.09010    7.29010
 3450.00000   11.73380   11.73380  276.24820  276.78600    3.61290   99.58130   99.58130   88.48760   88.48760    3.61290    4.38320 -124.14620   -4.79800    4.38320
 3500.00000   10.86950   10.86950  228.66390  229.17380    4.36350   95.66050   95.66050   85.34410   85.34410    4.33490    5.24290 -123.94380   -4.98840    5.24290
 3550.00000   11.27120   11.27120  224.20580  221.83800    4.50840   92.43680   92.43680   83.80400   83.80400    4.49760    5.50710 -122.22780   -3.66520    5.50710
 3600.00000   11.57560   11.57560  309.01740  311.30340    3.21230  116.07830  116.07830  116.73580  116.73580    3.23900    4.21380 -121.70780   -3.54070    4.21380
 3650.00000   11.43670   11.43670  410.14340  381.54830    2.62090  112.10130  112.10130   79.56170   79.56170    2.62090    3.18160 -120.52180   -3.91560    3.18160
 3700.00000   12.76060   12.76060  421.61460  387.77730    2.57880  107.13150  107.13150   68.92370   68.92370    2.57880    3.04530 -120.63650   -2.91040    3.04530
 3750.00000   11.09080   11.09080  255.68260  252.62730    3.95840   93.45390   93.45390   83.44210   83.44210    3.94470    4.48110 -121.27060   -3.04490    4.48110
 3800.00000   11.30300   11.30300  202.33750  209.90580    4.76640   92.50680   92.50680   80.72690   80.72690    4.78760    5.92290 -122.13740   -4.44150    5.92290
 3850.00000   10.89730   10.89730  123.09250  118.18790    8.46110   83.23730   83.23730   67.68940   67.68940    8.44800   10.22920 -122.52670   -5.33120   10.22920
 3900.00000   12.67720   12.67720  287.31890  271.49810    3.68810   90.42070   90.42070   68.09070   68.09070    3.71480    4.38820 -124.55460   -7.65170    4.38820
 3950.00000   10.01140   10.01140  204.23340  201.46260    4.96370  100.62980  100.62980   75.98360   75.98360    4.96370    6.87450 -124.04380   -7.27740    6.87450
 4000.00000    9.01070    9.01070  150.30260  147.57530    6.77620   79.95580   79.95580   41.35120   41.35120    6.77760   18.15530 -174.97040  -58.33970   18.15530
 4050.00000   10.49090   10.49090   65.40810   63.36930   15.78570   68.30050   68.30050   51.34230   51.34230   15.84260   16.49940 -130.37420  -13.87920   16.49940
 4100.00000    9.91690    9.91690  131.88130  127.62590    7.83540   87.13190   87.13190   75.65450   75.65450    7.82760    9.25910 -126.36950  -10.01110    9.25910
 4150.00000    8.13060    8.13060  102.17870   94.73820   10.55630   85.70990   85.70990   47.17450   47.17450   10.57630   22.55040 -174.43820  -58.21540   22.55040
 4200.00000   10.04210   10.04210  119.28080  121.89180    8.20400   78.78920   78.78920   64.63140   64.63140    8.20400   12.00570 -124.69630   -8.61010   12.00570
 4250.00000   10.26360   10.26360  161.50230  158.33310    6.31580   82.06600   82.06600   70.53730   70.53730    6.30340    7.70620 -119.23230   -3.28180    7.70620
 4300.00000   10.57460   10.57460  146.67110  128.03700    7.85270   93.52460   93.52460   59.57050   59.57050    7.73720   11.63330 -138.45470  -22.63980   11.63330
 4350.00000   12.71030   12.71030  230.54130  229.44200    4.35840   94.52440   94.52440   76.27670   76.27670    4.33070    5.63710 -121.31650   -5.63820    5.63710
 4400.00000   11.30760   11.30760  362.09790  305.80730    3.29550   84.25770   84.25770   71.16400   71.16400    3.35340    4.85490 -116.54800   -1.00540    4.85490
 4450.00000   10.21520   10.21520  181.66860  193.32260    5.17270   78.52660   78.52660   62.74580   62.74580    5.17270   11.51300 -137.92540  -22.62530   11.51300
 4500.00000   11.00220   11.00220  223.81220  225.74890    4.42970   82.24290   82.24290   67.51670   67.51670    4.42180    7.33900 -136.16710  -21.15180    7.33900
 4550.00000    8.77030    8.77030  205.81780  204.31720    4.89440   84.22940   84.22940   66.31410   66.31410    4.89410   13.38640 -170.64440  -55.91390   13.38640
 4600.00000   10.75600   10.75600  179.76130  183.50310    5.44950   77.78060   77.78060   57.79230   57.79230    5.48950    9.70850 -144.16700  -29.72320    9.70850
 4650.00000   11.73090   11.73090  134.53540  137.50930    7.28540   78.14760   78.14760   63.04150   63.04150    7.22350    9.23310 -126.47510  -12.31610    9.23310
 4700.00000   13.30510   13.30510  313.54110  312.50980    3.19990   95.05100   95.05100   72.40230   72.40230    3.19990    4.19480 -119.24860   -5.37630    4.19480
 4750.00000   11.13290   11.13290   95.23210   89.94500   11.11790   71.19980   71.19980   52.63980   52.63980   11.08060   18.08000 -139.89980  -27.05420   18.08000
 4800.00000   10.72940   10.72940   67.13430   63.00460   15.87410   73.62260   73.62260   59.72360   59.72360   15.83670   20.66280 -126.00560  -14.92870   20.66280
 4850.00000    9.29740    9.29740  156.30150  152.75800    6.54630   73.50160   73.50160   33.52600   33.52600    6.52630   18.06280 -178.78130  -69.48480   18.06280
 4900.00000   10.74840   10.74840   92.83470   87.08780   11.48270   85.57700   85.57700   87.96570   87.96570   11.47900   15.42330 -114.99310   -7.46530   15.42330
 4950.00000   14.24890   14.24890  366.16630  355.89720    2.80980  107.34150  107.34150   77.08760   77.08760    2.80980    3.27780 -115.70430   -9.95680    3.27780
 5000.00000    9.82840    9.82840   76.32310   73.12290   13.67560   92.10910   92.10910  115.05950  115.05950   13.89620   24.47830 -106.88510   -2.90630   24.47830
 5050.00000   10.64790   10.64790  104.39390   97.49490   10.25930  103.51500  103.51500  104.30950  104.30950   10.22820   19.09620 -107.69070   -5.09890   19.09620
 5100.00000    9.21800    9.21800   11.57290    8.97010  111.48140   68.49820   68.49820   44.32540   44.32540  111.61500  180.97300 -124.03100  -22.45120  180.97300
 5150.00000    9.40420    9.40420  103.23080   99.72840   10.03080   69.75020   69.75020   60.51810   60.51810    9.99300   29.02810 -165.04370  -64.46920   29.02810
 5200.00000    8.51160    8.51160  238.68990  238.74900    4.18850   70.17850   70.17850   65.91380   65.91380    4.18850   15.72220 -172.40770  -72.84520   15.72220
 5250.00000    9.14410    9.14410   71.28810   67.93480   14.72000   51.37150   51.37150   25.65980   25.65980   14.73500   61.76330 -204.86850 -106.31130   61.76330
 5300.00000    9.32270    9.32270   60.76240   59.22490   16.91190   50.38890   50.38890   18.72560   18.72560   17.04730   55.55270 -182.55790  -85.00610   55.55270
 5350.00000    8.02110    8.02110   74.43430   71.57530   13.97130   56.12770   56.12770   23.40850   23.40850   14.03350   47.21560 -221.21150 -124.67160   47.21560
 5400.00000    9.47940    9.47940   31.82930   31.22140   32.04960   49.28300   49.28300   24.28400   24.28400   31.88850   78.10390 -164.92600  -69.39150   78.10390
 5450.00000   10.01920   10.01920   46.98390   47.96620   20.84800   53.45910   53.45910   29.54310   29.54310   20.84800   47.26650 -183.69340  -89.17080   47.26650
 5500.00000    9.24660    9.24660   32.54060   33.56670   29.79140   53.53780   53.53780   28.76970   28.76970   30.88540   55.75940 -129.36610  -35.84890   55.75940
 5550.00000   10.87160   10.87160   76.77490   68.73930   14.59290   66.68730   66.68730   88.31080   88.31080   14.43050   19.72080  -97.85760   -5.34570   19.72080
 5600.00000    9.81270    9.81270   52.71040   54.09850   18.48480   54.64540   54.64540   23.44970   23.44970   18.91200   35.98300 -144.56360  -52.10460   35.98300
 5650.00000   10.66440   10.66440  537.39870  464.89610    2.15100   60.87240   60.87240   36.60780   36.60780    2.14940   14.29490 -179.20310  -86.74410   14.29490
 5700.00000    9.85930    9.85930   40.62690   42.23950   23.67450   53.99420   53.99420   39.43880   39.43880   23.67450   36.46790 -126.56850  -34.10950   36.46790
