~Version ---------------------------------------------------
VERS. 2.0 : CWLS log ASCII Standard -VERSION 2.0
WRAP.  NO : ONE LINE PER DEPTH STEP
~Well ------------------------------------------------------
STRT.F                          300.0 : START DEPTH
STOP.F                         9850.0 : STOP DEPTH
STEP.F                       50.00000 : STEP LENGTH
NULL.                         -999.25 : NULL VALUE
COMP.          PACIFIC PETROLEUMS LTD : COMPANY
WELL. PACIFIC SUNRAY KAYBOB 2-2-64-19 : WELL
FLD .                                 : FIELD
LOC .                                 : LOCATION
CTRY.                          CANADA : COUNTRY
SRVC.          Schlumberger of Canada : SERVICE COMPANY
DATE.                     27-Jan-1959 : LOGDATE
PROV.                         Alberta : PROVINCE
UWI .                100020206419W500 : UNIQUE WELL ID
SLAT.WGS84                   54.50328 : SURFACE LATITUDE
SLON.WGS84                  -116.7572 : SURFACE LONGITUDE
~Curve Information -----------------------------------------
DEPT.F                 : 
NEUT.CPS  40 330 30 00 : NEUTRON
MCAL.IN   15 280 01 00 : MLT (MICROLOG) CALIPER
SN  .OHMM 01 040 16 00 : SHORT NORMAL RESISTIVITY
SPR .MV   01 010 01 00 : SPONTANEOUS POTENTIAL FROM RESISTIVITY LOG
LN  .OHMM 01 060 64 00 : LONG NORMAL RESISTIVITY
LT18.OHMM 01 070 18 00 : LATERAL 18'
GR  .GAPI 81 310 01 00 : GAMMA RAY
~Params ----------------------------------------------------
LMF .                     KB : LOG MEASURED FROM
DMF .                     KB : DRILLING MEASURED FROM
EKB .FT               2473.7 : KELLY BUSHING
DATE.               01/27/59 : RUN DATE
RUN .                      1 : RUN NUMBER
DD  .FT                 9862 : DEPTH DRILLER
DL  .FT                 9866 : DEPTH LOGGER
BLI .FT                 9865 : BOTTOM LOG INTERVAL
TLI .FT                  684 : TOP LOG INTERVAL
CBD .FT                  685 : CASING BOTTOM DRILLER
CBL .FT                  684 : CASING BOTTOM LOGGER
BS  .IN                7.875 : BIT SIZE
BSD .FT                 9862 : BIT SIZE AT DEPTH
DFT .               OIL EMUL : DRILLING FLUID TYPE
DFD .                   10.7 : DRILLING FLUID DENSITY
DFV .                    170 : DRILLING FLUID VISCOSITY
DFPH.                      9 : DRILLING FLUID PH
DFL .                    6.6 : DRILLING FLUID LOSS
RMS .OHMM                3.9 : RESISTIVITY MUD SAMPLE
MST .DEGF                 61 : MUD SAMPLE TEMPERATURE
RMF .OHMM                2.7 : RESISTIVITY MUD FILTRATE SAMPLE
MFST.DEGF                 68 : MUD FILTRATE SAMPLE TEMPERATURE
RMC .OHMM                3.5 : RESISTIVITY MUD CAKE
MCST.DEGF                 68 : MUD CAKE SAMPLE TEMPERATURE
RMB .OHMM                1.3 : RESISTIVITY MUD AT BHT
TCS .HRS                 3.5 : TIME CIRCULATED STOPPED
LUN .                   2742 : LOGGING UNIT NUMBER
LUL .                     PR : LOGGING UNIT LOCATION
ENGI.                THOMSON : RECORDING ENGINEER
WITN.                FOGARTY : WITNESSED BY
CLNT.                A2DTECH : CLIENT CODE
ORIG.            2" 5" PRINT : ORIGIN OF DATA
UWI .       100020206419W500 : UNIQUE WELL ID
DICO. A2D Technologies, Inc. : DIGITIZING COMPANY
~Other -----------------------------------------------------
~ASCII -----------------------------------------------------
# ...
 4800.00000    -999.25   10.83060    9.28240  -89.85970   11.42920    1.86750   72.44810
 4850.00000    -999.25    -999.25   12.57120  -89.90880   16.70170    0.66040   64.46400
 4900.00000    -999.25    -999.25   24.11730  -98.86370   24.19880   14.11680   50.22190
 4950.00000    -999.25    -999.25    8.92020  -87.85730   15.29080   11.45810   64.84450
 5000.00000    -999.25    -999.25    9.21890  -84.70150   16.71110    6.31040   65.55360
 5050.00000    -999.25    -999.25   17.21060  -87.05240   28.76850   10.44700   78.68490
 5100.00000    -999.25    -999.25   12.41460  -91.54970   20.76090    5.37200   51.27320
 5150.00000    -999.25   11.95640   16.38360  -78.60390   30.43040   13.81610   67.77030
 5200.00000    -999.25   12.22260   12.66210  -73.03390   20.05620    3.34590   64.05090
 5250.00000    -999.25    9.66770   15.87900 -123.95840   20.24330    4.59470  129.76050
 5300.00000    -999.25   12.75760   15.81590  -84.17100   20.78050   17.47360   77.75660
 5350.00000    -999.25    9.89070   20.36180 -103.07460   17.90760   10.59740   80.32190
 5400.00000    -999.25   12.47660   11.00630  -66.77690   13.95270   10.24700   94.50450
 5450.00000    -999.25   11.62180   10.73510  -64.39600   14.16330   10.31100  104.32900
 5500.00000    -999.25   11.23450   10.83880  -64.38270   10.24350    6.44650   78.08180
 5550.00000    -999.25    7.71770   45.21290 -136.24750   32.17430    4.30130   75.89120
 5600.00000    -999.25   12.93820   13.11730  -66.93640   20.40560   22.41530   67.94370
 5650.00000    -999.25   11.20130   25.37560  -74.14800   39.03270   50.60630   84.70110
 5700.00000    -999.25    7.77030   27.66700 -140.03110   28.73650   48.24530   61.54500
 5750.00000    -999.25   13.17550    4.91740  -64.07870    6.01650    7.70190   55.94460
 5800.00000    -999.25   14.54700    4.02600  -62.49970    5.09960    1.72450   83.15220
 5850.00000    -999.25   11.26580   31.07090  -91.38620   24.26390   10.15410   73.82970
 5900.00000    -999.25   11.03040   40.43350  -91.82340   66.84810  112.25350  120.66330
 5950.00000    -999.25    9.43120  252.92720 -112.54970  804.08330  510.92880  119.13220
 6000.00000    -999.25   11.65930   16.93460 -110.79700   22.46580   27.91410   48.27700
 6050.00000    -999.25   11.23820   14.52320 -118.29620   18.40450   15.50050   58.69840
 6100.00000    -999.25   11.54180   16.80900 -118.21990   19.03690   11.96000   73.88430
 6150.00000    -999.25    7.74480   81.15090 -213.73830  110.39030   36.71530   78.99120
 6200.00000    -999.25    9.26530   71.29220 -150.34520   89.41880   53.62150   55.15160
 6250.00000    -999.25   10.77670   31.37160 -158.31250   63.83760   96.99480  106.26600
 6300.00000    -999.25   10.20740   84.19920 -110.40930  182.20140  368.05100   20.63910
 6350.00000    -999.25   12.51100   71.23720  -95.17480  167.98510  247.29340   49.92030
 6400.00000    -999.25   10.89300   20.83500 -129.20310   24.62310   16.91600   29.10260
 6450.00000    -999.25   10.92720   59.30200 -142.16750   80.02290    5.54900   58.75280
 6500.00000    -999.25   10.88870   46.43130 -127.96290   56.38120  224.46720   41.13130
 6550.00000    -999.25   10.66470  153.81450 -194.16040  406.61160  283.91450   19.50000
 6600.00000    -999.25    9.03690  125.86240 -275.56020  225.69640  139.80930   10.26020
 6650.00000    -999.25    9.75120  126.04760 -252.10030  335.06230  408.52550   21.24780
 6700.00000    -999.25    9.70380   11.57520  -84.79520   11.31240   35.26990   39.73040
 6750.00000    -999.25   11.17320    5.36300 -120.86390    6.18060    4.21420   78.50520
 6800.00000    -999.25    -999.25   15.40780 -114.52470   13.41310   13.31390   72.88940
 6850.00000    -999.25    -999.25   31.32740  -84.35200   74.14790   47.10380   49.47470
 6900.00000    -999.25    -999.25   78.17680 -140.44370  196.77970  261.73420   29.94540
 6950.00000    -999.25    -999.25   50.37550 -111.33930   97.39940  160.58800   43.28420
 7000.00000    -999.25    -999.25   45.97120  -91.42410   79.87170   92.84400   33.24950
 7050.00000    -999.25    -999.25  146.14600 -121.31380  383.13520  629.92600   44.40160
 7100.00000    -999.25    -999.25   82.77190 -121.51610  206.17770  343.63650   59.98490
 7150.00000    -999.25    -999.25  136.49960 -129.62330  365.16700  467.98740   22.94900
 7200.00000    -999.25    -999.25  238.66780  -84.63310  728.22080  795.24060   34.19800
 7250.00000    -999.25    9.34820   57.19270  -77.16140  123.45970  161.11920   51.00720
 7300.00000    -999.25   10.25790   18.65960  -97.11350   43.61790  118.33770   25.69440
 7350.00000    -999.25    9.99600  184.84760 -111.87890  707.79240  832.98310   22.54780
 7400.00000    -999.25    9.98410  155.58340 -162.39820  720.81070 2163.31250   36.75310
 7450.00000    -999.25   11.74320  183.28820 -161.75120  721.32600 1313.07260   26.35900
 7500.00000    -999.25   10.11100  135.15630 -183.45760  537.11960 2001.71720   20.89630
 7550.00000    -999.25    9.81890  119.15580 -169.96860  370.59760  686.87710   17.19720
 7600.00000    -999.25   12.05320  177.77670 -192.35640  643.67550  692.52450   27.58350
 7650.00000    -999.25    9.54790  110.67910 -200.97070  400.11850 1901.43470   20.53230
 7700.00000    -999.25   10.53030  117.63720 -195.31370  300.07500  587.09770   13.09640
 7750.00000    -999.25   12.05410  188.94970 -191.73450  652.32720  474.91060   14.46890
 7800.00000    -999.25   10.96950  122.82390 -197.30130  390.82620  530.65520   15.51250
 7850.00000    -999.25   10.50580  175.68860 -193.13100  698.75920 1074.97560   16.61470
 7900.00000    -999.25   10.05840  103.84990 -195.05530  381.44970 2035.03150   21.45370
 7950.00000    -999.25    8.29620  140.12400 -270.34200  325.41370  286.53230   19.98850
 8000.00000    -999.25   10.00090   98.37690 -204.05540  236.90110  195.90400   16.02110
 8050.00000    -999.25    9.69410   99.75820 -173.53620  311.27840    -999.25   17.68180
 8100.00000    -999.25    9.79470   68.51890 -168.80350  116.72600   85.24720   28.76900
 8150.00000    -999.25   11.22440   70.17500 -170.59810  217.86530  214.24190  163.31580
 8200.00000    -999.25    8.15530  169.64190 -207.98890  488.62480  838.88150   32.22130
 8250.00000    -999.25   10.21380   39.60950 -143.70280   66.05050   85.51140   41.34400
 8300.00000    -999.25   11.10270   73.70200 -145.63610  161.21410   98.26680   37.32400
 8350.00000    -999.25    8.98280   37.35220 -116.71680   83.92170  273.97310   25.27180
 8400.00000    -999.25    9.81160   61.10990  -95.83870  127.01090  226.05350   27.08730
 8450.00000    -999.25    9.46590   40.19760  -77.36810   69.36590   40.30680   54.33650
 8500.00000    -999.25    9.27960   40.40780  -79.34640   60.64010   59.30360   44.58610
 8550.00000    -999.25    9.24550   43.19950  -85.34270   63.45170   78.96140   51.77290
 8600.00000    -999.25    9.11260   38.55410  -78.11770   54.97760   47.87830   45.79270
 8650.00000    -999.25    -999.25   19.81950  -70.68660   21.63520   24.51210   46.00690
 8700.00000    -999.25    -999.25   41.52680  -73.22370   62.46140   16.64800   59.92360
 8750.00000    -999.25    -999.25    9.17610  -69.02340    9.95770    8.54720   71.85510
 8800.00000    -999.25    -999.25    5.72650  -79.13030    7.38670    6.37220   56.48680
 8850.00000    -999.25    -999.25    5.49700  -74.04880    7.82680    6.08070   66.72900
 8900.00000    -999.25    -999.25    6.82000  -90.37330    9.35980    5.68060   72.21930
 8950.00000    -999.25    -999.25    6.08110  -72.33700    8.24000    5.52300   66.73340
 9000.00000    -999.25    -999.25   24.10790  -69.61590   24.94100   10.88700   61.06110
 9050.00000    -999.25    -999.25   16.34340  -77.58210   15.70770   11.54060   63.36410
 9100.00000    -999.25    -999.25   16.47900  -79.73470   14.84350   11.14140   77.19360
 9150.00000    -999.25    -999.25   16.30370  -83.70330   11.84460   14.44600   68.44340
 9200.00000    -999.25    -999.25   11.69510  -86.43710    9.55180    8.52070    -999.25
 9250.00000    -999.25    -999.25   12.55460  -77.32810   10.67920    7.26230    -999.25
