~Version ---------------------------------------------------
VERS.      2.0 : CWLS log ASCII Standard -VERSION 2.0
WRAP.       NO : One line per depth step
CREA. 11/03/17 : LAS Creation Date
~Well ------------------------------------------------------
STRT.FT                            1500.0 : START DEPTH
STOP.FT                           10400.0 : STOP DEPTH
STEP.FT                          50.00000 : STEP LENGTH
NULL.                             -999.25 : NULL VALUE
COMP.                CHEVRON STANDARD LTD : COMPANY
WELL. CHEVRON ET AL HEAVYSOUND 3-25-61-17 : WELL
FLD .                                     : FIELD
LOC .                                     : LOCATION
CTRY.                              CANADA : COUNTRY
SRVC.                        Schlumberger : SERVICE COMPANY
DATE.                         27-Nov-1977 : LOGDATE
PROV.                             Alberta : PROVINCE
UWI .                    100032506117W500 : UNIQUE WELL ID
SLAT.WGS84                       54.30091 : SURFACE LATITUDE
SLON.WGS84                       -116.419 : SURFACE LONGITUDE
~Curve Information -----------------------------------------
DEPT    .FT    : Depth Curve
CALDED  .IN    : CALIPER FROM DENSITY LOG [ADJ. TO RESISTIVITY LOG]
CALSED  .IN    : CALIPER FROM SONIC LOG [ADJ. TO RESISTIVITY LOG]
CALWS   .IN    : CALIPER [CALSED SPL. TO CALDED @ 9702']
CONDWS  .MMHO  : CONDUCTIVITY [1000/DRESWS]
DCORWS  .G/C3  : DENSITY CORRECTION [DRHOED]
DENWS   .G/C3  : FORMATION BULK DENSITY [RHOBED]
DPHILSED.V/V   : DENSITY POROSITY LIMESTONE [M=2.71, F=1.00] FROM DENSITY LOG [ADJ. TO RESISTIVITY LOG]
DPHISSED.V/V   : DENSITY POROSITY SANDSTONE [M=2.65, F=1.00] FROM DENSITY LOG [ADJ. TO RESISTIVITY LOG]
DPOLSWS .V/V   : DENSITY POROSITY LIMESTONE [CALC FROM DENWS,M=2.71, F=1.00]
DRESWS  .OHMM  : DEEP RESISTIVITY [ILDED]
DRHOED  .G/C3  : BULK DENSITY CORRECTION FROM DENSITY LOG [ADJ. TO RESISTIVITY LOG]
DTED    .US/F  : DELTA-T FROM SONIC LOG [ADJ. TO RESISTIVITY LOG]
DTWS    .US/F  : COMPRESSIONAL SONIC [DTED]
GRDED   .GAPI  : GAMMA RAY FROM DENSITY LOG [ADJ. TO RESISTIVITY LOG]
GRNED   .GAPI  : GAMMA RAY FROM GRN LOG [ADJ. TO RESISTIVITY LOG]
GRSED   .GAPI  : GAMMA RAY FROM SONIC LOG [ADJ. TO RESISTIVITY LOG]
GRWS    .GAPI  : GAMMA RAY [GRSED]
ILDED   .OHMM  : DEEP  INDUCTION RESISTIVITY FROM RESISTIVITY LOG
ILMED   .OHMM  : MEDIUM INDUCTION RESISTIVITY FROM RESISTIVITY LOG
LL8ED   .OHMM  : LATEROLOG 8 RESISTIVITY FROM RESISTIVITY LOG
MRESWS  .OHMM  : MEDIUM RESISTIVITY [ILMED]
NEUTED  .NAPI  : NEUTRON FROM GRN LOG [ADJ. TO RESISTIVITY LOG]
NEUTWS  .NAPI  : NEUTRON [NEUTED]
NPHILSED.V/V   : NEUTRON POROSITY LIMESTONE FROM DENSITY LOG [ADJ. TO RESISTIVITY LOG]
NPHISSED.V/V   : NEUTRON POROSITY SANDSTONE FROM DENSITY LOG [ADJ. TO RESISTIVITY LOG]
NPOLSWS .V/V   : NEUTRON POROSITY LIMESTONE [NPHISSED MATRIX  CONVERSION FOR LIMESTONE & SPL. TO NPHILSED @ 9702']
RHOBED  .G/C3  : BULK DENSITY FROM DENSITY LOG [ADJ. TO RESISTIVITY LOG]
SPRED   .MV    : SPONTANEOUS POTENTIAL FROM RESISTIVITY LOG
SPWS    .MV    : SPONTANEOUS POTENTIAL [BASELINE 0 MV,SPRED]
SRESWS  .OHMM  : SHALLOW RESISTIVITY [LL8ED]
TENDED  .LBF   : TENSION FROM DENSITY LOG [ADJ. TO RESISTIVITY LOG]
TENSED  .LBF   : TENSION FROM SONIC LOG [ADJ. TO RESISTIVITY LOG]
~Params ----------------------------------------------------
PD  .                     GL : PERMANENT DATUM
EPD .FT                 3014 : ELEVATION PERMANENT DATUM
LMF .                     KB : LOG MEASURED FROM
DAPD.FT                   19 : FEET ABOVE PERMANENT DATUM
EKB .FT                 3033 : KELLY BUSHING
EGL .FT                 3014 : GROUND LEVEL
DATE.               11/27/77 : RUN DATE
RUN .                      1 : RUN NUMBER
DD  .FT                10428 : DEPTH DRILLER
DL  .FT                10435 : DEPTH LOGGER
BLI .FT                10429 : BOTTOM LOG INTERVAL
TLI .FT                 1501 : TOP LOG INTERVAL
CS  .IN                9.625 : CASING SIZE
CBD .FT                 1500 : CASING BOTTOM DRILLER
CBL .FT                 1501 : CASING BOTTOM LOGGER
DFT .                GEL OIL : DRILLING FLUID TYPE
DFD .                    9.1 : DRILLING FLUID DENSITY
DFV .                     83 : DRILLING FLUID VISCOSITY
MSS .               FLOWLINE : MUD SAMPLE SOURCE
RMS .OHMM               1.69 : RESISTIVITY MUD SAMPLE
MST .DEGF                 60 : MUD SAMPLE TEMPERATURE
RMF .OHMM               1.11 : RESISTIVITY MUD FILTRATE SAMPLE
MFST.DEGF                 54 : MUD FILTRATE SAMPLE TEMPERATURE
TCS .HRS                   4 : TIME CIRCULATED STOPPED
LUN .                   7670 : LOGGING UNIT NUMBER
LUL .                    EDM : LOGGING UNIT LOCATION
ENGI.                   DALY : RECORDING ENGINEER
WITN.     RICHARDSON SPRAGUE : WITNESSED BY
CLNT.                A2DTECH : CLIENT CODE
ORIG.            2" 5" PRINT : ORIGIN OF DATA
UWI .       100032506117W500 : UNIQUE WELL ID
DICO. A2D Technologies, Inc. : DIGITIZING COMPANY
~Other -----------------------------------------------------
DIL-CNFD-BHC-GRN LOG RUN
~ASCII -----------------------------------------------------
# ...
 4800.00000    -999.25   11.20670   11.20670  145.46780    -999.25    -999.25    -999.25    -999.25    -999.25    6.87440    -999.25   92.25270   92.25270    -999.25    -999.25  112.89590  112.89590    6.87440    7.29300    8.84600    7.29300    -999.25    -999.25    -999.25    -999.25    -999.25    -999.25 -152.40410   -2.20490    8.84600    -999.25 1732.29000
 4850.00000    -999.25   10.02190   10.02190  115.15560    -999.25    -999.25    -999.25    -999.25    -999.25    8.68390    -999.25   99.09530   99.09530    -999.25    -999.25  159.01550  159.01550    8.68390    9.03210   12.40680    9.03210    -999.25    -999.25    -999.25    -999.25    -999.25    -999.25 -153.42430   -3.81550   12.40680    -999.25 1752.06000
 4900.00000    -999.25   10.25860   10.25860  120.25880    -999.25    -999.25    -999.25    -999.25    -999.25    8.31540    -999.25   82.14910   82.14910    -999.25    -999.25   88.67690   88.67690    8.31540    9.06310    9.80710    9.06310    -999.25    -999.25    -999.25    -999.25    -999.25    -999.25 -154.08860   -5.06730    9.80710    -999.25 1886.71250
 4950.00000    -999.25   10.11560   10.11560   88.38140    -999.25    -999.25    -999.25    -999.25    -999.25   11.31460    -999.25   75.52010   75.52010    -999.25    -999.25   87.89580   87.89580   11.31460   12.14290   12.04290   12.14290    -999.25    -999.25    -999.25    -999.25    -999.25    -999.25 -154.75810   -6.32420   12.04290    -999.25 1860.51120
 5000.00000    -999.25   10.60870   10.60870  144.41680    -999.25    -999.25    -999.25    -999.25    -999.25    6.92440    -999.25   80.99960   80.99960    -999.25    -999.25  109.51500  109.51500    6.92440    7.48410    8.97750    7.48410    -999.25    -999.25    -999.25    -999.25    -999.25    -999.25 -151.18670   -3.34030    8.97750    -999.25 1870.30180
 5050.00000    -999.25   11.59010   11.59010  171.12800    -999.25    -999.25    -999.25    -999.25    -999.25    5.84360    -999.25   85.47900   85.47900    -999.25    -999.25  119.81720  119.81720    5.84360    6.06380    7.27980    6.06380    -999.25    -999.25    -999.25    -999.25    -999.25    -999.25 -150.05530   -2.79340    7.27980    -999.25 1931.79820
 5100.00000    -999.25   10.49370   10.49370  124.96250    -999.25    -999.25    -999.25    -999.25    -999.25    8.00240    -999.25   79.56690   79.56690    -999.25    -999.25  106.77340  106.77340    8.00240    8.26240   10.34280    8.26240    -999.25    -999.25    -999.25    -999.25    -999.25    -999.25 -151.27970   -4.60820   10.34280    -999.25 1412.76470
 5150.00000    -999.25   11.54950   11.54950  204.26510    -999.25    -999.25    -999.25    -999.25    -999.25    4.89560    -999.25   87.69640   87.69640    -999.25    -999.25  111.25420  111.25420    4.89560    5.22210    6.37090    5.22210    -999.25    -999.25    -999.25    -999.25    -999.25    -999.25 -147.65140   -1.56740    6.37090    -999.25 1442.72880
 5200.00000    -999.25   11.09230   11.09230  201.36120    -999.25    -999.25    -999.25    -999.25    -999.25    4.96620    -999.25   89.69440   89.69440    -999.25    -999.25  133.60210  133.60210    4.96620    5.33400    6.85890    5.33400    -999.25    -999.25    -999.25    -999.25    -999.25    -999.25 -146.95050   -1.45390    6.85890    -999.25 1476.05780
 5250.00000    -999.25   10.01240   10.01240  182.12950    -999.25    -999.25    -999.25    -999.25    -999.25    5.49060    -999.25  103.49530  103.49530    -999.25    -999.25  275.40410  275.40410    5.49060    5.81020    7.95540    5.81020    -999.25    -999.25    -999.25    -999.25    -999.25    -999.25 -146.87980   -1.97070    7.95540    -999.25 1582.66690
 5300.00000    -999.25   10.99010   10.99010  291.35610    -999.25    -999.25    -999.25    -999.25    -999.25    3.43430    -999.25   90.43780   90.43780    -999.25    -999.25  101.22210  101.22210    3.43430    3.60150    4.72110    3.60150    -999.25    -999.25    -999.25    -999.25    -999.25    -999.25 -145.84660   -1.52200    4.72110    -999.25 1565.35170
 5350.00000   12.43100   10.36160   10.36160  247.07220    0.24440    2.25230    -999.25    0.24320    0.26770    4.04740    0.24440   87.50110   87.50110  107.39530    -999.25   93.78640   93.78640    4.04740    4.22760    5.13860    4.22760    -999.25    -999.25    -999.25    0.33170    0.28180    2.25230 -145.06850   -1.33430    5.13860 1346.73090 1577.52870
 5400.00000    9.86020    9.45120    9.45120   83.60850    0.02780    2.57960    -999.25    0.04290    0.07630   11.96050    0.02780   72.64600   72.64600   75.17220    -999.25   75.61970   75.61970   11.96050   13.79270   20.19000   13.79270    -999.25    -999.25    -999.25    0.18260    0.13310    2.57960 -152.41180   -9.21950   20.19000 1394.63050 1665.41880
 5450.00000   13.14300   12.10220   12.10220  380.76380    0.10650    2.15290    -999.25    0.29950    0.32580    2.62630    0.10650   93.63270   93.63270   94.27530    -999.25   99.41280   99.41280    2.62630    2.86700    3.40360    2.86700    -999.25    -999.25    -999.25    0.45660    0.41750    2.15290 -145.57610   -2.77290    3.40360 1341.14720 1612.81330
 5500.00000   11.13590   10.86910   10.86910  119.76620   -0.00180    2.63750    -999.25    0.00680    0.04240    8.34960   -0.00180   77.04770   77.04770   86.39120    -999.25   86.48690   86.48690    8.34960    8.88590    9.72880    8.88590    -999.25    -999.25    -999.25    0.27470    0.22240    2.63750 -158.59400  -16.17990    9.72880 1294.91590 1687.00070
 5550.00000   10.78280    9.84860    9.84860   64.30590    0.02100    2.64360    -999.25    0.00720    0.03890   15.55150    0.02100   69.57040   69.57040   51.18950    -999.25   44.15680   44.15680   15.55150   16.28800   18.35680   16.28800    -999.25    -999.25    -999.25    0.15710    0.11010    2.64360 -174.97780  -32.95090   18.35680 1260.84570 1756.69230
 5600.00000   12.53570   12.20950   12.20950  156.91440    0.14310    2.08140    -999.25    0.35330    0.36760    6.37290    0.14310   91.02540   91.02540   91.58320   39.56880   83.28910   83.28910    6.37290    6.80130    5.50490    6.80130  366.95310  366.95310    -999.25    0.46380    0.42550    2.08140 -146.85080   -5.21500    5.50490 1315.62660 1744.01000
 5650.00000   13.03710   12.30400   12.30400  138.82530    0.11560    1.79840    -999.25    0.51380    0.53310    7.20330    0.11560   94.62740   94.62740   91.77050   38.59430   87.72310   87.72310    7.20330    8.66530   11.41870    8.66530  209.43050  209.43050    -999.25    0.57650    0.55050    1.79840 -143.14600   -1.92630   11.41870 1356.55980 1745.98490
 5700.00000   12.48000   11.13640   11.13640  106.53370    0.01670    2.55970    -999.25    0.06630    0.08790    9.38670    0.01670   71.24190   71.24190   66.70360   23.82930   56.75010   56.75010    9.38670    9.76400   11.73630    9.76400  894.76020  894.76020    -999.25    0.22370    0.17160    2.55970 -153.38640  -12.85560   11.73630 1428.98450 1908.89750
 5750.00000   13.46770   11.46900   11.46900   70.40120    0.09300    1.91110    -999.25    0.42960    0.46720   14.20430    0.09300   81.98520   81.98520   95.47930   44.36560   88.54020   88.54020   14.20430   15.77380   18.20550   15.77380  478.45420  478.45420    -999.25    0.56750    0.54060    1.91110 -146.12940   -6.28760   18.20550 1402.12040 1953.48430
 5800.00000   11.11550   10.04420   10.04420   69.40790    0.08890    2.55510    -999.25    0.06510    0.09060   14.40980    0.08890   69.36560   69.36560   59.78950   28.66010   51.85230   51.85230   14.40980   18.77780   24.79090   18.77780  651.86600  651.86600    -999.25    0.18040    0.13110    2.55510 -184.88860  -45.73240   24.79090 1241.96220 1827.44340
 5850.00000   11.62670   10.99080   10.99080  124.39980    0.00850    2.50490    -999.25    0.09070    0.11990    8.03860    0.00850   72.68970   72.68970   66.97060   34.78960   57.16700   57.16700    8.03860    8.87210   12.09480    8.87210  469.59900  469.59900    -999.25    0.20530    0.15420    2.50490 -165.25060  -26.78670   12.09480 1255.74400 1898.19950
