~Version ---------------------------------------------------
VERS.      2.0 : CWLS log ASCII Standard -VERSION 2.0
WRAP.       NO : One line per depth step
CREA. 08/16/13 : LAS Creation Date
~Well ------------------------------------------------------
STRT.M                      300.0 : START DEPTH
STOP.M                     2850.0 : STOP DEPTH
STEP.M                   50.00000 : STEP LENGTH
NULL.                     -999.25 : NULL VALUE
COMP.        MOBIL OIL CANADA LTD : COMPANY
WELL. MOBIL GOOSE RIVER 7-9-68-18 : WELL
FLD .                             : FIELD
LOC .                             : LOCATION
CTRY.                      CANADA : COUNTRY
SRVC.                     Unknown : SERVICE COMPANY
DATE.                 26-Feb-1983 : LOGDATE
PROV.                     Alberta : PROVINCE
UWI .            100070906818W500 : UNIQUE WELL ID
SLAT.WGS84               54.87148 : SURFACE LATITUDE
SLON.WGS84              -116.6809 : SURFACE LONGITUDE
~Curve Information -----------------------------------------
DEPT    .M      : DEPTH METER
ACED    .US/M   : DELTA TIME FROM SONIC LOG
C13ED   .MM     : CALIPER 13 FROM DENSITY LOG [ADJ. TO RESISTIVITY LOG]
C24ED   .MM     : CALIPER 24 FROM DENSITY LOG [ADJ. TO RESISTIVITY LOG]
CALSED  .MM     : CALIPER FROM SONIC LOG
CALWS   .MM     : CALIPER [C13ED]
CNLSED  .V/V    : NEUTRON POROSITY LIMESTONE FROM DENSITY LOG [ADJ. TO RESISTIVITY LOG]
CNSSED  .V/V    : NEUTRON POROSITY SANDSTONE FROM DENSITY LOG [ADJ. TO RESISTIVITY LOG]
CONDWS  .MMHO   : CONDUCTIVITY [1000/DRESWS]
CORRED  .KG/M3  : DENSITY CORRECTION FROM DENSITY LOG [ADJ. TO RESISTIVITY LOG]
DCORWS  .KG/M3  : DENSITY CORRECTION [CORRED]
DENED   .KG/M3  : BULK DENSITY FROM DENSITY LOG [ADJ. TO RESISTIVITY LOG]
DENWS   .KG/M3  : FORMATION BULK DENSITY [DENED]
DPOLSWS .V/V    : DENSITY POROSITY LIMESTONE [CALC FROM DENWS, M=2710,F=1000]
DRESWS  .OHMM   : DEEP RESISTIVITY [RILDED]
DTWS    .US/M   : COMPRESSIONAL  SONIC [ACED]
GRDED   .GAPI   : GAMMA RAY FROM DENSITY LOG [ADJ. TO RESISTIVITY LOG]
GRSED   .GAPI   : GAMMA RAY FROM SONIC LOG
GRWS    .GAPI   : GAMMA RAY [GRDED]
MRESWS  .OHMM   : MEDIUM RESISTIVITY [RILMED]
NPOLSWS .V/V    : NEUTRON POROSITY LIMESTONE [CNSSED MATRIX CONVERSION FOR LIMESTONE & SPL. TO CNLSED @1525M]
PORDLSED.V/V    : DENSITY POROSITY LIMESTONE [M=2710,F=1000] FROM DENSITY LOG [ADJ. TO RESISTIVITY LOG]
PORDSSED.V/V    : DENSITY POROSITY SANDSTONE [M=2650,F=1000] FROM DENSITY LOG [ADJ. TO RESISTIVITY LOG]
RFOCED  .OHMM   : FOCUSED RESISTIVITY FROM RESISTIVITY LOG
RILDED  .OHMM   : DEEP INDUCTION FROM RESISTIVITY LOG
RILMED  .OHMM   : MEDIUM INDUCTION FROM RESISTIVITY
SPRED   .MV     : SPONTANEOUS POTENTIAL FROM RESISTIVITY LOG
SPWS    .MV     : SPONTANEOUS POTENTIAL [BASELINE 0 MV, SPRED]
SRESWS  .OHMM   : SHALLOW RESISTIVITY [RFOCED]
TENDED  .N      : TENSION FROM DENSITY LOG [ADJ. TO RESISTIVITY LOG]
TENSED  .N      : TENSION FROM SONIC LOG
~Params ----------------------------------------------------
PD  .                         GL : PERMANENT DATUM
EPD .M                     803.8 : ELEVATION PERMANENT DATUM
LMF .                         KB : LOG MEASURED FROM
DAPD.M                      7.74 : FEET ABOVE PERMANENT DATUM
DMF .                         KB : DRILLING MEASURED FROM
EKB .M                    811.54 : KELLY BUSHING
EGL .M                     803.8 : GROUND LEVEL
DATE.                   02/26/83 : RUN DATE
RUN .                          1 : RUN NUMBER
DD  .M                    2888.4 : DEPTH DRILLER
DL  .M                    2887.4 : DEPTH LOGGER
BLI .M                    2886.8 : BOTTOM LOG INTERVAL
TLI .M                       420 : TOP LOG INTERVAL
CS  .MM                    244.5 : CASING SIZE
CBD .M                       416 : CASING BOTTOM DRILLER
CBL .M                       420 : CASING BOTTOM LOGGER
BS  .MM                      222 : BIT SIZE
BSD .M                    2888.4 : BIT SIZE AT DEPTH
DFT .                   GEL CHEM : DRILLING FLUID TYPE
DFD .                       1090 : DRILLING FLUID DENSITY
DFV .                         78 : DRILLING FLUID VISCOSITY
DFPH.                          9 : DRILLING FLUID PH
DFL .                          9 : DRILLING FLUID LOSS
MSS .                   FLOWLINE : MUD SAMPLE SOURCE
RMS .OHMM                    1.9 : RESISTIVITY MUD SAMPLE
MST .DEGC                     23 : MUD SAMPLE TEMPERATURE
RMF .OHMM                    1.9 : RESISTIVITY MUD FILTRATE SAMPLE
MFST.DEGC                   22.2 : MUD FILTRATE SAMPLE TEMPERATURE
RMC .OHMM                    1.9 : RESISTIVITY MUD CAKE
MCST.DEGC                   23.2 : MUD CAKE SAMPLE TEMPERATURE
MFSS.                       MEAS : MUD FILTRATE SAMPLE SOURCE
MCSS.                       MEAS : MUD CAKE SAMPLE SOURCE
RMB .OHMM                   0.82 : RESISTIVITY MUD AT BHT
TCS .HRS                       6 : TIME CIRCULATED STOPPED
LUN .                     HL 621 : LOGGING UNIT NUMBER
LUL .                         GP : LOGGING UNIT LOCATION
ENGI.                       GUNN : RECORDING ENGINEER
WITN.                     MELNYK : WITNESSED BY
CLNT.                    A2DTECH : CLIENT CODE
ORIG. 6.5"/100M 16.5"/100M PRINT : ORIGIN OF DATA
UWI .           100070906818W500 : UNIQUE WELL ID
DICO.     A2D Technologies, Inc. : DIGITIZING COMPANY
~Other -----------------------------------------------------
DIFL-BCS LOG RAN IN COMBO & CNL-CDL LOG RAN
NEUTRON CONVERSION USING BAKER HUGHES CNL(2435) CHART
~ASCII -----------------------------------------------------
# ...
 1500.00000  235.70980  262.39860  275.18320  256.68240  262.39860    -999.25    0.18400   88.11660   30.80000   30.80000 2472.10000 2472.10000    0.13910   11.34860  235.70980   49.55790   49.67110   49.55790   14.62430    0.13340    -999.25    0.10960   18.09650   11.34860   14.62430  -51.73530  -30.79610   18.09650 -521.92930 -2031.05820
 1550.00000  347.17950  265.53770  284.46330  250.65900  265.53770    0.28820    0.33190   74.89070   76.00000   76.00000 2181.20000 2181.20000    0.30920   13.35280  347.17950  115.91380  117.72870  115.91380   12.18690    0.28820    0.27780    0.27250   17.01640   13.35280   12.18690  -29.19320   -6.02390   17.01640 -3157.05400 -2630.93070
 1600.00000  237.05410  282.54720  286.24600  277.83790  282.54720    0.16320    -999.25  270.08780   99.60000   99.60000 2449.80000 2449.80000    0.15220    3.70250  237.05410   67.05310   69.40460   67.05310    5.85840    0.16320    0.15340    -999.25   12.55320    3.70250    5.85840 -100.62950  -21.49980   12.55320 -2318.96940 -2859.20130
 1650.00000  177.80170  237.79550  247.13460  223.60340  237.79550    0.11340    -999.25  122.09860  147.00000  147.00000 2721.80000 2721.80000   -0.00690    8.19010  177.80170   23.07830   24.04800   23.07830   12.44980    0.11340   -0.00730    -999.25   33.47250    8.19010   12.44980 -131.69110  -47.36760   33.47250 -2683.34190 -2966.64590
 1700.00000  181.37850  270.24960  243.97070  242.70780  270.24960    0.04480    -999.25  192.74140   59.50000   59.50000 2664.20000 2664.20000    0.02680    5.18830  181.37850   36.29940   18.70540   36.29940   13.28720    0.04480    0.02740    -999.25   20.73400    5.18830   13.28720  -79.46880  -26.23670   20.73400 -1429.41650 -3164.57080
 1750.00000  184.54980  270.85810  264.61950  270.19820  270.85810    0.06750    -999.25   87.17030   66.50000   66.50000 2674.40000 2674.40000    0.02080   11.47180  184.54980   17.85830   21.12440   17.85830   13.29510    0.06750    0.02400    -999.25   23.17760   11.47180   13.29510 -107.86420  -58.87590   23.17760 -3910.54080 -2238.49360
 1800.00000  187.79110  255.10890  242.82530  258.46970  255.10890    0.08000    -999.25   96.99790  141.70000  141.70000 2629.60000 2629.60000    0.04700   10.30950  187.79110   18.12500   13.50910   18.12500   22.40790    0.08000    0.04770    -999.25  173.71980   10.30950   22.40790 -167.91230 -111.16330  173.71980 -2451.77540 -2709.04450
 1850.00000  192.12820  281.74350  250.12440  258.11590  281.74350    0.03340    -999.25   73.47160   32.40000   32.40000 2655.40000 2655.40000    0.03190   13.61070  192.12820   53.50340   56.00750   53.50340   15.09150    0.03340    0.03090    -999.25   27.10660   13.61070   15.09150  -82.31810  -21.24130   27.10660 -2536.88520 -2253.73380
 1900.00000  176.76570  248.32520  233.09680  243.50340  248.32520    0.01490    -999.25    4.02170   77.10000   77.10000 2689.80000 2689.80000    0.01180  248.65050  176.76570   21.64370   25.34830   21.64370  213.02250    0.01490    0.01270    -999.25  226.64760  248.65050  213.02250  -88.48600  -30.37620  226.64760 -2257.19140 -2858.59060
 1950.00000  180.34030  239.99940  222.37370  233.85920  239.99940    0.03540    -999.25   17.11340   20.90000   20.90000 2670.60000 2670.60000    0.02300   58.43390  180.34030   30.67390   39.44530   30.67390   62.60520    0.03540    0.02300    -999.25   61.78300   58.43390   62.60520  -65.87680  -25.29420   61.78300 -2100.78410 -2925.85580
 2000.00000  205.45780  268.39510  249.25120  251.58800  268.39510    0.06650    -999.25   28.18240   35.20000   35.20000 2648.30000 2648.30000    0.03610   35.48320  205.45780   62.61840   68.08310   62.61840   42.74070    0.06650    0.03640    -999.25   42.92770   35.48320   42.74070  -22.71250  -10.11460   42.92770 -1793.68130 -2973.28260
 2050.00000  176.46880  334.24840  245.63870  279.76210  334.24840    0.01220    -999.25    0.50000   46.90000   46.90000 2623.40000 2623.40000    0.05060 2000.00000  176.46880   13.29560   16.57830   13.29560 2000.00000    0.01220    0.04960    -999.25 1263.91320 2000.00000 2000.00000  -49.15880  -51.60380 1263.91320 -2077.73970 -2103.42440
 2100.00000  161.17720  294.89730  239.27890  262.79690  294.89730    0.01100    -999.25    0.50000  189.00000  189.00000 2699.10000 2699.10000    0.00640 2000.00000  161.17720    9.75810   13.57380    9.75810 2000.00000    0.01100    0.00730    -999.25 2011.00830 2000.00000 2000.00000  -99.54670  -91.22890 2011.00830 -1850.77140 -3367.34520
 2150.00000  173.25520  242.66150  245.22150  237.30810  242.66150    0.03150    -999.25   33.68600   26.20000   26.20000 2642.50000 2642.50000    0.03950   29.68590  173.25520   10.27330   14.51250   10.27330   57.34860    0.03150    0.03740    -999.25  317.68570   29.68590   57.34860 -127.81210 -108.73150  317.68570 -2514.97240 -2692.92420
 2200.00000  165.44890  232.44920  249.96310  232.02440  232.44920    0.01520    -999.25    0.50000   43.70000   43.70000 2671.50000 2671.50000    0.02250 2000.00000  165.44890   10.91220   16.43840   10.91220 2000.00000    0.01520    0.02280    -999.25 1044.98070 2000.00000 2000.00000 -199.12980 -169.28630 1044.98070 -2155.09020 -2523.22560
 2250.00000  168.02120  240.52410  222.31980  232.48950  240.52410    0.02610    -999.25   39.01780   58.70000   58.70000 2642.40000 2642.40000    0.03950   25.62930  168.02120    8.36270   15.39450    8.36270   49.23160    0.02610    0.04130    -999.25  176.56970   25.62930   49.23160 -211.14850 -170.54220  176.56970 -2768.45160 -2465.93790
 2300.00000  158.92000  231.42000  239.26580  250.28450  231.42000    0.06450    -999.25    3.36380   15.30000   15.30000 2718.70000 2718.70000   -0.00510  297.28180  158.92000   14.50330   21.44280   14.50330  147.01760    0.06450   -0.00340    -999.25  147.47390  297.28180  147.01760 -221.47720 -170.10810  147.47390 -455.14910 -2740.39600
 2350.00000  189.22220  238.89430  235.61810  240.66120  238.89430    0.05490    -999.25   43.88220   18.70000   18.70000 2693.30000 2693.30000    0.00980   22.78830  189.22220   50.39750   57.57230   50.39750   25.79100    0.05490    0.01070    -999.25   34.85520   22.78830   25.79100  -88.11200  -25.98010   34.85520 -3326.17790 -1938.89860
 2400.00000  186.84260  249.45740  248.40090  246.32920  249.45740    0.05690    -999.25   47.97570   53.50000   53.50000 2673.40000 2673.40000    0.02140   20.84390  186.84260   45.54990   48.73780   45.54990   16.73350    0.05690    0.02610    -999.25   22.31030   20.84390   16.73350 -126.32250  -61.11950   22.31030 -1270.20730 -2256.90400
 2450.00000  276.82180  351.66820  382.39970  399.41310  351.66820    0.27770    -999.25  257.34730  182.20000  182.20000 2359.10000 2359.10000    0.20520    3.88580  276.82180   81.09670   80.01320   81.09670    3.43930    0.27770    0.20620    -999.25    4.24310    3.88580    3.43930 -107.51820  -41.83250    4.24310 -2954.89020 -2860.79080
 2500.00000  255.69420  328.62370  384.93110  365.44330  328.62370    0.23290    -999.25  195.81730  164.80000  164.80000 2463.00000 2463.00000    0.14440    5.10680  255.69420   78.28800   78.55210   78.28800    4.61290    0.23290    0.14470    -999.25    5.56510    5.10680    4.61290  -99.73940  -37.30460    5.56510 -2841.21300 -2726.79930
 2550.00000  209.56870  255.96180  239.43780  256.35100  255.96180    0.11050    -999.25   84.84500   31.30000   31.30000 2686.80000 2686.80000    0.01360   11.78620  209.56870   70.90900   72.46010   70.90900   13.26200    0.11050    0.01340    -999.25   16.19500   11.78620   13.26200 -114.86780  -77.73490   16.19500 -2519.66930 -2620.67480
 2600.00000  224.40370  247.39980  228.68710  239.19990  247.39980    0.15290    -999.25  112.92290  280.90000  280.90000 2601.00000 2601.00000    0.06370    8.85560  224.40370   81.93760   82.06790   81.93760    9.80950    0.15290    0.06990    -999.25   11.06400    8.85560    9.80950 -143.50500 -165.29500   11.06400 -2178.99670 -2611.88270
 2650.00000  221.33620  254.86850  229.13240  244.41840  254.86850    0.15330    -999.25  140.81530  306.70000  306.70000 2639.20000 2639.20000    0.04140    7.10150  221.33620   89.14820   88.50250   89.14820    7.62600    0.15330    0.04620    -999.25    9.63090    7.10150    7.62600  -18.62250  -65.39770    9.63090 -2060.32620 -2440.73820
