~Version ---------------------------------------------------
VERS.      2.0 : CWLS log ASCII Standard -VERSION 2.0
WRAP.       NO : One line per depth step
CREA. 10/22/19 : LAS Creation Date
~Well ------------------------------------------------------
STRT.ft                                          300.0 : START DEPTH
STOP.ft                                        10300.0 : STOP DEPTH
STEP.ft                                       50.00000 : STEP LENGTH
NULL.                                          -999.25 : NULL VALUE
COMP.                             IMPERIAL OIL LIMITED : COMPANY
WELL. IMPERIAL CANADIAN SUPERIOR BUCK CREEK 14-29-48-6 : WELL
FLD .                                          WILDCAT : FIELD
LOC .                                                  : LOCATION
CTRY.                                           CANADA : COUNTRY
SRVC.                           Schlumberger of Canada : SERVICE COMPANY
DATE.                                      27-May-1954 : LOGDATE
PROV.                                          Alberta : PROVINCE
UWI .                                 100142904806W500 : UNIQUE WELL ID
SLAT.WGS84                                    53.17637 : SURFACE LATITUDE
SLON.WGS84                                   -114.8447 : SURFACE LONGITUDE
~Curve Information -----------------------------------------
DEPT    .ft    : Depth Curve
CONDWS  .MMHO  : CONDUCTIVITY [1000/DRESWS]
DRESWS  .OHMM  : DEEP RESISTIVITY [LNED]
GRDED   .GAPI  : GAMMA RAY FROM CNL
GRNED   .GAPI  : GAMMA RAY FROM CASED HOLE GRN LOG [DEPTH ADJ. TO GRDED]
GRWS    .GAPI  : GAMMA RAY [SPLICED GRNED TO GRDED FROM 790-1109M, GRDED+37]
LATED   .OHMM  : 18 FOOT 8 INCH LATERAL RESISTIVITY FROM EL
LNED    .OHMM  : 64 INCH LONG NORMAL RESISTIVITY FROM EL
NEUTED  .NAPI  : NEUTRON FROM CASED HOLE GRN LOG [DEPTH ADJ. TO GRDED]
NEUTWS  .NAPI  : NEUTRON [NEUTED]
NPHIDMED.V/V   : NEUTRON POROSITY DOLOMITE FROM CNL
NPHILSED.V/V   : NEUTRON POROSITY LIMESTONE FROM CNL
NPHISSED.V/V   : NEUTRON POROSITY SANDSTONE FROM CNL
NPOLSWS .V/V   : NEUTRON POROSITY LIMESTONE [NPHILSED]
SNED    .OHMM  : 16 INCH SHORT NORMAL RESISTIVITY FROM EL
SPRED   .MV    : SPONTANEOUS POTENTIAL FROM EL
SPWS    .MV    : SPONTANEOUS POTENTIAL [BASELINE 0 MV] [SPRED]
SRESWS  .OHMM  : SHALLOW RESISTIVITY [SNED]
~Params ----------------------------------------------------
LMF .                     KB : LOG MEASURED FROM
DMF .                     KB : DRILLING MEASURED FROM
EKB .FT                 2810 : KELLY BUSHING
DATE.               05/27/54 : RUN DATE
RUN .                      4 : RUN NUMBER
DD  .FT                10219 : DEPTH DRILLER
DL  .FT                10221 : DEPTH LOGGER
BLI .FT                10221 : BOTTOM LOG INTERVAL
TLI .FT                 7088 : TOP LOG INTERVAL
BS  .IN                8.625 : BIT SIZE
BSD .FT                10219 : BIT SIZE AT DEPTH
DFT .              LIME BASE : DRILLING FLUID TYPE
DFD .                   10.5 : DRILLING FLUID DENSITY
DFV .                    220 : DRILLING FLUID VISCOSITY
DFPH.                   12.5 : DRILLING FLUID PH
DFL .                    9.5 : DRILLING FLUID LOSS
RMS .OHMM                1.0 : RESISTIVITY MUD SAMPLE
MST .DEGF                 72 : MUD SAMPLE TEMPERATURE
RMB .OHMM               0.42 : RESISTIVITY MUD AT BHT
TCS .HRS                   2 : TIME CIRCULATED STOPPED
LUN .                   1772 : LOGGING UNIT NUMBER
ENGI.              HENDERSON : RECORDING ENGINEER
WITN.               MCKENZIE : WITNESSED BY
CLNT.                A2DTECH : CLIENT CODE
ORIG.            2" 5" PRINT : ORIGIN OF DATA
UWI .       100142904806W500 : UNIQUE WELL ID
DICO. A2D Technologies, Inc. : DIGITIZING COMPANY
~Other -----------------------------------------------------
~ASCII -----------------------------------------------------
  300.00000    -999.25    -999.25    -999.25    2.94220   48.54630    -999.25    -999.25  216.05990  216.05990    -999.25    -999.25    -999.25    -999.25    -999.25    -999.25    -999.25    -999.25
  350.00000    -999.25    -999.25    -999.25    2.96080   48.85320    -999.25    -999.25  230.62480  230.62480    -999.25    -999.25    -999.25    -999.25    -999.25    -999.25    -999.25    -999.25
  400.00000    -999.25    -999.25    -999.25    2.59930   42.88840    -999.25    -999.25  221.00900  221.00900    -999.25    -999.25    -999.25    -999.25    -999.25    -999.25    -999.25    -999.25
  450.00000    -999.25    -999.25    -999.25    4.17450   68.87920    -999.25    -999.25  253.43470  253.43470    -999.25    -999.25    -999.25    -999.25    -999.25    -999.25    -999.25    -999.25
  500.00000    -999.25    -999.25    -999.25    3.26840   53.92860    -999.25    -999.25  250.66980  250.66980    -999.25    -999.25    -999.25    -999.25    -999.25    -999.25    -999.25    -999.25
  550.00000    -999.25    -999.25    -999.25    3.36350   55.49780    -999.25    -999.25  226.50720  226.50720    -999.25    -999.25    -999.25    -999.25    -999.25    -999.25    -999.25    -999.25
  600.00000    -999.25    -999.25    -999.25    4.05280   66.87200    -999.25    -999.25  181.57490  181.57490    -999.25    -999.25    -999.25    -999.25    -999.25    -999.25    -999.25    -999.25
  650.00000   99.40160   10.06020    -999.25    5.43380   89.65770    8.27140   10.06020  351.79050  351.79050    -999.25    -999.25    -999.25    -999.25   11.07490  -43.85210   -1.68990   11.07490
  700.00000   90.56170   11.04220    -999.25    4.66770   77.01700    8.45170   11.04220  495.25720  495.25720    -999.25    -999.25    -999.25    -999.25    8.48490  -44.49970   -1.23210    8.48490
  750.00000  120.30220    8.31240    -999.25    5.31880   87.76020   10.52130    8.31240  402.64640  402.64640    -999.25    -999.25    -999.25    -999.25    6.01800  -43.83930   -0.57170    6.01800
  800.00000  223.21430    4.48000    -999.25    6.60470  108.97760   18.42670    4.48000  306.41000  306.41000    -999.25    -999.25    -999.25    -999.25    3.60910  -43.17730    0.09030    3.60910
  850.00000   95.81300   10.43700    -999.25    5.56250   91.78210    5.49060   10.43700  295.28120  295.28120    -999.25    -999.25    -999.25    -999.25    9.23290  -44.67590   -1.40830    9.23290
  900.00000  216.39400    4.62120    -999.25    5.61660   92.67390   46.49280    4.62120  389.91290  389.91290    -999.25    -999.25    -999.25    -999.25    9.03300  -44.86410   -2.10330    9.03300
  950.00000   88.01960   11.36110    -999.25    4.08500   67.40170    9.91950   11.36110  530.20990  530.20990    -999.25    -999.25    -999.25    -999.25    9.02010  -44.67440   -2.49670    9.02010
 1000.00000   84.07950   11.89350    -999.25    5.96580   98.43570   12.68210   11.89350  355.58550  355.58550    -999.25    -999.25    -999.25    -999.25   10.49290  -45.75510   -4.15670   10.49290
 1050.00000   25.31380   39.50420    -999.25    5.23290   86.34280   19.59540   39.50420  253.57920  253.57920    -999.25    -999.25    -999.25    -999.25   89.69640  -51.75180  -10.73260   89.69640
 1100.00000   99.95500   10.00450    -999.25    5.08550   83.91160   15.89350   10.00450  318.37150  318.37150    -999.25    -999.25    -999.25    -999.25    6.48390  -42.01130   -1.57520    6.48390
 1150.00000   64.53990   15.49430    -999.25    4.33870   71.58850   10.75240   15.49430  579.85300  579.85300    -999.25    -999.25    -999.25    -999.25   14.06670  -44.10400   -4.00410   14.06670
 1200.00000  206.70980    4.83770    -999.25    5.45000   89.92500    6.05670    4.83770  300.83790  300.83790    -999.25    -999.25    -999.25    -999.25    3.07330  -42.55800   -2.29750    3.07330
 1250.00000   78.28770   12.77340    -999.25    5.20500   85.88250   12.64950   12.77340  414.01470  414.01470    -999.25    -999.25    -999.25    -999.25   13.62990  -43.29530   -2.87530   13.62990
 1300.00000   37.88580   26.39510    -999.25    5.17960   85.46340    1.73270   26.39510  380.01820  380.01820    -999.25    -999.25    -999.25    -999.25   16.74920  -41.52390   -0.94440   16.74920
 1350.00000  153.45900    6.51640    -999.25    5.89860   97.32770    3.44360    6.51640  318.55300  318.55300    -999.25    -999.25    -999.25    -999.25   10.61070  -41.54750   -0.80740   10.61070
 1400.00000  108.09760    9.25090    -999.25    5.05000   83.32500   13.74100    9.25090  485.20680  485.20680    -999.25    -999.25    -999.25    -999.25    8.26080  -42.85170   -2.15960    8.26080
 1450.00000  113.68420    8.79630    -999.25    5.11070   84.32740    8.44910    8.79630  331.83580  331.83580    -999.25    -999.25    -999.25    -999.25    9.56100  -43.60400   -3.45690    9.56100
 1500.00000   58.23370   17.17220    -999.25    4.94510   81.59410    9.03020   17.17220  527.43770  527.43770    -999.25    -999.25    -999.25    -999.25   12.66510  -43.36020   -3.75460   12.66510
 1550.00000  145.07260    6.89310    -999.25    5.75260   94.91790    9.89310    6.89310  304.59090  304.59090    -999.25    -999.25    -999.25    -999.25    7.37370  -40.67990   -1.47690    7.37370
 1600.00000  235.21110    4.25150    -999.25    5.72190   94.41220    6.83050    4.25150  242.94460  242.94460    -999.25    -999.25    -999.25    -999.25    4.40030  -39.54050   -0.45790    4.40030
 1650.00000  208.57230    4.79450    -999.25    4.62250   76.27120   16.17570    4.79450  265.16670  265.16670    -999.25    -999.25    -999.25    -999.25    4.56030  -38.91800    0.04500    4.56030
 1700.00000  111.69690    8.95280    -999.25    4.69320   77.43780   15.47110    8.95280  407.16620  407.16620    -999.25    -999.25    -999.25    -999.25   11.19680  -41.55900   -2.71640   11.19680
 1750.00000 19723.86590    0.05070    -999.25    4.47990   73.91830   36.92360    0.05070  294.93970  294.93970    -999.25    -999.25    -999.25    -999.25    5.51120  -39.18560   -0.46270    5.51120
 1800.00000  137.25710    7.28560    -999.25    5.86930   96.84350    5.31620    7.28560  467.46850  467.46850    -999.25    -999.25    -999.25    -999.25    4.41110  -38.65310   -0.04980    4.41110
 1850.00000  321.59510    3.10950    -999.25    6.71100  110.73070   11.98080    3.10950  289.24820  289.24820    -999.25    -999.25    -999.25    -999.25    4.30590  -40.12710   -1.64420    4.30590
 1900.00000  146.96160    6.80450    -999.25    4.83920   79.84680    8.21360    6.80450  336.38780  336.38780    -999.25    -999.25    -999.25    -999.25    6.17140  -41.79370   -3.61210    6.17140
 1950.00000  164.10390    6.09370    -999.25    5.12940   84.63510    9.32920    6.09370  334.87780  334.87780    -999.25    -999.25    -999.25    -999.25    5.89790  -43.26810   -5.50260    5.89790
 2000.00000  161.81230    6.18000    -999.25    5.89800   97.31700    9.81640    6.18000  372.48730  372.48730    -999.25    -999.25    -999.25    -999.25    5.70840  -37.82090   -0.46880    5.70840
 2050.00000   97.23460   10.28440    -999.25    4.30650   71.05720    8.83500   10.28440  320.43730  320.43730    -999.25    -999.25    -999.25    -999.25   12.64270  -39.29830   -2.35960   12.64270
 2100.00000  119.97020    8.33540    -999.25    4.94940   81.66510    8.76270    8.33540  278.45060  278.45060    -999.25    -999.25    -999.25    -999.25    9.73280  -37.77940   -1.25690    9.73280
 2150.00000   75.81850   13.18940    -999.25    4.62020   76.23330   19.56350   13.18940  558.92160  558.92160    -999.25    -999.25    -999.25    -999.25   19.21360  -57.14010  -21.03100   19.21360
 2200.00000  233.76500    4.27780    -999.25    4.83270   79.73870    5.42060    4.27780  333.76080  333.76080    -999.25    -999.25    -999.25    -999.25    4.07220  -36.67490   -0.73210    4.07220
 2250.00000  178.60970    5.59880    -999.25    4.07570   67.24910    5.49280    5.59880  388.29650  388.29650    -999.25    -999.25    -999.25    -999.25    8.22940  -39.10410   -3.26080    8.22940
 2300.00000  409.09830    2.44440    -999.25    4.09430   67.55590   27.19100    2.44440  321.62190  321.62190    -999.25    -999.25    -999.25    -999.25   15.50920  -43.11700   -7.37330   15.50920
