~Version ---------------------------------------------------
VERS.      2.0 : CWLS log ASCII Standard -VERSION 2.0
WRAP.       NO : One line per depth step
CREA. 12/11/17 : LAS Creation Date
~Well ------------------------------------------------------
STRT.FT                1000.0 : START DEPTH
STOP.FT                9350.0 : STOP DEPTH
STEP.FT              50.00000 : STEP LENGTH
NULL.                 -999.25 : NULL VALUE
COMP.   TEXACO CANADA LIMITED : COMPANY
WELL. TEXCAN WABAT 7-29-72-22 : WELL
FLD .                         : FIELD
LOC .                         : LOCATION
CTRY.                  CANADA : COUNTRY
SRVC.            Schlumberger : SERVICE COMPANY
DATE.             20-Nov-1973 : LOGDATE
PROV.                 Alberta : PROVINCE
UWI .        100072907222W500 : UNIQUE WELL ID
SLAT.WGS84           55.26257 : SURFACE LATITUDE
SLON.WGS84          -117.3421 : SURFACE LONGITUDE
~Curve Information -----------------------------------------
DEPT  .FT    : Depth Curve
CALSED.IN    : CALIPER FROM SONIC LOG
CALWS .IN    : CALIPER [CALSED]
CONDWS.MMHO  : CONDUCTIVITY [1000/DRESWS]
DRESWS.OHMM  : DEEP RESISTIVITY [ILDED]
DTED  .US/F  : DELTA- TIME FROM SONIC LOG
DTWS  .US/F  : COMPRESSIONAL SONIC [DTED]
GRED  .GAPI  : GAMMA RAY FROM GR LOG
GRSED .GAPI  : GAMMA RAY FROM SONIC LOG
GRWS  .GAPI  : GAMMA RAY [GRSED]
ILDED .OHMM  : DEEP INDUCTION RESISTIVITY FROM RESISTIVITY LOG
ILMED .OHMM  : MEDIUM INDUCTION RESISTIVITY FROM RESISTIVITY LOG
LL8ED .OHMM  : LATEROLOG 8 RESISTIVITY FROM RESISTIVITY LOG
MCALED.IN    : MICRO CALIPER FROM ML LOG [ADJ. TO RESISTIVITY LOG]
MRESWS.OHMM  : MEDIUM RESISTIVITY [ILMED]
SPRED .MV    : SPONTANEOUS POTENTIAL FROM RESISTIVITY LOG
SPWS  .MV    : SPONTANEOUS POTENTIAL [BASELINE 0 MV, SPRED]
SRESWS.OHMM  : SHALLOW RESISTIVITY [LL8ED]
~Params ----------------------------------------------------
PD  .                     GL : PERMANENT DATUM
EPD .FT               2350.7 : ELEVATION PERMANENT DATUM
LMF .                     KB : LOG MEASURED FROM
DAPD.FT                 18.6 : FEET ABOVE PERMANENT DATUM
EKB .FT               2369.3 : KELLY BUSHING
EGL .FT               2350.7 : GROUND LEVEL
DATE.               11/20/73 : RUN DATE
RUN .                      1 : RUN NUMBER
DD  .FT                 9395 : DEPTH DRILLER
DL  .FT                 9392 : DEPTH LOGGER
BLI .FT                 9386 : BOTTOM LOG INTERVAL
TLI .FT                  990 : TOP LOG INTERVAL
CBD .FT                  991 : CASING BOTTOM DRILLER
CBL .FT                  990 : CASING BOTTOM LOGGER
BS  .IN                 8.75 : BIT SIZE
BSD .FT                 9395 : BIT SIZE AT DEPTH
DFT .                    GEL : DRILLING FLUID TYPE
DFD .                    9.6 : DRILLING FLUID DENSITY
DFV .                    100 : DRILLING FLUID VISCOSITY
DFPH.                    9.5 : DRILLING FLUID PH
DFL .                    9.6 : DRILLING FLUID LOSS
RMS .OHMM                3.1 : RESISTIVITY MUD SAMPLE
MST .DEGF                 65 : MUD SAMPLE TEMPERATURE
RMF .OHMM               3.82 : RESISTIVITY MUD FILTRATE SAMPLE
MFST.DEGF                 71 : MUD FILTRATE SAMPLE TEMPERATURE
RMC .OHMM               3.02 : RESISTIVITY MUD CAKE
MCST.DEGF                 67 : MUD CAKE SAMPLE TEMPERATURE
RMB .OHMM               1.35 : RESISTIVITY MUD AT BHT
TCS .HRS                   4 : TIME CIRCULATED STOPPED
LUN .                   7502 : LOGGING UNIT NUMBER
LUL .                    EDM : LOGGING UNIT LOCATION
ENGI.           EARLEY LEITH : RECORDING ENGINEER
WITN.      WILCOCK PATTERSON : WITNESSED BY
CLNT.                A2DTECH : CLIENT CODE
ORIG.            2" 5" PRINT : ORIGIN OF DATA
UWI .       100072907222W500 : UNIQUE WELL ID
DICO. A2D Technologies, Inc. : DIGITIZING COMPANY
~Other -----------------------------------------------------
~ASCII -----------------------------------------------------
# ...
 7150.00000    9.93780    9.93780    0.64600 1547.87760   48.42570   48.42570    -999.25   14.86760   14.86760 1547.87760 1588.96790 1670.94030   11.02640 1588.96790  -77.62060  -45.80280 1670.94030
 7200.00000   10.20300   10.20300    1.30090  768.69260   48.52010   48.52010    -999.25   14.77940   14.77940  768.69260 1247.70730 1622.60910   11.86850 1247.70730 -124.87780  -92.78150 1622.60910
 7250.00000    9.82930    9.82930   17.84690   56.03220   50.97290   50.97290    -999.25    8.42300    8.42300   56.03220   60.36660  507.52980   10.56060   60.36660 -148.29660 -115.92370  507.52980
 7300.00000   10.01120   10.01120   14.14100   70.71640   50.78470   50.78470    -999.25   10.97770   10.97770   70.71640   64.15090  194.84050   11.02400   64.15090 -142.06520 -109.41560  194.84050
 7350.00000   10.48040   10.48040    0.65430 1528.29420   49.38240   49.38240    -999.25   16.40860   16.40860 1528.29420 1458.07780 1625.93240   13.12860 1458.07780 -113.39980  -80.47180 1625.93240
 7400.00000    9.75240    9.75240    0.65250 1532.50260   48.49760   48.49760    -999.25   12.58870   12.58870 1532.50260 1490.48360 1642.72450   11.33200 1490.48360 -113.53570  -80.33100 1642.72450
 7450.00000    9.43990    9.43990    0.65460 1527.63150   48.35800   48.35800    -999.25   11.62620   11.62620 1527.63150 1493.92750 1632.44980   10.41180 1493.92750 -100.17930  -66.69620 1632.44980
 7500.00000    9.78980    9.78980    0.64810 1542.87290   48.90420   48.90420    -999.25   13.34910   13.34910 1542.87290 1491.86460 1614.06590   11.14690 1491.86460  -92.50200  -58.74220 1614.06590
 7550.00000    9.73630    9.73630    0.63390 1577.63010   49.03450   49.03450    -999.25   13.57470   13.57470 1577.63010 1545.93290 1651.32230   11.61880 1545.93290  -96.79140  -62.75500 1651.32230
 7600.00000    9.20520    9.20520    0.63210 1582.03260   48.43750   48.43750    -999.25   13.35550   13.35550 1582.03260 1527.49730 1654.52280    9.96420 1527.49730 -116.57490  -82.26000 1654.52280
 7650.00000    9.64820    9.64820    8.52360  117.32120   50.69660   50.69660    -999.25   12.48430   12.48430  117.32120  149.86970  331.89770   10.90960  149.86970 -157.68210 -123.09060  331.89770
 7700.00000    9.47160    9.47160   13.66310   73.18990   51.27260   51.27260    -999.25    8.20820    8.20820   73.18990   80.99670  671.73580   10.13430   80.99670 -207.21790 -172.34800  671.73580
 7750.00000    8.75970    8.75970  101.28120    9.87350   51.95200   51.95200    -999.25   22.19010   22.19010    9.87350   16.27270  123.12660    8.26750   16.27270    -999.25    -999.25  123.12660
 7800.00000    9.58520    9.58520  325.01300    3.07680   56.60600   56.60600    -999.25   31.44680   31.44680    3.07680    3.68230   36.34890    9.62320    3.68230 -183.75610 -148.33290   36.34890
 7850.00000    9.47110    9.47110    2.92180  342.24980   49.63160   49.63160    -999.25   15.51760   15.51760  342.24980  835.31530 1577.22310    9.81170  835.31530 -121.98790  -86.28620 1577.22310
 7900.00000    8.89210    8.89210    4.12270  242.55820   50.97480   50.97480    -999.25   30.06460   30.06460  242.55820  273.28120  817.44480    9.32290  273.28120  -82.41650  -46.43820  817.44480
 7950.00000    8.95330    8.95330   17.53400   57.03210   52.97950   52.97950    -999.25   36.45330   36.45330   57.03210   59.20330   84.77960    9.36240   59.20330  -86.13570  -49.87890   84.77960
 8000.00000    8.66520    8.66520   12.07850   82.79140   52.15820   52.15820    -999.25   18.81500   18.81500   82.79140   69.53850  144.41570    9.04850   69.53850 -108.16740  -71.69960  144.41570
 8050.00000    9.01680    9.01680   76.68240   13.04080   59.07240   59.07240    -999.25   54.57700   54.57700   13.04080   12.63600   16.97690    9.33410   12.63600  -86.89120  -50.32800   16.97690
 8100.00000    9.46330    9.46330   74.62910   13.39960   60.36310   60.36310    -999.25   50.44160   50.44160   13.39960   13.75970   17.05760   10.30810   13.75970  -71.04290  -34.38370   17.05760
 8150.00000   13.16220   13.16220   92.15400   10.85140   70.26540   70.26540    -999.25   55.69640   55.69640   10.85140   10.52500   14.01570   16.67370   10.52500  -84.96050  -48.20600   14.01570
 8200.00000   11.45560   11.45560   97.25830   10.28190   63.60690   63.60690    -999.25   49.37800   49.37800   10.28190   10.05730   14.69100   15.49650   10.05730  -96.24480  -59.39430   14.69100
 8250.00000   14.05810   14.05810  203.17360    4.92190   76.41900   76.41900    -999.25   76.23120   76.23120    4.92190    4.23760    7.14560   18.86320    4.23760 -116.34990  -79.40400    7.14560
 8300.00000   15.00000   15.00000  188.71130    5.29910   78.26740   78.26740    -999.25   79.19400   79.19400    5.29910    4.89260    7.68590   18.97150    4.89260  -78.69040  -41.64910    7.68590
 8350.00000   15.00000   15.00000  165.08190    6.05760   77.69000   77.69000    -999.25   75.18580   75.18580    6.05760    5.29940    8.24080   18.81950    5.29940  -86.54830  -49.41100    8.24080
 8400.00000   15.00000   15.00000  169.87160    5.88680   76.20000   76.20000    -999.25   61.25000   61.25000    5.88680    4.88980    7.47750   18.83200    4.88980 -100.96420  -63.73160    7.47750
 8450.00000   15.00000   15.00000  195.46520    5.11600   77.95270   77.95270    -999.25   78.95400   78.95400    5.11600    4.52370    7.48110   18.82290    4.52370  -86.43180  -49.10320    7.48110
 8500.00000   15.00000   15.00000  215.75900    4.63480   80.60840   80.60840    -999.25   67.90670   67.90670    4.63480    3.52190    6.27230   18.91460    3.52190 -101.67560  -64.25160    6.27230
 8550.00000   15.00000   15.00000  181.71910    5.50300   78.29510   78.29510    -999.25   64.96490   64.96490    5.50300    4.88560    7.80500   18.91760    4.88560  -80.66130  -43.14190    7.80500
 8600.00000    9.21740    9.21740   75.05930   13.32280   62.47840   62.47840    -999.25   70.98180   70.98180   13.32280   13.73490   19.73280    9.67530   13.73490  -67.12720  -29.51180   19.73280
 8650.00000    9.31420    9.31420   78.15980   12.79430   64.24520   64.24520   40.82060   68.68350   68.68350   12.79430   13.87890   22.58190    9.70020   13.87890  -63.37430  -25.66360   22.58190
 8700.00000    9.10130    9.10130   78.10120   12.80390   63.18550   63.18550   48.61270   66.68130   66.68130   12.80390   13.57400   22.19780    9.58050   13.57400  -60.78920  -22.98250   22.19780
 8750.00000    9.49960    9.49960   80.07750   12.48790   64.68290   64.68290   45.07400   64.26610   64.26610   12.48790   13.11090   19.77350    9.87440   13.11090  -64.01670  -26.11460   19.77350
 8800.00000   11.84780   11.84780  127.81840    7.82360   73.54220   73.54220   41.62850   79.49740   79.49740    7.82360    7.94280   11.93840   14.77130    7.94280  -87.63160  -49.63410   11.93840
 8850.00000   11.11960   11.11960  132.58560    7.54230   70.31770   70.31770   37.50080   68.26380   68.26380    7.54230    7.84610   11.10470   12.90910    7.84610  -75.77730  -37.68380   11.10470
 8900.00000   10.58960   10.58960  104.96810    9.52670   72.71980   72.71980   42.71020   85.27650   85.27650    9.52670    9.16420   12.40590   11.67460    9.16420  -73.89420  -35.70540   12.40590
 8950.00000   11.04360   11.04360  134.63660    7.42740   83.03470   83.03470   37.20040   83.29640   83.29640    7.42740    7.78610   13.68380   12.56470    7.78610  -86.30090  -48.01610   13.68380
 9000.00000    9.00400    9.00400   34.08330   29.33990   82.42010   82.42010   31.57630  122.94520  122.94520   29.33990   28.34220   44.06290    9.43940   28.34220  -48.54620  -10.16600   44.06290
 9050.00000    9.12530    9.12530   10.83600   92.28470   75.16310   75.16310   28.84220   73.05470   73.05470   92.28470  124.96340  902.30040    9.57930  124.96340  -59.36810  -20.89250  902.30040
 9100.00000    9.43150    9.43150   24.53750   40.75400   54.18740   54.18740   17.12060   28.05450   28.05450   40.75400   41.74900   62.52190    9.58420   41.74900  -62.50430  -23.93270   62.52190
 9150.00000    9.20840    9.20840   10.59210   94.41000   51.30970   51.30970   17.25440   20.36540   20.36540   94.41000  100.95950  128.07580    9.70920  100.95950  -73.00860  -34.34170  128.07580
