~Version ---------------------------------------------------
VERS.      2.0 : CWLS log ASCII Standard -VERSION 2.0
WRAP.       NO : One line per depth step
CREA. 12/11/17 : LAS Creation Date
~Well ------------------------------------------------------
STRT.FT                         300.0 : START DEPTH
STOP.FT                        7450.0 : STOP DEPTH
STEP.FT                      50.00000 : STEP LENGTH
NULL.                         -999.25 : NULL VALUE
COMP.         BRALORNE RESOURCES LTD. : COMPANY
WELL. BRALORNE ET AL HEARTR 9-1-77-16 : WELL
FLD .                                 : FIELD
LOC .                                 : LOCATION
CTRY.                          CANADA : COUNTRY
SRVC.                         Unknown : SERVICE COMPANY
DATE.                     01-Apr-1977 : LOGDATE
PROV.                         Alberta : PROVINCE
UWI .                100090107716W500 : UNIQUE WELL ID
SLAT.WGS84                   55.64558 : SURFACE LATITUDE
SLON.WGS84                  -116.3326 : SURFACE LONGITUDE
~Curve Information -----------------------------------------
DEPT    .FT    : Depth Curve
CALDED  .IN    : CALIPER FROM DENSITY LOG [ADJ. TO RESISTIVITY LOG]
CALWS   .IN    : CALIPER [CALDED]
CONDWS  .MMHO  : CONDUCTIVITY [1000/DRESWS]
DCORWS  .G/C3  : DENSITY CORRECTION [DRHOED]
DENWS   .G/C3  : FORMATION BULK DENSITY [CALC. FROM DPOLSWS M=2.71, F=1.00]
DPHILSED.V/V   : DENSITY POROSITY LIMESTONE  [M=2.71, F=1.00]  FROM DENSITY LOG [ADJ. TO RESISTIVITY LOG]
DPHISSED.V/V   : DENSITY POROSITY SANDSTONE [M=2.65, F=1.00] FROM DENSITY LOG [ADJ. TO RESISTIVITY LOG]
DPOLSWS .V/V   : DENSITY POROSITY SANDSTONE [DPHISSED CONVERTED TO LIMESTONE MATRIX, M=2.71, F=1.00, SPL. TO DPHILSED @ 2694']
DRESWS  .OHMM  : DEEP RESISTIVITY [ILDED]
DRHOED  .G/C3  : BULK DENSITY CORRECTION FROM DENSITY LOG [ADJ. TO RESISTIVITY LOG/DPHISSED/DPHILSED] [DRHOED*1000]
GRDED   .GAPI  : GAMMA RAY FROM DENSITY LOG [ADJ. TO RESISTIVITY LOG]
GRWS    .GAPI  : GAMMA RAY [GRDED]
ILDED   .OHMM  : DEEP INDUCTION FROM RESISTIVITY LOG
ILMED   .OHMM  : MEDIUM INDUCTION FROM RESISTIVITY LOG
LL8ED   .OHMM  : LATEROLOG 8 FROM RESISTIVITY LOG
MRESWS  .OHMM  : MEDIUM RESISTIVITY [ILMED]
NPHILSED.V/V   : NEUTRON POROSITY LIMESTONE FROM DENSITY LOG [ADJ. TO RESISTIVITY LOG]
NPHISSED.V/V   : NEUTRON POROSITY SANDSTONE FROM DENSITY LOG [ADJ. TO RESISTIVITY LOG]
NPOLSWS .V/V   : NEUTRON POROSITY LIMESTONE [NPHISSED MATRIX CONVERSION FOR LIMESTONE FROM SCHLUMBERGER (CNL), SPL. TP NPHILSED @ 2694']
RHOBED  .G/C3  : BULK DENSITY FROM DENSITY LOG [ADJ. TO RESISTIVITY LOG/DPHISSED/DPHILSED]
SPRED   .MV    : SPONTANEOUS POTENTIAL FROM RESISTIVITY LOG
SPWS    .MV    : SPONTANEOUS POTENTIAL [BASELINE 0 MV, SPRED]
SRESWS  .OHMM  : SHALLOW RESISTIVITY [LL8ED]
~Params ----------------------------------------------------
PD  .                     GL : PERMANENT DATUM
EPD .FT               2310.5 : ELEVATION PERMANENT DATUM
LMF .                     KB : LOG MEASURED FROM
DAPD.FT                 14.4 : FEET ABOVE PERMANENT DATUM
EKB .FT               2324.9 : KELLY BUSHING
EGL .FT               2310.5 : GROUND LEVEL
DATE.               04/01/77 : RUN DATE
RUN .                      1 : RUN NUMBER
DD  .FT                 7520 : DEPTH DRILLER
DL  .FT                 7486 : DEPTH LOGGER
BLI .FT                 7480 : BOTTOM LOG INTERVAL
TLI .FT                  796 : TOP LOG INTERVAL
CBD .FT                  796 : CASING BOTTOM DRILLER
CBL .FT                  796 : CASING BOTTOM LOGGER
BS  .IN                7.875 : BIT SIZE
BSD .FT                 7520 : BIT SIZE AT DEPTH
DFT .              GEL BENEX : DRILLING FLUID TYPE
DFD .                    9.2 : DRILLING FLUID DENSITY
DFV .                     80 : DRILLING FLUID VISCOSITY
DFPH.                   10.5 : DRILLING FLUID PH
DFL .                     12 : DRILLING FLUID LOSS
MSS .             CIRCULATED : MUD SAMPLE SOURCE
RMS .OHMM               0.49 : RESISTIVITY MUD SAMPLE
MST .DEGF                 64 : MUD SAMPLE TEMPERATURE
RMF .OHMM               0.35 : RESISTIVITY MUD FILTRATE SAMPLE
MFST.DEGF                 66 : MUD FILTRATE SAMPLE TEMPERATURE
RMB .OHMM               0.17 : RESISTIVITY MUD AT BHT
TCS .HRS                 2.5 : TIME CIRCULATED STOPPED
LUN .                   7809 : LOGGING UNIT NUMBER
LUL .                    EDM : LOGGING UNIT LOCATION
ENGI.      CROCKFORD BUSHMAN : RECORDING ENGINEER
WITN.      KIRKPATRICK MOORE : WITNESSED BY
CLNT.                A2DTECH : CLIENT CODE
ORIG.            2" 5" PRINT : ORIGIN OF DATA
UWI .       100090107716W500 : UNIQUE WELL ID
DICO. A2D Technologies, Inc. : DIGITIZING COMPANY
~Other -----------------------------------------------------
DIL-CNFD LOG RUN
RHOBED & DRHOED VERIFY FROM 2" SCALE
~ASCII -----------------------------------------------------
# ...
 6500.00000   15.00000   15.00000  329.68480    0.17460    2.49640    0.12490    -999.25    0.12490    3.03320    0.17460  108.76980  108.76980    3.03320    2.76620    3.32960    2.76620    0.35030    -999.25    0.35030    2.48870  -53.22510  -15.87820    3.32960
 6550.00000   15.00000   15.00000  295.97180    0.11640    2.50620    0.11920    -999.25    0.11920    3.37870    0.11640  114.51540  114.51540    3.37870    3.03320    4.12400    3.03320    0.28480    -999.25    0.28480    2.50710  -57.64710  -21.46430    4.12400
 6600.00000   14.72850   14.72850  291.66860    0.13260    2.53830    0.10040    -999.25    0.10040    3.42850    0.13260  128.24300  128.24300    3.42850    3.32230    4.25640    3.32230    0.28320    -999.25    0.28320    2.53710  -50.78920  -15.77820    4.25640
 6650.00000    8.55490    8.55490   79.04640    0.11290    2.70270    0.00430    -999.25    0.00430   12.65080    0.11290   65.31740   65.31740   12.65080   10.82840   13.70650   10.82840    0.14290    -999.25    0.14290    2.67100  -37.36180   -3.51490   13.70650
 6700.00000    8.58710    8.58710  114.96770    0.07400    2.65690    0.03100    -999.25    0.03100    8.69850    0.07400   71.20130   71.20130    8.69850    9.37530   12.98860    9.37530    0.15040    -999.25    0.15040    2.65320  -34.88160   -2.20650   12.98860
 6750.00000   10.74030   10.74030  199.23890    0.22020    2.53040    0.10500    -999.25    0.10500    5.01910    0.22020  105.88830  105.88830    5.01910    5.10360    6.39940    5.10360    0.25010    -999.25    0.25010    2.55270  -53.20910  -21.69810    6.39940
 6800.00000   10.03300   10.03300  203.46290    0.17660    2.53440    0.10270    -999.25    0.10270    4.91490    0.17660   97.17040   97.17040    4.91490    5.70380    7.16100    5.70380    0.24210    -999.25    0.24210    2.51810  -51.61490  -21.26800    7.16100
 6850.00000   10.85030   10.85030  283.79230    0.13700    2.55510    0.09060    -999.25    0.09060    3.52460    0.13700  126.28540  126.28540    3.52460    3.17590    4.27670    3.17590    0.29710    -999.25    0.29710    2.55300  -47.98920  -18.81410    4.27670
 6900.00000   10.61590   10.61590  299.91300    0.15540    2.51570    0.11360    -999.25    0.11360    3.33430    0.15540  150.95680  150.95680    3.33430    3.25250    4.51630    3.25250    0.30660    -999.25    0.30660    2.50240  -44.95270  -16.94170    4.51630
 6950.00000   10.80210   10.80210  273.11990    0.12120    2.47900    0.13510    -999.25    0.13510    3.66150    0.12120  118.30880  118.30880    3.66150    3.40970    4.55760    3.40970    0.30200    -999.25    0.30200    2.47830  -52.16040  -25.32120    4.55760
 7000.00000   10.53330   10.53330  228.95350    0.13490    2.51730    0.11270    -999.25    0.11270    4.36770    0.13490   99.61910   99.61910    4.36770    3.70110    4.05650    3.70110    0.27140    -999.25    0.27140    2.49730  -51.87930  -26.20420    4.05650
 7050.00000    8.21980    8.21980   92.47360    0.01960    2.68970    0.01190    -999.25    0.01190   10.81390    0.01960   57.11450   57.11450   10.81390   13.42910   19.30350   13.42910    0.09190    -999.25    0.09190    2.70410  -29.97650   -5.46550   19.30350
 7100.00000    8.32200    8.32200  108.96710    0.00440    2.69790    0.00710    -999.25    0.00710    9.17820    0.00440   58.97760   58.97760    9.17820    9.04510   11.78370    9.04510    0.13210    -999.25    0.13210    2.69390  -30.83140   -6.36640   11.78370
 7150.00000    8.12640    8.12640  176.78780    0.04530    2.66010    0.02920    -999.25    0.02920    5.65650    0.04530  101.38170  101.38170    5.65650    5.89110    7.54070    5.89110    0.20950    -999.25    0.20950    2.64720  -35.13620  -10.67120    7.54070
 7200.00000    9.46850    9.46850  211.14360    0.12850    2.59830    0.06540    -999.25    0.06540    4.73630    0.12850  106.52850  106.52850    4.73630    4.98690    5.86270    4.98690    0.22260    -999.25    0.22260    2.60360  -63.38410  -38.91910    5.86270
 7250.00000    7.97600    7.97600   23.07640    0.00760    2.73860   -0.01670    -999.25   -0.01670   43.33430    0.00760   30.27960   30.27960   43.33430   43.18620   48.94780   43.18620    0.04940    -999.25    0.04940    2.73100  -57.42340  -32.95840   48.94780
 7300.00000    7.79910    7.79910   32.35750    0.00010    2.66490    0.02640    -999.25    0.02640   30.90470    0.00010   24.32870   24.32870   30.90470   36.13520   31.64480   36.13520    0.06440    -999.25    0.06440    2.66950  -73.34760  -48.88260   31.64480
 7350.00000    7.90010    7.90010 1267.56470    0.02980    2.15660    0.32360    -999.25    0.32360    0.79180    0.02980  206.31860  206.31860    0.79180    1.22140    2.74160    1.22140    0.35640    -999.25    0.35640    2.10030  -75.40340  -50.93840    2.74160
 7400.00000   10.43860   10.43860  380.67680    0.17940    2.25700    0.26490    -999.25    0.26490    2.62690    0.17940  168.43860  168.43860    2.62690    2.34080    2.46500    2.34080    0.34600    -999.25    0.34600    2.26900  -59.84090  -35.37590    2.46500
 7450.00000    8.16590    8.16590  255.34150   -0.00650    2.47530    0.13730    -999.25    0.13730    3.91910   -0.00650  242.82170  242.82170    3.91910    4.00150    5.23530    4.00150    0.21310    -999.25    0.21310    2.47710  -57.79220  -33.32720    5.23530
