~Version ---------------------------------------------------
VERS. 2.0 : CWLS log ASCII Standard -VERSION 2.0
WRAP.  NO : ONE LINE PER DEPTH STEP
~Well ------------------------------------------------------
STRT.F                         1200.0 : START DEPTH
STOP.F                        11700.0 : STOP DEPTH
STEP.F                       50.00000 : STEP LENGTH
NULL.                         -999.25 : NULL VALUE
COMP.            MOBIL OIL CANADA LTD : COMPANY
WELL. MOBIL ICG MARSH HEAD 11-3-60-20 : WELL
FLD .                                 : FIELD
LOC .                                 : LOCATION
CTRY.                          CANADA : COUNTRY
SRVC.                    Schlumberger : SERVICE COMPANY
DATE.                     05-Jan-1976 : LOGDATE
PROV.                         Alberta : PROVINCE
UWI .                100110306020W500 : UNIQUE WELL ID
SLAT.WGS84                   54.15991 : SURFACE LATITUDE
SLON.WGS84                  -116.9171 : SURFACE LONGITUDE
~Curve Information -----------------------------------------
DEPT   .F                 : 
CALD   .IN   70 280 01 00 : CALIPER FROM DENSITY LOG
GRD    .GAPI              : GAMMA RAY FROM DENSITY LOG
ILD    .OHMM 07 120 46 00 : DEEP INDUCTION RESISTIVITY
ILM    .OHMM 07 120 44 00 : INDUCTION LOG MEDIUM RESISTIVITY
LL8    .OHMM              : LATEROLOG-8 RESISTIVITY
SPR    .MV                : SPONTANEOUS POTENTIAL FROM RESISTIVITY
DT     .US/F 60 532 00 00 : 3-4 FT COMPENSATED SONIC
DRHO   .G/C3 00 000 00 01 : DENSITY CORRECTION
RHOB   .G/C3 45 350 01 00 : BULK DENSITY
NPHI_LS.DEC               : ENCHANCED THERMAL NEUTRON POROSITY IN SELECTED LITHOLOGY SANDSTONE
DPHI_LS.DEC  45 890 10 00 : DENSITY POROSITY LIMESTONE
CALS   .IN                : CALIPER FROM SONIC LOG
GRS    .GAPI              : GAMMA RAY FROM SONIC LOG
~Params ----------------------------------------------------
PD  .                     GL : PERMANENT DATUM
EPD .FT               3132.5 : ELEVATION PERMANENT DATUM
LMF .                     KB : LOG MEASURED FROM
DAPD.FT                 14.5 : FEET ABOVE PERMANENT DATUM
EKB .FT                 3147 : KELLY BUSHING
EGL .FT               3132.5 : GROUND LEVEL
DATE.               01/05/76 : RUN DATE
RUN .                      1 : RUN NUMBER
DD  .FT                11725 : DEPTH DRILLER
DL  .FT                11730 : DEPTH LOGGER
BLI .FT                11724 : BOTTOM LOG INTERVAL
TLI .FT                 1203 : TOP LOG INTERVAL
CBD .FT                 1203 : CASING BOTTOM DRILLER
CBL .FT                 1203 : CASING BOTTOM LOGGER
BS  .IN                 8.75 : BIT SIZE
BSD .FT                11725 : BIT SIZE AT DEPTH
DFT .                    GEL : DRILLING FLUID TYPE
DFD .                    9.6 : DRILLING FLUID DENSITY
DFV .                    110 : DRILLING FLUID VISCOSITY
DFPH.                   10.5 : DRILLING FLUID PH
DFL .                    9.8 : DRILLING FLUID LOSS
MSS .               FLOWLINE : MUD SAMPLE SOURCE
RMS .OHMM               2.42 : RESISTIVITY MUD SAMPLE
MST .DEGF                 74 : MUD SAMPLE TEMPERATURE
RMF .OHMM               1.63 : RESISTIVITY MUD FILTRATE SAMPLE
MFST.DEGF                 74 : MUD FILTRATE SAMPLE TEMPERATURE
RMB .OHMM               0.67 : RESISTIVITY MUD AT BHT
TCS .HRS                   3 : TIME CIRCULATED STOPPED
LUN .                   7658 : LOGGING UNIT NUMBER
LUL .                     RD : LOGGING UNIT LOCATION
ENGI.              DODSWORTH : RECORDING ENGINEER
WITN.   OLINYK LINDENSCHMIDT : WITNESSED BY
CLNT.                A2DTECH : CLIENT CODE
ORIG.            2" 5" PRINT : ORIGIN OF DATA
UWI .       100110306020W500 : UNIQUE WELL ID
DICO. A2D Technologies, Inc. : DIGITIZING COMPANY
~Other -----------------------------------------------------
~ASCII -----------------------------------------------------
# ...
 9000.00000    9.48890   50.69950   44.97650   47.88510   84.48100  -27.40750   55.17420    0.00960    2.64740    0.02960    0.03730    9.06770   50.19950
 9050.00000    9.48040   48.58540   56.48390   58.85040  125.77250  -12.92850   54.37240    0.00290    2.63490    0.02460    0.04130    8.91310   49.82160
 9100.00000    9.61090   39.95850  100.44680  105.46530 1472.49350  -13.76110   61.36480   -0.00370    2.60310    0.03300    0.06100    9.29330   29.09840
 9150.00000   10.16730   33.33190  111.86480  126.99420  379.16450  -33.40290   49.60380    0.02670    2.58210    0.02240    0.05970    9.39000   31.78810
 9200.00000   10.83640   17.45760  170.44640  184.94520 1474.65100  -76.57300   49.06870    0.16620    2.49020    0.01180    0.13060    9.40790   18.12810
 9250.00000   11.65680   17.48800  173.35840  169.37700 1194.58840  -80.45760   48.80010    0.22130    2.39250    0.00930    0.17880    9.34750   16.73080
 9300.00000   12.28760   16.30930  177.73160   92.77170  283.67040  -93.25590   49.89640    0.16070    2.41220    0.01420    0.16670    9.37330   13.41380
 9350.00000   12.33140   16.58890  173.51430  141.50800  825.40250  -78.07670   49.72060    0.20240    2.39530    0.02630    0.19240    9.37390   16.28230
 9400.00000   11.11250   18.05030  104.00060  115.26100  597.46610  -72.05100   50.24310    0.16840    2.52390    0.02120    0.11560    9.36200   14.31850
 9450.00000    9.44150   10.27610   44.04120   40.90490  154.65910  -93.10910   49.73590    0.01200    2.64180    0.01430    0.04170    8.80790   11.55850
 9500.00000   11.05720   13.25940  146.30270  141.66130  801.05520  -78.84250   49.69370    0.21980    2.33970    0.01620    0.21630    9.32850   15.66310
 9550.00000   10.76480   16.28580  108.65020  102.46750  260.30410  -72.94970   50.15720    0.18610    2.51330    0.00520    0.10870    9.29820   15.77540
 9600.00000   12.65740   18.22350  159.00750  151.96370  754.34030  -90.29530   50.09510    0.13920    2.40730    0.01990    0.17420    9.34150   15.44370
 9650.00000   12.41600   15.69550  179.39220  203.32570  707.04460  -95.75150   50.93980    0.19140    2.46720    0.00620    0.14320    9.39190   18.13170
 9700.00000   12.39330   16.08880  143.06660  122.49160  293.10480  -95.89060   50.43920    0.15130    2.40380    0.00430    0.14540    9.27930   16.45670
 9750.00000   10.97960   15.88560   62.51250   51.58180   91.96550  -92.64520   50.56710    0.13580    2.52600   -0.00030    0.09620    9.08480   12.71090
 9800.00000   11.05080   10.84510   93.00640  115.63650  218.52060  -93.87120   49.38200    0.04920    2.58250    0.00070    0.06270    9.13400   14.38070
 9850.00000   12.48250   13.94860  168.12950  126.74940 1420.55240  -91.88140   48.97010    0.21010    2.30320    0.00450    0.18740    9.65380   13.66750
 9900.00000    9.35810   28.26080   55.46090  136.33160 1528.52920  -85.53550   50.06080   -0.00090    2.82020    0.00730   -0.02930    9.02190   22.99000
 9950.00000   12.23520   20.48630  131.77530   66.50340  136.99930 -105.17520   50.18930    0.16880    2.16090    0.06590    0.33150    9.62500   21.70260
 10000.00000    9.10920   24.30410   30.44940   26.18970   81.76020 -172.99500   55.09270    0.02780    2.65420    0.06530    0.03660    9.55320   24.05730
 10050.00000    9.13920   26.41820   83.66600  100.16280  270.33800 -152.43060   51.42180   -0.00630    2.64880    0.01230    0.03130    9.54040   27.08050
 10100.00000    9.15180   35.58830   58.69790   61.92290  103.55350 -133.36740   52.01660   -0.01050    2.63660    0.02200    0.04460    9.64880   37.50280
 10150.00000    9.16150   36.78720   48.85600   52.16310   83.14310 -136.42050   53.28760    0.01010    2.66120    0.02540    0.02530    9.85260   32.98270
 10200.00000    9.13180   31.43100   71.80290   75.99620  147.18310 -145.50250   51.53210    0.01120    2.66760    0.01370    0.03440    9.52320   30.83480
 10250.00000    9.16520   37.49370   42.39900   46.00260   66.84630 -144.67970   54.22410   -0.00300    2.63770    0.04210    0.03620    9.54360   40.44060
 10300.00000    9.15440   36.00230   51.40990   56.62950   87.95420 -140.83490   52.64890    0.00240    2.65370    0.01760    0.02730    9.49310   33.27410
 10350.00000    9.14540   33.44050   69.19670   72.66770  121.92150 -140.76640   52.13150    0.01620    2.67310    0.02190    0.02400    9.46000   30.71260
 10400.00000    9.14300   29.61730   76.24960   96.02070  233.57740 -126.09060   53.18450   -0.00390    2.63030    0.01970    0.03610    9.64850   30.14170
 10450.00000    9.24320   42.72970   33.93170   35.71320   52.59440 -101.42140   55.61170   -0.00070    2.63740    0.04900    0.04670    9.61400   40.37540
 10500.00000    9.23160   79.93370   14.36090   15.80560   25.18870  -87.49630   64.49730    0.00310    2.60000    0.11060    0.06030    9.78610   73.40640
 10550.00000    9.31090   95.98510   51.26570   67.10190  204.02420  -91.93990   68.41640    0.02230    2.61040    0.13020    0.06820    9.67230   87.96200
 10600.00000   10.59990   86.20090   12.44360   14.19850   44.54230  -87.37090   72.28640    0.19300    2.48230    0.14750    0.10190    9.97840   70.88910
 10650.00000    9.71260   88.62890   15.36000   15.88890   33.94230  -82.83050   69.98330    0.16890    2.47890    0.14750    0.16470    9.84820   80.97130
 10700.00000    9.11050   76.56150   15.30700   16.04830   20.98760  -72.15520   62.15640   -0.00140    2.63560    0.11450    0.04450    9.59350   73.81820
 10750.00000    9.20180   84.25500   15.46710   16.48780   22.73510  -68.40690   63.44330   -0.00460    2.66100    0.13230    0.02640    9.59300   74.93250
 10800.00000    9.21510   68.79600   23.89610   26.25510   38.51840  -65.19000   59.43140   -0.00210    2.66660    0.07380    0.02820    9.62560   59.96200
 10850.00000    9.17800  106.62950   25.87100   29.57210   32.83960  -60.53200   67.26010   -0.00660    2.64990    0.15870    0.03890    9.62990  100.70440
 10900.00000    9.22930   88.74410   12.34060   13.18260   22.93760  -59.95510   68.50610    0.01090    2.61670    0.15880    0.07120    9.72770   77.28640
 10950.00000   10.32630  126.72070   14.95960   14.08360   27.34890  -63.63030   77.00940    0.10690    2.59090    0.18860    0.07870   10.01780  110.31690
 11000.00000    9.05060  129.01580   56.38890   58.22010  217.14220   -1.29670   75.17090   -0.00190    2.50510    0.14390    0.12860    9.49640  118.21010
 11050.00000    9.08060  146.29570   37.90460   37.34620   95.77950  -11.59730   83.77580   -0.00290    2.50450    0.18020    0.12400    9.96420  132.98710
 11100.00000    9.01030  151.01790  121.94290  179.16070 1493.84960  -34.78060   75.05480    0.00530    2.44020    0.13370    0.15720    9.47450  145.01050
 11150.00000    8.99300  117.67510  115.41860  134.29260 1467.34110  -45.00530   68.10300    0.01310    2.46080    0.09750    0.15250    9.38960  119.16190
 11200.00000    9.19180   75.86080   69.58100   93.68200  263.70420  -25.79100   62.20910   -0.02280    2.59050    0.07990    0.07830    9.51010   66.95400
 11250.00000   11.16450   14.96470  124.15160  224.82820 1540.87280 -117.98080   48.69770    0.20760    2.53710   -0.00550    0.11310   10.05490   12.52310
 11300.00000    9.04180   12.35670   69.98710   87.31020  210.37120 -142.11270   50.38330    0.07830    2.59930    0.03070    0.05250    9.61480   11.97210
 11350.00000   10.41880   18.37780  231.87830  206.70520 1536.51160 -140.99160   48.88110    0.19980    2.48040    0.00770    0.14330   10.11440   15.53050
 11400.00000    9.75060   19.97950  140.96860  210.02710 1493.80690 -124.88140   47.28930    0.13230    2.59800    0.02570    0.11940   10.11550   19.14730
 11450.00000   10.44850   20.28630  148.96840  160.00170 1499.05310 -152.51540   48.33060    0.17490    2.52890   -0.00400    0.07320   10.14930   20.21840
 11500.00000   11.86420   14.12460  199.32250  141.26870 1505.61060 -153.01280   48.03130    0.14660    2.39760    0.00420    0.17960   10.12880   13.96480
 11550.00000   11.15580   14.97730  160.44040  214.67960 1514.74930 -161.79220   49.49710    0.22670    2.35730   -0.00180    0.20230   10.09130   13.67000
