~Version ---------------------------------------------------
VERS.      2.0 : CWLS log ASCII Standard -VERSION 2.0
WRAP.       NO : One line per depth step
CREA. 11/17/17 : LAS Creation Date
~Well ------------------------------------------------------
STRT.FT                         1100.0 : START DEPTH
STOP.FT                        10550.0 : STOP DEPTH
STEP.FT                       50.00000 : STEP LENGTH
NULL.                          -999.25 : NULL VALUE
COMP.          MIDWEST OIL CORPORATION : COMPANY
WELL. MIDWEST CANKEE PEERS 10-28-54-14 : WELL
FLD .                                  : FIELD
LOC .                                  : LOCATION
CTRY.                           CANADA : COUNTRY
SRVC.                     Schlumberger : SERVICE COMPANY
DATE.                      15-Jul-1970 : LOGDATE
PROV.                          Alberta : PROVINCE
UWI .                 100102805414W500 : UNIQUE WELL ID
SLAT.WGS84                     53.6964 : SURFACE LATITUDE
SLON.WGS84                   -115.9982 : SURFACE LONGITUDE
~Curve Information -----------------------------------------
DEPT  .FT    : Depth Curve
CALSED.IN    : CALIPER FROM SONIC LOG
CALWS .IN    : CALIPER [CALSED]
CILDED.MMHO  : DEEP INDUCTION CONDUCTIVITY FROM RESISTIVITY LOG
CONDWS.MMHO  : CONDUCTIVITY [1000/DRESWS]
DRESWS.OHMM  : DEEP RESISTIVITY [1000/CILDED, IF ILDED < 1, ILDED]
DTED  .US/F  : DELTA-TRANSIT TIME FROM SONIC LOG
DTWS  .US/F  : COMPRESSIONAL SONIC [DTED]
GRSED .GAPI  : GAMMA RAY FROM SONIC LOG
GRWS  .GAPI  : GAMMA RAY [GRSED]
ILDED .OHMM  : DEEP INDUCTION FROM RESISTIVITY LOG
SNED  .OHMM  : SHORT NORMAL 16" FROM RESISTIVITY LOG
SPRED .MV    : SPONTANEOUS POTENTIAL FROM RESISTIVITY LOG
SPWS  .MV    : SPONTANEOUS POTENTIAL [BASELINE 0 MV, SPRED]
SRESWS.OHMM  : SHALLOW RESISTIVITY [SNED]
~Params ----------------------------------------------------
PD  .                     GL : PERMANENT DATUM
EPD .FT               2798.5 : ELEVATION PERMANENT DATUM
LMF .                     KB : LOG MEASURED FROM
DAPD.FT                 13.5 : FEET ABOVE PERMANENT DATUM
EKB .FT                 2812 : KELLY BUSHING
EGL .FT               2798.5 : GROUND LEVEL
DATE.               07/15/70 : RUN DATE
RUN .                      1 : RUN NUMBER
DD  .FT                10576 : DEPTH DRILLER
DL  .FT                10576 : DEPTH LOGGER
BLI .FT                10575 : BOTTOM LOG INTERVAL
TLI .FT                 1090 : TOP LOG INTERVAL
CBD .FT                 1090 : CASING BOTTOM DRILLER
CBL .FT                 1090 : CASING BOTTOM LOGGER
BS  .IN                 8.75 : BIT SIZE
BSD .FT                10576 : BIT SIZE AT DEPTH
DFT .              GEL BENEX : DRILLING FLUID TYPE
DFD .                    9.2 : DRILLING FLUID DENSITY
DFV .                    102 : DRILLING FLUID VISCOSITY
DFPH.                    8.5 : DRILLING FLUID PH
DFL .                    9.4 : DRILLING FLUID LOSS
RMS .OHMM               2.18 : RESISTIVITY MUD SAMPLE
MST .DEGF                 93 : MUD SAMPLE TEMPERATURE
RMF .OHMM               1.81 : RESISTIVITY MUD FILTRATE SAMPLE
MFST.DEGF                 93 : MUD FILTRATE SAMPLE TEMPERATURE
RMC .OHMM               2.63 : RESISTIVITY MUD CAKE
MCST.DEGF                 93 : MUD CAKE SAMPLE TEMPERATURE
RMB .OHMM               1.14 : RESISTIVITY MUD AT BHT
TCS .HRS                 2.5 : TIME CIRCULATED STOPPED
LUN .                   7501 : LOGGING UNIT NUMBER
LUL .                    EDM : LOGGING UNIT LOCATION
ENGI.                 HADDOW : RECORDING ENGINEER
WITN.              BURROUGHS : WITNESSED BY
CLNT.                A2DTECH : CLIENT CODE
ORIG.            2" 5" PRINT : ORIGIN OF DATA
UWI .       100102805414W500 : UNIQUE WELL ID
DICO. A2D Technologies, Inc. : DIGITIZING COMPANY
~Other -----------------------------------------------------
~ASCII -----------------------------------------------------
# ...
 3550.00000   10.88420   10.88420  197.50690  219.24540    4.56110   92.01630   92.01630   60.67310   60.67310    4.56110    5.84160  -60.14220   -2.85750    5.84160
 3600.00000    9.98600    9.98600   89.44780   98.98930   10.10650   81.84440   81.84440   63.40340   63.40340   10.10650   12.26310  -60.01130   -2.78770   12.26310
 3650.00000   10.21990   10.21990  156.97120  186.16080    5.37170   85.29870   85.29870   66.94220   66.94220    5.37170    6.95010  -59.16280   -2.09870    6.95010
 3700.00000   11.15140   11.15140   98.64360  106.11650    9.46350   81.25770   81.25770   52.73710   52.73710    9.46350   10.89200  -61.74350   -4.89830   10.89200
 3750.00000   11.03930   11.03930  153.91400  174.88630    5.71800   95.48530   95.48530   60.36480   60.36480    5.71800    7.88670  -61.34560   -4.71700    7.88670
 3800.00000   10.82120   10.82120  164.31750  188.33460    5.30970   98.26120   98.26120   66.22660   66.22660    5.30970    7.21150  -61.34120   -4.93030    7.21150
 3850.00000   11.03060   11.03060  125.74450  147.26750    6.79360   80.36290   80.36290   60.56450   60.56450    6.79360    9.37650  -59.46080   -3.26880    9.37650
 3900.00000   11.33000   11.33000  174.52560  188.35940    5.30900   89.70790   89.70790   66.32570   66.32570    5.30900    7.54380  -59.98960   -4.01430    7.54380
 3950.00000    9.94920    9.94920   44.88040   45.71730   21.90590   66.88460   66.88460   43.41970   43.41970   21.90590   32.58510  -83.15440  -27.39800   32.58510
 4000.00000   10.72310   10.72310  118.00650  133.07610    7.51450   83.57130   83.57130   55.33180   55.33180    7.51450    9.81340  -64.24070   -8.70090    9.81340
 4050.00000   10.64710   10.64710  142.22440  159.06850    6.28660   86.58300   86.58300   61.84650   61.84650    6.28660    8.20550  -57.17050   -1.83950    8.20550
 4100.00000   11.78490   11.78490  170.87120  191.58030    5.21970   92.05420   92.05420   74.38400   74.38400    5.21970    6.98220  -57.09610   -1.07900    6.98220
 4150.00000   11.37080   11.37080  113.77480  132.23140    7.56250   83.70340   83.70340   85.58530   85.58530    7.56250    9.18470  -59.16090   -2.46460    9.18470
 4200.00000   11.17730   11.17730  112.88120  124.23010    8.04960   86.95080   86.95080   81.39230   81.39230    8.04960    9.65610  -61.22420   -3.98570    9.65610
 4250.00000   10.57230   10.57230   93.00250  109.31590    9.14780   82.52680   82.52680   89.06430   89.06430    9.14780   11.10780  -61.34000   -3.96240   11.10780
 4300.00000   10.64820   10.64820  102.93660  117.69000    8.49690   84.15420   84.15420   91.90670   91.90670    8.49690   10.92920  -61.28870   -3.77120   10.92920
 4350.00000   10.56380   10.56380  108.48280  123.10510    8.12350   51.92920   51.92920  100.97330  100.97330    8.12350   10.62780  -61.52280   -3.86470   10.62780
 4400.00000    9.91030    9.91030  102.99300  117.55580    8.50660   93.02810   93.02810  116.55800  116.55800    8.50660   12.30150  -60.19280   -2.39560   12.30150
 4450.00000   10.01710   10.01710   77.22890   87.32780   11.45130   87.30010   87.30010  115.26800  115.26800   11.45130   16.39500  -60.51080   -2.57300   16.39500
 4500.00000   10.59770   10.59770  109.49790  123.11630    8.12240   91.19390   91.19390  104.55280  104.55280    8.12240   11.02950  -59.95480   -1.87780   11.02950
 4550.00000   11.45710   11.45710  134.35670  155.15660    6.44510   87.22400   87.22400   90.16590   90.16590    6.44510    8.28990  -60.20570   -2.41700    8.28990
 4600.00000   11.06210   11.06210  125.08830  141.41950    7.07120   75.29250   75.29250   89.21140   89.21140    7.07120    8.85480  -59.96240   -2.81530    8.85480
 4650.00000   10.59570   10.59570  103.09170  118.75500    8.42070   79.74650   79.74650   91.89140   91.89140    8.42070   10.49300  -60.27500   -3.76320   10.49300
 4700.00000   10.67120   10.67120   98.38040  113.24630    8.83060   78.99770   78.99770   87.52280   87.52280    8.83060   10.93820  -58.38220   -2.51200   10.93820
 4750.00000   10.98560   10.98560  133.92180  150.98900    6.62300   84.87980   84.87980   95.87340   95.87340    6.62300    7.81490  -57.25670   -2.02190    7.81490
 4800.00000   11.03620   11.03620  132.08750  150.81590    6.63060   84.10690   84.10690   96.23980   96.23980    6.63060    8.27620  -56.63960   -2.04330    8.27620
 4850.00000   11.13280   11.13280  141.09010  160.32180    6.23750   85.58460   85.58460  101.45570  101.45570    6.23750    7.68250  -56.45680   -2.50210    7.68250
 4900.00000   11.54760   11.54760  101.65940  114.62240    8.72430   81.19720   81.19720   92.82560   92.82560    8.72430    9.74000  -56.78870   -3.46930    9.74000
 4950.00000   11.26410   11.26410  104.40560  120.06380    8.32910   81.27420   81.27420   89.63690   89.63690    8.32910    9.88860  -55.57000   -2.89230    9.88860
 5000.00000   10.36160   10.36160   61.59680   72.77540   13.74090   80.30370   80.30370   68.59880   68.59880   13.74090   17.76040  -64.70170  -12.50030   17.76040
 5050.00000   10.44460   10.44460   88.03570  100.03400    9.99660   77.58350   77.58350   88.28000   88.28000    9.99660   11.90660  -53.99330   -2.21260   11.90660
 5100.00000   10.98290   10.98290  100.90950  115.90910    8.62760   79.35410   79.35410   91.94000   91.94000    8.62760   10.77360  -53.37980   -2.02180   10.77360
 5150.00000   10.58230   10.58230  114.29120  128.83280    7.76200   85.23060   85.23060   98.95560   98.95560    7.76200    9.23070  -51.19070   -0.25140    9.23070
 5200.00000   11.13430   11.13430   83.31700   98.35780   10.16850   77.39190   77.39190   96.02150   96.02150   10.16850   12.42780  -52.93410   -2.41760   12.42780
 5250.00000   11.94710   11.94710  114.95350  130.34750    7.67180   86.13620   86.13620  100.21580  100.21580    7.67180    9.91560  -52.08890   -1.99100    9.91560
 5300.00000   10.99760   10.99760  119.93750  133.83120    7.47210   91.94520   91.94520  110.63120  110.63120    7.47210    9.57830  -50.84130   -1.16400    9.57830
 5350.00000   10.69700   10.69700   88.12660  102.31170    9.77480   88.13610   88.13610  112.20560  112.20560    9.77480   13.81270  -51.20700   -1.95250   13.81270
 5400.00000   10.21000   10.21000   97.76230  110.90900    9.01640   86.46700   86.46700  104.32590  104.32590    9.01640   12.17240  -50.47180   -1.63590   12.17240
 5450.00000    9.86980    9.86980   82.41550   95.69110   10.45030   88.55190   88.55190  110.30770  110.30770   10.45030   15.49560  -50.11870   -1.70560   15.49560
 5500.00000    9.78480    9.78480   66.23390   78.34720   12.76370   89.63730   89.63730  116.61270  116.61270   12.76370   21.69960  -50.02990   -2.03540   21.69960
 5550.00000   10.00320   10.00320   76.64490   90.68400   11.02730   86.25920   86.25920  105.09460  105.09460   11.02730   17.66470  -50.02420   -2.45040   17.66470
 5600.00000   10.10360   10.10360   85.67390   97.14590   10.29380   86.95450   86.95450  104.48320  104.48320   10.29380   15.40010  -49.10730   -1.95630   15.40010
 5650.00000   11.08770   11.08770  113.29660  132.48720    7.54790   86.68190   86.68190   98.85000   98.85000    7.54790   11.51740  -50.14750   -3.41510   11.51740
 5700.00000   10.35450   10.35450   86.82180   97.98120   10.21000   81.93810   81.93810   90.78110   90.78110   10.21000   12.92210  -50.29800   -3.98830   12.92210
 5750.00000   10.27790   10.27790  128.87280  144.46900    6.92190   75.36250   75.36250   97.06980   97.06980    6.92190    9.47940  -50.03480   -4.14380    9.47940
 5800.00000   10.34370   10.34370  173.35210  194.31060    5.14640   79.00530   79.00530  107.34820  107.34820    5.14640    6.99160  -49.13910   -3.66870    6.99160
 5850.00000   10.51490   10.51490  112.93730  129.11650    7.74490   79.03880   79.03880   93.01560   93.01560    7.74490   10.64800  -49.18770   -4.14010   10.64800
 5900.00000   10.89790   10.89790  135.55170  154.82750    6.45880   84.69430   84.69430  100.44620  100.44620    6.45880    8.67000  -48.24980   -3.62080    8.67000
 5950.00000   10.86710   10.86710  175.76530  194.61480    5.13860   91.73310   91.73310  130.72650  130.72650    5.13860    7.19220  -47.69250   -3.48640    7.19220
