~Version ---------------------------------------------------
VERS.      2.0 : CWLS log ASCII Standard -VERSION 2.0
WRAP.       NO : One line per depth step
CREA. 10/25/17 : LAS Creation Date
~Well ------------------------------------------------------
STRT.FT                 1200.0 : START DEPTH
STOP.FT                12350.0 : STOP DEPTH
STEP.FT               50.00000 : STEP LENGTH
NULL.                  -999.25 : NULL VALUE
COMP.     CHEVRON STANDARD LTD : COMPANY
WELL. CHEVRON EDSON 7-28-52-17 : WELL
FLD .                          : FIELD
LOC .                          : LOCATION
CTRY.                   CANADA : COUNTRY
SRVC.             Schlumberger : SERVICE COMPANY
DATE.              18-Oct-1968 : LOGDATE
PROV.                  Alberta : PROVINCE
UWI .         100072805217W500 : UNIQUE WELL ID
SLAT.WGS84             53.5164 : SURFACE LATITUDE
SLON.WGS84           -116.4412 : SURFACE LONGITUDE
~Curve Information -----------------------------------------
DEPT    .FT    : Depth Curve
CALDED  .IN    : CALIPER FROM FDC LOG [ADJ.TO RESISTIVITY LOG]
CALNED  .IN    : CALIPER FROM SNP LOG [ADJ.TO RESISTIVITY LOG]
CALSED  .IN    : CALIPER FROM SONIC LOG [ADJ. TO RESISTIVITY LOG]
CALWS   .IN    : CALIPER [CALSED]
CILDED  .MMHO  : DEEP CONDUCTIVITY FROM RESISTIVITY LOG
CONDWS  .MMHO  : CONDUCTIVITY [1000/DRESWS]
DCORED  .G/C3  : DENSITY CORRECTION FROM FDC LOG  [ADJ.TO RESISTIVITY LOG]
DCORWS  .G/C3  : DENSITY CORRECTION [DCORED]
DENWS   .G/C3  : FORMATION BULK DENSITY [RHOBED]
DPHILSED.V/V   : DENSITY POROSITY LIMESTONE [M=2.71, F=1.00] FROM FDC LOG [ADJ. TO RESISTIVITY LOG]
DPOLSWS .V/V   : DENSITY POROSITY LIMESTONE [DPHILSED]
DRESWS  .OHMM  : DEEP RESISTIVITY [ILDED]
DTED    .US/F  : DELTA TIME FROM SONIC LOG [ADJ. TO RESISTIVITY LOG]
DTWS    .US/F  : COMPRESSIONAL SONIC [DTED]
GRDED   .GAPI  : GAMMA RAY FROM SNP-FDC LOG [ADJ. TO RESISTIVITY LOG]
GRNED   .GAPI  : GAMMA RAY FROM SNP LOG  [ADJ. TO RESISTIVITY LOG]
GRSED   .GAPI  : GAMMA RAY FROM SONIC LOG [ADJ. TO RESISTIVITY LOG]
GRWS    .GAPI  : GAMMA RAY [GRSED SPL. TO GRDED @ 12330']
ILDED   .OHMM  : DEEP INDUCTION FROM RESISTIVITY LOG
NPOLSWS .V/V   : NEUTRON POROSITY LIMESONTE [SNPLSED]
RHOBED  .G/C3  : BULK DENSITY FROM FDC LOG [ADJ.TO RESISTIVITY LOG]
SNED    .OHMM  : SHORT NORMAL 16" FROM RESISTIVITY LOG
SNPLSED .V/V   : SIDEWALL NEUTRON POROSITY LIMESONTE FROM SNP LOG [ADJ.TO RESISTIVITY LOG]
SPRED   .MV    : SPONTANEOUS POTENTIAL FROM RESISTIVITY LOG
SPWS    .MV    : SPONTANEOUS POTENTIAL [BASELINE 0 MV, SPRED]
SRESWS  .OHMM  : SHALLOW RESISTIVITY [SNED]
~Params ----------------------------------------------------
PD  .                     GL : PERMANENT DATUM
EPD .FT                 3060 : ELEVATION PERMANENT DATUM
LMF .                     KB : LOG MEASURED FROM
DAPD.FT                   13 : FEET ABOVE PERMANENT DATUM
EKB .FT                 3073 : KELLY BUSHING
EGL .FT                 3060 : GROUND LEVEL
DATE.               10/18/68 : RUN DATE
RUN .                      1 : RUN NUMBER
DD  .FT                12360 : DEPTH DRILLER
DL  .FT                12367 : DEPTH LOGGER
BLI .FT                12366 : BOTTOM LOG INTERVAL
TLI .FT                 1258 : TOP LOG INTERVAL
CBD .FT                 1258 : CASING BOTTOM DRILLER
CBL .FT                 1258 : CASING BOTTOM LOGGER
BS  .IN                 8.75 : BIT SIZE
BSD .FT                12360 : BIT SIZE AT DEPTH
DFT .                    GEL : DRILLING FLUID TYPE
DFD .                    9.8 : DRILLING FLUID DENSITY
DFV .                     69 : DRILLING FLUID VISCOSITY
DFPH.                   10.5 : DRILLING FLUID PH
DFL .                    6.3 : DRILLING FLUID LOSS
RMF .OHMM               0.93 : RESISTIVITY MUD FILTRATE SAMPLE
MFST.DEGF                 63 : MUD FILTRATE SAMPLE TEMPERATURE
RMC .OHMM               1.94 : RESISTIVITY MUD CAKE
MCST.DEGF                 67 : MUD CAKE SAMPLE TEMPERATURE
TCS .HRS                   4 : TIME CIRCULATED STOPPED
LUN .                   7501 : LOGGING UNIT NUMBER
LUL .                    EDM : LOGGING UNIT LOCATION
ENGI.               CHADDOCK : RECORDING ENGINEER
WITN.                HOVDEBO : WITNESSED BY
CLNT.                A2DTECH : CLIENT CODE
ORIG.            2" 5" PRINT : ORIGIN OF DATA
UWI .       100072805217W500 : UNIQUE WELL ID
DICO. A2D Technologies, Inc. : DIGITIZING COMPANY
~Other -----------------------------------------------------
~ASCII -----------------------------------------------------
# ...
 10650.00000   11.77490   12.03530   11.25490   11.25880    2.04200    2.07560    0.13370    0.13370    2.61660    0.05680    0.05460  481.79200   59.03000   59.03000  170.79040  172.63420   14.09300   12.79360  481.79200    0.08340    2.61660   85.63800    0.08340 -140.95010  -69.72700   85.63800
 10700.00000   12.40790   11.84820   12.13760   12.42310    9.27040    9.18220    0.18730    0.18730    2.50120    0.12130    0.12210  108.90650   51.04870   51.04870  188.26750  185.60190   22.99670   19.02560  108.90650    0.11580    2.50120   56.96030    0.11580 -143.43210  -72.40160   56.96030
 10750.00000    8.42510    8.85190   11.03510   10.74910    6.95030    6.19280   -0.01100   -0.01100    2.74710   -0.02550   -0.02170  161.47770   50.47410   50.47410  187.02340  187.82400   18.64350   19.10840  161.47770    0.01650    2.74710   70.53810    0.01650 -145.31260  -74.47350   70.53810
 10800.00000    8.54300    8.99740   10.09000   10.09070   17.87480   19.35740   -0.00370   -0.00370    2.72450   -0.01140   -0.00850   51.66660   55.07390   55.07390  206.73620  204.01710   31.26110   32.24930   51.66660    -999.25    2.72450   48.45070    -999.25  -73.53720   -3.22100   48.45070
 10850.00000    -999.25    -999.25   10.08240   10.08250   29.11290   29.78970    -999.25    -999.25    -999.25    -999.25    -999.25   33.56860   55.79020   55.79020    -999.25    -999.25   39.22210   39.20100   33.56860    -999.25    -999.25   35.91250    -999.25 -108.97520  -48.99640   35.91250
 10900.00000    -999.25    -999.25   10.69890   10.70310   84.97830   91.42270    -999.25    -999.25    -999.25    -999.25    -999.25   10.93820   62.79070   62.79070    -999.25    -999.25   56.61990   56.03300   10.93820    -999.25    -999.25   15.89610    -999.25 -126.62060  -76.91170   15.89610
 10950.00000    -999.25    -999.25   10.35990   10.35860   42.00830   44.43890    -999.25    -999.25    -999.25    -999.25    -999.25   22.50280   57.08400   57.08400    -999.25    -999.25   40.93820   40.43810   22.50280    -999.25    -999.25   26.59720    -999.25  -53.57390  -14.20250   26.59720
 11000.00000    -999.25    -999.25   13.60740   13.63550   51.35060   55.65980    -999.25    -999.25    -999.25    -999.25    -999.25   17.96630   79.59400   79.59400    -999.25    -999.25   68.43560   66.75740   17.96630    -999.25    -999.25    7.59560    -999.25  -64.84990  -29.27760    7.59560
 11050.00000    -999.25    -999.25   11.80420   11.78200  117.37470  127.67500    -999.25    -999.25    -999.25    -999.25    -999.25    7.83350   68.88130   68.88130    -999.25    -999.25   61.16750   60.74610    7.83350    -999.25    -999.25   11.70520    -999.25  -60.79520  -27.49620   11.70520
 11100.00000    -999.25    -999.25   10.34870   10.34870   35.52920   37.40220    -999.25    -999.25    -999.25    -999.25    -999.25   26.73640   67.27400   67.27400    -999.25    -999.25   69.48130   69.48130   26.73640    -999.25    -999.25   33.00230    -999.25  -79.48270  -48.47200   33.00230
 11150.00000    -999.25    -999.25   10.70650   10.73470   48.85620   52.72060    -999.25    -999.25    -999.25    -999.25    -999.25   18.96790   56.91270   56.91270    -999.25    -999.25   35.08780   35.96740   18.96790    -999.25    -999.25   26.78860    -999.25  -97.43470  -68.69740   26.78860
 11200.00000    -999.25    -999.25   13.48300   13.48300  150.14660  156.99330    -999.25    -999.25    -999.25    -999.25    -999.25    6.36970   73.14720   73.14720    -999.25    -999.25   65.70150   65.70150    6.36970    -999.25    -999.25    9.38580    -999.25  -52.09090  -25.64190    9.38580
 11250.00000    -999.25    -999.25   11.21170   11.02420   84.12260   90.60930    -999.25    -999.25    -999.25    -999.25    -999.25   11.03640   64.52330   64.52330    -999.25    -999.25   59.05230   59.05230   11.03640    -999.25    -999.25   16.75860    -999.25  -42.09710  -16.63200   16.75860
 11300.00000    -999.25    -999.25   10.55080   10.54800   93.72020   99.63370    -999.25    -999.25    -999.25    -999.25    -999.25   10.03680   66.70580   66.70580    -999.25    -999.25   68.13290   68.81320   10.03680    -999.25    -999.25   14.29120    -999.25  -93.09920  -67.39020   14.29120
 11350.00000    -999.25    -999.25   10.27960   10.27960   77.05540   83.01790    -999.25    -999.25    -999.25    -999.25    -999.25   12.04560   64.55390   64.55390    -999.25    -999.25   57.90140   57.90140   12.04560    -999.25    -999.25   16.95420    -999.25  -94.70010  -68.74570   16.95420
 11400.00000    -999.25    -999.25   10.72370   10.73240  114.39740  119.47430    -999.25    -999.25    -999.25    -999.25    -999.25    8.37000   70.30230   70.30230    -999.25    -999.25   85.73600   86.51050    8.37000    -999.25    -999.25   12.10190    -999.25  -98.40880  -72.21060   12.10190
 11450.00000    -999.25    -999.25   10.58760   10.30110  113.51040  122.42000    -999.25    -999.25    -999.25    -999.25    -999.25    8.16860   70.76540   70.76540    -999.25    -999.25   86.74970   83.71130    8.16860    -999.25    -999.25   12.70050    -999.25  -94.50210  -68.05840   12.70050
 11500.00000    -999.25    -999.25   10.58870   10.55860  129.48770  140.69250    -999.25    -999.25    -999.25    -999.25    -999.25    7.10770   69.01270   69.01270    -999.25    -999.25   74.00350   73.68990    7.10770    -999.25    -999.25   11.55470    -999.25  -94.43870  -67.75120   11.55470
 11550.00000    -999.25    -999.25   10.06280   10.05890  101.81840  111.44340    -999.25    -999.25    -999.25    -999.25    -999.25    8.97340   68.33770   68.33770    -999.25    -999.25   79.07910   78.66410    8.97340    -999.25    -999.25   14.08180    -999.25  -91.73550  -64.80420   14.08180
 11600.00000    -999.25    -999.25   10.08960   10.10350   95.47340  105.29860    -999.25    -999.25    -999.25    -999.25    -999.25    9.49680   66.32570   66.32570    -999.25    -999.25   70.46720   70.40290    9.49680    -999.25    -999.25   14.72010    -999.25 -102.48120  -75.30440   14.72010
 11650.00000    -999.25    -999.25   10.91510   10.91510  120.35380  129.87520    -999.25    -999.25    -999.25    -999.25    -999.25    7.69970   73.12560   73.12560    -999.25    -999.25   82.37130   82.37130    7.69970    -999.25    -999.25   12.00140    -999.25 -101.09980  -73.67920   12.00140
 11700.00000    -999.25    -999.25    9.80000    9.80000  106.83700  115.15430    -999.25    -999.25    -999.25    -999.25    -999.25    8.68400   70.28250   70.28250    -999.25    -999.25   79.13030   79.13030    8.68400    -999.25    -999.25   14.02350    -999.25  -95.90880  -68.24280   14.02350
 11750.00000    -999.25    -999.25    9.32560    9.32560   39.66390   41.01300    -999.25    -999.25    -999.25    -999.25    -999.25   24.38250   60.44310   60.44310    -999.25    -999.25   46.26680   46.26680   24.38250    -999.25    -999.25   31.89380    -999.25  -99.98240  -72.07260   31.89380
 11800.00000    8.76140    -999.25    9.55360    9.55360  108.28660  116.19340    0.05920    0.05920    2.71300   -0.00200   -0.00180    8.60660   69.50300   69.50300  164.94570    -999.25   71.36560   71.36560    8.60660    -999.25    2.71300   13.97780    -999.25  -94.56790  -66.41420   13.97780
 11850.00000    8.45600    8.89290    9.07050    9.07910    9.66110    9.37680    0.00860    0.00860    2.53120    0.10370    0.10460  106.64650   76.22730   76.22730  229.15680  238.84450  120.03960  130.29750  106.64650    0.09120    2.53120   94.13080    0.09120  -79.03150  -50.63240   94.13080
 11900.00000    8.75770    8.86000    9.22490    9.23950   25.76010   28.44040   -0.01160   -0.01160    2.53740    0.10400    0.10090   35.16130   80.00170   80.00170  173.73480  174.94590  101.96710  101.05080   35.16130    0.07980    2.53740   50.30830    0.07980  -73.19010  -44.54720   50.30830
 11950.00000   11.50330   11.28920   10.61290   10.62400    3.75160    2.76890    0.19250    0.19250    2.48690    0.13290    0.13040  361.15770   51.65580   51.65580   55.54750   51.21940    9.52290    9.84750  361.15770    0.03640    2.48690  162.76430    0.03640  -31.15540   -2.24790  162.76430
