~Version ---------------------------------------------------
VERS.      2.0 : CWLS log ASCII Standard -VERSION 2.0
WRAP.       NO : One line per depth step
CREA. 11/15/17 : LAS Creation Date
~Well ------------------------------------------------------
STRT.FT                                800.0 : START DEPTH
STOP.FT                               7500.0 : STOP DEPTH
STEP.FT                             50.00000 : STEP LENGTH
NULL.                                -999.25 : NULL VALUE
COMP.  CONOCOPHILLIPS CANADA RESOURCES CORP. : COMPANY
WELL. ESSO B.A. FENN WEST 14-15-36-21 #14-15 : WELL
FLD .                                        : FIELD
LOC .                                        : LOCATION
CTRY.                                 CANADA : COUNTRY
SRVC.                           Schlumberger : SERVICE COMPANY
DATE.                            11-Mar-1960 : LOGDATE
PROV.                                Alberta : PROVINCE
UWI .                       100141503621W400 : UNIQUE WELL ID
SLAT.WGS84                          52.09711 : SURFACE LATITUDE
SLON.WGS84                         -112.9239 : SURFACE LONGITUDE
~Curve Information -----------------------------------------
DEPT  .FT         : Depth Curve
CALWS .IN         : CALIPER [MCALED]
CILDED.MMHO       : CONDUCTIVITY INDUCTION LOG
CONDWS.MMHO       : CONDUCTIVITY [1000/DRESWS]
DRESWS.OHMM       : DEEP RESISTIVITY [ILDED]
DTED  .US/F       : DELTA TIME FROM SONIC LOG
DTWS  .US/F       : DELTA TIME [DTED]
GRSED .UgRa-Eq/T  : GAMMA RAY FROM SONIC LOG
GRWS  .GAPI       : GAMMA RAY [GRSED*16.50]
ILDED .OHMM       : DEEP INDUCTION RESISTIVITY
LLED  .OHMM       : LATEROLOG
MCALED.IN         : CALIPER MICROLOG
SNED  .OHMM       : SHORT NORMAL
SPRED .MV         : SPONTANEOUS POTENTIAL FROM RESISTIVITY
SPWS  .MV         : SPONTANEOUS POTENTIAL [BASELINE 0 MV] [SPRED]
SRESWS.OHMM       : SHALLOW RESISTIVITY [SNED]
~Params ----------------------------------------------------
LMF .                     KB : LOG MEASURED FROM
DMF .                     KB : DRILLING MEASURED FROM
EKB .FT                 2978 : KELLY BUSHING
DATE.               03/11/60 : RUN DATE
RUN .                      1 : RUN NUMBER
DD  .FT                 7548 : DEPTH DRILLER
DL  .FT                 7549 : DEPTH LOGGER
BLI .FT                 7545 : BOTTOM LOG INTERVAL
TLI .FT                 5100 : TOP LOG INTERVAL
CBD .FT                  778 : CASING BOTTOM DRILLER
CBL .FT                  779 : CASING BOTTOM LOGGER
BS  .IN                    9 : BIT SIZE
BSD .FT                 7548 : BIT SIZE AT DEPTH
DFT .             GYP STARCH : DRILLING FLUID TYPE
DFD .                   10.2 : DRILLING FLUID DENSITY
DFV .                     72 : DRILLING FLUID VISCOSITY
RMS .OHMM               0.59 : RESISTIVITY MUD SAMPLE
MST .DEGF                 68 : MUD SAMPLE TEMPERATURE
RMB .OHMM                0.3 : RESISTIVITY MUD AT BHT
TCS .HRS                   2 : TIME CIRCULATED STOPPED
LUN .                   2741 : LOGGING UNIT NUMBER
LUL .                      C : LOGGING UNIT LOCATION
ENGI.                MCKEOWN : RECORDING ENGINEER
WITN.                  ROGAN : WITNESSED BY
CLNT.                A2DTECH : CLIENT CODE
ORIG.            2" 5" PRINT : ORIGIN OF DATA
UWI .       100141503621W400 : UNIQUE WELL ID
DICO. A2D Technologies, Inc. : DIGITIZING COMPANY
~Other -----------------------------------------------------
~ASCII -----------------------------------------------------
# ...
 3100.00000    -999.25   91.33730   92.97480   10.75560   94.14960   94.14960    5.79520   95.62080   10.75560    -999.25    -999.25   13.60790 -145.26290   -2.06610   13.60790
 3150.00000    -999.25  129.94130  130.20660    7.68010   99.56790   99.56790    6.13210  101.17970    7.68010    -999.25    -999.25    9.95730 -144.86790   -1.81940    9.95730
 3200.00000    -999.25  107.04810  107.32610    9.31740   93.53660   93.53660    5.55520   91.66080    9.31740    -999.25    -999.25   10.61650 -146.31320   -3.41310   10.61650
 3250.00000    -999.25  135.59100  138.73090    7.20820  102.66750  102.66750    5.72710   94.49720    7.20820    -999.25    -999.25    8.66210 -146.37570   -3.62390    8.66210
 3300.00000    -999.25  137.66010  143.33840    6.97650   95.09590   95.09590    5.43170   89.62310    6.97650    -999.25    -999.25    8.14980 -144.98210   -2.30300    8.14980
 3350.00000    -999.25  126.67930  128.26930    7.79610   94.69670   94.69670    5.41000   89.26500    7.79610    -999.25    -999.25    9.39670 -145.08740   -2.40830    9.39670
 3400.00000    -999.25  112.05670  113.55380    8.80640   95.05000   95.05000    5.71710   94.33210    8.80640    -999.25    -999.25   11.03660 -143.44880   -0.76970   11.03660
 3450.00000    -999.25  122.05000  125.81150    7.94840   87.94600   87.94600    5.37120   88.62480    7.94840    -999.25    -999.25    9.49700 -145.05230   -2.37320    9.49700
 3500.00000    -999.25  142.40920  148.72760    6.72370   96.56990   96.56990    5.95750   98.29870    6.72370    -999.25    -999.25    8.13510 -144.32910   -1.65000    8.13510
 3550.00000    -999.25  117.96780  120.09270    8.32690   94.55540   94.55540    5.88950   97.17670    8.32690    -999.25    -999.25   10.38350 -143.73310   -1.05400   10.38350
 3600.00000    -999.25  115.38850  117.60690    8.50290   92.42070   92.42070    5.41770   89.39200    8.50290    -999.25    -999.25    9.65480 -144.88190   -3.43380    9.65480
 3650.00000    -999.25  133.50210  137.86830    7.25330   98.67430   98.67430    6.89370  113.74610    7.25330    -999.25    -999.25    8.05990 -142.89430   -2.74200    8.05990
 3700.00000    -999.25  107.26250  109.53260    9.12970   89.35480   89.35480    6.55950  108.23180    9.12970    -999.25    -999.25   10.76100 -142.55810   -3.70150   10.76100
 3750.00000    -999.25  119.22420  122.33010    8.17460   88.75420   88.75420    6.41000  105.76500    8.17460    -999.25    -999.25    9.81840 -141.15480   -3.59400    9.81840
 3800.00000    -999.25  155.04930  155.16870    6.44460   99.20690   99.20690    6.10480  100.72920    6.44460    -999.25    -999.25    8.07670 -139.26400   -2.99900    8.07670
 3850.00000    -999.25   93.47060   93.03800   10.74830   89.75980   89.75980    8.87250  146.39630   10.74830    -999.25    -999.25   15.13410 -136.68210   -1.49730   15.13410
 3900.00000    -999.25   51.26870   53.31600   18.75610   92.69540   92.69540    6.23920  102.94680   18.75610    -999.25    -999.25   28.85700 -138.87000   -3.78330   28.85700
 3950.00000    -999.25  147.57500  149.45450    6.69100   99.16670   99.16670    5.99820   98.97030    6.69100    -999.25    -999.25    8.79660 -138.81700   -3.82840    8.79660
 4000.00000    9.95550   93.22430   94.16550   10.61960   95.45340   95.45340    7.97040  131.51160   10.61960    -999.25    9.95550   15.36560 -137.43900   -2.54850   15.36560
 4050.00000   10.09500  137.65530  139.90510    7.14770  104.49570  104.49570   10.02890  165.47690    7.14770    -999.25   10.09500   10.70490 -136.35970   -1.56730   10.70490
 4100.00000   10.28760  236.28650  235.44920    4.24720  100.88360  100.88360    7.93200  130.87800    4.24720    -999.25   10.28760    5.92770 -136.92310   -2.22890    5.92770
 4150.00000   10.50360  277.71860  298.85540    3.34610  100.74870  100.74870    5.66850   93.53020    3.34610    -999.25   10.50360    3.86220 -137.84640   -3.25030    3.86220
 4200.00000   11.20350  357.79810  395.19440    2.53040  108.78790  108.78790    6.00040   99.00660    2.53040    -999.25   11.20350    2.84330 -136.91200   -2.41400    2.84330
 4250.00000   10.92540  256.32530  270.81190    3.69260   96.74040   96.74040    5.54880   91.55520    3.69260    -999.25   10.92540    4.54980 -136.25770   -1.85780    4.54980
 4300.00000    9.34440  138.62030  139.26220    7.18070   84.69850   84.69850    5.75940   95.03010    7.18070    -999.25    9.34440   10.57310 -135.54570   -1.24390   10.57310
 4350.00000   10.71380  143.42900  157.03020    6.36820   87.06180   87.06180    4.84600   79.95900    6.36820    -999.25   10.71380    7.38640 -136.47990   -2.27620    7.38640
 4400.00000   11.57240  594.41830  787.46360    1.26990  136.87910  136.87910    5.45500   90.00750    1.26990    -999.25   11.57240    1.63180 -135.26210   -1.15660    1.63180
 4450.00000   11.06980  241.79300  250.32540    3.99480   82.61740   82.61740    5.20220   85.83630    3.99480    -999.25   11.06980    4.89870 -134.79490   -0.78750    4.89870
 4500.00000    9.49550  113.41590  115.70990    8.64230   84.89380   84.89380    5.25060   86.63490    8.64230    -999.25    9.49550   12.07370 -135.37140   -3.68470   12.07370
 4550.00000    9.34090  104.70610  106.39090    9.39930   81.06070   81.06070    6.00370   99.06110    9.39930    -999.25    9.34090   12.18980 -135.57420   -8.61600   12.18980
 4600.00000    9.64060   93.63160   92.75750   10.78080   81.90670   81.90670    3.14820   51.94530   10.78080    -999.25    9.64060   13.07540 -146.68850  -24.45880   13.07540
 4650.00000   10.63510    5.79740    5.86650  170.46010  126.85150  126.85150    2.37810   39.23870  170.46010    -999.25   10.63510  109.85880 -137.35550  -19.85440  109.85880
 4700.00000    9.26260   61.09640   60.63770   16.49140   78.13330   78.13330    5.26690   86.90380   16.49140    -999.25    9.26260   21.43350 -120.13510   -7.36250   21.43350
 4750.00000    9.28750    8.05700   11.61890   86.06660   56.30520   56.30520    2.01860   33.30690   86.06660    -999.25    9.28750   94.19930 -115.91340   -2.06430   94.19930
 4800.00000    9.53420   51.27980   51.29780   19.49400   67.47640   67.47640    4.14380   68.37270   19.49400    -999.25    9.53420   27.28680 -116.58160   -1.65590   27.28680
 4850.00000   10.00120   73.83960   72.42180   13.80800   69.67370   69.67370    4.61440   76.13760   13.80800    -999.25   10.00120   21.16720 -116.78380   -0.78160   21.16720
 4900.00000   11.80580  159.38720  160.93210    6.21380   85.57710   85.57710    6.52090  107.59490    6.21380    -999.25   11.80580    8.34720 -118.76470   -1.68590    8.34720
 4950.00000   11.71590  154.96340  154.53560    6.47100   82.62170   82.62170    6.37590  105.20240    6.47100    -999.25   11.71590    9.18520 -123.10120   -6.11410    9.18520
 5000.00000   13.92570  164.22480  168.47500    5.93560   85.53430   85.53430    6.25380  103.18770    5.93560    -999.25   13.92570    8.26820 -129.21080  -14.30430    8.26820
 5050.00000   14.55940  182.10830  194.08430    5.15240   88.65170   88.65170    5.45520   90.01080    5.15240    -999.25   14.55940    7.49760 -129.67870  -16.85290    7.49760
 5100.00000   15.10280  209.72600  210.42440    4.75230   92.94250   92.94250    5.67520   93.64080    4.75230    6.25070   15.10280    5.87630 -148.94190  -38.19680    5.87630
 5150.00000   15.23500  208.26720  234.17010    4.27040   93.82160   93.82160    6.66180  109.91970    4.27040    6.69660   15.23500    5.38050 -139.58210  -30.91770    5.38050
 5200.00000    9.14060   36.71300   32.64570   30.63190   61.49410   61.49410    2.32590   38.37740   30.63190   39.90950    9.14060   28.63610 -109.37230   -2.78860   28.63610
 5250.00000    8.94100    0.07420    3.10840  321.70700   52.65100   52.65100    1.12780   18.60870  321.70700  851.53060    8.94100   31.69750 -141.55870  -41.39700   31.69750
 5300.00000    8.90220   11.38580   11.37050   87.94700   55.14910   55.14910    1.46420   24.15930   87.94700  206.47720    8.90220   48.04720 -128.41310  -34.76210   48.04720
 5350.00000    9.02200   26.02390   27.67680   36.13140   59.35290   59.35290    1.12570   18.57410   36.13140   64.15700    9.02200   36.66690 -121.23490  -34.09450   36.66690
