~Version ---------------------------------------------------
VERS.      2.0 : CWLS log ASCII Standard -VERSION 2.0
WRAP.       NO : One line per depth step
CREA. 08/01/17 : LAS Creation Date
~Well ------------------------------------------------------
STRT.FT                       650.0 : START DEPTH
STOP.FT                      8750.0 : STOP DEPTH
STEP.FT                    50.00000 : STEP LENGTH
NULL.                       -999.25 : NULL VALUE
COMP.   WHITEHALL CANADIAN OILS LTD : COMPANY
WELL. W.H. ET AL KEYSTONE 6-15-48-3 : WELL
FLD .                               : FIELD
LOC .                               : LOCATION
CTRY.                        CANADA : COUNTRY
SRVC.                  Schlumberger : SERVICE COMPANY
DATE.                   14-Sep-1959 : LOGDATE
PROV.                       Alberta : PROVINCE
UWI .              100061504803W500 : UNIQUE WELL ID
SLAT.WGS84                 53.13961 : SURFACE LATITUDE
SLON.WGS84                -114.3572 : SURFACE LONGITUDE
~Curve Information -----------------------------------------
DEPT   .FT     : Depth Curve
CALWS  .IN     : CALIPER [MCALED]
CILDED .MMHO   : INDUCTION DEEP CONDUCTIVITY FROM IEL
CONDWS .MMHO   : CONDUCTIVITY [1000/DRESWS]
DENED  .G/C3   : COMPENSATED BULK DENSITY FROM DENSITY LOG
DENWS  .G/C3   : BULK DENSITY [DENED]
DPOLSWS.V/V    : DENSITY POROSITY ASSUMED LIMESTONE [CALCULATED FROM DENWS M=2.71 F=1.00]
DRESWS .OHMM   : DEEP RESISTIVITY [ILDED]
GRNED  .UR/HR  : GAMMA RAY FROM GRN LOG [DEPTH ADJ. TO SPRED]
GRWS   .GAPI   : GAMMA RAY [GRNED*10.4]
ILDED  .OHMM   : INDUCTION DEEP RESISTIVITY FROM IEL
MCALED .IN     : MLT (MICROLOG)
NEUTED .CPS    : NEUTRON FROM GRN LOG [DEPTH ADJ. TO SPRED]
NEUTWS .CPS    : NEUTRON [NEUTED]
SNED   .OHMM   : 16" SHORT NORMAL RESISTIVITY FROM IEL
SPRED  .MV     : SPONTANEOUS POTENTIAL FROM IEL
SPWS   .MV     : SPONTANEOUS POTENTIAL [BASELINE 0 MV] [SPRED]
SRESWS .OHMM   : SHALLOW RESISTIVITY [SNED]
~Params ----------------------------------------------------
LMF .                     KB : LOG MEASURED FROM
DMF .                     KB : DRILLING MEASURED FROM
EKB .FT                 2828 : KELLY BUSHING
EGL .FT                 2815 : GROUND LEVEL
DATE.               09/14/59 : RUN DATE
RUN .                      2 : RUN NUMBER
DD  .FT                 8775 : DEPTH DRILLER
DL  .FT                 8774 : DEPTH LOGGER
BLI .FT                 8768 : BOTTOM LOG INTERVAL
TLI .FT                 5711 : TOP LOG INTERVAL
CBD .FT                 5711 : CASING BOTTOM DRILLER
CBL .FT                 5711 : CASING BOTTOM LOGGER
BS  .IN                6.125 : BIT SIZE
BSD .FT                 8775 : BIT SIZE AT DEPTH
DFT .               GYP BASE : DRILLING FLUID TYPE
DFD .                     11 : DRILLING FLUID DENSITY
DFV .                    110 : DRILLING FLUID VISCOSITY
DFPH.                      8 : DRILLING FLUID PH
DFL .                      8 : DRILLING FLUID LOSS
RMS .OHMM                1.6 : RESISTIVITY MUD SAMPLE
MST .DEGF                 60 : MUD SAMPLE TEMPERATURE
RMF .OHMM                1.0 : RESISTIVITY MUD FILTRATE SAMPLE
MFST.DEGF                 64 : MUD FILTRATE SAMPLE TEMPERATURE
RMC .OHMM                1.9 : RESISTIVITY MUD CAKE
MCST.DEGF                 64 : MUD CAKE SAMPLE TEMPERATURE
RMB .OHMM               0.68 : RESISTIVITY MUD AT BHT
TCS .HRS                   2 : TIME CIRCULATED STOPPED
LUN .                    157 : LOGGING UNIT NUMBER
LUL .                    TDV : LOGGING UNIT LOCATION
ENGI.                 GORITZ : RECORDING ENGINEER
WITN.               FRANKLIN : WITNESSED BY
CLNT.                A2DTECH : CLIENT CODE
ORIG.            2" 5" PRINT : ORIGIN OF DATA
UWI .       100061504803W500 : UNIQUE WELL ID
DICO. A2D Technologies, Inc. : DIGITIZING COMPANY
~Other -----------------------------------------------------
~ASCII -----------------------------------------------------
  650.00000    -999.25  185.04950  183.68510    2.48500    2.48500    0.13160    5.44410    -999.25    -999.25    5.44410    -999.25    -999.25    -999.25    7.58150  -50.39740   -2.94280    7.58150
  700.00000    -999.25  155.57820  154.24010    2.03050    2.03050    0.39740    6.48340    -999.25    -999.25    6.48340    -999.25    -999.25    -999.25   10.09760  -50.10400   -2.83350   10.09760
  750.00000    -999.25  199.76690  191.64060    2.62050    2.62050    0.05230    5.21810    -999.25    -999.25    5.21810    -999.25    -999.25    -999.25    7.54320  -50.74300   -3.65660    7.54320
  800.00000    -999.25  225.43850  222.99530    2.05020    2.05020    0.38580    4.48440    -999.25    -999.25    4.48440    -999.25    -999.25    -999.25    7.18580  -49.88360   -2.98120    7.18580
  850.00000    -999.25  399.77320  433.51970    2.56490    2.56490    0.08490    2.30670    -999.25    -999.25    2.30670    -999.25    -999.25    -999.25    4.02980  -48.64600   -1.92770    4.02980
  900.00000    -999.25  221.25160  210.11050    1.95020    1.95020    0.44430    4.75940    -999.25    -999.25    4.75940    -999.25    -999.25    -999.25    7.63870  -48.79180   -2.25760    7.63870
  950.00000    -999.25  308.70680  301.71370    2.45330    2.45330    0.15010    3.31440    -999.25    -999.25    3.31440    -999.25    -999.25    -999.25    8.36200  -48.86000   -2.50980    8.36200
 1000.00000    -999.25  233.24540  222.22220    2.12560    2.12560    0.34180    4.50000    -999.25    -999.25    4.50000    -999.25    -999.25    -999.25    7.04260  -51.26530   -5.09920    7.04260
 1050.00000    -999.25  102.16000  104.77130    2.02650    2.02650    0.39970    9.54460    -999.25    -999.25    9.54460    -999.25    -999.25    -999.25   11.42140  -72.33800  -26.35590   11.42140
 1100.00000    -999.25  153.01840  152.90750    2.08090    2.08090    0.36790    6.53990    -999.25    -999.25    6.53990    -999.25    -999.25    -999.25    7.76100  -49.03840   -3.24040    7.76100
 1150.00000    -999.25  152.67950  143.75870    1.96610    1.96610    0.43500    6.95610    -999.25    -999.25    6.95610    -999.25    -999.25    -999.25    8.79680  -48.54330   -2.92940    8.79680
 1200.00000    -999.25  202.84520  198.00020    2.37700    2.37700    0.19470    5.05050    -999.25    -999.25    5.05050    -999.25    -999.25    -999.25    6.49900  -47.85440   -2.42450    6.49900
 1250.00000    -999.25  135.15180  136.31780    2.63840    2.63840    0.04190    7.33580    -999.25    -999.25    7.33580    -999.25    -999.25    -999.25    9.46520  -49.49520   -4.24940    9.46520
 1300.00000    -999.25  122.48970  124.13420    1.98610    1.98610    0.42330    8.05580    -999.25    -999.25    8.05580    -999.25    -999.25    -999.25   10.16450  -50.06610   -5.00430   10.16450
 1350.00000    -999.25  173.95650  172.38410    2.39970    2.39970    0.18150    5.80100    -999.25    -999.25    5.80100    -999.25    -999.25    -999.25    8.80600  -47.63650   -2.75880    8.80600
 1400.00000    -999.25  229.73570  222.80650    2.47020    2.47020    0.14020    4.48820    -999.25    -999.25    4.48820    -999.25    -999.25    -999.25    9.68980  -46.61060   -1.91700    9.68980
 1450.00000    -999.25  242.06300  241.51090    2.35530    2.35530    0.20740    4.14060    -999.25    -999.25    4.14060    -999.25    -999.25    -999.25    5.70380  -46.46440   -1.95480    5.70380
 1500.00000    -999.25  358.41740  367.67410    2.43510    2.43510    0.16080    2.71980    -999.25    -999.25    2.71980    -999.25    -999.25    -999.25    5.05820  -45.44690   -1.12140    5.05820
 1550.00000    -999.25  224.74120  212.81120    2.48390    2.48390    0.13220    4.69900    -999.25    -999.25    4.69900    -999.25    -999.25    -999.25    6.06450  -45.72320   -1.58170    6.06450
 1600.00000    -999.25  182.45140  189.12530    2.49340    2.49340    0.12670    5.28750    -999.25    -999.25    5.28750    -999.25    -999.25    -999.25    7.04880  -45.72860   -1.77120    7.04880
 1650.00000    -999.25  184.90110  185.74930    2.08690    2.08690    0.36440    5.38360    -999.25    -999.25    5.38360    -999.25    -999.25    -999.25    6.94610  -46.66760   -2.89430    6.94610
 1700.00000    -999.25  284.43800  290.53720    2.56270    2.56270    0.08610    3.44190    -999.25    -999.25    3.44190    -999.25    -999.25    -999.25    6.76820  -44.44210   -0.85280    6.76820
 1750.00000    -999.25  113.39570  111.30900    1.97930    1.97930    0.42730    8.98400    -999.25    -999.25    8.98400    -999.25    -999.25    -999.25   13.12580  -46.28110   -2.87590   13.12580
 1800.00000    -999.25  210.68690  198.94950    2.14040    2.14040    0.33310    5.02640    -999.25    -999.25    5.02640    -999.25    -999.25    -999.25    6.84560  -43.98530   -0.76420    6.84560
 1850.00000    -999.25  249.24430  244.24200    2.48370    2.48370    0.13230    4.09430    -999.25    -999.25    4.09430    -999.25    -999.25    -999.25    5.50030  -44.33030   -1.29320    5.50030
 1900.00000    -999.25  161.95340  168.07570    2.20600    2.20600    0.29470    5.94970    -999.25    -999.25    5.94970    -999.25    -999.25    -999.25    8.89750  -44.36020   -1.50720    8.89750
 1950.00000    -999.25  134.56980  136.12480    2.27050    2.27050    0.25700    7.34620    -999.25    -999.25    7.34620    -999.25    -999.25    -999.25   11.41180  -45.00490   -2.33590   11.41180
 2000.00000    -999.25  129.82630  132.92390    2.12160    2.12160    0.34410    7.52310    -999.25    -999.25    7.52310    -999.25    -999.25    -999.25    9.71720  -44.22200   -1.73710    9.71720
 2050.00000    -999.25  205.01210  199.97600    2.18840    2.18840    0.30500    5.00060    -999.25    -999.25    5.00060    -999.25    -999.25    -999.25    6.57850  -44.59410   -2.29330    6.57850
 2100.00000    -999.25  243.94330  235.88800    2.08570    2.08570    0.36510    4.23930    -999.25    -999.25    4.23930    -999.25    -999.25    -999.25    7.06140  -44.23830   -2.12150    7.06140
 2150.00000    -999.25  165.99120  167.38920    2.20190    2.20190    0.29710    5.97410    -999.25    -999.25    5.97410    -999.25    -999.25    -999.25    8.61450  -44.43390   -2.50120    8.61450
 2200.00000    -999.25  159.14170  154.06420    2.04830    2.04830    0.38700    6.49080    -999.25    -999.25    6.49080    -999.25    -999.25    -999.25    8.31430  -43.47740   -1.72870    8.31430
 2250.00000    -999.25   86.15430   82.68630    2.01900    2.01900    0.40410   12.09390    -999.25    -999.25   12.09390    -999.25    -999.25    -999.25   14.01900  -61.22420  -19.65960   14.01900
 2300.00000    -999.25  223.52430  194.63200    1.95120    1.95120    0.44370    5.13790    -999.25    -999.25    5.13790    -999.25    -999.25    -999.25    7.04110  -44.29450   -2.91400    7.04110
 2350.00000    -999.25  308.59230  297.20330    2.45240    2.45240    0.15060    3.36470    -999.25    -999.25    3.36470    -999.25    -999.25    -999.25    5.43310  -42.82420   -1.62770    5.43310
 2400.00000    -999.25  154.07660  146.85800    1.84720    1.84720    0.50460    6.80930    -999.25    -999.25    6.80930    -999.25    -999.25    -999.25    8.82120  -43.48600   -2.47360    8.82120
 2450.00000    -999.25  104.67450  100.24360    2.01070    2.01070    0.40890    9.97570    -999.25    -999.25    9.97570    -999.25    -999.25    -999.25   11.96200  -51.39380  -10.56540   11.96200
 2500.00000    -999.25  197.83150  189.75330    2.19180    2.19180    0.30300    5.27000    -999.25    -999.25    5.27000    -999.25    -999.25    -999.25    7.63260  -43.55620   -2.91190    7.63260
 2550.00000    -999.25   49.84060   46.92590    2.15000    2.15000    0.32750   21.31020    -999.25    -999.25   21.31020    -999.25    -999.25    -999.25   27.17530  -78.10330  -37.64310   27.17530
 2600.00000    -999.25  140.81260  143.10040    2.09770    2.09770    0.35810    6.98810    -999.25    -999.25    6.98810    -999.25    -999.25    -999.25    9.11340  -43.00860   -2.73240    9.11340
 2650.00000    -999.25  139.65140  131.58240    1.95860    1.95860    0.43940    7.59980    -999.25    -999.25    7.59980    -999.25    -999.25    -999.25    9.75210  -42.04380   -1.95170    9.75210
