~Version ---------------------------------------------------
VERS.      2.0 : CWLS log ASCII Standard -VERSION 2.0
WRAP.       NO : One line per depth step
CREA. 11/10/17 : LAS Creation Date
~Well ------------------------------------------------------
STRT.FT                        1050.0 : START DEPTH
STOP.FT                       11950.0 : STOP DEPTH
STEP.FT                      50.00000 : STEP LENGTH
NULL.                         -999.25 : NULL VALUE
COMP.        CHEVRON STANDARD LIMITED : COMPANY
WELL. SOBC AMERADA N SIMON 11-6-67-26 : WELL
FLD .                                 : FIELD
LOC .                                 : LOCATION
CTRY.                          CANADA : COUNTRY
SRVC.          Schlumberger of Canada : SERVICE COMPANY
DATE.                     28-Mar-1967 : LOGDATE
PROV.                         Alberta : PROVINCE
UWI .                100110606726W500 : UNIQUE WELL ID
SLAT.WGS84                   54.77215 : SURFACE LATITUDE
SLON.WGS84                  -117.9555 : SURFACE LONGITUDE
~Curve Information -----------------------------------------
DEPT  .FT    : Depth Curve
CALSED.IN    : CALIPER FROM BHC LOG [DEPTH ADJ. TO LL8ED]
CALWS .IN    : CALIPER [TOP MCALED 8838' CALSED TD]
CONDWS.MMHO  : CONDUCTIVITY [1000/DRESWS]
DRESWS.OHMM  : DEEP RESISTIVITY [ILDED]
DTED  .US/F  : DELTA TIME FROM BHC LOG  [DEPTH ADJ. TO LL8ED]
DTWS  .US/F  : DELTA TIME [DTED]
GRSED .GAPI  : GAMMA RAY FROM BHC LOG [DEPTH ADJ. TO LL8ED]
GRWS  .GAPI  : GAMMA RAY [GRSED]
ILDED .OHMM  : INDUCTION LOG DEEP RESISTIVITY FROM DIL LOG
ILMED .OHMM  : INDUCTION LOG MEDIUM RESISTIVITY FROM DIL LOG
LL8ED .OHMM  : LATEROLOG 8 RESISTIVITY FROM DIL LOG
MCALED.IN    : CALIPER MICROLOG FROM MLC LOG [DEPTH ADJ. TO CALSED]
MRESWS.OHMM  : MEDIUM RESISTIVITY [ILMED]
SPRED .MV    : SPONTANEOUS POTENTIAL FROM DIL LOG
SRESWS.OHMM  : SHALLOW RESISTIVITY [LL8ED]
~Params ----------------------------------------------------
PD  .                     GL : PERMANENT DATUM
EPD .FT               2588.1 : ELEVATION PERMANENT DATUM
LMF .                     KB : LOG MEASURED FROM
DAPD.FT                 15.9 : FEET ABOVE PERMANENT DATUM
DMF .                     KB : DRILLING MEASURED FROM
EKB .FT               2604.0 : KELLY BUSHING
EGL .FT               2588.1 : GROUND LEVEL
DATE.               03/28/67 : RUN DATE
RUN .                      2 : RUN NUMBER
DD  .FT                11983 : DEPTH DRILLER
DL  .FT                11980 : DEPTH LOGGER
BLI .FT                11976 : BOTTOM LOG INTERVAL
TLI .FT                 8850 : TOP LOG INTERVAL
CBD .FT                 8849 : CASING BOTTOM DRILLER
CBL .FT                 8850 : CASING BOTTOM LOGGER
BS  .IN                  8.5 : BIT SIZE
BSD .FT                11983 : BIT SIZE AT DEPTH
DFT .               GEL CHEM : DRILLING FLUID TYPE
DFD .                   11.6 : DRILLING FLUID DENSITY
DFV .                     70 : DRILLING FLUID VISCOSITY
DFPH.                   11.0 : DRILLING FLUID PH
MSS .                   CIRC : MUD SAMPLE SOURCE
RMS .OHMM               0.78 : RESISTIVITY MUD SAMPLE
MST .DEGF                 58 : MUD SAMPLE TEMPERATURE
RMF .OHMM               0.47 : RESISTIVITY MUD FILTRATE SAMPLE
MFST.DEGF                 66 : MUD FILTRATE SAMPLE TEMPERATURE
RMC .OHMM               0.63 : RESISTIVITY MUD CAKE
MCST.DEGF                 62 : MUD CAKE SAMPLE TEMPERATURE
RMB .OHMM               0.25 : RESISTIVITY MUD AT BHT
TCS .HRS                 2.5 : TIME CIRCULATED STOPPED
LUN .                   2547 : LOGGING UNIT NUMBER
LUL .                    EDM : LOGGING UNIT LOCATION
ENGI.                   BIGG : RECORDING ENGINEER
WITN.                HOVDEBO : WITNESSED BY
CLNT.                A2DTECH : CLIENT CODE
ORIG.            2" 5" PRINT : ORIGIN OF DATA
UWI .       100110606726W500 : UNIQUE WELL ID
DICO. A2D Technologies, Inc. : DIGITIZING COMPANY
~Other -----------------------------------------------------
~ASCII -----------------------------------------------------
# ...
 3350.00000    -999.25   13.93800  142.92660    6.99660   86.21500   86.21500   81.63060   81.63060    6.99660    7.86600    8.40290   13.93800    7.86600  -45.70180    8.40290
 3400.00000    -999.25   13.95130  155.73410    6.42120   85.04930   85.04930   88.07940   88.07940    6.42120    7.12260    8.26840   13.95130    7.12260  -46.13190    8.26840
 3450.00000    -999.25   14.31790  190.86880    5.23920   99.83510   99.83510   87.79590   87.79590    5.23920    5.81900    6.56310   14.31790    5.81900  -45.43570    6.56310
 3500.00000    -999.25   12.35030  100.37040    9.96310   82.96920   82.96920   60.85770   60.85770    9.96310   11.13150   13.30070   12.35030   11.13150  -52.09470   13.30070
 3550.00000    -999.25   11.79890   86.40950   11.57280   75.64620   75.64620   46.00860   46.00860   11.57280   13.04550   17.51690   11.79890   13.04550  -55.22510   17.51690
 3600.00000    -999.25   12.32780  116.80880    8.56100   76.43020   76.43020   76.81130   76.81130    8.56100    9.70790   13.54350   12.32780    9.70790  -44.78510   13.54350
 3650.00000    -999.25   13.33600  128.59920    7.77610   82.66520   82.66520   73.49880   73.49880    7.77610    8.67850   10.13790   13.33600    8.67850  -40.79790   10.13790
 3700.00000    -999.25   14.08670  129.51520    7.72110   85.57510   85.57510   80.64140   80.64140    7.72110    8.61680    9.84680   14.08670    8.61680  -44.05990    9.84680
 3750.00000    -999.25   14.95190  161.08250    6.20800    -999.25    -999.25    -999.25    -999.25    6.20800    6.89580    7.99880   14.95190    6.89580  -43.14760    7.99880
 3800.00000    -999.25   15.66760  151.76810    6.58900    -999.25    -999.25    -999.25    -999.25    6.58900    7.33480    8.02650   15.66760    7.33480  -45.04320    8.02650
 3850.00000    -999.25   16.29280  166.18750    6.01730    -999.25    -999.25    -999.25    -999.25    6.01730    6.66880    7.47230   16.29280    6.66880  -44.82730    7.47230
 3900.00000    -999.25   15.86820  151.45550    6.60260    -999.25    -999.25    -999.25    -999.25    6.60260    7.33380    8.25110   15.86820    7.33380  -45.93750    8.25110
 3950.00000    -999.25   16.31640  136.85790    7.30690    -999.25    -999.25    -999.25    -999.25    7.30690    8.10280    9.09200   16.31640    8.10280  -46.27950    9.09200
 4000.00000    -999.25   16.63570  136.28250    7.33770    -999.25    -999.25    -999.25    -999.25    7.33770    8.13240    9.43790   16.63570    8.13240  -45.82450    9.43790
 4050.00000    -999.25   16.32220  140.42180    7.12140    -999.25    -999.25    -999.25    -999.25    7.12140    7.89240    9.49650   16.32220    7.89240  -43.52420    9.49650
 4100.00000    -999.25   16.34710  122.21350    8.18240    -999.25    -999.25    -999.25    -999.25    8.18240    9.06880   10.33330   16.34710    9.06880  -45.19210   10.33330
 4150.00000    -999.25   16.09150  107.54770    9.29820    -999.25    -999.25    -999.25    -999.25    9.29820   10.53500   12.92090   16.09150   10.53500  -42.50760   12.92090
 4200.00000    -999.25   16.73120  132.15630    7.56680    -999.25    -999.25    -999.25    -999.25    7.56680    8.38530   11.10040   16.73120    8.38530  -41.52150   11.10040
 4250.00000    -999.25   16.07630  156.29640    6.39810    -999.25    -999.25    -999.25    -999.25    6.39810    7.09490    8.52690   16.07630    7.09490  -42.50040    8.52690
 4300.00000    -999.25   13.13600  134.89450    7.41320    -999.25    -999.25    -999.25    -999.25    7.41320    8.23300   10.79010   13.13600    8.23300  -45.12130   10.79010
 4350.00000    -999.25   13.48880  141.16720    7.08380    -999.25    -999.25   83.21750   83.21750    7.08380    8.04170    9.51910   13.48880    8.04170  -45.47990    9.51910
 4400.00000    -999.25   13.00930  170.85550    5.85290   87.06960   87.06960   84.33010   84.33010    5.85290    6.48750    7.33960   13.00930    6.48750  -45.54580    7.33960
 4450.00000    -999.25   14.23390  184.47460    5.42080   86.56620   86.56620   87.48820   87.48820    5.42080    6.43260    7.51720   14.23390    6.43260  -47.42360    7.51720
 4500.00000    -999.25   13.31340  119.90260    8.34010   81.70110   81.70110   63.12070   63.12070    8.34010    9.28580   11.08940   13.31340    9.28580  -54.81640   11.08940
 4550.00000    -999.25   12.87750  277.58500    3.60250   97.98670   97.98670   83.68160   83.68160    3.60250    3.99240    5.48950   12.87750    3.99240  -43.21570    5.48950
 4600.00000    -999.25   14.05490  162.57780    6.15090   83.48640   83.48640   81.78590   81.78590    6.15090    6.81640    8.23870   14.05490    6.81640  -43.76760    8.23870
 4650.00000    -999.25   14.53830  131.91390    7.58070   74.37400   74.37400   57.89350   57.89350    7.58070    8.74410    9.40490   14.53830    8.74410  -45.80400    9.40490
 4700.00000    -999.25   13.80080  161.38920    6.19620   83.55850   83.55850   82.74940   82.74940    6.19620    6.99480    7.83300   13.80080    6.99480  -44.41290    7.83300
 4750.00000    -999.25   13.64820  161.24350    6.20180    -999.25    -999.25    -999.25    -999.25    6.20180    6.87300    8.35240   13.64820    6.87300  -44.12820    8.35240
 4800.00000    -999.25   13.60670  114.55540    8.72940    -999.25    -999.25    -999.25    -999.25    8.72940    9.45930   10.90160   13.60670    9.45930  -45.38700   10.90160
 4850.00000    -999.25   13.93270  167.85560    5.95750    -999.25    -999.25    -999.25    -999.25    5.95750    6.96610    8.71860   13.93270    6.96610  -43.20120    8.71860
 4900.00000    -999.25   14.11690  404.10570    2.47460    -999.25    -999.25    -999.25    -999.25    2.47460    2.75230    3.29380   14.11690    2.75230  -42.64420    3.29380
 4950.00000    -999.25   14.38710  331.62550    3.01550    -999.25    -999.25    -999.25    -999.25    3.01550    3.34340    4.28370   14.38710    3.34340  -41.05760    4.28370
 5000.00000    -999.25   14.29430  380.44510    2.62850    -999.25    -999.25    -999.25    -999.25    2.62850    3.05390    3.92890   14.29430    3.05390  -40.30570    3.92890
 5050.00000    -999.25   15.00770  382.24840    2.61610    -999.25    -999.25    -999.25    -999.25    2.61610    2.88860    3.80410   15.00770    2.88860  -41.17460    3.80410
 5100.00000    -999.25   15.20650  200.40080    4.99000    -999.25    -999.25    -999.25    -999.25    4.99000    5.58180    6.34540   15.20650    5.58180  -40.71200    6.34540
 5150.00000    -999.25   14.36960  188.39490    5.30800    -999.25    -999.25    -999.25    -999.25    5.30800    6.05210    7.94170   14.36960    6.05210  -43.50340    7.94170
 5200.00000    -999.25   13.85870  145.31820    6.88150    -999.25    -999.25    -999.25    -999.25    6.88150    7.87660    9.16760   13.85870    7.87660  -45.57070    9.16760
 5250.00000    -999.25   11.63320  150.34430    6.65140    -999.25    -999.25    -999.25    -999.25    6.65140    8.52350   10.68980   11.63320    8.52350  -91.40920   10.68980
 5300.00000    -999.25   13.71050  216.08070    4.62790    -999.25    -999.25    -999.25    -999.25    4.62790    5.04850    6.82190   13.71050    5.04850  -41.66080    6.82190
 5350.00000    -999.25   12.38840  103.13110    9.69640    -999.25    -999.25    -999.25    -999.25    9.69640   10.80500   14.15010   12.38840   10.80500  -42.31010   14.15010
 5400.00000    -999.25   13.02520  121.94080    8.20070    -999.25    -999.25    -999.25    -999.25    8.20070    9.45140   12.56370   13.02520    9.45140  -40.79860   12.56370
 5450.00000    -999.25   13.43930  120.99870    8.26450    -999.25    -999.25    -999.25    -999.25    8.26450    9.12820   11.43650   13.43930    9.12820  -40.16230   11.43650
 5500.00000    -999.25   13.17350  269.42560    3.71160    -999.25    -999.25    -999.25    -999.25    3.71160    5.08890    8.53850   13.17350    5.08890  -35.19110    8.53850
 5550.00000    -999.25   12.44510   91.64980   10.91110    -999.25    -999.25    -999.25    -999.25   10.91110   12.95410   34.11440   12.44510   12.95410  -52.23140   34.11440
 5600.00000    -999.25   12.46890   99.61750   10.03840    -999.25    -999.25    -999.25    -999.25   10.03840   11.77080   19.26130   12.46890   11.77080  -44.89920   19.26130
