~Version ---------------------------------------------------
VERS.      2.0 : CWLS log ASCII Standard -VERSION 2.0
WRAP.       NO : One line per depth step
CREA. 11/03/17 : LAS Creation Date
~Well ------------------------------------------------------
STRT.FT                         1550.0 : START DEPTH
STOP.FT                        12000.0 : STOP DEPTH
STEP.FT                       50.00000 : STEP LENGTH
NULL.                          -999.25 : NULL VALUE
COMP. AMOCO CANADA PETROLEUM CO., LTD. : COMPANY
WELL.  AMOCO C-2 WASKAHIGAN 7-22-63-24 : WELL
FLD .                       WASKAHIGAN : FIELD
LOC .                                  : LOCATION
CTRY.                           CANADA : COUNTRY
SRVC.                          Unknown : SERVICE COMPANY
DATE.                      14-Dec-1976 : LOGDATE
PROV.                          Alberta : PROVINCE
UWI .                 100072206324W500 : UNIQUE WELL ID
SLAT.WGS84                    54.46349 : SURFACE LATITUDE
SLON.WGS84                   -117.5411 : SURFACE LONGITUDE
~Curve Information -----------------------------------------
DEPT    .FT    : Depth Curve
CALDED  .IN    : CALIPER FROM DENSITY LOG [ADJ. TO RESISTIVITY LOG]
CALSED  .IN    : CALIPER FROM SONIC LOG [ADJ. TO RESISTIVITY LOG]
CALWS   .IN    : CALIPER [CALDED]
CONDWS  .MMHO  : CONDUCTIVITY [1000/DRESWS]
DCORED  .G/C3  : DENSITY CORRECTION FROM DENSITY LOG [ADJ. TO RESISTIVITY LOG]
DCORWS  .G/C3  : DENSITY CORRECTION [DCORED]
DENWS   .G/C3  : FORMATION BULK DENSITY [RHOBED]
DPHILSED.V/V   : DENSITY POROSITY LIMESTONE [M=2.71, F=1.00 ASSUMED] FROM DENSITY LOG [ADJ. TO RESISTIVITY LOG]
DPHISSED.V/V   : DENSITY POROSITY SANDSTONE [M=2.65, F=1.00 ASSUMED] FROM DENSITY LOG [ADJ. TO RESISTIVITY LOG]
DPOLSWS .V/V   : DENSITY POROSITY LIMESTONE [CALC FROM DENWS, M=2710,F=1000 ASSUMED]
DRESWS  .OHMM  : DEEP RESISTIVITY [ILDED]
DTED    .US/F  : DELTA TIME FROM SONIC LOG [ADJ. TO RESISTIVITY LOG]
DTWS    .US/F  : COMPRESSIONAL SONIC [DTED]
GRDED   .GAPI  : GAMMA RAY FROM DENSITY LOG [ADJ. TO RESISTIVITY LOG]
GRSED   .GAPI  : GAMMA RAY FROM SONIC LOG [ADJ. TO RESISTIVITY LOG]
GRSRED  .GAPI  : GAMMA RAY (REPEAT SECTION) FROM SONIC LOG [ADJ. TO RESISTIVITY LOG]
GRWS    .GAPI  : GAMMA RAY [GRDED SPL. TO GRSRED @ 11982']
ILDED   .OHMM  : DEEP INDUCTION LOG RESISTIVITY FROM RESISTIVITY LOG
ILMED   .OHMM  : MEDIUM INDUCTION LOG RESISTIVITY FROM RESISTIVITY LOG
LL8ED   .OHMM  : 8 INCH LATEROLOG RESISTIVITY FROM RESISTIVITY LOG
MRESWS  .OHMM  : MEDIUM RESISTIVITY [ILMED]
NPHILSED.V/V   : NEUTRON POROSITY LIMESTONE FROM DENSITY LOG [ADJ. TO RESISTIVITY LOG]
NPHISSED.V/V   : NEUTRON POROSITY SANDSTONE FROM DENSITY LOG [ADJ. TO RESISTIVITY LOG]
NPOLSWS .V/V   : NEUTRON POROSITY LIMESTONE [SCHL. NPHISSED MATRIX CONVERSION FOR LIMESTONE, SPL. TO NPHILSED @ 7464']
RHOBED  .G/C3  : BULK DENSITY FROM DENSITY LOG [ADJ. TO RESISTIVITY LOG]
SPRED   .MV    : SPONTANEOUS POTENTIAL FROM RESISTIVITY LOG
SPWS    .MV    : SPONTANEOUS POTENTIAL [BASELINE 0 MV, SPRED]
SRESWS  .OHMM  : SHALLOW RESISTIVITY [LL8ED]
~Params ----------------------------------------------------
PD  .                     GL : PERMANENT DATUM
EPD .FT               2789.5 : ELEVATION PERMANENT DATUM
LMF .                     KB : LOG MEASURED FROM
DAPD.FT                 20.5 : FEET ABOVE PERMANENT DATUM
EKB .FT               2810.0 : KELLY BUSHING
EGL .FT               2789.5 : GROUND LEVEL
DATE.               12/14/76 : RUN DATE
RUN .                      1 : RUN NUMBER
DD  .FT                12005 : DEPTH DRILLER
DL  .FT                12008 : DEPTH LOGGER
BLI .FT                12002 : BOTTOM LOG INTERVAL
TLI .FT                 1519 : TOP LOG INTERVAL
CBD .FT                 1519 : CASING BOTTOM DRILLER
CBL .FT                 1519 : CASING BOTTOM LOGGER
BS  .IN                  8.5 : BIT SIZE
BSD .FT                12005 : BIT SIZE AT DEPTH
DFT .                    GEL : DRILLING FLUID TYPE
DFD .                    9.0 : DRILLING FLUID DENSITY
DFV .                     75 : DRILLING FLUID VISCOSITY
DFPH.                    9.5 : DRILLING FLUID PH
DFL .                   12.2 : DRILLING FLUID LOSS
MSS .               FLOWLINE : MUD SAMPLE SOURCE
RMS .OHMM               2.89 : RESISTIVITY MUD SAMPLE
MST .DEGF                 44 : MUD SAMPLE TEMPERATURE
RMF .OHMM               2.32 : RESISTIVITY MUD FILTRATE SAMPLE
MFST.DEGF                 62 : MUD FILTRATE SAMPLE TEMPERATURE
TCS .HRS                   4 : TIME CIRCULATED STOPPED
LUN .                   7635 : LOGGING UNIT NUMBER
LUL .                    EDM : LOGGING UNIT LOCATION
ENGI.                 PAQUIN : RECORDING ENGINEER
WITN.       MACDONALD FARLEY : WITNESSED BY
CLNT.                A2DTECH : CLIENT CODE
ORIG.            2" 5" PRINT : ORIGIN OF DATA
UWI .       100072206324W500 : UNIQUE WELL ID
DICO. A2D Technologies, Inc. : DIGITIZING COMPANY
~Other -----------------------------------------------------
DIL-CNFD-BCS TOOL RUN
GAPS IN DT AS PER IMAGE SPLICED
~ASCII -----------------------------------------------------
 1550.00000   10.04800    9.47210   10.04800  251.57230    0.13620    0.13620    2.14530    -999.25    0.31000    0.33020    3.97500  111.29350  111.29350  110.69170  115.19150    -999.25  110.69170    3.97500    4.88210    4.09780    4.88210    -999.25    0.51870    0.47980    2.14530 -144.15740   -1.58620    4.09780
 1600.00000   10.23850    9.14260   10.23850  405.89360    0.15350    0.15350    1.84570    -999.25    0.46420    0.50540    2.46370  131.99200  131.99200  141.01090  137.78350    -999.25  141.01090    2.46370    2.31400    2.56740    2.31400    -999.25    0.64390    0.61300    1.84570 -149.00920   -5.73080    2.56740
 1650.00000   11.18240    9.78740   11.18240  201.95900    0.15360    0.15360    2.05590    -999.25    0.36590    0.38250    4.95150  110.63730  110.63730  101.57360  110.03470    -999.25  101.57360    4.95150    4.20110    4.52930    4.20110    -999.25    0.52870    0.49030    2.05590 -148.07120   -3.99830    4.52930
 1700.00000    9.94790    9.54820    9.94790   73.82040    0.00600    0.00600    2.42260    -999.25    0.14220    0.16810   13.54640   87.57210   87.57210   54.66750   47.65330    -999.25   54.66750   13.54640   12.66640   10.92710   12.66640    -999.25    0.38480    0.34160    2.42260 -147.24350   -2.37600   10.92710
 1750.00000    9.70910    9.50130    9.70910  153.96930    0.01180    0.01180    2.30640    -999.25    0.22510    0.23610    6.49480   96.94820   96.94820   95.00760   86.84060    -999.25   95.00760    6.49480    6.34150    7.54160    6.34150    -999.25    0.46400    0.42280    2.30640 -150.03860   -4.38440    7.54160
 1800.00000    9.70450    9.55400    9.70450  388.72690    0.08740    0.08740    2.11450    -999.25    0.33320    0.34820    2.57250  116.80870  116.80870  111.28810  120.08680    -999.25  111.28810    2.57250    2.35960    2.85650    2.35960    -999.25    0.61880    0.58610    2.11450 -149.58370   -3.29230    2.85650
 1850.00000   10.31490    9.38550   10.31490  241.97840    0.15790    0.15790    1.87450    -999.25    0.45170    0.48860    4.13260  106.37000  106.37000  106.46710  111.00910    -999.25  106.46710    4.13260    3.61300    3.88070    3.61300    -999.25    0.55740    0.52070    1.87450 -150.64160   -3.71290    3.88070
 1900.00000    9.83240    9.41510    9.83240  137.18170    0.09090    0.09090    2.19830    -999.25    0.27930    0.29920    7.28960  102.91040  102.91040   75.07540   87.80170    -999.25   75.07540    7.28960    7.16210    8.57860    7.16210    -999.25    0.47740    0.43660    2.19830 -154.15010   -6.58410    8.57860
 1950.00000    9.45130    9.14570    9.45130  196.57570    0.19310    0.19310    2.22980    -999.25    0.26320    0.28080    5.08710   95.08040   95.08040   99.40060  102.97050    -999.25   99.40060    5.08710    4.58600    4.45710    4.58600    -999.25    0.44720    0.40540    2.22980 -151.44220   -3.23900    4.45710
 2000.00000   10.47700    9.31400   10.47700  183.95880    0.22300    0.22300    2.26430    -999.25    0.22610    0.26060    5.43600   92.36880   92.36880  106.28790  111.95020    -999.25  106.28790    5.43600    4.84500    5.84360    4.84500    -999.25    0.44810    0.40640    2.26430 -153.04090   -4.20040    5.84360
 2050.00000   10.14760    9.17990   10.14760  242.94840    0.19060    0.19060    2.03260    -999.25    0.37460    0.39610    4.11610  102.00950  102.00950  113.08570  120.77060    -999.25  113.08570    4.11610    3.72400    4.01390    3.72400    -999.25    0.52060    0.48180    2.03260 -154.98660   -5.20590    4.01390
 2100.00000   10.65890    8.82320   10.65890  227.17460    0.14900    0.14900    2.18910    -999.25    0.27550    0.30460    4.40190  105.54590  105.54590  110.17530  114.16310    -999.25  110.17530    4.40190    4.07580    4.75530    4.07580    -999.25    0.53020    0.49190    2.18910 -155.68130   -4.44450    4.75530
 2150.00000   10.45000    9.08890   10.45000  206.30470    0.04450    0.04450    2.37530    -999.25    0.16780    0.19570    4.84720   94.55740   94.55740  124.96850  150.42770    -999.25  124.96850    4.84720    4.40930    6.32140    4.40930    -999.25    0.40510    0.36230    2.37530 -154.87390   -2.18110    6.32140
 2200.00000    9.55890    9.33950    9.55890  114.04330    0.03250    0.03250    2.38230    -999.25    0.16240    0.19160    8.76860   98.36850   98.36850   93.31830   94.44160    -999.25   93.31830    8.76860    7.70610    8.32830    7.70610    -999.25    0.44920    0.40750    2.38230 -159.27800   -5.12920    8.32830
 2250.00000   11.29930    9.48110   11.29930  371.45720    0.05320    0.05320    2.20650    -999.25    0.26610    0.29440    2.69210  108.61960  108.61960  131.01520  130.57910    -999.25  131.01520    2.69210    2.57120    2.66120    2.57120    -999.25    0.51350    0.47440    2.20650 -159.65470   -4.04980    2.66120
 2300.00000   10.46170    9.57640   10.46170  250.44450    0.02190    0.02190    2.25170    -999.25    0.24000    0.26800    3.99290  112.31270  112.31270  133.17430  128.49690    -999.25  133.17430    3.99290    3.51300    3.68420    3.51300    -999.25    0.54510    0.50770    2.25170 -161.74790   -4.68700    3.68420
 2350.00000   12.37860    9.69420   12.37860  136.40700    0.05170    0.05170    2.30990    -999.25    0.21070    0.23400    7.33100  108.73710  108.73710  123.32830  129.84620    -999.25  123.32830    7.33100    6.79820    7.76100    6.79820    -999.25    0.47480    0.43390    2.30990 -164.97040   -5.67730    7.76100
 2400.00000    9.62470    9.92270    9.62470  184.29780    0.18380    0.18380    2.20480    -999.25    0.26270    0.29540    5.42600  123.81240  123.81240  100.82080  106.54280    -999.25  100.82080    5.42600    4.60820    3.93140    4.60820    -999.25    0.38910    0.34600    2.20480 -167.57550   -5.96400    3.93140
 2450.00000   10.86060    9.98090   10.86060  270.84860    0.14430    0.14430    2.22940    -999.25    0.25340    0.28110    3.69210  121.87660  121.87660  108.09820  105.56650    -999.25  108.09820    3.69210    3.68900    3.48320    3.68900    -999.25    0.49640    0.45640    2.22940 -168.99340   -4.92970    3.48320
 2500.00000   11.80960    9.23330   11.80960  216.96680    0.16690    0.16690    2.12790    -999.25    0.31760    0.34040    4.60900  115.86890  115.86890  103.46020  107.51840    -999.25  103.46020    4.60900    4.39190    5.05660    4.39190    -999.25    0.52150    0.48280    2.12790 -169.50910   -2.93300    5.05660
 2550.00000   10.64810    9.16370   10.64810  266.57430    0.05280    0.05280    2.27820    -999.25    0.22540    0.25250    3.75130  106.44130  106.44130  110.34470  115.70200    -999.25  110.34470    3.75130    3.36470    3.45170    3.36470    -999.25    0.52340    0.48470    2.27820 -172.81550   -3.72710    3.45170
 2600.00000   10.69110    9.14380   10.69110  270.95870    0.11870    0.11870    2.31320    -999.25    0.20390    0.23210    3.69060  103.80030  103.80030  104.70790  110.81080    -999.25  104.70790    3.69060    3.52200    3.43430    3.52200    -999.25    0.42400    0.38170    2.31320 -177.17910   -5.57830    3.43430
 2650.00000    9.16420    9.03650    9.16420   60.87540    0.10410    0.10410    2.25070    -999.25    0.24340    0.26860   16.42700   91.02140   91.02140   52.90570   47.32970    -999.25   52.90570   16.42700   20.80650   15.00860   20.80650    -999.25    0.40450    0.36170    2.25070 -192.68660  -17.68010   15.00860
 2700.00000    9.54260    9.34950    9.54260  174.43790    0.13040    0.13040    2.25870    -999.25    0.23600    0.26390    5.73270  109.98030  109.98030  107.98900   99.40450    -999.25  107.98900    5.73270    5.26940    5.68500    5.26940    -999.25    0.51680    0.47780    2.25870 -187.93950   -7.29860    5.68500
 2750.00000    9.68080    9.37270    9.68080  286.11480    0.18770    0.18770    2.06390    -999.25    0.34160    0.37780    3.49510  134.66150  134.66150  108.54220  117.03340    -999.25  108.54220    3.49510    3.20170    4.34540    3.20170    -999.25    0.58790    0.55310    2.06390 -191.44950   -5.28110    4.34540
