~Version ---------------------------------------------------
VERS.      2.0 : CWLS log ASCII Standard -VERSION 2.0
WRAP.       NO : One line per depth step
CREA. 10/26/17 : LAS Creation Date
~Well ------------------------------------------------------
STRT.FT                     850.0 : START DEPTH
STOP.FT                    9900.0 : STOP DEPTH
STEP.FT                  50.00000 : STEP LENGTH
NULL.                     -999.25 : NULL VALUE
COMP. SHELL CANADA RESOURCES LTD. : COMPANY
WELL.   SHELL MAHASKA 11-33-56-13 : WELL
FLD .                             : FIELD
LOC .                             : LOCATION
CTRY.                      CANADA : COUNTRY
SRVC.                Schlumberger : SERVICE COMPANY
DATE.                 12-May-1977 : LOGDATE
PROV.                     Alberta : PROVINCE
UWI .            100113305613W500 : UNIQUE WELL ID
SLAT.WGS84               53.88568 : SURFACE LATITUDE
SLON.WGS84              -115.8759 : SURFACE LONGITUDE
~Curve Information -----------------------------------------
DEPT    .FT    : Depth Curve
CALSED  .IN    : CALIPER FROM SONIC LOG
CALWS   .IN    : CALIPER [CALSED]
CONDWS  .MMHO  : CONDUCTIVITY [1000/DRESWS]
DCORWS  .G/C3  : DENSITY CORRECTION [DRHOED]
DENWS   .G/C3  : BULK DENSITY [M=2.71, F=1.00] [RHOBED]
DPHILSED.V/V   : DENSITY POROSITY [M=2.71, F=1.00] FROM DENSITY LOG [DEP. ADJ. TO GRSED]
DPHISSED.V/V   : DENSITY POROSITY [M=2.65, F=1.00] FROM DENSITY LOG [DEP. ADJ. TO GRSED]
DPOLSWS .V/V   : DENSITY POROSITY [M=2.71, F=1.00] [CAL. FROM DENWS]
DRESWS  .OHMM  : DEEP RESISTIVITY [LLDED]
DRHOED  .G/C3  : DENSITY CORRECTION FROM DENSITY LOG [DEP. ADJ. TO GRSED]
DTED    .US/F  : DELTA TIME FROM SONIC LOG
DTWS    .US/F  : DELTA TIME [DTED]
GRDED   .GAPI  : GAMMA RAY FROM DENSITY LOG [DEP. ADJ. TO GRSED]
GRSED   .GAPI  : GAMMA RAY FROM SONIC LOG
GRWS    .GAPI  : GAMMA RAY [GRSED]
LLDED   .OHMM  : LATEROLOG DEEP RESISTIVITY  [READINGS >2000 ARE REDUCED TO 2000 OHMM]
LLSED   .OHMM  : LATEROLOG SHALLOW RESISTIVITY [READINGS >2000 ARE REDUCED TO 2000 OHMM]
NPHILSED.V/V   : NEUTRON POROSITY LIMESTONE FROM DENSITY LOG [DEP. ADJ. TO GRSED]
NPHISSED.V/V   : NEUTRON POROSITY SANDSTONE FROM DENSITY LOG [DEP. ADJ. TO GRSED]
NPOLSWS .V/V   : NEUTRON POROSITY LIMESTONE [1007' NPOLSCAL [CONV. FROM NPHISSED] 6161' NPHILSED]
RHOBED  .G/C3  : BULK DENSITY FROM DENSITY LOG [DEP. ADJ. TO GRSED]
SRESWS  .OHMM  : SHALLOW RESISTIVITY [LLSED]
~Params ----------------------------------------------------
PD  .                     GL : PERMANENT DATUM
EPD .FT                 2626 : ELEVATION PERMANENT DATUM
LMF .                     KB : LOG MEASURED FROM
DAPD.FT                 21.2 : FEET ABOVE PERMANENT DATUM
EKB .FT               2647.2 : KELLY BUSHING
EGL .FT                 2626 : GROUND LEVEL
DATE.               05/12/77 : RUN DATE
RUN .                      2 : RUN NUMBER
DD  .FT                 9950 : DEPTH DRILLER
DL  .FT                 9947 : DEPTH LOGGER
BLI .FT                 9931 : BOTTOM LOG INTERVAL
TLI .FT                 8800 : TOP LOG INTERVAL
CBD .FT                 1026 : CASING BOTTOM DRILLER
BS  .IN                 8.75 : BIT SIZE
BSD .FT                 9950 : BIT SIZE AT DEPTH
DFT .                    KCL : DRILLING FLUID TYPE
DFD .                    8.9 : DRILLING FLUID DENSITY
DFV .                     65 : DRILLING FLUID VISCOSITY
DFPH.                   10.5 : DRILLING FLUID PH
MSS .             CIRCULATED : MUD SAMPLE SOURCE
RMS .OHMM               0.28 : RESISTIVITY MUD SAMPLE
MST .DEGF                 76 : MUD SAMPLE TEMPERATURE
RMF .OHMM               0.12 : RESISTIVITY MUD FILTRATE SAMPLE
MFST.DEGF                186 : MUD FILTRATE SAMPLE TEMPERATURE
RMB .OHMM               0.19 : RESISTIVITY MUD AT BHT
TCS .HRS                   1 : TIME CIRCULATED STOPPED
LUN .              OSU C 308 : LOGGING UNIT NUMBER
LUL .                    EDM : LOGGING UNIT LOCATION
ENGI.                   BIGG : RECORDING ENGINEER
WITN.                   WEBB : WITNESSED BY
CLNT.                A2DTECH : CLIENT CODE
ORIG.            2" 5" PRINT : ORIGIN OF DATA
UWI .       100113305613W500 : UNIQUE WELL ID
DICO. A2D Technologies, Inc. : DIGITIZING COMPANY
~Other -----------------------------------------------------
~ASCII -----------------------------------------------------
# ...
 2450.00000   10.48800   10.48800  199.11600    -999.25    -999.25    -999.25    -999.25    -999.25    5.02220    -999.25   96.29780   96.29780    -999.25   98.13930   98.13930    5.02220    4.51130    -999.25    -999.25    -999.25    -999.25    4.51130
 2500.00000   10.42060   10.42060   71.49800    -999.25    -999.25    -999.25    -999.25    -999.25   13.98640    -999.25   86.50240   86.50240    -999.25   79.63260   79.63260   13.98640   10.56780    -999.25    -999.25    -999.25    -999.25   10.56780
 2550.00000   10.28180   10.28180  297.92050    -999.25    -999.25    -999.25    -999.25    -999.25    3.35660    -999.25   99.44160   99.44160    -999.25   96.76960   96.76960    3.35660    3.19230    -999.25    -999.25    -999.25    -999.25    3.19230
 2600.00000   10.16030   10.16030  150.97070    -999.25    -999.25    -999.25    -999.25    -999.25    6.62380    -999.25   91.14620   91.14620    -999.25   86.55000   86.55000    6.62380    5.81580    -999.25    -999.25    -999.25    -999.25    5.81580
 2650.00000   10.49000   10.49000  275.23950    -999.25    -999.25    -999.25    -999.25    -999.25    3.63320    -999.25  102.97140  102.97140    -999.25   87.59540   87.59540    3.63320    3.23890    -999.25    -999.25    -999.25    -999.25    3.23890
 2700.00000   10.26280   10.26280  212.35540    -999.25    -999.25    -999.25    -999.25    -999.25    4.72550    -999.25   96.64040   96.64040    -999.25   91.02900   91.02900    4.72550    4.28710    -999.25    -999.25    -999.25    -999.25    4.28710
 2750.00000   10.22640   10.22640  161.86990    -999.25    -999.25    -999.25    -999.25    -999.25    6.17780    -999.25   94.83240   94.83240    -999.25   80.35110   80.35110    6.17780    5.92510    -999.25    -999.25    -999.25    -999.25    5.92510
 2800.00000   10.33600   10.33600  111.04570    -999.25    -999.25    -999.25    -999.25    -999.25    9.00530    -999.25   85.41730   85.41730    -999.25   64.82620   64.82620    9.00530    8.63090    -999.25    -999.25    -999.25    -999.25    8.63090
 2850.00000    9.84290    9.84290  186.98230    -999.25    -999.25    -999.25    -999.25    -999.25    5.34810    -999.25   94.16030   94.16030    -999.25   78.94070   78.94070    5.34810    4.83780    -999.25    -999.25    -999.25    -999.25    4.83780
 2900.00000    9.90970    9.90970   82.50830    -999.25    -999.25    -999.25    -999.25    -999.25   12.12000    -999.25   91.01160   91.01160    -999.25   70.94290   70.94290   12.12000   11.09320    -999.25    -999.25    -999.25    -999.25   11.09320
 2950.00000   10.04620   10.04620  168.65840    -999.25    -999.25    -999.25    -999.25    -999.25    5.93290    -999.25   88.73670   88.73670    -999.25   65.45210   65.45210    5.93290    5.27630    -999.25    -999.25    -999.25    -999.25    5.27630
 3000.00000    9.17970    9.17970   30.03810    -999.25    -999.25    -999.25    -999.25    -999.25   33.29110    -999.25   65.16040   65.16040    -999.25   52.38910   52.38910   33.29110   30.85240    -999.25    -999.25    -999.25    -999.25   30.85240
 3050.00000    9.88890    9.88890  213.05610    -999.25    -999.25    -999.25    -999.25    -999.25    4.69360    -999.25   96.94800   96.94800    -999.25   75.33660   75.33660    4.69360    4.91280    -999.25    -999.25    -999.25    -999.25    4.91280
 3100.00000   10.28240   10.28240  239.67020    -999.25    -999.25    -999.25    -999.25    -999.25    4.17240    -999.25  105.37450  105.37450    -999.25   82.65200   82.65200    4.17240    3.88200    -999.25    -999.25    -999.25    -999.25    3.88200
 3150.00000    9.98290    9.98290  185.91160    -999.25    -999.25    -999.25    -999.25    -999.25    5.37890    -999.25   89.80480   89.80480    -999.25   79.38200   79.38200    5.37890    5.21100    -999.25    -999.25    -999.25    -999.25    5.21100
 3200.00000   10.63150   10.63150  228.45920    -999.25    -999.25    -999.25    -999.25    -999.25    4.38100    -999.25   96.16390   96.16390    -999.25   71.29820   71.29820    4.38100    4.10210    -999.25    -999.25    -999.25    -999.25    4.10210
 3250.00000    9.87560    9.87560  152.26730    -999.25    -999.25    -999.25    -999.25    -999.25    6.56740    -999.25   87.86220   87.86220    -999.25   69.22580   69.22580    6.56740    6.38850    -999.25    -999.25    -999.25    -999.25    6.38850
 3300.00000    9.59700    9.59700   98.32360    -999.25    -999.25    -999.25    -999.25    -999.25   10.17050    -999.25   81.17820   81.17820    -999.25   72.64540   72.64540   10.17050    9.61490    -999.25    -999.25    -999.25    -999.25    9.61490
 3350.00000    9.23950    9.23950   97.21950    -999.25    -999.25    -999.25    -999.25    -999.25   10.28600    -999.25   82.63980   82.63980    -999.25   68.14650   68.14650   10.28600    9.32550    -999.25    -999.25    -999.25    -999.25    9.32550
 3400.00000    9.27530    9.27530  199.45350    -999.25    -999.25    -999.25    -999.25    -999.25    5.01370    -999.25   91.88430   91.88430    -999.25   86.16800   86.16800    5.01370    5.31720    -999.25    -999.25    -999.25    -999.25    5.31720
 3450.00000    9.22860    9.22860  145.57350    -999.25    -999.25    -999.25    -999.25    -999.25    6.87010    -999.25   87.28990   87.28990    -999.25   91.35670   91.35670    6.87010    7.07220    -999.25    -999.25    -999.25    -999.25    7.07220
 3500.00000    9.60020    9.60020  141.96680    -999.25    -999.25    -999.25    -999.25    -999.25    7.04390    -999.25   87.03810   87.03810    -999.25  108.01490  108.01490    7.04390    7.23830    -999.25    -999.25    -999.25    -999.25    7.23830
 3550.00000   10.22800   10.22800  125.29130    -999.25    -999.25    -999.25    -999.25    -999.25    7.98140    -999.25   89.92990   89.92990    -999.25  114.00180  114.00180    7.98140    7.35770    -999.25    -999.25    -999.25    -999.25    7.35770
 3600.00000    9.86780    9.86780  123.26350    -999.25    -999.25    -999.25    -999.25    -999.25    8.11270    -999.25   88.85220   88.85220    -999.25  116.34150  116.34150    8.11270    7.31800    -999.25    -999.25    -999.25    -999.25    7.31800
 3650.00000    9.61150    9.61150  107.39180    -999.25    -999.25    -999.25    -999.25    -999.25    9.31170    -999.25   86.41080   86.41080    -999.25  126.04420  126.04420    9.31170    9.09570    -999.25    -999.25    -999.25    -999.25    9.09570
 3700.00000    9.45070    9.45070  100.75270    -999.25    -999.25    -999.25    -999.25    -999.25    9.92530    -999.25   90.42530   90.42530    -999.25  127.14580  127.14580    9.92530   10.60800    -999.25    -999.25    -999.25    -999.25   10.60800
 3750.00000    9.12300    9.12300   92.92560    -999.25    -999.25    -999.25    -999.25    -999.25   10.76130    -999.25   94.21600   94.21600    -999.25  149.20370  149.20370   10.76130   11.66050    -999.25    -999.25    -999.25    -999.25   11.66050
 3800.00000    9.37940    9.37940   85.75450    -999.25    -999.25    -999.25    -999.25    -999.25   11.66120    -999.25   88.15780   88.15780    -999.25  138.70800  138.70800   11.66120   12.71340    -999.25    -999.25    -999.25    -999.25   12.71340
 3850.00000    9.68870    9.68870  123.67670    -999.25    -999.25    -999.25    -999.25    -999.25    8.08560    -999.25   94.15720   94.15720    -999.25  134.22350  134.22350    8.08560    8.48880    -999.25    -999.25    -999.25    -999.25    8.48880
 3900.00000    9.94420    9.94420  144.18990    -999.25    -999.25    -999.25    -999.25    -999.25    6.93530    -999.25   90.53420   90.53420    -999.25  121.06160  121.06160    6.93530    6.48820    -999.25    -999.25    -999.25    -999.25    6.48820
 3950.00000    9.78480    9.78480  124.51230    -999.25    -999.25    -999.25    -999.25    -999.25    8.03140    -999.25   87.15100   87.15100    -999.25  114.37850  114.37850    8.03140    7.81650    -999.25    -999.25    -999.25    -999.25    7.81650
 4000.00000    9.49930    9.49930  132.98050    0.04880    2.61120    -999.25    0.00260    0.05780    7.51990    0.04880   86.42520   86.42520  111.57000  119.07640  119.07640    7.51990    7.23420    -999.25    0.31600    0.27210    2.61120    7.23420
