~Version ---------------------------------------------------
VERS.      2.0 : CWLS log ASCII Standard -VERSION 2.0
WRAP.       NO : One line per depth step
CREA. 11/16/17 : LAS Creation Date
~Well ------------------------------------------------------
STRT.FT                        300.0 : START DEPTH
STOP.FT                      11100.0 : STOP DEPTH
STEP.FT                     50.00000 : STEP LENGTH
NULL.                        -999.25 : NULL VALUE
COMP.         PACIFIC PETROLEUMS LTD : COMPANY
WELL. PACIFIC ET AL TONY 10-18-63-21 : WELL
FLD .                     TONY TOWER : FIELD
LOC .                                : LOCATION
CTRY.                         CANADA : COUNTRY
SRVC.                   Schlumberger : SERVICE COMPANY
DATE.                    24-Sep-1975 : LOGDATE
PROV.                        Alberta : PROVINCE
UWI .               100101806321W500 : UNIQUE WELL ID
SLAT.WGS84                  54.45338 : SURFACE LATITUDE
SLON.WGS84                 -117.1585 : SURFACE LONGITUDE
~Curve Information -----------------------------------------
DEPT    .FT    : Depth Curve
CALDED  .IN    : CALIPER FROM DENSITY LOG
CALWS   .IN    : CALIPER [CALDED]
CONDWS  .MMHO  : CONDUCTIVITY [1000/DRESWS]
DCORED  .G/C3  : DENSITY CORRECTION FROM DENSITY LOG [ADJ. TO DPHILSED/DPHILSED]
DCORWS  .G/C3  : DENSITY CORRECTION [DCORED]
DENWS   .G/C3  : FORMATION BULK DENSITY [CALC. FROM DPOLSWS,M=2710,F=1000]
DPHILSED.V/V   : DENSITY POROSITY LIMESTONE [M=2.71,F=1.0] FROM DENSITY LOG
DPHISSED.V/V   : DENSITY POROSITY SANDSTONE [M=2.65,F=1.0] FROM DENSITY LOG
DPOLSWS .V/V   : DENSITY POROSITY LIMESTONE [DPHISSED CONVERTED TO LIMESTONE (M=2.71,F=1.00), SPL. TO DPHILSED @ 6860']
DRESWS  .OHMM  : DEEP RESISTIVITY [ILDED]
GRDED   .GAPI  : GAMMA RAY FROM DENSITY LOG
GRWS    .GAPI  : GAMMA RAY [GRDED]
ILDED   .OHMM  : DEEP INDUCTION FROM RESISTIVITY LOG
ILMED   .OHMM  : MEDIUM INDUCTION FROM RESISTIVITY LOG
LL8ED   .OHMM  : LATEROLOG FROM RESISTIVITY LOG
MRESWS  .OHMM  : MEDIUM RESISTIVITY [ILMED]
NPHILSED.V/V   : NEUTRON POROSITY LIMESTONE FROM DENSITY LOG
NPHISSED.V/V   : NEUTRON POROSITY SANDSTONE FROM DENSITY LOG
NPOLSWS .V/V   : NEUTRON POROSITY LIMESTONE [NPHISSED MATRIX CONVERSION FOR LIMESTONE SPL. TO NPHILSED @6860']
RHOBED  .G/C3  : BULK DENSITY FROM DENSITY LOG [ADJ. TO DPHILSED/DPHILSED]
SPRED   .MV    : SPONTANEOUS POTENTIAL FROM RESISTIVITY LOG
SPWS    .MV    : SPONTANEOUS POTENTIAL [BASELINE 0 MV,SPRED]
SRESWS  .OHMM  : SHALLOW RESISTIVITY [LL8ED]
~Params ----------------------------------------------------
PD  .                     GL : PERMANENT DATUM
EPD .FT                 2714 : ELEVATION PERMANENT DATUM
LMF .                     KB : LOG MEASURED FROM
DAPD.FT                 13.7 : FEET ABOVE PERMANENT DATUM
EKB .FT               2727.7 : KELLY BUSHING
EGL .FT                 2714 : GROUND LEVEL
DATE.               09/24/75 : RUN DATE
RUN .                      1 : RUN NUMBER
DD  .FT                11125 : DEPTH DRILLER
DL  .FT                11121 : DEPTH LOGGER
BLI .FT                11115 : BOTTOM LOG INTERVAL
TLI .FT                 1125 : TOP LOG INTERVAL
CBD .FT                 1125 : CASING BOTTOM DRILLER
CBL .FT                 1125 : CASING BOTTOM LOGGER
BS  .IN                 8.75 : BIT SIZE
BSD .FT                11125 : BIT SIZE AT DEPTH
DFT .               GEL CHEM : DRILLING FLUID TYPE
DFD .                    9.3 : DRILLING FLUID DENSITY
DFV .                    147 : DRILLING FLUID VISCOSITY
DFPH.                    9.5 : DRILLING FLUID PH
DFL .                    9.2 : DRILLING FLUID LOSS
MSS .               FLOWLINE : MUD SAMPLE SOURCE
RMS .OHMM               1.62 : RESISTIVITY MUD SAMPLE
MST .DEGF                 72 : MUD SAMPLE TEMPERATURE
RMF .OHMM               1.26 : RESISTIVITY MUD FILTRATE SAMPLE
MFST.DEGF                 68 : MUD FILTRATE SAMPLE TEMPERATURE
RMB .OHMM               0.41 : RESISTIVITY MUD AT BHT
TCS .HRS                 3.5 : TIME CIRCULATED STOPPED
LUN .                   7691 : LOGGING UNIT NUMBER
LUL .                    EDM : LOGGING UNIT LOCATION
ENGI.              CROCKFORD : RECORDING ENGINEER
WITN.                   ROSS : WITNESSED BY
CLNT.                A2DTECH : CLIENT CODE
ORIG.            2" 5" PRINT : ORIGIN OF DATA
UWI .       100101806321W500 : UNIQUE WELL ID
DICO. A2D Technologies, Inc. : DIGITIZING COMPANY
~Other -----------------------------------------------------
~ASCII -----------------------------------------------------
# ...
 8050.00000   10.14720   10.14720   29.47630    0.15950    0.15950    2.86400   -0.09010    -999.25   -0.09010   33.95420   48.51150   48.51150   33.95420   35.46570  166.33670   35.46570    0.01350    -999.25    0.01350    2.82640    0.43460  -14.31380  166.33670
 8100.00000   11.47060   11.47060   36.76070    0.23080    0.23080    2.52550    0.10790    -999.25    0.10790   27.20300   64.68360   64.68360   27.20300   30.11060   62.64460   30.11060    0.05820    -999.25    0.05820    2.53830    0.08300  -14.94800   62.64460
 8150.00000    9.99450    9.99450    9.40890    0.08580    0.08580    2.72840   -0.01070    -999.25   -0.01070  106.74300   30.35980   30.35980  106.74300  100.69400  300.76130  100.69400    0.00890    -999.25    0.00890    2.71840   -6.87950  -18.52910  300.76130
 8200.00000    9.69690    9.69690    4.30490    0.01860    0.01860    2.74560   -0.02080    -999.25   -0.02080  232.29090   34.77820   34.77820  232.29090  217.69280  582.05570  217.69280    0.00650    -999.25    0.00650    2.72150  -35.01710  -43.26290  582.05570
 8250.00000    9.62660    9.62660    9.73280    0.02420    0.02420    2.72790   -0.01050    -999.25   -0.01050  102.74630   45.62510   45.62510  102.74630   94.65150  182.62870   94.65150    0.01540    -999.25    0.01540    2.71380  -18.50690  -23.37130  182.62870
 8300.00000    9.62920    9.62920   14.50910    0.00970    0.00970    2.68790    0.01290    -999.25    0.01290   68.92240   52.78700   52.78700   68.92240   63.67820  102.82310   63.67820    0.04180    -999.25    0.04180    2.67870   -5.53470   -7.01760  102.82310
 8350.00000    9.47130    9.47130   25.20620    0.05740    0.05740    2.60120    0.06360    -999.25    0.06360   39.67280   57.39340   57.39340   39.67280   37.66650   68.65440   37.66650    0.07000    -999.25    0.07000    2.59920  -15.10240  -13.18160   68.65440
 8400.00000    9.56930    9.56930    7.41850    0.02610    0.02610    2.58040    0.07580    -999.25    0.07580  135.12150   52.14960   52.14960  135.12150  270.18220  445.27930  270.18220    0.04830    -999.25    0.04830    2.57280  -29.93880  -24.63650  445.27930
 8450.00000    9.59430    9.59430   19.74750    0.05150    0.05150    2.67140    0.02260    -999.25    0.02260   50.63920   46.79480   46.79480   50.63920   61.28580   89.94250   61.28580    0.04740    -999.25    0.04740    2.67430  -15.12410   -6.41810   89.94250
 8500.00000    9.69040    9.69040   37.63440    0.11080    0.11080    2.64530    0.03780    -999.25    0.03780   26.74820   67.41390   67.41390   26.74820   30.76290   52.31680   30.76290    0.06650    -999.25    0.06650    2.64320  -24.44680  -12.35940   52.31680
 8550.00000   10.98260   10.98260    6.90440    0.22790    0.22790    2.62140    0.05180    -999.25    0.05180  144.91680   20.46540   20.46540  144.91680  116.77210  339.31630  116.77210    0.00890    -999.25    0.00890    2.60770  -42.39950  -28.59440  339.31630
 8600.00000   11.67750   11.67750    3.56060    0.25190    0.25190    2.40960    0.17570    -999.25    0.17570  280.85240   15.86100   15.86100  280.85240  261.03940  452.85100  261.03940    0.00660    -999.25    0.00660    2.42280  -83.23010  -68.64580  452.85100
 8650.00000   11.61860   11.61860    2.71590    0.23060    0.23060    2.43260    0.16220    -999.25    0.16220  369.44790   14.83180   14.83180  369.44790  330.92850  576.76910  330.92850    0.00570    -999.25    0.00570    2.43700  -76.22630  -60.86780  576.76910
 8700.00000   11.41100   11.41100    3.75060    0.22970    0.22970    2.48150    0.13360    -999.25    0.13360  266.62140   12.99620   12.99620  266.62140  257.88700  443.60940  257.88700    0.00420    -999.25    0.00420    2.48430 -102.95530  -86.81750  443.60940
 8750.00000   12.43490   12.43490    5.51240    0.24460    0.24460    2.14280    0.33170    -999.25    0.33170  181.41000   14.52670   14.52670  181.41000  191.00990  263.41590  191.00990    0.01140    -999.25    0.01140    2.15510  -91.34430  -74.43230  263.41590
 8800.00000   12.64520   12.64520    3.87350    0.21930    0.21930    2.41600    0.17200    -999.25    0.17200  258.16480   11.25640   11.25640  258.16480 1296.54910  577.67430 1296.54910    0.00790    -999.25    0.00790    2.40320  -98.76660  -81.08040  577.67430
 8850.00000    9.69210    9.69210   17.75950    0.07460    0.07460    2.68060    0.01720    -999.25    0.01720   56.30780    8.99460    8.99460   56.30780   54.87560  151.01340   54.87560    0.00660    -999.25    0.00660    2.67440 -114.72400  -96.25850  151.01340
 8900.00000   11.56440   11.56440    4.14970    0.20160    0.20160    2.41000    0.17540    -999.25    0.17540  241.14350   10.25950   10.25950  241.14350  241.31230  450.02580  241.31230    0.00380    -999.25    0.00380    2.42010 -112.17080  -92.93110  450.02580
 8950.00000   11.71090   11.71090    3.61610    0.25670    0.25670    2.47450    0.13770    -999.25    0.13770  276.53750   14.09670   14.09670  276.53750 1352.27540  548.99210 1352.27540    0.00340    -999.25    0.00340    2.47770 -102.84180  -82.82280  548.99210
 9000.00000   10.83050   10.83050   11.55690    0.21060    0.21060    2.37250    0.19730    -999.25    0.19730   86.56900   13.63610   13.63610   86.56900   86.06040  117.36930   86.06040    0.00590    -999.25    0.00590    2.38420 -109.51780  -88.72460  117.36930
 9050.00000   12.74510   12.74510    3.74690    0.18560    0.18560    2.47860    0.13530    -999.25    0.13530  266.93030   15.77000   15.77000  266.93030  336.89730  496.48090  336.89730    0.00200    -999.25    0.00200    2.49000 -102.05050  -80.48310  496.48090
 9100.00000   12.26820   12.26820    6.28590    0.22250    0.22250    2.49350    0.12660    -999.25    0.12660  159.08660   12.60790   12.60790  159.08660  134.81780  174.12750  134.81780    0.00330    -999.25    0.00330    2.49400 -117.33730  -94.99070  174.12750
 9150.00000   11.23700   11.23700   11.00480    0.19210    0.19210    2.43240    0.16230    -999.25    0.16230   90.91360   11.21890   11.21890   90.91360   85.43170  107.11600   85.43170    0.00040    -999.25    0.00040    2.43890 -131.67780 -108.55700  107.11600
 9200.00000    9.75370    9.75370   14.49410    0.02150    0.02150    2.73000   -0.01170    -999.25   -0.01170   68.99340   12.16980   12.16980   68.99340   61.58970  137.96740   61.58970   -0.00320    -999.25   -0.00320    2.72790 -121.55480  -97.65470  137.96740
 9250.00000    9.13270    9.13270   79.84290    0.15800    0.15800    2.59620    0.06650    -999.25    0.06650   12.52460   11.30830   11.30830   12.52460   18.59920   98.22240   18.59920    0.04450    -999.25    0.04450    2.58860 -158.22170 -133.54740   98.22240
 9300.00000   11.47690   11.47690    4.08430    0.22280    0.22280    2.49980    0.12290    -999.25    0.12290  245.59250   29.43050   29.43050  245.59250  706.80250  943.56190  706.80250   -0.00200    -999.25   -0.00200    2.50930 -135.89310 -110.44460  943.56190
 9350.00000    9.79290    9.79290   11.30130    0.24960    0.24960    2.69750    0.00730    -999.25    0.00730   88.48510   15.86320   15.86320   88.48510  141.42650  571.22360  141.42650    0.02270    -999.25    0.02270    2.67520 -126.46530 -100.23750  571.22360
 9400.00000    9.25950    9.25950   20.69650    0.24660    0.24660    2.41230    0.17410    -999.25    0.17410   48.34130   19.74400   19.74400   48.34130   83.29470  106.46170   83.29470    0.10020    -999.25    0.10020    2.41660 -132.18830 -105.18630  106.46170
 9450.00000   10.84450   10.84450   31.70970    0.25130    0.25130    2.64260    0.03940    -999.25    0.03940   31.53610   24.72520   24.72520   31.53610   31.78040   45.25550   31.78040    0.04360    -999.25    0.04360    2.62840 -104.00760  -76.22630   45.25550
 9500.00000   10.12880   10.12880    5.32340    0.19340    0.19340    2.79610   -0.05030    -999.25   -0.05030  187.93170   31.68800   31.68800  187.93170  197.63920  643.97720  197.63920    0.00420    -999.25    0.00420    2.78650  -70.56800  -42.01250  643.97720
 9550.00000    9.58550    9.58550    4.62220   -0.00050   -0.00050    2.72130   -0.00660    -999.25   -0.00660  216.35770   24.68490   24.68490  216.35770  154.40840  581.83070  154.40840    0.00190    -999.25    0.00190    2.70890  -53.55320  -24.22350  581.83070
