~Version ---------------------------------------------------
VERS.      2.0 : CWLS log ASCII Standard -VERSION 2.0
WRAP.       NO : One line per depth step
CREA. 11/07/17 : LAS Creation Date
~Well ------------------------------------------------------
STRT.FT               650.0 : START DEPTH
STOP.FT              5900.0 : STOP DEPTH
STEP.FT            50.00000 : STEP LENGTH
NULL.               -999.25 : NULL VALUE
COMP.          PETRO-CANADA : COMPANY
WELL. ARCO NIPISI 4-28-81-8 : WELL
FLD .                NIPISI : FIELD
LOC .                       : LOCATION
CTRY.                CANADA : COUNTRY
SRVC.          Schlumberger : SERVICE COMPANY
DATE.           12-Jul-1967 : LOGDATE
PROV.               Alberta : PROVINCE
UWI .      100042808108W500 : UNIQUE WELL ID
SLAT.WGS84    56.0456026011 : SURFACE LATITUDE
SLON.WGS84  -115.1974081811 : SURFACE LONGITUDE
~Curve Information -----------------------------------------
DEPT  .FT    : Depth Curve
CALSED.IN    : CALIPER FROM SONIC LOG (ADJ TO RES.)
CALWS .IN    : CALIPER [CALSED]
CILDED.MMHO  : CONDUCTIVITY FROM IEL LOG
CONDWS.MMHO  : CONDUCTIVITY [1000/DRESWS]
DRESWS.OHMM  : DEEP RESISTIVITY [ILDED] IF ILDED<5;1000/CILDED;ELSE ILDED
DTED  .US/F  : DELTA TIME FROM SONIC LOG (ADJ TO RES.)
DTWS  .US/F  : DELTA TIME [DTED]
GRSED .GAPI  : GAMMA RAY FROM SONIC LOG (ADJ TO RES.)
GRWS  .GAPI  : GAMMA RAY [GRSED] CSG @ 623ft
ILDED .OHMM  : INDUCTION LOG DEEP RESISTIVITY
SNED  .OHMM  : 16 INCH SHORT NORMAL RESISTIVITY FROM IEL
SPRED .MV    : SPONTANEOUS POTENTIAL FROM IEL LOG
SPWS  .MV    : SPONTANEOUS POTENTIAL [BASELINE 0 MV] [SPRED]
SRESWS.OHMM  : SHALLOW RESISTIVITY [SNED]
~Params ----------------------------------------------------
PD  .                     GL : PERMANENT DATUM
EPD .FT                 2117 : ELEVATION PERMANENT DATUM
LMF .                     KB : LOG MEASURED FROM
DAPD.FT                 13.5 : FEET ABOVE PERMANENT DATUM
DMF .                     KB : DRILLING MEASURED FROM
EKB .FT               2130.5 : KELLY BUSHING
EGL .FT                 2117 : GROUND LEVEL
DATE.               07/12/67 : RUN DATE
RUN .                      1 : RUN NUMBER
DD  .FT                 5935 : DEPTH DRILLER
DL  .FT                 5936 : DEPTH LOGGER
BLI .FT                 5934 : BOTTOM LOG INTERVAL
TLI .FT                  623 : TOP LOG INTERVAL
CBD .FT                  625 : CASING BOTTOM DRILLER
CBL .FT                  623 : CASING BOTTOM LOGGER
BS  .IN                 8.75 : BIT SIZE
BSD .FT                 5935 : BIT SIZE AT DEPTH
DFT .               GEL CHEM : DRILLING FLUID TYPE
DFD .                    9.8 : DRILLING FLUID DENSITY
DFV .                     60 : DRILLING FLUID VISCOSITY
DFPH.                     11 : DRILLING FLUID PH
DFL .                     15 : DRILLING FLUID LOSS
RMS .OHMM                0.6 : RESISTIVITY MUD SAMPLE
MST .DEGF                 72 : MUD SAMPLE TEMPERATURE
RMF .OHMM               0.42 : RESISTIVITY MUD FILTRATE SAMPLE
MFST.DEGF                 62 : MUD FILTRATE SAMPLE TEMPERATURE
RMC .OHMM               0.66 : RESISTIVITY MUD CAKE
MCST.DEGF                 65 : MUD CAKE SAMPLE TEMPERATURE
RMB .OHMM               0.37 : RESISTIVITY MUD AT BHT
TCS .HRS                1830 : TIME CIRCULATED STOPPED
TLAB.HRS                 300 : TIME LOGGER AT BOTTOM
LUN .                   7501 : LOGGING UNIT NUMBER
LUL .                     SL : LOGGING UNIT LOCATION
ENGI.                 WILSON : RECORDING ENGINEER
WITN.          NEESER BAILEY : WITNESSED BY
CLNT.                A2DTECH : CLIENT CODE
ORIG.        2" 5" 25" PRINT : ORIGIN OF DATA
UWI .       100042808108W500 : UNIQUE WELL ID
DICO. A2D Technologies, Inc. : DIGITIZING COMPANY
~Other -----------------------------------------------------
~ASCII -----------------------------------------------------
  650.00000   15.00090   15.00090  207.16000  207.16000    4.82720  201.94900  201.94900   61.71240   61.71240    4.97480    4.44260  -74.70180  -10.96830    4.44260
  700.00000   14.98260   14.98260  188.23830  191.90170    5.21100  173.37740  173.37740   67.09180   67.09180    5.21100    4.70030  -78.95700  -15.76230    4.70030
  750.00000   14.98510   14.98510  200.05000  200.05000    4.99880  139.92220  139.92220   63.12000   63.12000    4.99240    4.26490  -73.88850  -11.22700    4.26490
  800.00000   11.53220   11.53220  162.52610  171.58540    5.82800  107.48340  107.48340   60.59500   60.59500    5.82800    3.70010  -68.75280   -6.62730    3.70010
  850.00000   13.45530   13.45530  406.04800  406.04800    2.46280  147.28890  147.28890   77.01450   77.01450    2.46330    2.89550  -72.03540  -10.44590    2.89550
  900.00000   15.01570   15.01570  364.28780  364.28780    2.74510  138.83010  138.83010   59.59300   59.59300    2.88990    2.44450  -64.64560   -3.59210    2.44450
  950.00000   13.42120   13.42120  272.35400  272.35400    3.67200  142.15650  142.15650   66.52680   66.52680    3.49450    3.62130  -67.27460   -6.75980    3.62130
 1000.00000   11.54630   11.54630  143.98140  151.37070    6.60630  157.68560  157.68560   72.04640   72.04640    6.60630    5.02050  -70.28420  -10.16870    5.02050
 1050.00000   10.79350   10.79350  206.08580  206.08580    4.85230  128.65140  128.65140   39.56430   39.56430    4.85310    4.65400  -74.87020  -14.93810    4.65400
 1100.00000   14.99730   14.99730  414.36210  414.36210    2.41330  189.67070  189.67070   43.35970   43.35970    2.56970    2.85340  -60.74850   -0.99980    2.85340
 1150.00000    9.13690    9.13690  239.52800  239.52800    4.17490  137.16050  137.16050   56.27790   56.27790    4.17500    4.77990  -76.73290  -17.16770    4.77990
 1200.00000   13.20730   13.20730  305.21250  305.21250    3.27650  168.52150  168.52150   53.29810   53.29810    3.27650    2.78170  -63.06810   -3.68720    2.78170
 1250.00000   15.00890   15.00890  328.93510  328.93510    3.04010  164.70160  164.70160   55.36360   55.36360    3.04070    2.93360  -68.30710   -9.10870    2.93360
 1300.00000   10.12570   10.12570  186.39730  168.54590    5.93310  122.62210  122.62210   57.38580   57.38580    5.93310    5.06440  -71.50870  -12.49370    5.06440
 1350.00000   10.76100   10.76100  244.21640  244.21640    4.09470  127.17970  127.17970   62.59460   62.59460    4.09480    4.76170  -72.51780  -13.68620    4.76170
 1400.00000   11.75850   11.75850  236.78940  236.78940    4.22320  123.73450  123.73450   61.40710   61.40710    4.22320    4.82930  -72.48970  -13.84150    4.82930
 1450.00000   11.78970   11.78970  228.16730  228.16730    4.38310  117.15650  117.15650   60.69980   60.69980    4.38320    4.76070  -74.58810  -16.12430    4.76070
 1500.00000   14.48580   14.48580  246.97710  246.97710    4.04900  158.04580  158.04580   45.80390   45.80390    4.04920    3.85840  -72.00220  -13.72080    3.85840
 1550.00000   11.72160   11.72160  171.03300  167.87540    5.95680  116.42440  116.42440   48.42700   48.42700    5.95680    5.82930  -73.71030  -15.61230    5.82930
 1600.00000   12.91910   12.91910  237.35380  237.35380    4.21310  127.07920  127.07920   54.72900   54.72900    4.21310    3.91010  -71.88430  -13.96980    3.91010
 1650.00000   15.00910   15.00910  193.29430  193.29270    5.17350  114.89240  114.89240   52.76030   52.76030    5.17350    4.70850  -69.44950  -11.71840    4.70850
 1700.00000   11.85740   11.85740  150.23300  164.03510    6.13240  130.07500  130.07500   53.82350   53.82350    6.13240    7.41600  -70.99100  -13.44420    7.41600
 1750.00000    -999.25    -999.25  234.42510  234.42510    4.26580  159.55450  159.55450   43.60910   43.60910    4.22920    3.50140  -66.71140   -9.34710    3.50140
 1800.00000   10.17370   10.17370   29.69610   28.61840   34.94260   75.89520   75.89520   20.17540   20.17540   34.94260   31.76670  -77.92130  -20.74040   31.76670
 1850.00000   11.50450   11.50450  132.94530  123.98790    8.06530   88.01010   88.01010   31.17120   31.17120    8.06530   10.39090  -68.04580  -11.04830   10.39090
 1900.00000   10.86570   10.86570   47.02370   47.56970   21.02180   66.03180   66.03180   21.68790   21.68790   21.02180   20.56900  -69.86480  -13.05070   20.56900
 1950.00000   11.85230   11.85230   58.50350   64.69760   15.93260   88.66950   88.66950   23.86860   23.86860   15.93260   17.28430  -62.74900   -6.11930   17.28430
 2000.00000   10.35740   10.35740   25.75050   34.84870   28.69550   73.44500   73.44500   24.11780   24.11780   28.69550   24.62300  -58.83500   -2.38780   24.62300
 2050.00000   10.22330   10.22330   64.00700   68.44160   14.61100   78.85700   78.85700   26.76660   26.76660   14.61100   13.81460  -59.18500   -2.92120   13.81460
 2100.00000    9.73740    9.73740   50.78870   49.44960   20.22260   67.06780   67.06780   21.26710   21.26710   20.22260   19.38400  -63.21090   -7.13050   19.38400
 2150.00000   10.50640   10.50640  127.91550  132.42930    7.55120   84.22160   84.22160   24.78590   24.78590    7.55120    8.76580  -57.69670   -1.79970    8.76580
 2200.00000   11.47660   11.47660  142.82980  144.84450    6.90490   99.71340   99.71340   26.22840   26.22840    6.90490    7.23680  -57.39070   -1.67800    7.23680
 2250.00000    9.57020    9.57020   56.64090   56.10480   17.82380   66.82980   66.82980   20.33190   20.33190   17.82380   18.28500  -71.63050  -16.10030   18.28500
 2300.00000   10.36340   10.36340   74.41080   76.10640   13.13950   75.82890   75.82890   23.06390   23.06390   13.13950   13.92110  -61.92300   -6.57620   13.92110
 2350.00000    9.08580    9.08580   51.22110   49.66750   20.13390   63.31260   63.31260   16.68400   16.68400   20.13390   27.86690  -74.75610  -19.59270   27.86690
 2400.00000    9.38230    9.38230   57.34790   56.59500   17.66940   65.34940   65.34940   19.10230   19.10230   17.66940   19.04250  -72.79180  -17.81190   19.04250
 2450.00000    9.42660    9.42660   65.80650   65.83350   15.18980   68.04310   68.04310   22.39740   22.39740   15.18980   17.20430  -68.36040  -13.56480   17.20430
 2500.00000   12.38920   12.38920  300.58330  300.58330    3.32690  112.68050  112.68050  105.01890  105.01890    3.32690    3.90030  -57.72950   -3.08690    3.90030
 2550.00000    9.57970    9.57970   21.33250   20.39290   49.03660   51.98500   51.98500   19.63910   19.63910   49.03660   39.59290  -71.26830  -16.48110   39.59290
 2600.00000   10.27160   10.27160   32.61650   31.05460   32.20130   56.73870   56.73870   15.03040   15.03040   32.20130   36.63480 -107.85250  -52.92070   36.63480
 2650.00000    9.92710    9.92710   22.44430   21.69530   46.09300   54.75550   54.75550   16.68750   16.68750   46.09300   39.63120  -95.04410  -39.96770   39.63120
 2700.00000    9.91820    9.91820   19.60900   16.33530   61.23540   55.55270   55.55270   16.50460   16.50460   61.23540   45.88480  -99.39340  -44.17170   45.88480
 2750.00000    9.38330    9.38330   40.45640   39.35370   25.41060   59.57790   59.57790   17.26080   17.26080   25.41060   32.28050 -109.23700  -53.87140   32.28050
 2800.00000    9.60280    9.60280   40.98050   40.18070   24.88760   61.55390   61.55390   11.84560   11.84560   24.88760   35.94470 -113.16210  -57.65190   35.94470
 2850.00000   10.03540   10.03540   54.73820   52.74900   18.95770   62.16080   62.16080   14.43280   14.43280   18.95770   30.83190 -112.36110  -56.70620   30.83190
 2900.00000    9.88690    9.88690   42.79110   42.82690   23.34980   56.75750   56.75750   14.27490   14.27490   23.34980   32.49330  -94.59300  -38.79360   32.49330
 2950.00000    9.21350    9.21350   36.17050   35.66710   28.03700   58.67550   58.67550   14.20730   14.20730   28.03700   33.81490 -108.80460  -52.85970   33.81490
 3000.00000    9.73810    9.73810   18.10660   16.16140   61.87590   53.48090   53.48090   13.54910   13.54910   61.87590   47.19210  -85.92180  -29.83310   47.19210
 3050.00000    9.61300    9.61300   18.97900   16.37390   61.07270   53.50640   53.50640   15.41960   15.41960   61.07270   48.78320  -88.99100  -32.75770   48.78320
