~Version ---------------------------------------------------
VERS. 2.0 : CWLS log ASCII Standard -VERSION 2.0
WRAP.  NO : ONE LINE PER DEPTH STEP
~Well ------------------------------------------------------
STRT.F                             1500.0 : START DEPTH
STOP.F                            12250.0 : STOP DEPTH
STEP.F                           50.00000 : STEP LENGTH
NULL.                             -999.25 : NULL VALUE
COMP.            CHEVRON STANDARD LIMITED : COMPANY
WELL. CHEVRON NORCEN PL BRAZEAU 7-4-49-12 : WELL
FLD .                                     : FIELD
LOC .                                     : LOCATION
CTRY.                              CANADA : COUNTRY
SRVC.                        Schlumberger : SERVICE COMPANY
DATE.                         05-Jun-1978 : LOGDATE
PROV.                             Alberta : PROVINCE
UWI .                    100070404912W500 : UNIQUE WELL ID
SLAT.WGS84                       53.19691 : SURFACE LATITUDE
SLON.WGS84                      -115.6898 : SURFACE LONGITUDE
~Curve Information -----------------------------------------
DEPT   .F     : 
CALD   .IN    : CALIPER FROM DENSITY LOG
DCOR   .G/C3  : DENSITY CORRECTION
GRD    .GAPI  : GAMMA RAY FROM DENSITY LOG
RHOB   .G/C3  : BULK DENSITY
NPHI_SS.DEC   : NEUTRON POROSITY SANDSTONE
DPHI_SS.DEC   : DENSITY POROSITY SANDSTONE
NPHI_LS.DEC   : NEUTRON POROSITY LIMESTONE
DPHI_LS.DEC   : DENSITY POROSITY LIMESTONE
GRS    .GAPI  : GAMMA RAY FROM SONIC LOG
DT     .US/F  : DELTA TIME
CALS   .IN    : CALIPER FROM SONIC LOG
ILD    .OHMM  : DEEP INDUCTION RESISTIVITY
ILM    .OHMM  : INDUCTION MEDIUM RESISTIVITY
LL8    .OHMM  : LATEROLOG-8 RESISTIVITY
SPR    .MV    : SPONTANEOUS POTENTIAL FROM RESISTIVITY LOG
~Params ----------------------------------------------------
PD  .                     GL : PERMANENT DATUM
EPD .FT               3221.1 : ELEVATION PERMANENT DATUM
LMF .                     KB : LOG MEASURED FROM
DAPD.FT                 18.9 : FEET ABOVE PERMANENT DATUM
DMF .                     KB : DRILLING MEASURED FROM
EKB .FT                 3240 : KELLY BUSHING
EGL .FT               3221.1 : GROUND LEVEL
DATE.               06/05/78 : RUN DATE
RUN .                      1 : RUN NUMBER
DD  .FT                12300 : DEPTH DRILLER
DL  .FT                12303 : DEPTH LOGGER
BLI .FT                12297 : BOTTOM LOG INTERVAL
TLI .FT                 1518 : TOP LOG INTERVAL
CBD .FT                 1518 : CASING BOTTOM DRILLER
CBL .FT                 1518 : CASING BOTTOM LOGGER
BS  .IN                 8.75 : BIT SIZE
BSD .FT                12300 : BIT SIZE AT DEPTH
DFT .                    GEL : DRILLING FLUID TYPE
DFD .                     11 : DRILLING FLUID DENSITY
DFV .                     68 : DRILLING FLUID VISCOSITY
DFPH.                   10.5 : DRILLING FLUID PH
MSS .               FLOWLINE : MUD SAMPLE SOURCE
RMS .OHMM               3.34 : RESISTIVITY MUD SAMPLE
MST .DEGF                 68 : MUD SAMPLE TEMPERATURE
TCS .HRS                 350 : TIME CIRCULATED STOPPED
LUN .                   7802 : LOGGING UNIT NUMBER
LUL .                    EDM : LOGGING UNIT LOCATION
ENGI.            STEENBERGEN : RECORDING ENGINEER
WITN.             RICHARDSON : WITNESSED BY
CLNT.                A2DTECH : CLIENT CODE
ORIG.            2" 5" PRINT : ORIGIN OF DATA
UWI .       100070404912W500 : UNIQUE WELL ID
DICO. A2D Technologies, Inc. : DIGITIZING COMPANY
~Other -----------------------------------------------------
~ASCII -----------------------------------------------------
# ...
 3800.00000    -999.25    -999.25    -999.25    -999.25    -999.25    -999.25    -999.25    -999.25  186.04060   87.84910    9.48800    2.77430    3.08840    3.66760  -36.74550
 3850.00000    -999.25    -999.25    -999.25    -999.25    -999.25    -999.25    -999.25    -999.25   96.82340   90.09340    9.59470    5.18100    5.52650    5.97380  -36.17970
 3900.00000   11.63000    0.04920  109.30130    2.48680    0.27860    0.05770    -999.25    -999.25  123.41250   88.93880    9.54990    6.70850    7.21670    9.07700  -37.44390
 3950.00000   10.78540    0.08770   97.12580    2.48830    0.34230    0.08620    -999.25    -999.25  101.91080   85.95270    9.37730    4.78760    5.17640    6.13330  -38.15050
 4000.00000   11.09370    0.08320  101.26140    2.56310    0.29800    0.04370    -999.25    -999.25   92.78390   81.34840    9.39680    5.36040    5.74390    6.01190  -38.92290
 4050.00000   11.55840    0.07230   93.25420    2.58730    0.28780    0.06650    -999.25    -999.25  100.63350   82.86330    9.87350    5.76860    6.10940    6.38980  -36.32340
 4100.00000   10.92900    0.07190   80.52070    2.59130    0.21670    0.06180    -999.25    -999.25   86.78200   77.21410    9.43740    7.39750    8.24700    8.50530  -41.03110
 4150.00000   10.96890    0.06770   63.56540    2.50730    0.23000    0.06780    -999.25    -999.25   61.45400   78.30380    9.34360    9.41850   10.12730   10.35880  -41.17280
 4200.00000   11.23330    0.09900   69.19850    2.53020    0.19360    0.11320    -999.25    -999.25   75.13570   75.41940    9.40060   11.37110   12.05110   12.71680  -44.88210
 4250.00000   10.21500    0.04090   45.74970    2.37230    0.23500    0.14550    -999.25    -999.25   52.73460   77.76170    9.19080   20.05470   18.96540   15.34700  -58.35420
 4300.00000   12.54120    0.10560  118.15500    2.28700    0.48580    0.15600    -999.25    -999.25  120.51820   97.94640    9.34060    3.30510    3.71680    4.55660  -37.87400
 4350.00000    9.05000    0.02130   42.73710    2.36390    0.25840    0.16530    -999.25    -999.25   40.18750   79.65380    8.43960   24.42640   25.86290   27.76370  -56.46410
 4400.00000    9.00940    0.06530   46.30100    2.42690    0.25150    0.12200    -999.25    -999.25   40.02180   76.45350    8.68810   24.93280   23.05220   20.15250  -55.67970
 4450.00000   10.47900    0.00500   72.13820    -999.25    0.43530    0.46230    -999.25    -999.25   82.59080  102.77270    9.41120    3.40430    3.91210    4.84560  -37.46320
 4500.00000   12.04970    0.08940   67.13810    -999.25    0.42240    0.44010    -999.25    -999.25   74.57030   87.64160    9.05890    5.01600    5.34090    5.70880  -38.49480
 4550.00000   12.18560    0.08980   64.59850    -999.25    0.39710    0.43390    -999.25    -999.25   84.86710   99.30570    9.92980    4.28290    4.58610    5.50010  -38.50800
 4600.00000   11.73150    0.12570   71.12810    2.38980    0.29840    0.12970    -999.25    -999.25   86.61520   85.47920    9.44240    7.55750    7.16340    6.38110  -39.85960
 4650.00000   11.61900    0.10830   59.25070    2.25830    0.31780    0.25700    -999.25    -999.25   63.47500   75.40300    9.32690    8.60180    8.21760    7.54660  -39.83610
 4700.00000   10.80730    0.07240   41.41900    2.56030    0.23060    0.05070    -999.25    -999.25   44.12020   71.61510    9.26730   26.35590   28.07670   30.61000  -55.42560
 4750.00000   10.50630    0.04620   61.39940    2.54310    0.30240    0.04700    -999.25    -999.25   69.68980   73.52040    9.32110   10.54210   10.96430   12.07150  -41.64840
 4800.00000   11.21590    0.06290   65.47710    2.53240    0.22800    0.05450    -999.25    -999.25   64.52650   74.85610    9.35090   13.49580   14.83740   16.24770  -43.64370
 4850.00000   11.56480    0.12480   63.04970    2.00430    0.40200    0.47920    -999.25    -999.25   71.89320   98.45390    9.50690    5.93100    6.26680    6.91280  -40.96220
 4900.00000   13.67800   -0.00750   75.86330    -999.25    0.44310    0.55200    -999.25    -999.25   71.56950   86.49530    9.50120    5.77390    6.32400    6.65310  -41.09660
 4950.00000   10.94480    0.14390   79.31450    2.37040    0.34090    0.19490    -999.25    -999.25   70.07010   91.59880    9.91570    7.69090    7.06150    6.14110  -38.79530
 5000.00000   10.17180    0.04460   75.90680    2.55800    0.29840    0.05260    -999.25    -999.25   74.40820   82.74580    9.47020    9.88870    8.80230    9.42440  -40.00570
 5050.00000   10.62410    0.05540   78.63620    2.56890    0.26600    0.04260    -999.25    -999.25   79.27860   83.94080    9.55160    7.63740    7.92830    8.96470  -43.40310
 5100.00000   11.75250   -0.00060   59.11070    2.00110    0.38860    0.32940    -999.25    -999.25   66.74490  106.06370    9.33940   16.02550   17.05340   17.21340  -43.06490
 5150.00000   10.83450    0.19020   75.68640    2.28320    0.34910    0.24290    -999.25    -999.25   76.77310   83.17310    9.22790    7.26350    7.82470    8.36770  -37.41630
 5200.00000   10.93890    0.14370   76.66970    2.15130    0.31450    0.30990    -999.25    -999.25   85.45150   81.65110    9.07110    7.21950    7.63480    8.63860  -38.13510
 5250.00000   11.11980    0.05300   97.99130    2.66570    0.20520   -0.00160    -999.25    -999.25  106.59920   74.29180    9.67900   12.11960   13.17210   16.72790  -38.84480
 5300.00000    -999.25    -999.25    -999.25    -999.25    -999.25    -999.25    -999.25    -999.25  116.49970   77.43970    9.42280    8.85430    9.43300   10.81600  -38.79680
 5350.00000    -999.25    -999.25    -999.25    -999.25    -999.25    -999.25    -999.25    -999.25  114.76830   76.11070    9.67570   10.54020   11.22760   11.51240  -39.87810
 5400.00000    -999.25    -999.25    -999.25    -999.25    -999.25    -999.25    -999.25    -999.25  109.25420   74.37890    9.94050   10.30280   10.96980   12.01070  -40.37420
 5450.00000    -999.25    -999.25    -999.25    -999.25    -999.25    -999.25    -999.25    -999.25  112.79060   73.35040   10.55540   10.20280   10.85910   11.91070  -39.95250
 5500.00000    -999.25    -999.25    -999.25    -999.25    -999.25    -999.25    -999.25    -999.25  113.50420   79.11500   10.21500    9.50100   10.12290   11.05860  -39.19080
 5550.00000    -999.25    -999.25    -999.25    -999.25    -999.25    -999.25    -999.25    -999.25  122.29690   81.12700   10.55260    9.76940   10.39940   11.37510  -38.29600
 5600.00000    -999.25    -999.25    -999.25    -999.25    -999.25    -999.25    -999.25    -999.25  126.27210   78.74020   10.14500   11.67430   12.48480   15.27130  -39.00300
 5650.00000    -999.25    -999.25    -999.25    -999.25    -999.25    -999.25    -999.25    -999.25  138.30650   83.47560   10.04980   10.63850   11.32390   14.31880  -38.78080
 5700.00000    -999.25    -999.25    -999.25    -999.25    -999.25    -999.25    -999.25    -999.25  109.19910   79.13300   10.51540   10.00100   10.64420   12.86630  -38.46520
 5750.00000    -999.25    -999.25    -999.25    -999.25    -999.25    -999.25    -999.25    -999.25  110.32060   76.09800    9.84080    8.44470    9.00540   10.67460  -39.94380
 5800.00000    -999.25    -999.25    -999.25    -999.25    -999.25    -999.25    -999.25    -999.25  128.52490   80.45360    9.78690    6.29130    6.69590    7.48880  -39.34750
 5850.00000    -999.25    -999.25    -999.25    -999.25    -999.25    -999.25    -999.25    -999.25  112.21940   80.66180    9.43990    7.04840    7.50270    8.02800  -38.54470
 5900.00000    -999.25    -999.25    -999.25    -999.25    -999.25    -999.25    -999.25    -999.25  102.00570   77.00330    9.34320    8.87790    9.45160   10.05940  -39.83800
 5950.00000    -999.25    -999.25    -999.25    -999.25    -999.25    -999.25    -999.25    -999.25   98.56940   79.65100    9.34580    7.78100    8.30430    9.11240  -38.92470
 6000.00000    -999.25    -999.25    -999.25    -999.25    -999.25    -999.25    -999.25    -999.25   94.14370   72.06110    9.07350    9.83190   10.48870   15.42520  -39.10160
 6050.00000    -999.25    -999.25    -999.25    -999.25    -999.25    -999.25    -999.25    -999.25  118.25210   77.72640    9.68750    8.45600    9.00250    9.64720  -39.67540
