~Version ---------------------------------------------------
VERS.      2.0 : CWLS log ASCII Standard -VERSION 2.0
WRAP.       NO : One line per depth step
CREA. 09/29/17 : LAS Creation Date
~Well ------------------------------------------------------
STRT.FT                        1400.0 : START DEPTH
STOP.FT                       12550.0 : STOP DEPTH
STEP.FT                      50.00000 : STEP LENGTH
NULL.                         -999.25 : NULL VALUE
COMP.    PAN AMERICAN PETROLEUM CORP. : COMPANY
WELL. SCURRY C-1 GOLD CREEK 6-17-68-4 : WELL
FLD .                                 : FIELD
LOC .                                 : LOCATION
CTRY.                          CANADA : COUNTRY
SRVC.                      Lane Wells : SERVICE COMPANY
DATE.                     15-Apr-1965 : LOGDATE
PROV.                         Alberta : PROVINCE
UWI .                100061706804W600 : UNIQUE WELL ID
SLAT.WGS84                   54.88524 : SURFACE LATITUDE
SLON.WGS84                   -118.574 : SURFACE LONGITUDE
~Curve Information -----------------------------------------
DEPT  .FT    : Depth Curve
AC1ED .US/F  : DELTA TIME (1' SPAN ACOUSTIC) FROM SONIC LOG
ACED  .US/F  : DELTA TIME (3' SPAN ACOUSTIC) FROM SONIC LOG
CALWS .IN    : CALIPER [MCALED]
CILDED.MMHO  : CONDUCTIVITY FROM RESISTIVITY LOG
CONDWS.MMHO  : CONDUCTIVITY [1000/DRESWS]
DRESWS.OHMM  : DEEP RESISTIVITY [1000/CILDED IF ILDED <=1 THEN ILDED]
DTWS  .US/F  : COMPRESSIONAL SONIC [ACED]
GRNED .GAPI  : GAMMA RAY FROM NEUTRON LOG [ADJ.TO RESISTIVITY LOG]
GRSED .GAPI  : GAMMA RAY FROM SONIC LOG
GRWS  .GAPI  : GAMMA RAY [GRSED]
ILDED .OHMM  : DEEP INDUCTION FROM RESISTIVITY LOG
MCALED.IN    : MICRO CALIPER FROM MLL LOG [ADJ.TO RESISTIVITY LOG]
NEUTED.NAPI  : NEUTRON FROM NEUTRON LOG [ADJ.TO RESISTIVITY LOG]
NEUTWS.NAPI  : NEUTRON [NEUTED]
SNED  .OHMM  : SHORT NORMAL FROM RESISTIVITY LOG
SPRED .MV    : SPONTANEOUS POTENTIAL FROM RESISTIVITY LOG
SPWS  .MV    : SPONTANEOUS POTENTIAL [BASELINE 0 MV, SPRED]
SRESWS.OHMM  : SHALLOW RESISTIVITY [SNED]
~Params ----------------------------------------------------
PD  .                     GL : PERMANENT DATUM
EPD .FT                 2238 : ELEVATION PERMANENT DATUM
LMF .                     KB : LOG MEASURED FROM
DAPD.FT                 15.1 : FEET ABOVE PERMANENT DATUM
DMF .                     KB : DRILLING MEASURED FROM
EKB .FT                 2253 : KELLY BUSHING
EGL .FT                 2238 : GROUND LEVEL
DATE.               04/15/65 : RUN DATE
RUN .                      2 : RUN NUMBER
DD  .FT                12655 : DEPTH DRILLER
DL  .FT                12596 : DEPTH LOGGER
BLI .FT                12592 : BOTTOM LOG INTERVAL
TLI .FT                11054 : TOP LOG INTERVAL
CS  .IN               13.375 : CASING SIZE
CBD .FT                 1389 : CASING BOTTOM DRILLER
CBL .FT                 1389 : CASING BOTTOM LOGGER
BS  .IN                6.125 : BIT SIZE
BSD .FT                12655 : BIT SIZE AT DEPTH
DFT .                MUD GEL : DRILLING FLUID TYPE
DFD .                    9.8 : DRILLING FLUID DENSITY
DFV .                    120 : DRILLING FLUID VISCOSITY
DFPH.                   10.5 : DRILLING FLUID PH
DFL .                      7 : DRILLING FLUID LOSS
MSS .               MUD TANK : MUD SAMPLE SOURCE
RMS .OHMM                1.4 : RESISTIVITY MUD SAMPLE
MST .DEGF                 40 : MUD SAMPLE TEMPERATURE
RMF .OHMM                0.8 : RESISTIVITY MUD FILTRATE SAMPLE
MFST.DEGF                 55 : MUD FILTRATE SAMPLE TEMPERATURE
RMC .OHMM               1.15 : RESISTIVITY MUD CAKE
MCST.DEGF                 60 : MUD CAKE SAMPLE TEMPERATURE
MFSS.                   MEAS : MUD FILTRATE SAMPLE SOURCE
MCSS.                   MEAS : MUD CAKE SAMPLE SOURCE
RMB .OHMM               0.25 : RESISTIVITY MUD AT BHT
TCS .HRS                   7 : TIME CIRCULATED STOPPED
LUN .                   8054 : LOGGING UNIT NUMBER
LUL .                     WC : LOGGING UNIT LOCATION
ENGI.        MOORE MCFADZEAN : RECORDING ENGINEER
WITN.                  SAMIS : WITNESSED BY
CLNT.                A2DTECH : CLIENT CODE
ORIG.            2" 5" PRINT : ORIGIN OF DATA
UWI .       100061706804W600 : UNIQUE WELL ID
DICO. A2D Technologies, Inc. : DIGITIZING COMPANY
~Other -----------------------------------------------------
IEL-AC-NEUTRON LOG RUN
~ASCII -----------------------------------------------------
# ...
 5300.00000   53.88370   72.02650   13.63800   71.12340   66.82980   14.96360   72.02650    -999.25   62.34860   62.34860   14.96360   13.63800    -999.25    -999.25   16.46930  -62.03800  -15.61000   16.46930
 5350.00000    -999.25   80.40280   13.21110   62.45290   58.18550   17.18640   80.40280    -999.25   76.39340   76.39340   17.18640   13.21110    -999.25    -999.25   19.32160  -57.35840  -12.26680   19.32160
 5400.00000    -999.25   73.37940   14.62180   57.61140   50.94660   19.62840   73.37940    -999.25   55.70580   55.70580   19.62840   14.62180    -999.25    -999.25   23.93440  -54.84930  -11.08130   23.93440
 5450.00000    -999.25   71.13950   12.49480   52.26750   47.88240   20.88450   71.13950    -999.25   39.76080   39.76080   20.88450   12.49480    -999.25    -999.25   28.90260  -58.87850  -16.44600   28.90260
 5500.00000    -999.25   72.55440   13.69620   52.10950   48.04570   20.81350   72.55440    -999.25   43.37240   43.37240   20.81350   13.69620    -999.25    -999.25   23.07490  -57.31550  -16.21180   23.07490
 5550.00000    -999.25   63.09070   12.63530   49.53370   44.63020   22.40680   63.09070    -999.25   38.10020   38.10020   22.40680   12.63530    -999.25    -999.25   30.57580  -58.78690  -19.02720   30.57580
 5600.00000    -999.25   61.09150    9.67430   43.39290   37.37190   26.75810   61.09150    -999.25   20.89460   20.89460   26.75810    9.67430    -999.25    -999.25   54.35680  -83.99620  -45.65070   54.35680
 5650.00000    -999.25   76.03800    9.73570   52.19720   47.32320   21.13130   76.03800    -999.25   27.47930   27.47930   21.13130    9.73570    -999.25    -999.25   33.70800  -90.09510  -53.15040   33.70800
 5700.00000    -999.25   70.25040   12.92640   44.26820   38.75490   25.80320   70.25040    -999.25   39.28300   39.28300   25.80320   12.92640    -999.25    -999.25   36.86520  -50.00780  -14.47710   36.86520
 5750.00000    -999.25   66.42020   11.86190   51.29340   47.20790   21.18290   66.42020    -999.25   51.30150   51.30150   21.18290   11.86190    -999.25    -999.25   25.78510  -34.32920   -0.20550   25.78510
 5800.00000    -999.25   96.60020   12.91640   39.03880   32.42940   30.85620   96.60020    -999.25   48.52480   48.52480   30.85620   12.91640    -999.25    -999.25   40.73970  -38.52700   -4.54140   40.73970
 5850.00000    -999.25   64.09680    8.84910   39.27840   33.11130   30.20120   64.09680    -999.25   19.14650   19.14650   30.20120    8.84910    -999.25    -999.25   51.94970 -108.22560  -73.52400   51.94970
 5900.00000    -999.25   75.20680   13.15650   51.13230   46.85990   21.34020   75.20680    -999.25   52.04040   52.04040   21.34020   13.15650    -999.25    -999.25   29.65490  -48.55190  -13.14140   29.65490
 5950.00000    -999.25   91.99370   12.03760   55.39000   51.16010   19.54650   91.99370    -999.25   44.50900   44.50900   19.54650   12.03760    -999.25    -999.25   25.87180  -67.60870  -31.48260   25.87180
 6000.00000    -999.25   66.56360   11.38550   50.07290   45.27710   22.08620   66.56360    -999.25   37.66740   37.66740   22.08620   11.38550    -999.25    -999.25   32.15640  -78.14950  -41.36500   32.15640
 6050.00000    -999.25   65.63390   12.74660   51.90010   47.85290   20.90420   65.63390    -999.25   38.33790   38.33790   20.90420   12.74660    -999.25    -999.25   26.74520  -77.13450  -39.73150   26.74520
 6100.00000    -999.25   66.20100   11.25820   48.74110   44.93230   22.25570   66.20100    -999.25   57.59780   57.59780   22.25570   11.25820    -999.25    -999.25   27.75580  -52.19450  -14.16690   27.75580
 6150.00000    -999.25   66.55730   11.45130   50.54820   46.58990   21.46390   66.55730    -999.25   48.07090   48.07090   21.46390   11.45130    -999.25    -999.25   29.43950  -58.53490  -19.88910   29.43950
 6200.00000    -999.25   68.38660   11.89290   46.77000   42.38010   23.59600   68.38660    -999.25   58.66410   58.66410   23.59600   11.89290    -999.25    -999.25   31.38310  -56.33320  -17.06330   31.38310
 6250.00000    -999.25   64.72900   11.56550   48.08300   42.84840   23.33810   64.72900    -999.25   48.25820   48.25820   23.33810   11.56550    -999.25    -999.25   33.22340  -49.26540   -9.37450   33.22340
 6300.00000    -999.25   68.79970   12.15000   49.40410   45.00390   22.22040   68.79970    -999.25   54.50130   54.50130   22.22040   12.15000    -999.25    -999.25   28.71210  -45.42920   -4.91980   28.71210
 6350.00000    -999.25   76.12180   12.77360   77.73770   74.94290   13.34350   76.12180    -999.25   62.25150   62.25150   13.34350   12.77360    -999.25    -999.25   14.37520  -52.93560  -12.18830   14.37520
 6400.00000   65.21890   71.27660   10.29310   40.76540   34.35530   29.10760   71.27660    -999.25   26.17570   26.17570   29.10760   10.29310    -999.25    -999.25   41.66950 -107.68870  -66.83560   41.66950
 6450.00000   52.01300   65.90600   11.89950   33.13780   26.71350   37.43430   65.90600    -999.25   51.98350   51.98350   37.43430   11.89950    -999.25    -999.25    -999.25  -53.84510  -12.88550    -999.25
 6500.00000    -999.25   66.49900   11.95740   50.68060   45.04360   22.20070   66.49900    -999.25   64.19710   64.19710   22.20070   11.95740    -999.25    -999.25   34.78470  -72.90020  -31.83450   34.78470
 6550.00000    -999.25   65.32410   11.10550   43.60300   39.05650   25.61390   65.32410    -999.25   47.39650   47.39650   25.61390   11.10550    -999.25    -999.25   47.12970  -64.83190  -23.66010   47.12970
 6600.00000    -999.25   67.09820   11.94460   54.92910   49.95430   20.01830   67.09820    -999.25   61.23450   61.23450   20.01830   11.94460    -999.25    -999.25   37.17770  -73.11760  -31.83880   37.17770
 6650.00000    -999.25   66.55950   11.51730   52.56560   47.81170   20.91540   66.55950    -999.25   60.42150   60.42150   20.91540   11.51730    -999.25    -999.25   34.08510  -66.23020  -24.84560   34.08510
 6700.00000    -999.25   61.81370   11.21950   45.28720   39.99890   25.00070   61.81370    -999.25   35.53580   35.53580   25.00070   11.21950    -999.25    -999.25   50.03610  -60.16760  -18.67640   50.03610
 6750.00000   48.10640   62.69320   12.04030   50.84110   46.84060   21.34900   62.69320    -999.25   55.76490   55.76490   21.34900   12.04030    -999.25    -999.25   37.61120  -62.85700  -21.25980   37.61120
 6800.00000   69.84710   87.87300   15.94660   59.69290   53.22890   18.82650   87.87300    -999.25   55.68630   55.68630   18.82650   15.94660    -999.25    -999.25   18.78710  -76.60190  -34.89850   18.78710
 6850.00000   67.57320   93.67740   10.88660   44.52460   39.69640   25.19120   93.67740    -999.25   46.88090   46.88090   25.19120   10.88660    -999.25    -999.25   36.07720  -75.10420  -33.29380   36.07720
 6900.00000   85.86220   79.92450   13.15080   44.94020   39.66460   25.21140   79.92450    -999.25   34.57650   34.57650   25.21140   13.15080    -999.25    -999.25    -999.25  -87.53030  -45.61410    -999.25
 6950.00000   60.84960   84.14910   14.67930   70.53790   67.51240   14.81210   84.14910    -999.25   62.52990   62.52990   14.81210   14.67930    -999.25    -999.25   17.23700  -55.60330  -13.33650   17.23700
 7000.00000   67.91530   89.50650   15.57390  230.31720  196.21690    5.09640   89.50650    -999.25   63.46780   63.46780    5.09640   15.57390    -999.25    -999.25    7.21780  -59.64840  -14.78690    7.21780
 7050.00000    -999.25   85.22450   16.33860  218.56630  196.35190    5.09290   85.22450    -999.25   58.13450   58.13450    5.09290   16.33860    -999.25    -999.25    6.51100  -63.92340  -16.47760    6.51100
 7100.00000    -999.25   98.21690   16.33860  284.54040  224.26050    4.45910   98.21690    -999.25   44.58050   44.58050    4.45910   16.33860    -999.25    -999.25    4.92310  -68.86470  -18.81000    4.92310
 7150.00000   93.92630   87.44370   11.07440   23.25280   18.04810   55.40750   87.44370    -999.25   76.52190   76.52190   55.40750   11.07440    -999.25    -999.25   53.81850  -68.54290  -35.19430   53.81850
 7200.00000   78.23450   60.07240   10.07280   12.02700    6.11690  163.48240   60.07240    -999.25  124.82740  124.82740  163.48240   10.07280    -999.25    -999.25  172.31030  -70.17470  -63.92860  172.31030
