~Version ---------------------------------------------------
VERS.      2.0 : CWLS log ASCII Standard -VERSION 2.0
WRAP.       NO : One line per depth step
CREA. 01/04/18 : LAS Creation Date
~Well ------------------------------------------------------
STRT.FT                            1100.0 : START DEPTH
STOP.FT                           10550.0 : STOP DEPTH
STEP.FT                          50.00000 : STEP LENGTH
NULL.                             -999.25 : NULL VALUE
COMP.                CHEVRON STANDARD LTD : COMPANY
WELL. CHEVRON GULF SHININGBANK 3-13-56-15 : WELL
FLD .                                     : FIELD
LOC .                                     : LOCATION
CTRY.                              CANADA : COUNTRY
SRVC.              Schlumberger of Canada : SERVICE COMPANY
DATE.                         25-Oct-1976 : LOGDATE
PROV.                             Alberta : PROVINCE
UWI .                    100031305615W500 : UNIQUE WELL ID
SLAT.WGS84                       53.83559 : SURFACE LATITUDE
SLON.WGS84                      -116.0977 : SURFACE LONGITUDE
~Curve Information -----------------------------------------
DEPT    .FT    : Depth Curve
CALDED  .IN    : CALIPER FROM DENSITY LOG
CALSED  .IN    : CALIPER FROM SONIC LOG [ADJ. TO RESISTIVITY LOG]
CALWS   .IN    : CALIPER [CALSED]
CONDWS  .MMHO  : CONDUCTIVITY [1000/DRESWS]
DCORED  .G/C3  : DENSITY CORRECTION FROM DENSITY LOG
DCORWS  .G/C3  : DENSITY CORRECTION [DCORED]
DENWS   .G/C3  : FORMATION BULK DENSITY [M=2.71 F=1.00] [RHOBED AND SPL. CALC DPHISSED FROM TOP TO 1142']
DPHILSED.V/V   : DENSITY POROSITY LIME [M=2.71 F=1.00] FROM DENSITY LOG [ADJ. TO RHOBED]
DPHISSED.V/V   : DENSITY POROSITY SAND [M=2.65 F=1.00] FROM DENSITY LOG [ADJ. TO RHOBED]
DPOLSWS .V/V   : DENSITY POROSITY [M=2.71 F=1.00] [CALC FROM DENWS]
DRESWS  .OHMM  : DEEP RESISTIVITY [ILDED]
DTED    .US/F  : DELTA-T FROM SONIC LOG [ADJ. TO RESISTIVITY LOG]
DTWS    .US/F  : COMPRESSIONAL SONIC [DTED]
GRDED   .GAPI  : GAMMA RAY FROM DENSITY LOG
GRSED   .GAPI  : GAMMA RAY FROM SONIC LOG [ADJ. TO GRDED]
GRWS    .GAPI  : GAMMA RAY [GRSED]
ILDED   .OHMM  : DEEP INDUCTION FROM RESISTIVITY LOG
ILMED   .OHMM  : MEDIUM INDUCTION FROM RESISTIVITY LOG
LL8ED   .OHMM  : LATEROLOG 8 FROM RESISTIVITY LOG
MRESWS  .OHMM  : MEDIUM RESISTIVITY [ILMED]
NPHILSED.V/V   : NEUTRON POROSITY LIME FROM DENSITY LOG [ADJ. TO RHOBED]
NPHISSED.V/V   : NEUTRON POROSITY SAND FROM DENSITY LOG [ADJ. TO RHOBED]
NPOLSWS .V/V   : NEUTRON POROSITY LIME [SS MATRIX(SLB) CONVERTED TO LIME, SPL. TO NPHILSED @ 2164']
RHOBED  .G/C3  : BULK DENSITY FROM DENSITY LOG
SPRED   .MV    : SPONTANEOUS POTENTIAL FROM RESISTIVITY LOG
SPWS    .MV    : SPONTANEOUS POTENTIAL [BASELINE 0 MV, SPRED]
SRESWS  .OHMM  : SHALLOW RESISTIVITY [LL8ED]
TENDED  .LBF   : TENSION FROM DENSITY LOG
TENSED  .LBF   : TENSION FROM SONIC LOG [ADJ. TO RESISTIVITY LOG]
~Params ----------------------------------------------------
EKB .FT               2889.7 : KELLY BUSHING
EGL .FT               2873.6 : GROUND LEVEL
DATE.               10/25/76 : RUN DATE
RUN .                      1 : RUN NUMBER
DD  .FT                10595 : DEPTH DRILLER
DL  .FT                10593 : DEPTH LOGGER
BLI .FT                10592 : BOTTOM LOG INTERVAL
TLI .FT                 1094 : TOP LOG INTERVAL
CBD .FT               1094.6 : CASING BOTTOM DRILLER
CBL .FT                 1094 : CASING BOTTOM LOGGER
BS  .IN                 8.75 : BIT SIZE
BSD .FT                10595 : BIT SIZE AT DEPTH
DFT .               GEL CHEM : DRILLING FLUID TYPE
DFD .                    9.5 : DRILLING FLUID DENSITY
DFV .                    124 : DRILLING FLUID VISCOSITY
DFPH.                   10.5 : DRILLING FLUID PH
DFL .                     10 : DRILLING FLUID LOSS
RMC .OHMM               2.04 : RESISTIVITY MUD CAKE
MCST.DEGF                 56 : MUD CAKE SAMPLE TEMPERATURE
RMB .OHMM               0.41 : RESISTIVITY MUD AT BHT
TCS .HRS                   5 : TIME CIRCULATED STOPPED
LUN .                   7691 : LOGGING UNIT NUMBER
LUL .                    WCT : LOGGING UNIT LOCATION
ENGI.              CROCKFORD : RECORDING ENGINEER
WITN.        WONG RICHARDSON : WITNESSED BY
CLNT.                A2DTECH : CLIENT CODE
ORIG.            2" 5" PRINT : ORIGIN OF DATA
UWI .       100031305615W500 : UNIQUE WELL ID
DICO. A2D Technologies, Inc. : DIGITIZING COMPANY
~Other -----------------------------------------------------
~ASCII -----------------------------------------------------
# ...
 3600.00000    -999.25   10.46330   10.46330   73.78890    -999.25    -999.25    -999.25    -999.25    -999.25    -999.25   13.55260   82.16500   82.16500    -999.25   47.59230   47.59230   13.55260   13.07110   13.54240   13.07110    -999.25    -999.25    -999.25    -999.25  -48.65770  -18.64660   13.54240    -999.25 1685.29350
 3650.00000    -999.25   11.05570   11.05570  138.91980    -999.25    -999.25    -999.25    -999.25    -999.25    -999.25    7.19840   85.47140   85.47140    -999.25   63.28210   63.28210    7.19840    7.01430    6.19300    7.01430    -999.25    -999.25    -999.25    -999.25  -33.92060   -3.90950    6.19300    -999.25 2064.22460
 3700.00000    -999.25   10.22650   10.22650  159.86290    -999.25    -999.25    -999.25    -999.25    -999.25    -999.25    6.25550   85.08960   85.08960    -999.25   53.41160   53.41160    6.25550    5.45560    6.20890    5.45560    -999.25    -999.25    -999.25    -999.25  -31.28050   -1.26940    6.20890    -999.25 2464.42430
 3750.00000    -999.25   11.41200   11.41200  164.28180    -999.25    -999.25    -999.25    -999.25    -999.25    -999.25    6.08710   94.50470   94.50470    -999.25   55.68500   55.68500    6.08710    5.08870    4.79010    5.08870    -999.25    -999.25    -999.25    -999.25  -32.58450   -2.75680    4.79010    -999.25 1602.35230
 3800.00000    -999.25   12.31770   12.31770  156.82830    -999.25    -999.25    -999.25    -999.25    -999.25    -999.25    6.37640   93.42040   93.42040    -999.25   54.95560   54.95560    6.37640    4.97800    5.49230    4.97800    -999.25    -999.25    -999.25    -999.25  -33.13740   -3.51610    5.49230    -999.25 1548.67970
 3850.00000    -999.25    9.13710    9.13710   65.73960    -999.25    -999.25    -999.25    -999.25    -999.25    -999.25   15.21160   78.62780   78.62780    -999.25   39.19280   39.19280   15.21160   14.37160   16.81210   14.37160    -999.25    -999.25    -999.25    -999.25  -69.52140  -40.10790   16.81210    -999.25 1250.84130
 3900.00000    -999.25   10.17950   10.17950   90.02600    -999.25    -999.25    -999.25    -999.25    -999.25    -999.25   11.10790   75.73630   75.73630    -999.25   40.19040   40.19040   11.10790   10.19390   13.92840   10.19390    -999.25    -999.25    -999.25    -999.25  -38.77870   -9.57170   13.92840    -999.25 1605.39180
 3950.00000    -999.25   10.12720   10.12720  142.31290    -999.25    -999.25    -999.25    -999.25    -999.25    -999.25    7.02770   83.32120   83.32120    -999.25   69.38150   69.38150    7.02770    6.39360    7.41410    6.39360    -999.25    -999.25    -999.25    -999.25  -31.72080   -2.72160    7.41410    -999.25 1608.91850
 4000.00000    -999.25   10.13370   10.13370  192.81200    -999.25    -999.25    -999.25    -999.25    -999.25    -999.25    5.18640   90.32650   90.32650    -999.25   72.18970   72.18970    5.18640    4.81310    5.69420    4.81310    -999.25    -999.25    -999.25    -999.25  -30.00480   -1.15910    5.69420    -999.25 1805.48860
 4050.00000    -999.25   10.95210   10.95210  127.46810    -999.25    -999.25    -999.25    -999.25    -999.25    -999.25    7.84510   86.48900   86.48900    -999.25   94.58780   94.58780    7.84510    6.65880    7.30710    6.65880    -999.25    -999.25    -999.25    -999.25  -35.28080   -6.34330    7.30710    -999.25 1916.43480
 4100.00000    -999.25   10.24560   10.24560  123.17850    -999.25    -999.25    -999.25    -999.25    -999.25    -999.25    8.11830   86.38670   86.38670    -999.25   90.29350   90.29350    8.11830    7.29780    7.89690    7.29780    -999.25    -999.25    -999.25    -999.25  -34.07440   -5.04440    7.89690    -999.25 1622.66360
 4150.00000    -999.25   10.97680   10.97680  121.82350    -999.25    -999.25    -999.25    -999.25    -999.25    -999.25    8.20860   85.17200   85.17200    -999.25   91.18780   91.18780    8.20860    7.11290    7.81110    7.11290    -999.25    -999.25    -999.25    -999.25  -35.58250   -6.46070    7.81110    -999.25 1723.07610
 4200.00000    -999.25   10.96300   10.96300  117.16420    -999.25    -999.25    -999.25    -999.25    -999.25    -999.25    8.53510   88.11120   88.11120    -999.25  105.41090  105.41090    8.53510    8.05400    9.47740    8.05400    -999.25    -999.25    -999.25    -999.25  -33.04700   -3.83280    9.47740    -999.25  866.03460
 4250.00000    -999.25   10.81520   10.81520  136.46100    -999.25    -999.25    -999.25    -999.25    -999.25    -999.25    7.32810   87.04760   87.04760    -999.25   96.75570   96.75570    7.32810    6.67910    7.70460    6.67910    -999.25    -999.25    -999.25    -999.25  -33.63440   -4.32830    7.70460    -999.25 1348.79630
 4300.00000    -999.25    9.94140    9.94140  126.39830    -999.25    -999.25    -999.25    -999.25    -999.25    -999.25    7.91150   92.85630   92.85630    -999.25  145.27680  145.27680    7.91150    7.61490   12.52250    7.61490    -999.25    -999.25    -999.25    -999.25  -31.34540   -1.94750   12.52250    -999.25 1258.71340
 4350.00000    -999.25   10.96250   10.96250  109.47120    -999.25    -999.25    -999.25    -999.25    -999.25    -999.25    9.13490   88.20420   88.20420    -999.25  100.29980  100.29980    9.13490    8.17620   10.28300    8.17620    -999.25    -999.25    -999.25    -999.25  -32.95530   -3.46500   10.28300    -999.25 1442.52950
 4400.00000    -999.25   11.40680   11.40680  125.11890    -999.25    -999.25    -999.25    -999.25    -999.25    -999.25    7.99240   92.19810   92.19810    -999.25  108.16120  108.16120    7.99240    7.16780    8.64450    7.16780    -999.25    -999.25    -999.25    -999.25  -33.92700   -4.34480    8.64450    -999.25 1414.35320
 4450.00000    -999.25   11.73260   11.73260  153.80720    -999.25    -999.25    -999.25    -999.25    -999.25    -999.25    6.50180   88.32880   88.32880    -999.25   95.95950   95.95950    6.50180    5.95750    6.70540    5.95750    -999.25    -999.25    -999.25    -999.25  -34.82710   -5.15250    6.70540    -999.25 1512.53310
 4500.00000    -999.25   11.04980   11.04980  126.25940    -999.25    -999.25    -999.25    -999.25    -999.25    -999.25    7.92020   84.74870   84.74870    -999.25   94.18020   94.18020    7.92020    7.04830    8.18560    7.04830    -999.25    -999.25    -999.25    -999.25  -34.82810   -5.06170    8.18560    -999.25 1585.78350
 4550.00000    -999.25   10.82960   10.82960  123.98030    -999.25    -999.25    -999.25    -999.25    -999.25    -999.25    8.06580   80.21700   80.21700    -999.25   95.21030   95.21030    8.06580    6.85970    7.63010    6.85970    -999.25    -999.25    -999.25    -999.25  -33.73370   -3.87540    7.63010    -999.25 1789.96700
 4600.00000    -999.25   10.28220   10.28220  122.32400    -999.25    -999.25    -999.25    -999.25    -999.25    -999.25    8.17530   82.40800   82.40800    -999.25   87.64150   87.64150    8.17530    7.75520    8.73360    7.75520    -999.25    -999.25    -999.25    -999.25  -33.09680   -3.14610    8.73360    -999.25 1952.53500
 4650.00000    -999.25   10.02770   10.02770  122.44700    -999.25    -999.25    -999.25    -999.25    -999.25    -999.25    8.16680   84.88270   84.88270    -999.25   97.34230   97.34230    8.16680    7.67010    8.96570    7.67010    -999.25    -999.25    -999.25    -999.25  -32.12880   -2.26420    8.96570    -999.25 1999.22270
 4700.00000    -999.25   10.52330   10.52330  132.59940    -999.25    -999.25    -999.25    -999.25    -999.25    -999.25    7.54160   85.73440   85.73440    -999.25   95.45940   95.45940    7.54160    7.10820    8.23040    7.10820    -999.25    -999.25    -999.25    -999.25  -31.34030   -1.90660    8.23040    -999.25 2291.66040
 4750.00000   12.73300   10.81990   10.81990  142.79390    0.20740    0.20740    2.24300    -999.25    0.15330    0.27310    7.00310   87.27710   87.27710   99.08520   92.04690   92.04690    7.00310    6.67600    8.00320    6.67600    -999.25    0.32540    0.28150    2.24300  -32.27170   -3.26610    8.00320 1671.88850 2073.03570
 4800.00000   13.05320   11.03290   11.03290  149.65800    0.13560    0.13560    1.84770    -999.25    0.48130    0.50430    6.68190   88.53660   88.53660   95.15580   88.53570   88.53570    6.68190    6.01530    6.84990    6.01530    -999.25    0.37350    0.33020    1.84770  -30.51950   -1.94200    6.84990  634.27740 2132.26370
