~Version ---------------------------------------------------
VERS.      2.0 : CWLS log ASCII Standard -VERSION 2.0
WRAP.       NO : One line per depth step
CREA. 11/16/17 : LAS Creation Date
~Well ------------------------------------------------------
STRT.FT                            300.0 : START DEPTH
STOP.FT                          10650.0 : STOP DEPTH
STEP.FT                         50.00000 : STEP LENGTH
NULL.                            -999.25 : NULL VALUE
COMP.               IMPERIAL OIL LIMITED : COMPANY
WELL. IMPERIAL VIRGINIA HILLS 6-36-63-12 : WELL
FLD .                                 WC : FIELD
LOC .                                    : LOCATION
CTRY.                             CANADA : COUNTRY
SRVC.                       Schlumberger : SERVICE COMPANY
DATE.                        16-Jul-1956 : LOGDATE
PROV.                            Alberta : PROVINCE
UWI .                   100063606312W500 : UNIQUE WELL ID
SLAT.WGS84                  54.492313385 : SURFACE LATITUDE
SLON.WGS84               -115.6804122925 : SURFACE LONGITUDE
~Curve Information -----------------------------------------
DEPT  .FT         : Depth Curve
CALMED.IN         : CALIPER FROM MICRO LOG
CALWS .IN         : CALIPER [CALMED]
CONDWS.MMHO       : CONDUCTIVITY [1000/DRESWS]
DRESWS.OHMM       : DEEP RESISTIVITY [LNED]
GRNED .UgRa-Eq/T  : GAMMA RAY FROM GRN LOG
GRWS  .GAPI       : GAMMA RAY [GRNED*16.5]
LNED  .OHMM       : LONG NORMAL 64" FROM RESISTIVITY LOG
LT18ED.OHMM       : LATERAL 18" FROM RESISTIVITY LOG
MLLED .OHMM       : MICROLATEROLOG RESISTIVITY FROM MICRO LOG
NEUTED.SCPS       : NEUTRON FROM GRN LOG
NEUTWS.SCPS       : NEUTRON [NEUTED]
SNED  .OHMM       : 16 INCH SHORT NORMAL RESISTIVITY FROM RESISTIVITY LOG
SPRED .MV         : SPONTANEOUS POTENTIAL FROM RESISTIVITY LOG
SPWS  .MV         : SPONTANEOUS POTENTIAL [BASELINE 0 MV, SPRED]
SRESWS.OHMM       : SHALLOW RESISTIVITY [SNED]
~Params ----------------------------------------------------
LMF .                     KB : LOG MEASURED FROM
DMF .                     KB : DRILLING MEASURED FROM
EKB .FT                 3708 : KELLY BUSHING
DATE.               07/16/56 : RUN DATE
RUN .                      1 : RUN NUMBER
DD  .FT                10710 : DEPTH DRILLER
DL  .FT                10689 : DEPTH LOGGER
BLI .FT                10688 : BOTTOM LOG INTERVAL
TLI .FT                  714 : TOP LOG INTERVAL
CBD .FT                  713 : CASING BOTTOM DRILLER
CBL .FT                  714 : CASING BOTTOM LOGGER
BS  .IN                    9 : BIT SIZE
BSD .FT                10710 : BIT SIZE AT DEPTH
DFT .                    GEL : DRILLING FLUID TYPE
DFD .                     10 : DRILLING FLUID DENSITY
DFV .                    140 : DRILLING FLUID VISCOSITY
DFPH.                      9 : DRILLING FLUID PH
DFL .                      9 : DRILLING FLUID LOSS
RMS .OHMM                2.2 : RESISTIVITY MUD SAMPLE
MST .DEGF                 72 : MUD SAMPLE TEMPERATURE
RMB .OHMM                0.8 : RESISTIVITY MUD AT BHT
TCS .HRS                   4 : TIME CIRCULATED STOPPED
LUN .                   1890 : LOGGING UNIT NUMBER
LUL .                    SKW : LOGGING UNIT LOCATION
ENGI.                CHARLES : RECORDING ENGINEER
WITN.                PURCELL : WITNESSED BY
CLNT.                A2DTECH : CLIENT CODE
ORIG.            2" 5" PRINT : ORIGIN OF DATA
UWI .       100063606312W500 : UNIQUE WELL ID
DICO. A2D Technologies, Inc. : DIGITIZING COMPANY
~Other -----------------------------------------------------
~ASCII -----------------------------------------------------
# ...
 9500.00000    9.35450    9.35450   52.43890   19.06980    6.68940  110.37510   19.06980   26.46170   51.58360  308.50120  308.50120   20.09540  -68.90140  -26.39680   20.09540
 9550.00000    9.37410    9.37410   58.39270   17.12550    9.35240  154.31460   17.12550    9.28010   16.61100  277.26020  277.26020   15.83550  -56.25270  -14.41270   15.83550
 9600.00000    8.56770    8.56770   25.76400   38.81390    4.03570   66.58910   38.81390   14.66400   11.60210  320.18040  320.18040   36.82940 -152.51160 -111.34060   36.82940
 9650.00000    9.71930    9.71930   13.62120   73.54760    2.32070   38.29160   73.54760   16.35090   84.00550  429.41980  429.41980   55.29410  -98.70860  -58.20230   55.29410
 9700.00000    9.70550    9.70550   16.94050   59.03010    2.53690   41.85890   59.03010   21.21050   76.91990  470.14010  470.14010   47.96620 -120.19610  -80.35880   47.96620
 9750.00000    9.53020    9.53020   28.49910   35.08880   10.32100  170.29650   35.08880   49.60660   48.17770  320.75890  320.75890   29.67320  -83.00760  -43.83490   29.67320
 9800.00000    9.31850    9.31850   17.80710   56.15750    7.65050  126.23330   56.15750   30.76940  108.23560  368.37120  368.37120   43.84660  -76.51610  -38.00800   43.84660
 9850.00000    9.44790    9.44790   47.88520   20.88330   10.89720  179.80380   20.88330   29.25180   71.22720  300.96960  300.96960   23.48400  -67.58660  -29.74750   23.48400
 9900.00000    8.27390    8.27390   94.63090   10.56870    9.63860  159.03690   10.56870    3.28800    3.59850  309.85270  309.85270   19.25540 -195.06770 -157.89330   19.25540
 9950.00000    8.36690    8.36690   74.76130   13.37590    8.72820  144.01530   13.37590    3.16930   14.45070  311.43620  311.43620   21.96000 -197.60570 -161.10030   21.96000
 10000.00000    8.40210    8.40210   10.35200   96.59960    2.32000   38.28000   96.59960   20.35280   26.06300  342.55930  342.55930   72.61080 -164.47220 -128.63140   72.61080
 10050.00000    9.91420    9.91420   77.20710   12.95230   10.97700  181.12050   12.95230   12.87170   17.85410  253.10100  253.10100   14.10070  -58.62870  -23.45260   14.10070
 10100.00000   11.72270   11.72270   78.09210   12.80540    7.27630  120.05900   12.80540    6.64910    2.31580  245.23530  245.23530   11.99440  -48.39440  -13.88730   11.99440
 10150.00000   13.26800   13.26800   72.96090   13.70650    7.39470  122.01260   13.70650   11.82690    1.87010  233.60510  233.60510   11.14370  -53.08460  -19.24210   11.14370
 10200.00000   13.32780   13.32780   69.65780   14.35590    8.20120  135.31980   14.35590    8.82780    3.06170  216.12750  216.12750   10.59500  -54.64160  -21.46810   10.59500
 10250.00000   13.07160   13.07160   43.08490   23.21000    9.88940  163.17510   23.21000   12.07510    1.82140  290.89440  290.89440   21.69780  -44.53020  -12.02140   21.69780
 10300.00000    9.56710    9.56710   34.98370   28.58550   10.95470  180.75260   28.58550   25.27020   50.22780  331.85590  331.85590   25.33820  -40.45160   -8.60740   25.33820
 10350.00000    9.62620    9.62620   89.31520   11.19630   10.54900  174.05850   11.19630    6.84710   17.82890  318.22100  318.22100   13.99200  -71.22240  -40.04720   13.99200
 10400.00000    9.55920    9.55920   50.87980   19.66890    3.36810   55.57370   19.66890    7.06260   95.77690  381.21500  381.21500   23.14520 -108.92670  -78.41610   23.14520
 10450.00000   10.89240   10.89240   45.62560   21.91750   11.01900  181.81350   21.91750   11.91070    4.63310  260.28520  260.28520   19.61970  -40.12990  -10.28840   19.61970
 10500.00000   10.37060   10.37060   42.21480   23.68840   10.29520  169.87080   23.68840   21.54380   12.19290  282.75400  282.75400   24.37470  -35.86450   -6.25470   24.37470
 10550.00000    9.56520    9.56520   59.45310   16.82380   12.28340  202.67610   16.82380   10.84580   17.49550  290.04010  290.04010   15.43350  -64.19240  -34.58260   15.43350
 10600.00000    9.25760    9.25760  188.04420    5.31790    5.75380   94.93770    5.31790   13.60830    9.72620  329.86230  329.86230    9.89600 -105.67440  -76.06460    9.89600
 10650.00000    8.02850    8.02850  964.36680    1.03700    8.78480  144.94920    1.03700    2.55430    2.48650  327.03710  327.03710    2.56680 -172.22810 -142.61830    2.56680
