~Version ---------------------------------------------------
VERS.      2.0 : CWLS log ASCII Standard -VERSION 2.0
WRAP.       NO : One line per depth step
CREA. 10/01/14 : LAS Creation Date
~Well ------------------------------------------------------
STRT.FT                                  935.9 : START DEPTH
STOP.FT                                 9375.9 : STOP DEPTH
STEP.FT                                0.50000 : STEP LENGTH
NULL.                                  -999.25 : NULL VALUE
COMP. THE BRITISH AMERICAN OIL COMPANY LIMITED : COMPANY
WELL.        B.A. EAST GOOSE RIVER 10-22-66-15 : WELL
FLD .                                          : FIELD
LOC .                                          : LOCATION
CTRY.                                   CANADA : COUNTRY
SRVC.                   Schlumberger of Canada : SERVICE COMPANY
DATE.                              16-Mar-1960 : LOGDATE
PROV.                                  Alberta : PROVINCE
UWI .                         100102206615W500 : UNIQUE WELL ID
SLAT.WGS84                            54.72873 : SURFACE LATITUDE
SLON.WGS84                           -116.1771 : SURFACE LONGITUDE
~Curve Information -----------------------------------------
DEPT.FT      : DEPTH FEET
CILD.MMHO    : CONDUCTIVITY FROM RESISTIVITY LOG
DT  .US/F    : DELTA-T FROM SONIC LOG
GRS .MG/TON  : GAMMA RAY FROM SONIC LOG
ILD .OHMM    : DEEP INDUCTION FROM RESISTIVITY LOG
MCAL.IN      : MLT CALIPER FROM MICRO LOG
SN  .OHMM    : SHORT NORMAL FROM RESISTIVITY LOG
SPR .MV      : SPONTANEOUS POTENTIAL FROM RESISTIVITY LOG
~Params ----------------------------------------------------
LMF .                     KB : LOG MEASURED FROM
DMF .                     KB : DRILLING MEASURED FROM
EKB .FT                 3222 : KELLY BUSHING
EGL .FT                 3205 : GROUND LEVEL
DATE.               03/16/60 : RUN DATE
RUN .                      2 : RUN NUMBER
DD  .FT                 9370 : DEPTH DRILLER
DL  .FT                 9378 : DEPTH LOGGER
BLI .FT                 9373 : BOTTOM LOG INTERVAL
TLI .FT                 5000 : TOP LOG INTERVAL
CBD .FT                  975 : CASING BOTTOM DRILLER
BS  .IN                    9 : BIT SIZE
BSD .FT                 9370 : BIT SIZE AT DEPTH
DFT .                    GEL : DRILLING FLUID TYPE
DFD .                     10 : DRILLING FLUID DENSITY
DFV .                    120 : DRILLING FLUID VISCOSITY
DFPH.                     10 : DRILLING FLUID PH
DFL .                    6.2 : DRILLING FLUID LOSS
RMS .OHMM                2.8 : RESISTIVITY MUD SAMPLE
MST .DEGF                 59 : MUD SAMPLE TEMPERATURE
RMF .OHMM               1.41 : RESISTIVITY MUD FILTRATE SAMPLE
MFST.DEGF                 68 : MUD FILTRATE SAMPLE TEMPERATURE
RMC .OHMM               2.56 : RESISTIVITY MUD CAKE
MCST.DEGF                 67 : MUD CAKE SAMPLE TEMPERATURE
RMB .OHMM               0.94 : RESISTIVITY MUD AT BHT
TCS .HRS                 4.5 : TIME CIRCULATED STOPPED
LUN .                  1573C : LOGGING UNIT NUMBER
LUL .                     WC : LOGGING UNIT LOCATION
ENGI.              HAUSEGGER : RECORDING ENGINEER
WITN.                   COTE : WITNESSED BY
CLNT.                A2DTECH : CLIENT CODE
ORIG.            2" 5" PRINT : ORIGIN OF DATA
UWI .       100102206615W500 : UNIQUE WELL ID
DICO. A2D Technologies, Inc. : DIGITIZING COMPANY
~Other -----------------------------------------------------
~ASCII -----------------------------------------------------
# ...
 7100.90000    6.85500   52.12610    0.82610  499.19660   10.24810  128.04610 -153.28130
 7101.40000    6.91230   52.15490    0.87280  498.94360   10.22610  126.95790 -152.56530
 7101.90000    7.27410   52.34870    0.92120  498.69050   10.09490  125.30400 -151.84940
 7102.40000    7.40990   52.51460    0.97910  498.55060    9.95130  122.85570 -151.13340
 7102.90000    7.72270   52.74380    1.01000  494.29170    9.91710  120.57220 -150.41750
 7103.40000    8.06880   52.89880    0.97350  451.56970    9.97400  118.35880 -150.10520
 7103.90000    8.35120   53.06090    0.94420  388.85590    9.99840  116.77260 -149.85420
 7104.40000    8.62360   53.15510    0.93830  357.49910    9.99070  116.18060 -149.60540
 7104.90000    8.91310   53.26110    0.90620  292.62300    9.94140  115.85730 -149.09680
 7105.40000    9.05820   53.23760    0.88190  286.40050    9.92060  115.69080 -148.90440
 7105.90000    8.89540   53.10770    0.80900  291.64360    9.85830  116.52770 -148.32730
 7106.40000    8.79940   53.00590    0.78470  305.77730    9.84580  117.05590 -148.13490
 7106.90000    8.20120   52.66690    0.74770  379.49230    9.80640  118.41840 -147.55770
 7107.40000    8.31570   52.59470    0.77040  420.41940    9.80550  118.83710 -147.36530
 7107.90000    8.01400   52.42680    0.86860  500.23540    9.82890  120.06390 -146.84240
 7108.40000    7.81660   52.37590    0.91910  500.38270    9.81220  120.37640 -146.84080
 7108.90000    7.61740   52.23630    0.98840  500.73980    9.78100  120.46240 -146.83580
 7109.40000    7.62880   52.22760    0.94970  500.74720    9.79710  120.25110 -146.83400
 7109.90000    7.65180   52.31840    0.79390  500.76920    9.84890  119.58860 -147.22030
 7110.40000    7.78190   52.40210    0.75070  485.83420    9.85830  119.24080 -147.52480
 7110.90000    8.49920   52.59060    0.76800  429.37850    9.79670  119.20000 -147.95540
 7111.40000    8.57730   52.65770    0.85790  411.94860    9.75160  119.64790 -148.21590
 7111.90000    8.35380   52.65090    0.94360  443.55120    9.87290  120.30020 -148.47360
 7112.40000    7.88700   52.59980    0.98680  500.41480    9.89590  121.08180 -148.73130
 7112.90000    7.88110   52.48950    0.96650  501.28600    9.82130  121.46000 -148.98890
 7113.40000    7.44770   52.35030    0.92840  501.14700    9.75250  121.06760 -148.95390
 7113.90000    7.40940   52.30600    0.88590  501.00810    9.85830  120.25430 -148.73770
 7114.40000    7.50640   52.31490    0.83930  500.86930    9.82710  118.64450 -148.62370
 7114.90000    8.07690   52.34580    0.81940  500.79980    9.79520  117.38170 -148.49490
 7115.40000    8.34440   52.48340    0.82820  500.59150    9.74110  113.08080 -148.15490
 7115.90000    9.10480   52.59340    0.84760  451.26960    9.75740  111.54760 -148.04930
 7116.40000    9.62710   53.05630    0.86740  297.40130    9.81210  106.30360 -147.73240
 7116.90000   10.15230   53.22560    0.84500  263.51390    9.82200  105.05000 -147.62670
 7117.40000   11.96290   53.61860    0.77740  187.06440    9.83660  101.75170 -147.30990
 7117.90000   12.57340   53.62720    0.74300  177.72180    9.83910  101.04560 -147.20430
 7118.40000   13.39360   53.65280    0.75120  148.83170    9.83800   99.27220 -146.82380
 7118.90000   13.40020   53.66140    0.74280  146.81120    9.82780   99.23160 -146.67000
 7119.40000   13.25030   53.66750    0.74490  150.01210    9.87420   99.09410 -145.92710
 7119.90000   12.99960   53.61200    0.79510  156.57200    9.89080   99.33580 -145.71160
 7120.40000   12.10210   53.49370    0.92470  175.26460    9.89880  100.55210 -145.08940
 7120.90000   11.72530   53.49420    0.93690  187.38330    9.88980  101.35500 -144.88130
 7121.40000   10.63260   53.44700    0.90970  226.58520    9.86280  104.13030 -144.13660
 7121.90000   10.04030   53.29670    0.82700  258.22210    9.85240  106.83600 -143.82020
 7122.40000    9.19480   53.01940    0.75270  300.22160    9.85390  109.70230 -143.32380
 7122.90000    8.70480   52.86480    0.70120  376.22560    9.84680  111.98590 -142.66340
 7123.40000    8.21930   52.71230    0.75560  499.82400    9.83200  114.35170 -142.59880
 7123.90000    7.93100   52.54060    0.86150  500.06960    9.82320  116.00660 -142.41980
 7124.40000    7.84220   52.41980    0.99840  500.31510    9.81360  117.17660 -142.58330
 7124.90000    7.28940   52.42280    1.00240  500.32410    9.84880  117.15200 -142.66660
 7125.40000    7.79160   52.43300    0.95940  500.25910    9.84990  116.78740 -142.86990
 7125.90000   16.17390   52.49370    0.87810  500.06400    9.87410  115.79540 -143.21770
 7126.40000    7.69920   52.52880    0.91720  499.99900    9.87960  114.70290 -143.37410
 7126.90000    8.02410   52.70450    0.96040  499.80390    9.85120  111.63140 -143.95620
 7127.40000    8.10540   52.80300    0.93450  483.71330    9.90150  110.65990 -144.14140
 7127.90000    8.45560   53.02940    0.88520  406.73910    9.95260  107.84720 -144.69160
 7128.40000    8.56360   53.13270    0.88450  376.72670    9.89840  107.38020 -144.83510
 7128.90000    8.96560   53.26990    0.87630  288.33140   10.00870  105.53300 -145.33990
 7129.40000    9.35500   53.24440    0.84200  263.79440    9.92230  104.80370 -145.23620
 7129.90000   10.68090   53.30550    0.72610  202.34270    9.87480  103.27790 -145.00270
 7130.40000   11.10490   53.38670    0.72010  190.78330    9.90960  103.08580 -144.95670
 7130.90000   12.67890   53.72100    0.76800  156.62810   10.00730  102.34920 -144.70740
 7131.40000   13.17730   53.78960    0.78730  149.61490   10.02580  102.02450 -144.61490
 7131.90000   14.35880   54.05290    0.75980  130.63610    9.99640  101.05050 -144.18520
 7132.40000   15.05360   54.19090    0.69560  121.45260    9.94310  100.40110 -143.86260
 7132.90000   15.76900   54.14460    0.68960  112.26900    9.89220  101.47430 -143.27990
 7133.40000   16.04160   54.09230    0.68630  109.70000    9.82770  103.30940 -143.03420
 7133.90000   16.06890   54.04700    0.68680  112.97620    9.85710  105.14440 -142.59700
 7134.40000   16.06270   53.99510    0.69440  121.17270    9.91700  107.74110 -142.01890
 7134.90000   14.93500   53.89980    0.68880  129.36920    9.95420  111.03120 -141.54510
 7135.40000   13.95100   53.77870    0.65100  141.25320    9.93080  114.32130 -140.93210
 7135.90000   12.95160   53.72120    0.65910  152.17640    9.87610  116.01720 -140.55920
 7136.40000   11.09420   53.32430    0.70000  200.18320    9.89460  122.79850 -139.52310
 7136.90000    9.55240   53.11940    0.71240  234.02480    9.85510  125.17450 -139.11830
 7137.40000    8.85820   52.69350    0.73060  353.23990    9.84700  132.30250 -138.11630
 7137.90000    8.66440   52.66380    0.71850  426.84760    9.80810  134.67850 -137.89600
 7138.40000    8.10470   52.57790    0.67920  500.68640    9.78700  141.80640 -137.01270
 7138.90000    7.97520   52.62290    0.66570  500.80190    9.91120  144.18240 -136.97370
 7139.40000    7.81860   52.66120    0.66430    -999.25   10.22160  150.84080 -136.69080
 7139.90000    7.80490   52.48190    0.70830    -999.25   10.21930  152.56640 -136.45070
 7140.40000    7.76390   52.39890    0.84510    -999.25   10.17040  156.24990 -136.03960
 7140.90000    7.75020   52.49020    0.89460    -999.25   10.11560  156.93370 -135.93210
 7141.40000    7.70920   52.54270    1.01100    -999.25   10.02700  158.69740 -135.73990
 7141.90000    7.69560   52.44010    1.01200    -999.25   10.06340  159.00530 -135.63040
 7142.40000    7.65440   52.25060    1.02810    -999.25   10.15400  159.49250 -135.29880
 7142.90000    7.62710   52.54400    1.01310    -999.25   10.09620  159.60450 -134.88750
 7143.40000    7.59980   52.50920    0.90710    -999.25   10.00700  158.75950 -134.53290
 7143.90000    7.57240   52.46200    0.76560    -999.25    9.98590  157.83560 -134.04240
 7144.40000    7.54510   52.36160    0.74110    -999.25   10.09250  156.97070 -133.51770
 7144.90000    7.51780   52.30890    0.79570    -999.25    9.97350  155.71220 -133.01260
 7145.40000    7.49030   52.54230    0.85500    -999.25    9.84190  154.55140 -132.60540
