~Version ---------------------------------------------------
VERS. 2.0 : CWLS log ASCII Standard -VERSION 2.0
WRAP.  NO : ONE LINE PER DEPTH STEP
~Well ------------------------------------------------------
STRT.F                              1150.0 : START DEPTH
STOP.F                             10850.0 : STOP DEPTH
STEP.F                            50.00000 : STEP LENGTH
NULL.                              -999.25 : NULL VALUE
COMP.             CANADIAN KEWANEE LIMITED : COMPANY
WELL. KEWANEE ET AL SAKWATAMAU 10-15-63-15 : WELL
FLD .                                   WC : FIELD
LOC .                                      : LOCATION
CTRY.                               CANADA : COUNTRY
SRVC.                         Schlumberger : SERVICE COMPANY
DATE.                          21-Mar-1965 : LOGDATE
PROV.                              Alberta : PROVINCE
UWI .                     100101506315W500 : UNIQUE WELL ID
SLAT.WGS84                        54.45235 : SURFACE LATITUDE
SLON.WGS84                        -116.177 : SURFACE LONGITUDE
~Curve Information -----------------------------------------
DEPT  .F                 : 
GRS   .GAPI 60 310 01 00 : GAMMA RAY FROM SONIC LOG
DT    .US/F 60 500 33 00 : DELTA-T (INTERVAL TRANSIT TIME)
CALS  .IN   60 280 50 00 : CALIPER FROM SONIC LOG
CILD  .MMHO 05 110 46 00 : INDUCTION DEEP CONDUCTIVITY
ILD   .OHMM 05 120 46 00 : INDUCTION DEEP RESISTIVITY
SN    .OHMM 05 040 16 00 : SHORT NORMAL RESISTIVITY
SPR   .MV   05 010 01 00 : SPONTANEOUS POTENTIAL FROM RESISTIVITY LOG
SPR_1 .MV   05 010 01 00 : SPONTANEOUS POTENTIAL FROM RESISTIVITY
CILD_1.MMHO 05 110 46 00 : INDUCTION DEEP CONDUCTIVITY
ILD_1 .OHMM 05 120 46 00 : INDUCTION DEEP RESISTIVITY
SN_1  .OHMM 05 040 16 00 : SHORT NORMAL
~Params ----------------------------------------------------
PD  .                    SCF : PERMANENT DATUM
EPD .FT                 3104 : ELEVATION PERMANENT DATUM
LMF .                    SCF : LOG MEASURED FROM
EKB .FT               3117.1 : KELLY BUSHING
EGL .FT                 3103 : GROUND LEVEL
DATE.               03/12/65 : RUN DATE
RUN .                      1 : RUN NUMBER
DD  .FT                10858 : DEPTH DRILLER
DL  .FT                10864 : DEPTH LOGGER
BLI .FT                10863 : BOTTOM LOG INTERVAL
TLI .FT                 9600 : TOP LOG INTERVAL
BS  .IN                 8.75 : BIT SIZE
BSD .FT                10858 : BIT SIZE AT DEPTH
DFT .                    GEL : DRILLING FLUID TYPE
DFD .                    9.8 : DRILLING FLUID DENSITY
DFV .                     73 : DRILLING FLUID VISCOSITY
DFPH.                     10 : DRILLING FLUID PH
DFL .                    7.8 : DRILLING FLUID LOSS
RMS .OHMM               2.32 : RESISTIVITY MUD SAMPLE
MST .DEGF                 52 : MUD SAMPLE TEMPERATURE
RMF .OHMM               1.72 : RESISTIVITY MUD FILTRATE SAMPLE
MFST.DEGF                 52 : MUD FILTRATE SAMPLE TEMPERATURE
RMC .OHMM                2.1 : RESISTIVITY MUD CAKE
MCST.DEGF                 52 : MUD CAKE SAMPLE TEMPERATURE
RMB .OHMM               0.56 : RESISTIVITY MUD AT BHT
TCS .HRS                   2 : TIME CIRCULATED STOPPED
LUN .                   3534 : LOGGING UNIT NUMBER
LUL .                    WCT : LOGGING UNIT LOCATION
ENGI.                  HAYES : RECORDING ENGINEER
WITN.                 FISHER : WITNESSED BY
CLNT.                A2DTECH : CLIENT CODE
ORIG.               5" PRINT : ORIGIN OF DATA
UWI .       100101506315W500 : UNIQUE WELL ID
DICO. A2D Technologies, Inc. : DIGITIZING COMPANY
~Other -----------------------------------------------------
~ASCII -----------------------------------------------------
# ...
 7250.00000    1.26110   50.65320    9.69290   24.60180   51.30250   66.51590 -149.91550    -999.25    -999.25    -999.25    -999.25
 7300.00000    1.80020   56.25010    8.07910   92.01270   11.85260   68.34700 -179.36930    -999.25    -999.25    -999.25    -999.25
 7350.00000    4.91340   49.72170    9.85100   32.08990   37.08620   82.99180 -157.05160    -999.25    -999.25    -999.25    -999.25
 7400.00000    5.84050   53.60620    9.70480   26.47770   43.29310   80.06180 -157.46670    -999.25    -999.25    -999.25    -999.25
 7450.00000    4.88030   49.50650    9.93090   24.67120   49.22470   79.16050 -131.16070    -999.25    -999.25    -999.25    -999.25
 7500.00000    3.19850   51.59000    9.95280   30.68660   39.22300   80.68170 -122.55010    -999.25    -999.25    -999.25    -999.25
 7550.00000    6.23230   51.24330    9.84550   37.78540   31.02970   64.00460 -135.86940    -999.25    -999.25    -999.25    -999.25
 7600.00000    4.60800   50.95700    9.87900   26.68310   44.71630   79.98260 -135.12100    -999.25    -999.25    -999.25    -999.25
 7650.00000    5.13580   52.61790    8.67360   63.60520   17.36980   94.23470 -190.53110    -999.25    -999.25    -999.25    -999.25
 7700.00000    5.25280   48.43090    9.95200   23.04710   55.00310   79.79950 -109.09770    -999.25    -999.25    -999.25    -999.25
 7750.00000   33.98550   56.84900   10.12000  257.10610    4.76360    8.00490  -66.78230    -999.25    -999.25    -999.25    -999.25
 7800.00000   15.75320   51.03300    9.54510   20.46970   60.49090   89.85950 -114.77760    -999.25    -999.25    -999.25    -999.25
 7850.00000   11.94250   51.22700    9.58060   47.73140   23.67270   31.52620  -89.61490    -999.25    -999.25    -999.25    -999.25
 7900.00000   14.52120   53.14020    9.46990   45.52110   24.61800   32.72840  -83.29040    -999.25    -999.25    -999.25    -999.25
 7950.00000   20.28990   52.44780   10.07580   24.29960   55.44990   52.02250  -31.81390    -999.25    -999.25    -999.25    -999.25
 8000.00000   22.41000   56.58580   10.43980   30.93310   37.17190   41.37300  -26.69470    -999.25    -999.25    -999.25    -999.25
 8050.00000   35.63450   54.87860    9.90820   32.90160   35.47030   39.54880  -38.61710    -999.25    -999.25    -999.25    -999.25
 8100.00000   34.66670   55.62890    9.53060   33.93260   34.16430   41.75130  -32.55010    -999.25    -999.25    -999.25    -999.25
 8150.00000   27.59430   55.26300    9.93700   33.62220   36.11420   40.75140  -27.03240    -999.25    -999.25    -999.25    -999.25
 8200.00000   26.35590   56.85190   10.38440   46.68550   24.87170   29.24870  -21.44450    -999.25    -999.25    -999.25    -999.25
 8250.00000   23.72230   57.02880   10.67780   51.46050   21.87840   28.17140  -19.89600    -999.25    -999.25    -999.25    -999.25
 8300.00000   33.69290   62.38360   11.03950   97.50380   11.08140   16.56930  -16.15440    -999.25    -999.25    -999.25    -999.25
 8350.00000   27.96760   61.03620   10.57340   82.07870   13.13070   18.09040   -9.66920    -999.25    -999.25    -999.25    -999.25
 8400.00000   62.58790   75.94270   12.00120  152.47350    7.22500    9.62840  -15.79330    -999.25    -999.25    -999.25    -999.25
 8450.00000   41.54330   61.07560   11.00810  119.24730    9.03600   12.63550  -12.91560    -999.25    -999.25    -999.25    -999.25
 8500.00000   49.59020   75.52800   11.39020   95.85690   11.07940   14.58070  -17.37910    -999.25    -999.25    -999.25    -999.25
 8550.00000   44.91690   75.35590   12.49560  191.90890    6.08580    8.39270  -16.68240    -999.25    -999.25    -999.25    -999.25
 8600.00000   43.50940   88.94880   13.99950  216.68810    5.31960    7.08110  -20.13950    -999.25    -999.25    -999.25    -999.25
 8650.00000   50.02970   66.18000   10.34160  108.26910    9.97330   15.13220  -14.95830    -999.25    -999.25    -999.25    -999.25
 8700.00000   51.64190   70.39780   12.08800  171.32790    6.52130    8.83600  -20.81480    -999.25    -999.25    -999.25    -999.25
 8750.00000   51.23010   70.56210   10.65960  134.02660    8.16950   11.80840  -13.86760    -999.25    -999.25    -999.25    -999.25
 8800.00000   63.95010   71.64850   12.27590  183.09750    6.14730    8.93780  -20.25440    -999.25    -999.25    -999.25    -999.25
 8850.00000   51.82250   79.95820   13.27270  186.13580    6.13520    8.54650  -27.30330    -999.25    -999.25    -999.25    -999.25
 8900.00000   63.27850   66.95830   13.34060  149.93910    7.26660   10.39730  -20.74750    -999.25    -999.25    -999.25    -999.25
 8950.00000   61.49290   78.92610   13.92270  181.75720    6.20990    9.36280  -18.14730    -999.25    -999.25    -999.25    -999.25
 9000.00000   54.25480   69.93500   11.77270  190.08970    6.02990    9.60850  -20.05530    -999.25    -999.25    -999.25    -999.25
 9050.00000   57.49920   65.58260    9.45830   12.85610  101.08100   97.36180  -15.45810    -999.25    -999.25    -999.25    -999.25
 9100.00000  110.75640   67.87930    9.13510    8.99540  157.86160  137.47510  -20.50610    -999.25    -999.25    -999.25    -999.25
 9150.00000   36.08580   58.09780   10.19040   36.89260   30.47780   38.91470  -19.26590    -999.25    -999.25    -999.25    -999.25
 9200.00000   61.33060   81.32180   13.94420  110.61380    9.74760   17.87330  -20.82050    -999.25    -999.25    -999.25    -999.25
 9250.00000   26.91970   54.60670   10.26910   37.66970   30.11580   49.75320  -17.67900    -999.25    -999.25    -999.25    -999.25
 9300.00000   20.07190   54.02250   10.82830   73.19290   14.71640   22.13480  -11.65050    -999.25    -999.25    -999.25    -999.25
 9350.00000   13.22940   53.80700   10.17020   19.96010   64.20760   77.61070  -11.13350    -999.25    -999.25    -999.25    -999.25
 9400.00000   10.38180   50.13250    9.47670    8.27560  167.74460  123.07850  -24.17410    -999.25    -999.25    -999.25    -999.25
 9450.00000    8.54930   49.75140    9.29530    9.73220  158.80640  227.67490  -62.74080    -999.25    -999.25    -999.25    -999.25
 9500.00000    1.21560   50.08890    9.80030   19.94570   61.89270   78.31470  -86.30890    -999.25    -999.25    -999.25    -999.25
 9550.00000    6.38640   51.55430    9.83870    8.17940  205.15480  202.25630  -91.27320    -999.25    -999.25    -999.25    -999.25
 9600.00000    4.91870   49.32900    9.77750    8.16270  185.13420  133.53510  -86.24850 -109.81040    6.63630    -999.25  201.07040
 9650.00000  116.72590   57.10750    9.11010   46.68190   24.19120   60.32550   -8.43240  -31.82660   30.34960   39.88580  102.35340
 9700.00000   79.49250   56.31650    9.27230   45.18860   24.02890   43.51620  -25.50480  -25.98450   35.52340   33.16630   43.65650
 9750.00000  115.28970   62.28870    9.55320    -999.25    -999.25    -999.25    -999.25  -38.86490   47.07090   23.59450   29.24510
 9800.00000   88.81060   58.84680    9.34000    -999.25    -999.25    -999.25    -999.25  -31.09640   66.51900   15.44210   21.51800
 9850.00000   45.38630   59.39730   11.06870    -999.25    -999.25    -999.25    -999.25  -35.16250   68.92630   15.37690   14.39550
 9900.00000   52.07590   51.63310    9.63060    -999.25    -999.25    -999.25    -999.25 -117.72640  134.21470    7.37320   29.87070
 9950.00000   90.45900   56.19330    8.94240    -999.25    -999.25    -999.25    -999.25  -98.73570   98.95560   10.65780   30.54980
 10000.00000  114.99340   60.23840    8.49170    -999.25    -999.25    -999.25    -999.25  -98.46410   95.53510   10.49190   28.67420
 10050.00000  110.77570   63.31370    7.85270    -999.25    -999.25    -999.25    -999.25 -174.55410  899.81450    1.75280   20.57290
 10100.00000    8.91650   48.38580    8.44170    -999.25    -999.25    -999.25    -999.25 -180.25450  156.40890    6.26640   41.54580
 10150.00000   97.05040   57.54800    9.15740    -999.25    -999.25    -999.25    -999.25  -52.08580   48.01200   22.12710   30.33160
 10200.00000  120.35750   67.47400   14.00890    -999.25    -999.25    -999.25    -999.25  -26.68850   88.93060   11.66650   15.00970
 10250.00000   66.33070   72.72910   13.83590    -999.25    -999.25    -999.25    -999.25  -25.33720   65.08000   15.96100   16.55290
