~Version ---------------------------------------------------
VERS.      2.0 : CWLS log ASCII Standard -VERSION 2.0
WRAP.       NO : One line per depth step
CREA. 08/29/14 : LAS Creation Date
~Well ------------------------------------------------------
STRT.FT                          950.0 : START DEPTH
STOP.FT                         9950.0 : STOP DEPTH
STEP.FT                       50.00000 : STEP LENGTH
NULL.                          -999.25 : NULL VALUE
COMP. AMOCO CANADA PETROLEUM CO., LTD. : COMPANY
WELL.  AMOCO HBOG WINDFALL 16-29-61-16 : WELL
FLD .                                  : FIELD
LOC .                                  : LOCATION
CTRY.                           CANADA : COUNTRY
SRVC.                     Schlumberger : SERVICE COMPANY
DATE.                      22-Dec-1976 : LOGDATE
PROV.                          Alberta : PROVINCE
UWI .                 100162906116W500 : UNIQUE WELL ID
SLAT.WGS84                    54.30881 : SURFACE LATITUDE
SLON.WGS84                   -116.3532 : SURFACE LONGITUDE
~Curve Information -----------------------------------------
DEPT   .FT :   DEPTH FEET : DepthCurve
CALD   .IN                : CALIPER FROM DENSITY LOG
CALS   .IN                : CALIPER FROM SONIC LOG
DPHI_LS.V/V               : DENSITY POROSITY [M=2.71 F=1.0] FROM DENSITY LOG
DPHI_SS.V/V               : DENSITY POROSITY [M=2.65 F=1.0] FROM DENSITY LOG
DRHO   .G/C3              : DENSITY CORRECTION FROM DENSITY LOG
DT     .US/F              : DELTA TIME FROM SONIC LOG [TAKEN FROM CANA. SUBSC. LAS FILE, BELOW 6300F]
GRD    .GAPI              : GAMMA RAY FROM DENSITY LOG
GRS    .GAPI              : GAMMA RAY FROM SONIC LOG
ILD    .OHMM              : INDUCTION LOG DEEP RESISTIVITY
ILM    .OHMM              : INDUCTION LOG MEDIUM RESISTIVITY
LL8    .OHMM              : 8 INCH LATEROLOG RESISTIVITY
NPHI_LS.V/V               : NEUTRON POROSITY LIMESTONE FROM DENSITY LOG
NPHI_SS.V/V               : NEUTRON POROSITY SANDSTONE FROM DENSITY LOG
RHOB   .G/C3              : BULK DENSITY FROM DENSITY LOG
SPR    .MV                : SPONTANEOUS POTENTIAL FROM RESISTIVITY LOG
~Params ----------------------------------------------------
PD  .                     GL : PERMANENT DATUM
EPD .FT                 2851 : ELEVATION PERMANENT DATUM
LMF .                     KB : LOG MEASURED FROM
DAPD.FT                   14 : FEET ABOVE PERMANENT DATUM
DMF .                     KB : DRILLING MEASURED FROM
EKB .FT                 2875 : KELLY BUSHING
EGL .FT                 2861 : GROUND LEVEL
DATE.               12/22/76 : RUN DATE
RUN .                      1 : RUN NUMBER
DD  .FT                 9966 : DEPTH DRILLER
DL  .FT                 9964 : DEPTH LOGGER
BLI .FT                 9958 : BOTTOM LOG INTERVAL
TLI .FT                 1029 : TOP LOG INTERVAL
CBD .FT                 1030 : CASING BOTTOM DRILLER
CBL .FT                 1029 : CASING BOTTOM LOGGER
BS  .IN                 8.75 : BIT SIZE
BSD .FT                 9966 : BIT SIZE AT DEPTH
DFT .               GEL CHEM : DRILLING FLUID TYPE
DFD .                    9.3 : DRILLING FLUID DENSITY
DFV .                     70 : DRILLING FLUID VISCOSITY
DFPH.                      9 : DRILLING FLUID PH
DFL .                      9 : DRILLING FLUID LOSS
MSS .             CIRCULATED : MUD SAMPLE SOURCE
RMF .OHMM               2.16 : RESISTIVITY MUD FILTRATE SAMPLE
MFST.DEGF                 74 : MUD FILTRATE SAMPLE TEMPERATURE
RMC .OHMM               2.83 : RESISTIVITY MUD CAKE
MCST.DEGF                 68 : MUD CAKE SAMPLE TEMPERATURE
LUN .                   7772 : LOGGING UNIT NUMBER
LUL .                    EDM : LOGGING UNIT LOCATION
ENGI.                   BIGG : RECORDING ENGINEER
WITN.                  LENTZ : WITNESSED BY
CLNT.                A2DTECH : CLIENT CODE
ORIG.            2" 5" PRINT : ORIGIN OF DATA
UWI .       100162906116W500 : UNIQUE WELL ID
DICO. A2D Technologies, Inc. : DIGITIZING COMPANY
~Other -----------------------------------------------------
~ASCII -----------------------------------------------------
  950.00000    -999.25    -999.25    -999.25    -999.25    -999.25    -999.25   60.42590   31.86110    -999.25    -999.25    -999.25    -999.25    -999.25    -999.25    -999.25
 1000.00000    -999.25    -999.25    -999.25    -999.25    -999.25    -999.25   56.50970   33.25000    -999.25    -999.25    -999.25    -999.25    0.11660    -999.25    -999.25
 1050.00000   14.74050   12.99880    -999.25    0.41450    0.20380  136.44560   89.50140   69.36010    4.16190    4.26110    4.52500    -999.25    0.45370    2.00630  -66.13760
 1100.00000   11.52420   13.11150    -999.25    0.21020    0.06880  106.83780   98.33570   60.46500    6.49990    6.80650    7.65910    -999.25    0.36710    2.25210  -64.26840
 1150.00000   12.13060   13.08050    -999.25    0.26620    0.18820   99.01300   99.27060   64.38270    3.78960    3.96100    4.13310    -999.25    0.35730    2.15190  -63.61660
 1200.00000   13.68250   14.38870    -999.25    0.35470    0.16040  144.43480  102.89690   83.19660    3.41260    3.53820    3.67060    -999.25    0.41210    2.07640  -61.99470
 1250.00000    9.94230   14.99470    -999.25    0.25350    0.19360  115.82180  103.72150   58.53940    4.84060    5.01940    5.61040    -999.25    0.34310    2.28120  -61.04340
 1300.00000   13.00980   14.15830    -999.25    0.31500    0.20910  100.48750  116.25230   76.30090    3.99780    4.11110    4.63090    -999.25    0.37640    2.13990  -64.41150
 1350.00000    -999.25    -999.25    -999.25    0.45010    0.13410  111.95400   86.22420   71.01940    3.43530    3.67040    4.10960    -999.25    0.55260    1.74930  -62.60810
 1400.00000   11.55530   13.23100    -999.25    0.24210    0.05260  107.83400   81.60140   57.80880    7.12680    6.79000    6.55180    -999.25    0.34580    2.23930  -65.78610
 1450.00000   14.94820    -999.25    -999.25    0.36540    0.20090  126.29280   92.77980   57.65210    3.70950    3.61440    4.01100    -999.25    0.51150    2.14210  -65.94270
 1500.00000   12.98810    -999.25    -999.25    0.24630    0.17730  109.44550   95.71570   65.42560    2.52770    2.67470    3.21650    -999.25    0.45500    2.16050  -63.45270
 1550.00000   11.25210    -999.25    -999.25    0.44810    0.17360  106.08130   93.74950   63.88440    4.91290    4.60130    6.29150    -999.25    0.38030    2.16910  -60.86270
 1600.00000   12.62390   12.71230    -999.25    0.26560    0.16450  105.65470   97.77310   70.17540    3.79880    4.00880    4.10410    -999.25    0.34820    2.10650  -61.16830
 1650.00000    -999.25   13.66380    -999.25    -999.25    0.14890  112.29120   92.07010   65.23750    3.03410    3.13150    3.71640    -999.25    0.45840    1.73290  -63.77090
 1700.00000   14.52740   13.30110    -999.25    0.40470    0.11340  103.85870  108.02840   75.84030    9.55790   10.68380   17.70580    -999.25    0.39410    2.20910  -63.98890
 1750.00000   15.08130    -999.25    -999.25    -999.25    0.11330  114.07400   85.71870   53.35310    3.13640    3.00270    3.37940    -999.25    0.52450    1.60770  -64.33870
 1800.00000   14.71260   13.77920    -999.25    -999.25    0.16110   92.07400   92.02160   68.76620    3.69910    3.51680    3.96060    -999.25    0.40250    1.85500  -64.61280
 1850.00000   10.96420   12.96770    -999.25    -999.25    0.07480   99.79500   86.86320   68.02580    9.76050   12.23690   35.10850    -999.25    0.62790    1.60580  -64.69030
 1900.00000   11.80210   12.85620    -999.25    0.24590    0.20480  105.92600   90.27550   53.82130    6.66730    5.52690    6.23960    -999.25    0.35510    2.19530  -67.22850
 1950.00000   13.08730   13.12040    -999.25    0.44330    0.10320  105.32270   99.06640   73.13660    2.00820    2.30870    2.39370    -999.25    0.50770    1.76570  -67.43090
 2000.00000   14.95050   14.70280    -999.25    -999.25    0.13530  115.38810   88.74450   72.62650    3.60290    3.33020    3.90270    -999.25    0.36610    1.60470  -70.01260
 2050.00000   10.91500   13.09700    -999.25    0.32650    0.01770  109.85620   94.70050   71.78710    5.70470    5.44390    7.23190    -999.25    0.35630    1.95460  -70.79550
 2100.00000   10.03780   12.54440    -999.25    0.16420    0.05200   93.19210   77.02870   56.90150    8.25200    8.06920    8.55640    -999.25    0.31080    2.34720  -74.94540
 2150.00000    9.85120   11.45960    -999.25    0.20200    0.10260   93.25700   79.21620   60.68360   10.55360   10.18810    9.72860    -999.25    0.35690    2.29870  -88.70970
 2200.00000    9.26110   12.09920    -999.25    0.25310    0.07500   97.29210   66.88110   47.19590    9.58570   10.94120   10.18920    -999.25    0.34900    2.27480  -87.02800
 2250.00000    9.55010   12.14620    -999.25    0.19760    0.05950   89.23800   73.38080   48.39360   10.34960    9.23740    9.49590    -999.25    0.35020    2.35940  -78.90500
 2300.00000   14.78230   13.81110    -999.25    0.44710    0.19600  102.13880   94.28350   61.09190    4.06980    3.91470    4.40910    -999.25    0.46820    1.92800  -77.48610
 2350.00000   12.29310   13.22810    -999.25    0.31520    0.15720   97.27420   84.72650   61.07920    3.75280    3.56000    3.93160    -999.25    0.31380    2.02140  -79.23760
 2400.00000    -999.25   14.99970    -999.25    0.45000    0.12040  104.97090   82.59840   56.78580    4.57660    3.87010    3.96980    -999.25    0.51140    1.83610  -80.12420
 2450.00000    -999.25   13.61690    -999.25    0.45090    0.13930   92.18740   84.89600   60.03130    4.24820    3.85790    4.13250    -999.25    0.40170    1.59730  -83.13370
 2500.00000    9.89410   12.53320    -999.25    0.17180    0.02880   92.89700   70.94650   47.22070   10.29350   10.76880   11.58550    -999.25    0.32460    2.38580  -85.14120
 2550.00000    9.52990   11.94100    -999.25    0.28250    0.07410   87.19320   65.63560   39.57880    4.31680    3.46900    3.82590    -999.25    0.35080    2.08570  -85.15040
 2600.00000   10.15090   12.93730    -999.25    0.19030    0.11380   91.72840   80.21690   59.42780    3.80850    3.62380    4.05490    -999.25    0.40450    2.22660  -84.10490
 2650.00000    9.45120   12.28310    -999.25    0.23160    0.05110   90.77250   58.09370   46.41210   10.19990    9.01090    9.75780    -999.25    0.32270    2.26710  -90.55950
 2700.00000   10.07670   12.65290    -999.25    0.43560    0.10690   76.56330   72.94750   50.51820    4.22420    3.99810    4.90260    -999.25    0.40250    1.53760  -83.53220
 2750.00000   15.00400   15.02370    -999.25    -999.25    0.08970   95.95330   72.67520   50.69510    3.87520    3.72230    4.41710    -999.25    0.40020    1.50990  -83.33960
 2800.00000    -999.25    -999.25    -999.25    -999.25    0.16570  111.71530   72.67340   49.54100    4.01020    4.53930    4.29670    -999.25    0.47500    1.68910  -82.95900
 2850.00000   13.22570    -999.25    -999.25    -999.25    0.16360  102.14370   82.25990   51.83580    4.44640    4.39390    5.33250    -999.25    0.44440    1.76190  -52.01920
 2900.00000   14.51100   15.00430    -999.25    -999.25    0.08340   99.77520   73.71540   48.54190    4.63490    4.36100    6.04380    -999.25    0.50420    1.74500  -52.46530
 2950.00000    9.76790   12.59460    -999.25    0.08920    0.12200   94.57870   83.32320   53.93770    5.10560    4.83360    5.98000    -999.25    0.35240    2.45710  -51.15830
 3000.00000    9.91430   13.71040    -999.25    0.17720    0.08440   96.71670   76.62930   51.07330    5.37130    5.68670    5.97570    -999.25    0.44550    2.32730  -52.41930
 3050.00000    9.49810   11.85000    -999.25    0.19100    0.02110   78.93330   47.66800   34.13880   16.15910   17.14910   18.32090    -999.25    0.29170    2.32710  -68.95140
 3100.00000    9.76830   12.18580    -999.25    0.17750    0.09490   86.75460   59.41160   45.77730   18.29730   20.53430   22.42380    -999.25    0.30310    2.37760  -78.90730
 3150.00000   10.40290   12.81570    -999.25    0.14530    0.04340   89.89590   60.80220   47.34060   10.97880   11.52790   13.68460    -999.25    0.26750    2.44550  -54.46190
 3200.00000   11.02730   13.40270    -999.25    0.13200    0.04750   94.96640   86.82540   54.85130    4.07800    4.26080    5.37320    -999.25    0.38540    2.44120  -51.34590
