~Version ---------------------------------------------------
VERS. 2.0 : CWLS log ASCII Standard -VERSION 2.0
WRAP. YES : MULTIPLE LINES PER DEPTH STEP
~Well ------------------------------------------------------
STRT.M                       300.0 : START DEPTH
STOP.M                      3900.0 : STOP DEPTH
STEP.M                    50.00000 : STEP LENGTH
NULL.                      -999.25 : NULL VALUE
COMP.       FOREST OIL CORPORATION : COMPANY
WELL. FOREST ET AL KARR 14-10-66-1 : WELL
FLD .                           WC : FIELD
LOC .                              : LOCATION
CTRY.                       CANADA : COUNTRY
SRVC.                 Schlumberger : SERVICE COMPANY
DATE.                  17-Oct-1980 : LOGDATE
LOC1.                              : LOCATION 1
SECT.                              : SECTION
TOWN.                              : TOWNSHIP
RNGE.                              : RANGE
PDAT.                              : PERM DATUM
EPD .                       857.38 : ELEVATION
LMF .                           KB : LOG MEASURED FROM
DMF .                           KB : DRILL MEASURED FROM
APD .                              : ABOVE PERM DATUM
EKB .                       865.37 : ELEV-KELLY BUSHING.
EDF .                              : ELEV-DRILL FLOOR
EGL .                       857.38 : ELEV-GROUND LEVEL
PROV.                      Alberta : PROVINCE
UWI .             100141006601W600 : UNIQUE WELL ID
SLAT.WGS84                54.70329 : SURFACE LATITUDE
SLON.WGS84               -118.0652 : SURFACE LONGITUDE
~Curve Information -----------------------------------------
DEPT    .M      : DEPTH METERS
CALDED  .MM     : CALIPER FROM CNFD LOG
CALSED  .MM     : CALIPER FROM SONIC LOG
CALWS   .MM     : CALIPER [CALSED]
CONDWS  .MMHO   : CONDUCTIVITY [1000/DRESWS]
DCORED  .KG/M3  : DENSITY CORRECTION FROM CNFD LOG
DCORWS  .KG/M3  : DENSITY CORRECTION [DCORED]
DENWS   .KG/M3  : BULK DENSITY [RHOBED]
DPHILSED.V/V    : DENSITY POROSITY [M=2.71 F=1.0] FROM CNFD LOG
DPHISSED.V/V    : DENSITY POROSITY [M=2.65 F=1.0] FROM CNFD LOG
DPOLSWS .V/V    : DENSITY POROSITY LIMESTONE [CALCULATED FROM RHOBED]
DRESWS  .OHMM   : DEEP RESISTIVITY [LLDED]
DTED    .US/M   : DELTA TIME FROM SONIC LOG
DTWS    .US/M   : DELTA TIME [DTED]
GRDED   .GAPI   : GAMMA RAY FROM CNFD LOG
GRRED   .GAPI   : GAMMA RAY FROM RESISTIVITY LOG
GRSED   .GAPI   : GAMMA RAY FROM SONIC LOG
GRWS    .GAPI   : GAMMA RAY [GRSED]
LLDED   .OHMM   : LATEROLOG DEEP RESISTIVITY
LLSED   .OHMM   : LATEROLOG SHALLOW RESISTIVITY
MRESWS  .OHMM   : MEDIUM RESISTIVITY [LLSED]
NPHILSED.V/V    : NEUTRON POROSITY LIMESTONE FROM CNFD LOG
NPHISSED.V/V    : NEUTRON POROSITY SANDSTONE FROM CNFD LOG
NPOLSWS .V/V    : NEUTRON POROSITY LINESTONE [NPHILSED], SPLICED WITH CONVERTED MATRIX FROM SANDSTONE TO LIMESTONE FROM 300-2606
RHOBED  .KG/M3  : BULK DENSITY FROM CNFD LOG
SPRED   .MV     : SPONTANEOUS POTENTIAL FROM RESISTIVITY LOG
SPWS    .MV     : SPONTANEOUS POTENTIAL [BASELINE 0 MV] [SPRED]
TENDED  .N      : TENSION FROM CNFD LOG
~Params ----------------------------------------------------
CLNT. A2DTECH : CLIENT CODE
~Other -----------------------------------------------------
~ASCII -----------------------------------------------------
# ...
 1600.00000    -999.25  320.97710  320.97710  120.61710  139.32710  139.32710 2517.64110    -999.25    0.08010    0.11250    8.29070  272.92420  272.92420  124.04360  114.95480  118.08400  118.08400    8.29070    7.87250    7.87250    -999.25    0.35510    0.30660 2517.64110  -77.88960  -53.53080 9004.99080
 1650.00000    -999.25  315.96580  315.96580  111.89940   63.80520   63.80520 2520.60940    -999.25    0.08000    0.11080    8.93660  271.80540  271.80540  119.05870  112.51370  111.93530  111.93530    8.93660    8.68450    8.68450    -999.25    0.34710    0.29810 2520.60940  -78.75870  -56.15890 8723.52380
 1700.00000    -999.25  342.88500  342.88500  239.77370  168.35540  168.35540 2293.89140    -999.25    0.14700    0.24330    4.17060  295.53600  295.53600  109.30150  104.83610   99.11960   99.11960    4.17060    3.54250    3.54250    -999.25    0.36440    0.31650 2293.89140  -71.33010  -50.48930 8557.43970
 1750.00000    -999.25  323.63640  323.63640   95.99140  138.77730  138.77730 1975.28980    -999.25    0.41670    0.42970   10.41760  266.02370  266.02370  109.59350  111.84090  107.77680  107.77680   10.41760    9.60060    9.60060    -999.25    0.33280    0.28290 1975.28980  -76.05250  -56.97070 8102.31320
 1800.00000    -999.25  376.48730  376.48730  350.70490  -27.70240  -27.70240 1244.91920    -999.25    0.85270    0.85680    2.85140  499.07100  499.07100   89.34850   82.58640   86.42670   86.42670    2.85140    2.18930    2.18930    -999.25    0.66330    0.62340 1244.91920  -69.44760  -52.06600 7810.20290
 1850.00000    -999.25  314.97220  314.97220   39.48090   43.96100   43.96100 2508.38700    -999.25    0.07840    0.11790   25.32870  230.14320  230.14320   68.89150   71.78390   63.95600   63.95600   25.32870   15.14790   15.14790    -999.25    0.23640    0.18400 2508.38700  -63.50500  -47.77690 7579.37660
 1900.00000    -999.25  315.36390  315.36390   46.11270   26.22960   26.22960 2610.63260    -999.25    0.02390    0.05810   21.68600  209.20340  209.20340   68.43000   64.86710   74.84220   74.84220   21.68600   15.13690   15.13690    -999.25    0.13460    0.09080 2610.63260  -59.89070  -45.81620 7404.81280
 1950.00000    -999.25  307.54440  307.54440   37.63020   21.91220   21.91220 2515.81100    -999.25    0.07500    0.11360   26.57440  244.19200  244.19200   83.05200   88.23870   79.60970   79.60970   26.57440   24.17400   24.17400    -999.25    0.35660    0.30820 2515.81100  -59.78990  -47.36890 7007.86330
 2000.00000    -999.25  311.13380  311.13380   52.71400   -0.62910   -0.62910 2539.76100    -999.25    0.07440    0.09960   18.97030  229.01270  229.01270   85.10140   79.04490   77.63980   77.63980   18.97030   15.61110   15.61110    -999.25    0.25640    0.20380 2539.76100  -49.39090  -38.62350 6763.16520
 2050.00000    -999.25  318.76360  318.76360   39.39770   42.52280   42.52280 2586.00150    -999.25    0.03670    0.07250   25.38220  222.88370  222.88370   81.91290   78.69810   87.64300   87.64300   25.38220   24.52550   24.52550    -999.25    0.27360    0.22120 2586.00150  -60.29910  -51.18520 6397.90040
 2100.00000    -999.25  310.02550  310.02550   20.28520    1.96570    1.96570 2573.81130    -999.25    0.04590    0.07960   49.29710  214.05310  214.05310   76.27690   75.25240   81.03750   81.03750   49.29710   44.00800   44.00800    -999.25    0.17010    0.12180 2573.81130  -61.12660  -53.66630 6063.57380
 2150.00000    -999.25  307.81860  307.81860   18.49590    6.58680    6.58680 2611.01320    -999.25    0.02210    0.05790   54.06610  214.20960  214.20960   95.11160  106.83540   92.30130   92.30130   54.06610   40.26410   40.26410    -999.25    0.15340    0.10690 2611.01320  -55.27140  -49.46460 5943.46380
 2200.00000    -999.25  301.71610  301.71610   49.31650  222.90120  222.90120 2359.87380    -999.25    0.17500    0.20480   20.27720  221.54020  221.54020   51.96800   51.47610   49.16950   49.16950   20.27720   16.60610   16.60610    -999.25    0.18010    0.13080 2359.87380  -31.40290  -27.24970 5672.08130
 2250.00000    -999.25  345.68990  345.68990  296.27000  169.55510  169.55510 2270.10210    -999.25    0.24840    0.25730    3.37530  326.55360  326.55360  115.62710  113.72660  107.19950  107.19950    3.37530    2.96540    2.96540    -999.25    0.52830    0.48840 2270.10210  -51.17940  -48.67970 5325.33580
 2300.00000    -999.25  303.21450  303.21450    1.55810   27.99380   27.99380 2383.10470    -999.25    0.15800    0.19120  641.79230  258.78720  258.78720  293.14780  271.80830  271.42640  271.42640  641.79230  305.60590  305.60590    -999.25    0.30090    0.24950 2383.10470  -57.00520  -56.15910 4904.33470
 2350.00000    -999.25  304.49430  304.49430   38.98890   17.68300   17.68300 2593.58150    -999.25    0.03200    0.06810   25.64830  196.82200  196.82200  101.89020   96.30610  104.27200  104.27200   25.64830   22.11500   22.11500    -999.25    0.10840    0.06900 2593.58150  -47.30580  -48.11320 4529.42380
 2400.00000    -999.25  304.16420  304.16420   24.91160   51.33810   51.33810 2634.90870    -999.25    0.00820    0.04390   40.14200  207.72590  207.72590  105.67310  106.80720  110.76590  110.76590   40.14200   36.98720   36.98720    -999.25    0.11840    0.07730 2634.90870  -32.22900  -34.69000 4335.05880
 2450.00000    -999.25  310.59880  310.59880   22.76690   32.77760   32.77760 2625.01810    -999.25    0.01410    0.04970   43.92340  204.94810  204.94810  114.27720  113.94110  110.21240  110.21240   43.92340   41.26750   41.26750    -999.25    0.13380    0.09010 2625.01810  -45.84400  -49.95850 3999.25140
 2500.00000    -999.25  309.42370  309.42370   13.86530  114.74610  114.74610 2632.87960    -999.25    0.01040    0.04510   72.12240  206.47560  206.47560  121.30700  120.48720  122.00750  122.00750   72.12240   62.40100   62.40100    -999.25    0.14930    0.10320 2632.87960  -39.25240  -45.02050 3725.34230
 2550.00000    -999.25  305.94030  305.94030   28.86900  239.51380  239.51380 2566.78830    -999.25    0.04540    0.08370   34.63920  174.29070  174.29070  174.51170  140.11960  157.14800  157.14800   34.63920   27.44790   27.44790    -999.25    0.23030    0.17800 2566.78830  -15.12980  -22.55140 3318.27930
 2600.00000    -999.25  317.60820  317.60820    0.05600   89.49200   89.49200 2832.53490    -999.25   -0.11860   -0.07170 17866.34180  163.93320  163.93320   33.79080   40.60250   44.91090   44.91090 17866.34180  449.91130  449.91130    -999.25    0.01220   -0.00810 2832.53490  -19.66900  -28.74420 3055.92320
 2650.00000  229.12510  228.71140  228.71140    7.38010    1.38520    1.38520 2723.93950   -0.01330    -999.25   -0.00820  135.49890  176.57840  176.57840   59.30460   59.80030   65.40940   65.40940  135.49890  160.55310  160.55310    0.04500    -999.25    0.04500 2723.93950    7.73220  -33.45940 20721.23840
 2700.00000  296.33830  240.15740  240.15740   21.63790  251.30710  251.30710 2567.37570    0.06740    -999.25    0.08340   46.21530  176.19870  176.19870   18.75470   15.94770   18.74400   18.74400   46.21530   44.26470   44.26470    0.20810    -999.25    0.20810 2567.37570   27.81650  -46.36900 20972.28270
 2750.00000  281.10390  231.29430  231.29430   29.76890  243.73520  243.73520 2254.79370    0.15850    -999.25    0.26620   33.59210  190.11090  190.11090   54.70150   60.12330   52.89550   52.89550   33.59210   33.70780   33.70780    0.24900    -999.25    0.24900 2254.79370   90.78930   -8.90310 21320.83650
 2800.00000  355.57210  242.87240  242.87240    6.49020  172.22780  172.22780 2376.87040    0.19000    -999.25    0.19480  154.07830  167.76080  167.76080   24.43760   19.82770   23.76390   23.76390  154.07830   96.63660   96.63660    0.08300    -999.25    0.08300 2376.87040   81.25520  -41.95400 21705.84430
 2850.00000  351.56550  273.59650  273.59650    0.63380  139.69710  139.69710 2339.37520    0.22260    -999.25    0.21670 1577.67770  168.65920  168.65920   13.56440   16.68290   14.54620   14.54620 1577.67770  109.22750  109.22750    0.02440    -999.25    0.02440 2339.37520   -2.73210 -149.45800 21995.34350
