~Version ---------------------------------------------------
VERS.      2.0 : CWLS log ASCII Standard -VERSION 2.0
WRAP.       NO : One line per depth step
CREA. 12/18/17 : LAS Creation Date
~Well ------------------------------------------------------
STRT.FT                  700.0 : START DEPTH
STOP.FT                 8200.0 : STOP DEPTH
STEP.FT               50.00000 : STEP LENGTH
NULL.                  -999.25 : NULL VALUE
COMP.         HOME OIL COMPANY : COMPANY
WELL. HOME BARRHEAD 10-35-59-3 : WELL
FLD .                          : FIELD
LOC .                          : LOCATION
CTRY.                   CANADA : COUNTRY
SRVC.             Schlumberger : SERVICE COMPANY
DATE.              05-Dec-1964 : LOGDATE
PROV.                  Alberta : PROVINCE
UWI .         100103505903W500 : UNIQUE WELL ID
SLAT.WGS84            54.14663 : SURFACE LATITUDE
SLON.WGS84           -114.3356 : SURFACE LONGITUDE
~Curve Information -----------------------------------------
DEPT  .FT    : Depth Curve
ASNED .OHMM  : AMPLIFIED SHORT NORMAL RESISTIVITY 16" FROM RESISTIVITY LOG
CALWS .IN    : CALIPER [MCALED]
CILDED.MMHO  : DEEP INDUCTION CONDUCTIVITY FROM RESISTIVITY LOG
CONDWS.MMHO  : CONDUCTIVITY [1000/DRESWS]
DRESWS.MMHO  : DEEP RESISTIVITY [1000/CILDED, IF ILDED<3, ILDED]
DT1ED .US/F  : DELTA TIME [SPAN 1'] FROM SONIC LOG
DTED  .US/F  : DELTA TIME [SPAN 3'] FROM SONIC LOG
DTWS  .US/F  : COMPRESSIONAL SONIC [DTED]
GRSED .GAPI  : GAMMA RAY FROM SONIC LOG
GRWS  .GAPI  : GAMMA RAY [GRSED]
ILDED .OHMM  : DEEP INDUCTION RESISTIVITY FROM RESISTIVITY LOG
MCALED.IN    : MICROCALIPER FROM MICROLOG
NEUTED.NAPI  : NEUTRON FROM NEUTRON LOG
NEUTWS.NAPI  : NEUTRON [NEUTED]
SPRED .MV    : SPONTANEOUS  POTENTIAL FROM RESISTIVITY LOG
SPWS  .MV    : SPONTANEOUS POTENTIAL [BASELINE 0 MV, SPRED]
SRESWS.OHMM  : SHALLOW RESISTIVITY [ASNED]
~Params ----------------------------------------------------
PD  .                     GL : PERMANENT DATUM
EPD .FT               2176.5 : ELEVATION PERMANENT DATUM
LMF .                     KB : LOG MEASURED FROM
DAPD.FT                 13.3 : FEET ABOVE PERMANENT DATUM
EKB .FT               2189.8 : KELLY BUSHING
EGL .FT               2176.5 : GROUND LEVEL
DATE.               12/05/64 : RUN DATE
RUN .                      2 : RUN NUMBER
DD  .FT                 8248 : DEPTH DRILLER
DL  .FT                 8245 : DEPTH LOGGER
BLI .FT                 8244 : BOTTOM LOG INTERVAL
TLI .FT                 3500 : TOP LOG INTERVAL
CBD .FT                  840 : CASING BOTTOM DRILLER
BS  .IN                7.875 : BIT SIZE
BSD .FT                 8248 : BIT SIZE AT DEPTH
DFT .                    GEL : DRILLING FLUID TYPE
DFD .                   10.4 : DRILLING FLUID DENSITY
DFV .                    107 : DRILLING FLUID VISCOSITY
DFPH.                      9 : DRILLING FLUID PH
DFL .                    7.6 : DRILLING FLUID LOSS
RMS .OHMM               0.79 : RESISTIVITY MUD SAMPLE
MST .DEGF                 58 : MUD SAMPLE TEMPERATURE
RMF .OHMM               0.47 : RESISTIVITY MUD FILTRATE SAMPLE
MFST.DEGF                 66 : MUD FILTRATE SAMPLE TEMPERATURE
RMC .OHMM               1.04 : RESISTIVITY MUD CAKE
MCST.DEGF                 64 : MUD CAKE SAMPLE TEMPERATURE
RMB .OHMM               0.32 : RESISTIVITY MUD AT BHT
TCS .HRS                   2 : TIME CIRCULATED STOPPED
LUN .                   3705 : LOGGING UNIT NUMBER
ENGI.                   SWAN : RECORDING ENGINEER
WITN.           DAWSON GROVE : WITNESSED BY
CLNT.                A2DTECH : CLIENT CODE
ORIG.            2" 5" PRINT : ORIGIN OF DATA
UWI .       100103505903W500 : UNIQUE WELL ID
DICO. A2D Technologies, Inc. : DIGITIZING COMPANY
~Other -----------------------------------------------------
IEL-BHC-NEUTRON-ML LOG RUN
ALL RESISTIVITY CURVES VERIFIED FROM 2" SCALE SECTION FROM TOP TO 3826'
~ASCII -----------------------------------------------------
  700.00000    -999.25    -999.25    -999.25    -999.25    -999.25    -999.25    -999.25    -999.25   40.81210   40.81210    -999.25    -999.25    -999.25    -999.25    -999.25    -999.25    -999.25
  750.00000    -999.25    -999.25    -999.25    -999.25    -999.25    -999.25    -999.25    -999.25   49.44520   49.44520    -999.25    -999.25    -999.25    -999.25    -999.25    -999.25    -999.25
  800.00000    -999.25    -999.25    -999.25    -999.25    -999.25    -999.25    -999.25    -999.25   47.17750   47.17750    -999.25    -999.25  630.96900  630.96900    -999.25    -999.25    -999.25
  850.00000    6.71360    8.51860  164.01690  172.76830    5.78810    -999.25  110.15350  110.15350   61.60180   61.60180    5.78810    8.51860  880.37520  880.37520  -33.64100   -2.10630    6.71360
  900.00000    6.58030    8.26030  170.01330  175.14360    5.70960    -999.25  113.62320  113.62320   55.21130   55.21130    5.70960    8.26030  921.02670  921.02670  -37.93340   -6.39870    6.58030
  950.00000    5.42420   10.06560  187.96240  205.78250    4.85950    -999.25  123.35670  123.35670   70.74360   70.74360    4.85950   10.06560  767.53060  767.53060  -34.07220   -2.53750    5.42420
 1000.00000    5.31410    9.64390  191.74180  196.64910    5.08520    -999.25  116.35140  116.35140   64.68920   64.68920    5.08520    9.64390  735.87120  735.87120  -32.52380   -1.03490    5.31410
 1050.00000    5.47750    9.63810  183.44540  201.38550    4.96560    -999.25  151.81320  151.81320   59.43130   59.43130    4.96560    9.63810  662.03160  662.03160  -30.77530   -0.37980    5.47750
 1100.00000    5.69510    8.68250  180.47640  191.12420    5.23220    -999.25  115.25030  115.25030   64.99380   64.99380    5.23220    8.68250  751.48220  751.48220  -32.33380   -2.35330    5.69510
 1150.00000    8.48640    8.61880  177.18740  181.97040    5.49540    -999.25  117.73710  117.73710   48.57030   48.57030    5.49540    8.61880  887.95860  887.95860  -61.43410  -31.85240    8.48640
 1200.00000    6.40390    8.92100  161.27980  177.82200    5.62360    -999.25  108.56710  108.56710   53.17110   53.17110    5.62360    8.92100  881.31090  881.31090  -37.20770   -8.02730    6.40390
 1250.00000   13.29660    8.56340   77.56880   82.69860   12.09210    -999.25   68.34070   68.34070   44.93950   44.93950   12.09210    8.56340 1270.29240 1270.29240  -33.13200   -4.35030   13.29660
 1300.00000    4.68640    9.78610  244.62240  251.60400    3.97450    -999.25  120.38800  120.38800   66.51880   66.51880    3.97450    9.78610  708.42950  708.42950  -31.17690   -2.79390    4.68640
 1350.00000    3.45260   10.38300  373.50710  373.50710    2.67730    -999.25  118.76890  118.76890   73.46550   73.46550    2.67260   10.38300  661.08910  661.08910  -30.28750   -2.30590    3.45260
 1400.00000    5.63780   10.56860  203.04640  207.18950    4.82650    -999.25  114.41850  114.41850   77.29070   77.29070    4.82650   10.56860  670.86650  670.86650  -30.75710   -1.84190    5.63780
 1450.00000    8.27440   10.97470  132.09800  131.08050    7.62890    -999.25  102.73240  102.73240   80.92940   80.92940    7.62890   10.97470  704.16660  704.16660  -34.47450   -4.00050    8.27440
 1500.00000    5.56500   10.68760  220.45110  208.93840    4.78610    -999.25  117.72010  117.72010   96.80240   96.80240    4.78610   10.68760  649.57360  649.57360  -33.90670   -1.88420    5.56500
 1550.00000    7.45850   10.79010  148.05330  145.11470    6.89110    -999.25  105.90680  105.90680   92.06080   92.06080    6.89110   10.79010  690.01260  690.01260  -38.92370   -5.35260    7.45850
 1600.00000    9.37210   10.81510  111.45020  112.41510    8.89560    -999.25  107.95130  107.95130   92.87980   92.87980    8.89560   10.81510  688.02590  688.02590  -43.77060   -9.75270    9.37210
 1650.00000    9.20720   11.18390  119.22310  116.12240    8.61160    -999.25   99.45270   99.45270   91.12460   91.12460    8.61160   11.18390  732.18270  732.18270  -41.64200   -8.71630    9.20720
 1700.00000    7.77130   10.35640  169.11990  173.67740    5.75780    -999.25  116.27190  116.27190  113.90730  113.90730    5.75780   10.35640  700.91720  700.91720  -38.18750   -6.36120    7.77130
 1750.00000   10.26970   11.13800  127.10580  142.49480    7.01780    -999.25  112.98580  112.98580  117.60340  117.60340    7.01780   11.13800  753.44620  753.44620  -38.66350   -7.75300   10.26970
 1800.00000    8.78300   10.55570  144.00240  156.62690    6.38460    -999.25  110.12010  110.12010  110.10680  110.10680    6.38460   10.55570  700.69120  700.69120  -40.51270   -7.71530    8.78300
 1850.00000    6.86210   10.37280  181.51700  201.73900    4.95690    -999.25  123.83780  123.83780  108.93170  108.93170    4.95690   10.37280  593.22270  593.22270  -39.95980   -5.26310    6.86210
 1900.00000    9.08790   10.03110  135.84450  141.22700    7.08080    -999.25  111.89820  111.89820  112.76510  112.76510    7.08080   10.03110  648.06090  648.06090  -41.68190   -5.09840    9.08790
 1950.00000    9.33720   10.36760  115.57920  113.32990    8.82380    -999.25   99.41660   99.41660   93.03360   93.03360    8.82380   10.36760  748.53820  748.53820  -44.49460   -6.01180    9.33720
 2000.00000    9.17110   10.57450  129.77890  131.01010    7.63300    -999.25   99.34460   99.34460   98.04930   98.04930    7.63300   10.57450  722.21530  722.21530  -49.23210   -9.27370    9.17110
 2050.00000    9.23850   10.05050  117.57900  108.68500    9.20090    -999.25   93.24730   93.24730   99.56290   99.56290    9.20090   10.05050  675.76840  675.76840  -47.36350   -6.04360    9.23850
 2100.00000    9.46170    9.88660  123.11840  115.50550    8.65760    -999.25   93.67610   93.67610   97.74290   97.74290    8.65760    9.88660  827.32750  827.32750  -46.70280   -4.01240    9.46170
 2150.00000    8.53950    9.65200  133.83770  125.91450    7.94190    -999.25  106.99410  106.99410  108.93850  108.93850    7.94190    9.65200  685.69810  685.69810  -46.05620   -2.04810    8.53950
 2200.00000   10.33540    9.59720  109.50880  105.45190    9.48300    -999.25   88.02340   88.02340   89.42510   89.42510    9.48300    9.59720  751.84220  751.84220  -46.19930   -7.53070   10.33540
 2250.00000    7.08890    9.65870  168.82740  179.01900    5.58600    -999.25  111.52750  111.52750  100.37270  100.37270    5.58600    9.65870  625.22340  625.22340  -37.84710   -3.32010    7.08890
 2300.00000    9.51010    9.41180  134.46680  144.64040    6.91370    -999.25  106.24930  106.24930  116.04180  116.04180    6.91370    9.41180  714.54890  714.54890  -36.04390   -3.48590    9.51010
 2350.00000    9.33180    9.62280  137.19870  147.98370    6.75750    -999.25  107.90610  107.90610  119.75720  119.75720    6.75750    9.62280  676.33760  676.33760  -37.51910   -6.94300    9.33180
 2400.00000   10.41210    9.31740  147.77470  157.44560    6.35140    -999.25  113.31630  113.31630  140.89590  140.89590    6.35140    9.31740  738.76170  738.76170  -32.54120   -3.93420   10.41210
 2450.00000   10.15160   10.58760  124.98400  135.21190    7.39580    -999.25  102.50070  102.50070  148.25820  148.25820    7.39580   10.58760  727.00880  727.00880  -34.38610   -7.17470   10.15160
 2500.00000    7.70380   10.49730  166.38430  176.04390    5.68040    -999.25   98.30100   98.30100  105.86540  105.86540    5.68040   10.49730  764.47340  764.47340  -33.94880   -7.77200    7.70380
 2550.00000    8.49100   10.80720  145.17670  162.44580    6.15590    -999.25   93.06650   93.06650  106.09410  106.09410    6.15590   10.80720  788.62830  788.62830  -33.99440   -8.85220    8.49100
 2600.00000    6.36710   11.02010  213.76050  213.31970    4.68780    -999.25  107.86300  107.86300  156.89760  156.89760    4.68780   11.02010  700.92860  700.92860  -29.91930   -5.81850    6.36710
 2650.00000    7.08240   10.71890  188.86600  192.38170    5.19800    -999.25  102.55450  102.55450  127.21600  127.21600    5.19800   10.71890  641.28140  641.28140  -30.65220   -7.58610    7.08240
 2700.00000    3.21260    8.85510  424.46380  424.46380    2.35590    -999.25  116.78670  116.78670  147.84200  147.84200    1.91460    8.85510  632.82260  632.82260  -26.31410   -3.93370    3.21260
