~Version ---------------------------------------------------
VERS.      2.0 : CWLS log ASCII Standard -VERSION 2.0
WRAP.       NO : One line per depth step
CREA. 07/28/17 : LAS Creation Date
~Well ------------------------------------------------------
STRT.FT              650.0 : START DEPTH
STOP.FT             8250.0 : STOP DEPTH
STEP.FT           50.00000 : STEP LENGTH
NULL.              -999.25 : NULL VALUE
COMP.  GULF CANADA LIMITED : COMPANY
WELL. SACHS NO. 10-36-43-1 : WELL
FLD .              WILDCAT : FIELD
LOC .                      : LOCATION
CTRY.               CANADA : COUNTRY
SRVC.              Unknown : SERVICE COMPANY
DATE.          17-Jan-1956 : LOGDATE
PROV.              Alberta : PROVINCE
UWI .     100103604301W500 : UNIQUE WELL ID
SLAT.WGS84        52.75062 : SURFACE LATITUDE
SLON.WGS84       -114.0099 : SURFACE LONGITUDE
~Curve Information -----------------------------------------
DEPT  .FT    : Depth Curve
ASNED .OHMM  : AMPLIFIED SHORT NORMAL 16" FROM EL
CALWS .IN    : MLT (MICROLOG) CALIPER [MCALED]
CONDWS.MMHO  : CONDUCTIVITY [1000/DRESWS]
DRESWS.OHMM  : DEEP RESISTIVITY [LNED]
LLED  .OHMM  : LATEROLOG FROM LL LOG
LNED  .OHMM  : 64 INCH LONG NORMAL RESISTIVITY FROM EL
LT18ED.OHMM  : LATERAL 18' FROM EL
MCALED.IN    : MLT (MICROLOG) CALIPER LOG
SPR1ED.MV    : SPONTANEOUS POTENTIAL FROM MICRO LOG
SPRED .MV    : SPONTANEOUS POTENTIAL FROM EL
SPWS  .MV    : SPONTANEOUS POTENTIAL [BASELINE 0 MV] [SPRED]
SRESWS.OHMM  : SHALLOW RESISTIVITY [ASNED]
~Params ----------------------------------------------------
LMF .                     KB : LOG MEASURED FROM
DMF .                     KB : DRILLING MEASURED FROM
EKB .FT               3073.1 : KELLY BUSHING
DATE.               01/17/56 : RUN DATE
RUN .                      2 : RUN NUMBER
DD  .FT                 8290 : DEPTH DRILLER
DL  .FT                 8288 : DEPTH LOGGER
BLI .FT                 8287 : BOTTOM LOG INTERVAL
TLI .FT                 6100 : TOP LOG INTERVAL
CBD .FT                  611 : CASING BOTTOM DRILLER
CBL .FT                  612 : CASING BOTTOM LOGGER
BS  .IN                    9 : BIT SIZE
BSD .FT                 8290 : BIT SIZE AT DEPTH
DFT .              LIME BASE : DRILLING FLUID TYPE
DFD .                   10.5 : DRILLING FLUID DENSITY
DFV .                     85 : DRILLING FLUID VISCOSITY
DFPH.                     12 : DRILLING FLUID PH
DFL .                    4.4 : DRILLING FLUID LOSS
RMS .OHMM                1.4 : RESISTIVITY MUD SAMPLE
MST .DEGF                 50 : MUD SAMPLE TEMPERATURE
RMB .OHMM                0.5 : RESISTIVITY MUD AT BHT
TCS .HRS                   6 : TIME CIRCULATED STOPPED
LUN .                   1772 : LOGGING UNIT NUMBER
LUL .                     RD : LOGGING UNIT LOCATION
ENGI.               SHOQUIST : RECORDING ENGINEER
WITN.                 EDIGFF : WITNESSED BY
CLNT.                A2DTECH : CLIENT CODE
ORIG.            2" 5" PRINT : ORIGIN OF DATA
UWI .       100103604301W500 : UNIQUE WELL ID
DICO. A2D Technologies, Inc. : DIGITIZING COMPANY
LSRV.                     EL : LOG MNEMONIC
~Other -----------------------------------------------------
~ASCII -----------------------------------------------------
  650.00000   19.78710    9.46890   26.23360   38.11900    -999.25   38.11900   20.70930    9.46890    -999.25  -24.79820   11.00570   19.78710
  700.00000   16.27040    9.32950   36.00370   27.77500    -999.25   27.77500   22.46220    9.32950    -999.25  -36.36410   -0.56020   16.27040
  750.00000   10.55140    9.35250   86.48950   11.56210    -999.25   11.56210   11.86080    9.35250    -999.25  -44.05730   -8.25340   10.55140
  800.00000   10.25650   10.02360   48.67440   20.54470    -999.25   20.54470   15.27990   10.02360    -999.25  -45.17650   -9.37260   10.25650
  850.00000   14.23290   10.57180   62.08400   16.10720    -999.25   16.10720   46.17320   10.57180    -999.25  -43.97510   -8.17120   14.23290
  900.00000    4.51480   12.10150  108.98830    9.17530    -999.25    9.17530    4.40490   12.10150    -999.25  -21.01690   14.78700    4.51480
  950.00000    5.13480   12.07710  114.92730    8.70120    -999.25    8.70120    8.21980   12.07710    -999.25  -37.45210   -1.60410    5.13480
 1000.00000    4.64930   11.58830  148.28440    6.74380    -999.25    6.74380    5.94120   11.58830    -999.25  -37.77350   -1.25200    4.64930
 1050.00000    5.16690   10.90760  143.19670    6.98340    -999.25    6.98340    5.84180   10.90760    -999.25  -42.44750   -5.24900    5.16690
 1100.00000   12.20630    9.66160   69.45360   14.39810    -999.25   14.39810   13.12600    9.66160    -999.25  -46.32950   -8.45060   12.20630
 1150.00000    7.85940   11.31610   66.38960   15.06260    -999.25   15.06260    9.67470   11.31610    -999.25  -42.04940   -3.49680    7.85940
 1200.00000    6.25070   10.28650  103.78130    9.63570    -999.25    9.63570   10.74960   10.28650    -999.25  -45.49500   -6.26200    6.25070
 1250.00000    9.91840    9.39050   93.79100   10.66200    -999.25   10.66200   11.87670    9.39050    -999.25  -45.90500   -5.99840    9.91840
 1300.00000    7.26020   11.37210  101.63740    9.83890    -999.25    9.83890    8.75230   11.37210    -999.25  -45.35380   -4.77020    7.26020
 1350.00000    4.07510    9.86310  159.88870    6.25430    -999.25    6.25430    4.40390    9.86310    -999.25  -45.17650   -3.91260    4.07510
 1400.00000    4.88210   12.43430  146.13690    6.84290    -999.25    6.84290    8.72470   12.43430    -999.25  -48.22810   -6.29050    4.88210
 1450.00000    6.78390   12.78590  112.47960    8.89050    -999.25    8.89050   10.29800   12.78590    -999.25  -48.40150   -5.78350    6.78390
 1500.00000    5.58190   12.41820  126.58550    7.89980    -999.25    7.89980    9.63920   12.41820    -999.25  -45.95020   -2.65860    5.58190
 1550.00000    8.40560   11.13640  109.92880    9.09680    -999.25    9.09680   10.89160   11.13640    -999.25  -48.19570   -4.22700    8.40560
 1600.00000    5.30000   13.00920  152.78490    6.54520    -999.25    6.54520    9.81390   13.00920    -999.25  -45.79560   -2.93190    5.30000
 1650.00000    5.40040   11.13120  130.32540    7.67310    -999.25    7.67310    8.96910   11.13120    -999.25  -46.18520   -4.91090    5.40040
 1700.00000    8.27140   10.06620   86.59100   11.54860    -999.25   11.54860   10.25600   10.06620    -999.25  -48.65300   -8.98400    8.27140
 1750.00000   11.45870    9.44190   85.61640   11.68000    -999.25   11.68000   11.99560    9.44190    -999.25  -48.69020  -10.61060   11.45870
 1800.00000    8.87530    9.48250  122.78220    8.14450    -999.25    8.14450    8.94230    9.48250    -999.25  -47.40960  -10.92730    8.87530
 1850.00000   10.29100    9.49060   95.30710   10.49240    -999.25   10.49240   10.35130    9.49060    -999.25  -46.36780  -11.49090   10.29100
 1900.00000   14.02560    8.99690   51.20280   19.53020    -999.25   19.53020    6.30830    8.99690    -999.25  -44.72570  -11.43810   14.02560
 1950.00000    7.57470   10.78280   93.62420   10.68100    -999.25   10.68100    3.40030   10.78280    -999.25  -42.59020  -10.90800    7.57470
 2000.00000    5.67780   10.42640  131.89130    7.58200    -999.25    7.58200    8.26260   10.42640    -999.25  -42.23200  -12.13910    5.67780
 2050.00000    5.21060   10.63600  127.88710    7.81940    -999.25    7.81940    6.90970   10.63600    -999.25  -37.73380   -9.23820    5.21060
 2100.00000    7.91420   10.92200  104.23240    9.59390    -999.25    9.59390    9.28650   10.92200    -999.25  -34.82520   -7.93490    7.91420
 2150.00000    7.26480   10.21030   72.08190   13.87310    -999.25   13.87310   10.34260   10.21030    -999.25  -35.79560   -9.26500    7.26480
 2200.00000    7.33570   10.47440   94.18010   10.61800    -999.25   10.61800   10.33510   10.47440    -999.25  -34.80560   -8.16400    7.33570
 2250.00000    4.80640    9.78510  156.78400    6.37820    -999.25    6.37820    2.83440    9.78510    -999.25  -38.09710  -11.34560    4.80640
 2300.00000    5.84000   11.40660  122.66630    8.15220    -999.25    8.15220    7.09010   11.40660    -999.25  -34.94380   -8.08180    5.84000
 2350.00000   15.93880    9.17820   50.99040   19.61160    -999.25   19.61160   13.49890    9.17820    -999.25  -47.55660  -20.58350   15.93880
 2400.00000    4.33490   10.97160  199.04460    5.02400    -999.25    5.02400    6.40120   10.97160    -999.25  -32.58130   -5.49830    4.33490
 2450.00000    5.04890   11.58050  150.03410    6.66520    -999.25    6.66520    5.23090   11.58050    -999.25  -33.50230   -6.30820    5.04890
 2500.00000    4.59090   11.07950  150.01050    6.66620    -999.25    6.66620    8.39390   11.07950    -999.25  -32.43490   -5.13090    4.59090
 2550.00000    5.12630    9.93780  171.35320    5.83590    -999.25    5.83590    6.14040    9.93780    -999.25  -33.96180   -6.54730    5.12630
 2600.00000    9.74400    9.18420  104.46650    9.57240    -999.25    9.57240   11.95700    9.18420    -999.25  -40.14010  -12.61450    9.74400
 2650.00000    5.46410   11.14840  129.68150    7.71120    -999.25    7.71120    6.58740   11.14840    -999.25  -32.31200   -4.67650    5.46410
 2700.00000   13.11600    9.18760   54.95490   18.19680    -999.25   18.19680   15.27910    9.18760    -999.25  -38.57420  -10.82770   13.11600
 2750.00000   14.17930    9.67170   91.18510   10.96670    -999.25   10.96670   11.06040    9.67170    -999.25  -40.73040  -12.87390   14.17930
 2800.00000   13.30870    9.52110   69.29670   14.43070    -999.25   14.43070   12.36210    9.52110    -999.25  -39.01360  -11.04660   13.30870
 2850.00000   20.59410    8.92040   51.69740   19.34340    -999.25   19.34340   23.47160    8.92040    -999.25  -44.88040  -16.80240   20.59410
 2900.00000   12.46280    9.14450   81.25990   12.30620    -999.25   12.30620    7.58630    9.14450    -999.25  -36.92500   -8.73700   12.46280
 2950.00000    8.39440    9.47670  107.82950    9.27390    -999.25    9.27390    7.77970    9.47670    -999.25  -35.23570   -6.93660    8.39440
 3000.00000    9.91180    9.50340  106.37050    9.40110    -999.25    9.40110   18.26720    9.50340    -999.25  -38.01990   -9.61090    9.91180
 3050.00000    6.53250   10.83310  124.39980    8.03860    5.06080    8.03860    8.80270   10.83310    -999.25  -29.91490   -1.39540    6.53250
 3100.00000   12.93240    9.25160   90.24090   11.08150   14.67030   11.08150   13.12420    9.25160  -31.45000  -40.19170  -12.07620   12.93240
 3150.00000   21.22870    8.67000   39.58360   25.26300   11.81610   25.26300   12.22430    8.67000  -50.86120  -48.13580  -20.47030   21.22870
 3200.00000   11.22020    8.74200   96.50230   10.36240    4.92240   10.36240   17.51100    8.74200  -45.56030  -41.66080  -14.44990   11.22020
 3250.00000   13.24150    9.37920   59.62100   16.77260   10.08610   16.77260   10.84650    9.37920  -32.88210  -41.62900  -14.86820   13.24150
 3300.00000   10.88920    9.19500   94.93250   10.53380    6.06710   10.53380   11.61700    9.19500  -28.31820  -38.70220  -12.39370   10.88920
 3350.00000   19.95950    9.01820   45.76240   21.85200   13.82950   21.85200   24.86540    9.01820  -51.16000  -49.50620  -23.65230   19.95950
 3400.00000    7.23100    9.95830  111.32510    8.98270    7.66010    8.98270    6.45740    9.95830  -27.77380  -31.00480   -5.60090    7.23100
