~Version ---------------------------------------------------
VERS.      2.0 : CWLS log ASCII Standard -VERSION 2.0
WRAP.       NO : One line per depth step
CREA. 10/27/17 : LAS Creation Date
~Well ------------------------------------------------------
STRT.FT                          950.0 : START DEPTH
STOP.FT                         9950.0 : STOP DEPTH
STEP.FT                       50.00000 : STEP LENGTH
NULL.                          -999.25 : NULL VALUE
COMP. AMOCO CANADA PETROLEUM CO., LTD. : COMPANY
WELL.  AMOCO HBOG WINDFALL 16-29-61-16 : WELL
FLD .                                  : FIELD
LOC .                                  : LOCATION
CTRY.                           CANADA : COUNTRY
SRVC.                     Schlumberger : SERVICE COMPANY
DATE.                      22-Dec-1976 : LOGDATE
PROV.                          Alberta : PROVINCE
UWI .                 100162906116W500 : UNIQUE WELL ID
SLAT.WGS84                    54.30881 : SURFACE LATITUDE
SLON.WGS84                   -116.3532 : SURFACE LONGITUDE
~Curve Information -----------------------------------------
DEPT    .FT    : Depth Curve
CALDED  .IN    : CALIPER FROM DENSITY LOG [ADJ. TO RESISTIVITY LOG]
CALSED  .IN    : CALIPER FROM SONIC LOG [ADJ. TO RESISTIVITY LOG]
CALWS   .IN    : CALIPER [CALDED]
CONDWS  .MMHO  : CONDUCTIVITY [1000/DRESWS]
DCORWS  .G/C3  : DENSITY CORRECTION [DRHOED]
DENWS   .G/C3  : FORMATION BULK DENSITY [RHOBED]
DPHILSED.V/V   : DENSITY POROSITY LIMESTONE [M=2.71, F=1.00] FROM DENSITY LOG [ADJ. TO RESISTIVITY LOG]
DPHISSED.V/V   : DENSITY POROSITY SANDSTONE [M=2.65, F=1.00] FROM DENSITY LOG [ADJ. TO RESISTIVITY LOG]
DPOLSWS .V/V   : DENSITY POROSITY LIMESTONE [CALC. FROM DENWS M=2.71, F=1.00]
DRESWS  .OHMM  : DEEP RESISTIVITY [ILDED]
DRHOED  .G/C3  : DENSITY CORRECTION FROM DENSITY LOG [ADJ. TO RESISTIVITY LOG/DPHISSED/DPHILSED]
DTED    .US/F  : DELTA TIME FROM SONIC LOG [ADJ. TO RESISTIVITY LOG]
DTWS    .US/F  : COMPRESSIONAL SONIC [DTED]
GRDED   .GAPI  : GAMMA RAY FROM DENSITY LOG [ADJ. TO RESISTIVITY LOG]
GRSED   .GAPI  : GAMMA RAY FROM SONIC LOG [ADJ. TO RESISTIVITY LOG]
GRWS    .GAPI  : GAMMA RAY [GRSED]
ILDED   .OHMM  : DEEP INDUCTION FROM RESISTIVITY LOG
ILMED   .OHMM  : MEDIUM INDUCTION FROM RESISTIVITY LOG
LL8ED   .OHMM  : 8 INCH LATEROLOG FROM RESISTIVITY LOG
MRESWS  .OHMM  : MEDIUM RESISTIVITY [ILMED]
NPHILSED.V/V   : NEUTRON POROSITY LIMESTONE FROM DENSITY LOG [ADJ. TO RESISTIVITY LOG]
NPHISSED.V/V   : NEUTRON POROSITY SANDSTONE FROM DENSITY LOG [ADJ. TO RESISTIVITY LOG]
NPOLSWS .V/V   : NEUTRON POROSITY LIMESTONE [NPHISSED MATRIX CONVERSION FOR LIMESTONE, SPL. TO NPHILSED @ 6250']
RHOBED  .G/C3  : BULK DENSITY FROM DENSITY LOG [ADJ. TO RESISTIVITY LOG/DPHISSED/DPHILSED]
SPRED   .MV    : SPONTANEOUS POTENTIAL FROM RESISTIVITY LOG
SPWS    .MV    : SPONTANEOUS POTENTIAL [BASELINE 0 MV, SPRED]
SRESWS  .OHMM  : SHALLOW RESISTIVITY [LL8ED]
~Params ----------------------------------------------------
PD  .                     GL : PERMANENT DATUM
EPD .FT                 2851 : ELEVATION PERMANENT DATUM
LMF .                     KB : LOG MEASURED FROM
DAPD.FT                   14 : FEET ABOVE PERMANENT DATUM
DMF .                     KB : DRILLING MEASURED FROM
EKB .FT                 2875 : KELLY BUSHING
EGL .FT                 2861 : GROUND LEVEL
DATE.               12/22/76 : RUN DATE
RUN .                      1 : RUN NUMBER
DD  .FT                 9966 : DEPTH DRILLER
DL  .FT                 9964 : DEPTH LOGGER
BLI .FT                 9958 : BOTTOM LOG INTERVAL
TLI .FT                 1029 : TOP LOG INTERVAL
CBD .FT                 1030 : CASING BOTTOM DRILLER
CBL .FT                 1029 : CASING BOTTOM LOGGER
BS  .IN                 8.75 : BIT SIZE
BSD .FT                 9966 : BIT SIZE AT DEPTH
DFT .               GEL CHEM : DRILLING FLUID TYPE
DFD .                    9.3 : DRILLING FLUID DENSITY
DFV .                     70 : DRILLING FLUID VISCOSITY
DFPH.                      9 : DRILLING FLUID PH
DFL .                      9 : DRILLING FLUID LOSS
MSS .             CIRCULATED : MUD SAMPLE SOURCE
RMF .OHMM               2.16 : RESISTIVITY MUD FILTRATE SAMPLE
MFST.DEGF                 74 : MUD FILTRATE SAMPLE TEMPERATURE
RMC .OHMM               2.83 : RESISTIVITY MUD CAKE
MCST.DEGF                 68 : MUD CAKE SAMPLE TEMPERATURE
LUN .                   7772 : LOGGING UNIT NUMBER
LUL .                    EDM : LOGGING UNIT LOCATION
ENGI.                   BIGG : RECORDING ENGINEER
WITN.                  LENTZ : WITNESSED BY
CLNT.                A2DTECH : CLIENT CODE
ORIG.            2" 5" PRINT : ORIGIN OF DATA
UWI .       100162906116W500 : UNIQUE WELL ID
DICO. A2D Technologies, Inc. : DIGITIZING COMPANY
~Other -----------------------------------------------------
DIL-LL-CNFD-BHC LOG RUN
~ASCII -----------------------------------------------------
# ...
 6150.00000   12.60800   13.11270   12.60800  116.58540    0.26720    2.47010    -999.25    0.10690    0.14030    8.57740    0.26720   78.93190   78.93190  118.37290   88.43310   88.43310    8.57740    9.07620   12.20460    9.07620    -999.25    0.30290    0.25890    2.47010  -18.87590  -10.58010   12.20460
 6200.00000   10.78050   13.06290   10.78050   94.42280    0.05190    2.59380    -999.25    0.03650    0.06800   10.60310    0.05190   76.00130   76.00130   81.50140   60.42950   60.42950   10.60310   11.22100   10.68090   11.22100    -999.25    0.24150    0.19770    2.59380  -25.07820  -16.67270   10.68090
 6250.00000   11.53590   12.14100   11.53590   82.59680    0.12600    2.24730    -999.25    0.22910    0.27060   12.10700    0.12600   73.21780   73.21780   88.49640   53.24780   53.24780   12.10700   14.13720   46.14410   14.13720    -999.25    0.25380    0.20990    2.24730  -15.56640   -7.05240   46.14410
 6300.00000    9.65050   11.81010    9.65050    3.38600    0.03830    2.59930    0.05510    -999.25    0.06470  295.33700    0.03830   79.12600   79.12600   32.46910   22.61350   22.61350  295.33700  201.36440  374.39060  201.36440    0.07390    -999.25    0.07390    2.59930  -43.82990  -34.08440  374.39060
 6350.00000    9.95090   12.14810    9.95090   64.04470    0.03310    2.59760    0.06060    -999.25    0.06570   15.61690    0.03310   96.91600   96.91600   99.58790   65.28280   65.28280   15.61690   16.27950   22.69720   16.27950    0.08740    -999.25    0.08740    2.59760  -46.51040  -35.49220   22.69720
 6400.00000    8.87080   12.48810    8.87080  847.96070    0.02000    2.42760    0.16000    -999.25    0.16510    1.17930    0.02000   69.88400   69.88400   54.35080   31.32210   31.32210    1.17930    2.11750   16.41800    2.11750    0.23150    -999.25    0.23150    2.42760 -151.46210 -139.18400   16.41800
 6450.00000    8.79750   10.65240    8.79750  111.76560    0.06340    2.61820    0.05260    -999.25    0.05370    8.94740    0.06340   54.05400   54.05400   15.79770   11.54180   11.54180    8.94740   14.13370  106.07290   14.13370    0.12360    -999.25    0.12360    2.61820 -127.25690 -113.70620  106.07290
 6500.00000   10.98370   12.30300   10.98370   51.68600    0.24070    2.63700    0.04870    -999.25    0.04270   19.34760    0.24070   55.10200   55.10200   38.49150   23.58700   23.58700   19.34760   23.05570   38.98240   23.05570    0.08950    -999.25    0.08950    2.63700  -61.76210  -46.95140   38.98240
 6550.00000   10.10470   12.31160   10.10470   86.22400    0.00600    2.65390    0.02830    -999.25    0.03280   11.59770    0.00600   59.50800   59.50800   51.79930   34.77800   34.77800   11.59770   10.67050   26.92330   10.67050    0.07950    -999.25    0.07950    2.65390  -58.78750  -42.71060   26.92330
 6600.00000   10.31650   12.23120   10.31650   14.63320    0.00120    2.65960    0.02770    -999.25    0.02950   68.39560    0.00120   54.09400   54.09400   53.39460   35.76260   35.76260   68.39560   76.21940   94.77960   76.21940    0.02140    -999.25    0.02140    2.65960  -50.02560  -32.67610   94.77960
 6650.00000    9.53910   12.15930    9.53910   62.48360    0.03080    2.62390    0.03720    -999.25    0.05040   16.00420    0.03080   51.12800   51.12800   13.39290   10.49490   10.49490   16.00420   29.88850  169.61750   29.88850    0.03370    -999.25    0.03370    2.62390 -160.79360 -142.18410  169.61750
 6700.00000    9.65380   12.24510    9.65380   46.28780    0.02410    2.59840    0.06170    -999.25    0.06530   21.60760    0.02410   49.92200   49.92200   12.46580    9.68650    9.68650   21.60760   34.75050  357.52060   34.75050    0.01870    -999.25    0.01870    2.59840 -184.57620 -164.69420  357.52060
 6750.00000    9.91440   12.27300    9.91440  111.87430    0.00690    2.67650    0.01950    -999.25    0.01960    8.93860    0.00690   63.81200   63.81200   92.19100   56.45850   56.45850    8.93860   13.02410   17.00050   13.02410    0.04860    -999.25    0.04860    2.67650  -35.24840  -14.10640   17.00050
 6800.00000    9.94800   12.25860    9.94800  241.27200    0.00030    2.64610    0.03610    -999.25    0.03740    4.14470    0.00030   65.06400   65.06400   76.99870   52.11420   52.11420    4.14470    4.43390    6.44850    4.43390    0.15710    -999.25    0.15710    2.64610  -48.80200  -27.51380    6.44850
 6850.00000    9.84910   12.22850    9.84910  106.34740    0.02730    2.64830    0.03550    -999.25    0.03610    9.40900    0.02730   64.86600   64.86600   89.89070   64.65660   64.65660    9.40900   10.57930   13.60620   10.57930    0.09850    -999.25    0.09850    2.64830  -31.27050  -11.75200   13.60620
 6900.00000   10.23710   12.27430   10.23710   18.86890   -0.00290    2.66440    0.02470    -999.25    0.02670   52.99740   -0.00290   56.76000   56.76000   41.82420   28.96300   28.96300   52.99740   68.70580   99.59040   68.70580    0.01060    -999.25    0.01060    2.66440  -29.97660  -12.21030   99.59040
 6950.00000   10.09480   12.23700   10.09480    7.11900    0.00940    2.66280    0.02430    -999.25    0.02760  140.52180    0.00940   55.75000   55.75000   22.47770   12.67950   12.67950  140.52180  214.00950  555.21830  214.00950    0.00750    -999.25    0.00750    2.66280  -49.97590  -33.97940  555.21830
 7000.00000    9.90110   12.17480    9.90110   18.57100    0.02600    2.64480    0.03700    -999.25    0.03810   53.84750    0.02600   56.44800   56.44800   34.00890   24.34450   24.34450   53.84750   65.00100  112.06810   65.00100    0.01190    -999.25    0.01190    2.64480  -18.65400   -4.40960  112.06810
 7050.00000    9.68550   12.12140    9.68550    9.58310    0.01970    2.67900    0.01520    -999.25    0.01810  104.35060    0.01970   58.06800   58.06800   23.70130   14.55830   14.55830  104.35060  130.63280  163.56370  130.63280    0.00720    -999.25    0.00720    2.67900  -49.84030  -36.81810  163.56370
 7100.00000    9.67330   12.15060    9.67330    8.37480    0.00590    2.61320    0.05580    -999.25    0.05660  119.40550    0.00590   56.40000   56.40000   28.31970   19.70010   19.70010  119.40550  137.89000  149.31200  137.89000    0.01520    -999.25    0.01520    2.61320  -43.52880  -31.12420  149.31200
 7150.00000    9.55940   12.13290    9.55940    6.93020    0.00340    2.64500    0.03430    -999.25    0.03800  144.29530    0.00340   54.37600   54.37600   31.64630   19.21180   19.21180  144.29530  167.68720  217.49230  167.68720    0.01880    -999.25    0.01880    2.64500  -30.68460  -18.89160  217.49230
 7200.00000    9.56830   12.08220    9.56830   17.60070   -0.01810    2.63550    0.04470    -999.25    0.04360   56.89460   -0.01810   56.95400   56.95400   41.89490   26.08610   26.08610   56.89460   62.46740   83.72720   62.46740    0.01440    -999.25    0.01440    2.63550  -19.56780   -8.39240   83.72720
 7250.00000    9.72360   12.12420    9.72360    3.39160    0.00200    2.65360    0.02820    -999.25    0.03300  294.84710    0.00200   47.50000   47.50000   46.56640   29.84650   29.84650  294.84710  420.72350  544.68990  420.72350    0.00650    -999.25    0.00650    2.65360  -43.83810  -33.27430  544.68990
 7300.00000   11.52710   12.45000   11.52710    5.37260    0.21160    2.62570    0.04260    -999.25    0.04930  186.12910    0.21160   52.16800   52.16800   23.74330   17.40700   17.40700  186.12910  470.62800  847.02370  470.62800    0.00810    -999.25    0.00810    2.62570  -50.83830  -40.88910  847.02370
 7350.00000   11.60070   12.48640   11.60070    1.84090    0.24150    2.55040    0.09450    -999.25    0.09330  544.41780    0.24150   50.03600   50.03600   20.59620   13.37020   13.37020  544.41780 1470.05140  603.24030 1470.05140    0.01040    -999.25    0.01040    2.55040  -68.80470  -58.46930  603.24030
 7400.00000   10.22550   12.19170   10.22550    3.96170    0.00190    2.63330    0.04740    -999.25    0.04490  252.41620    0.00190   50.25200   50.25200   16.03320   14.26680   14.26680  252.41620  273.64480  317.02560  273.64480   -0.00020    -999.25   -0.00020    2.63330 -120.85800 -106.88390  317.02560
