~Version ---------------------------------------------------
VERS.      2.0 : CWLS log ASCII Standard -VERSION 2.0
WRAP.       NO : One line per depth step
CREA. 01/03/18 : LAS Creation Date
~Well ------------------------------------------------------
STRT.FT                 1000.0 : START DEPTH
STOP.FT                12750.0 : STOP DEPTH
STEP.FT               50.00000 : STEP LENGTH
NULL.                  -999.25 : NULL VALUE
COMP.      TALISMAN ENERGY INC : COMPANY
WELL. TALISMAN EDSON 6-8-52-17 : WELL
FLD .                          : FIELD
LOC .                          : LOCATION
CTRY.                   CANADA : COUNTRY
SRVC.   Schlumberger of Canada : SERVICE COMPANY
DATE.              06-May-1978 : LOGDATE
PROV.                  Alberta : PROVINCE
UWI .         100060805217W500 : UNIQUE WELL ID
SLAT.WGS84            53.47276 : SURFACE LATITUDE
SLON.WGS84           -116.4739 : SURFACE LONGITUDE
~Curve Information -----------------------------------------
DEPT    .FT    : Depth Curve
CALDED  .IN    : CALIPER FROM DENSITY LOG [ADJ. TO RESISTIVITY LOG]
CALSED  .IN    : CALIPER FROM SONIC LOG
CALWS   .IN    : CALIPER [CALSED]
CILDED  .MMHO  : DEEP CONDUCTIVITY FROM RESISTIVITY LOG
CONDWS  .MMHO  : CONDUCTIVITY [1000/DRESWS]
DCORED  .G/C3  : DENSITY CORRECTION FROM DENSITY LOG
DCORWS  .G/C3  : DENSITY CORRECTION [DCORED]
DENWS   .G/C3  : FORMATION BULK DENSITY [CALC. FROM DPOLSWS , M=2.71 F=1.00]
DPHILSED.V/V   : DENSITY POROSITY LIMESTONE [M=2.71 F=1.00] FROM DENSITY LOG [ADJ. TO RESISTIVITY LOG]
DPHISSED.V/V   : DENSITY POROSITY SANDSTONE [M=2.71 F=1.00] FROM DENSITY LOG [ADJ. TO RESISTIVITY LOG]
DPOLSWS .V/V   : DENSITY POROSITY LIMESTONE [DPHISSED MATRIX CONVERSION FOR LIMESTONE , M=2.71 F=1.00 & SPL TO DPHILSED @ 9209']
DRESWS  .OHMM  : DEEP RESISTIVITY [1000/CILDED IF ILDED<1, ILDED & SPL. TO ILDED 6256']
DTED    .US/F  : DELTA TIME FROM SONIC LOG
DTWS    .US/F  : COMPRESSIONAL SONIC [DTED]
GRDED   .GAPI  : GAMMA RAY FROM DENSITY LOG [ADJ. TO RESISTIVITY LOG]
GRSED   .GAPI  : GAMMA RAY FROM SONIC LOG
GRWS    .GAPI  : GAMMA RAY [GRSED]
ILDED   .OHMM  : DEEP INDUCTION RESISTIVITY FROM RESISTIVITY LOG
ILMED   .OHMM  : MEDIUM INDUCTION RESISTIVITY FROM RESISTIVITY LOG
LL8ED   .OHMM  : LATEROLOG 8 RESISTIVITY FROM RESISTIVITY LOG
MRESWS  .OHMM  : MEDIUM RESISTIVITY [ILMED]
NPHILSED.V/V   : NEUTRON POROSITY LIMESTONE FROM DENSITY LOG [ADJ. TO RESISTIVITY LOG]
NPHISSED.V/V   : NEUTRON POROSITY  SANDSTONE FROM DENSITY LOG [ADJ. TO RESISTIVITY LOG]
NPOLSWS .V/V   : NEUTRON POROSITY LIMESTONE [NPHISSED MATRIX CONVERSION FOR LIMESTONE & SPL. TO NPHILSED @ 9198']
RHOBED  .G/C3  : FORMATION BULK DENSITY  FROM DENSITY LOG[ADJ. TO RESISTIVITY LOG]
SPRED   .MV    : SPONTANEOUS POTENTIAL FROM RESISTIVITY LOG
SPWS    .MV    : SPONTANEOUS POTENTIAL [BASELINE 0 MV. SPRED]
SRESWS  .OHMM  : SHALLOW RESISTIVITY [LL8ED]
~Params ----------------------------------------------------
PD  .                     GL : PERMANENT DATUM
EPD .FT               3147.2 : ELEVATION PERMANENT DATUM
LMF .                     KB : LOG MEASURED FROM
DAPD.FT                 22.3 : FEET ABOVE PERMANENT DATUM
EKB .FT               3169.5 : KELLY BUSHING
EGL .FT               3147.2 : GROUND LEVEL
DATE.               05/31/78 : RUN DATE
RUN .                      2 : RUN NUMBER
DD  .FT                12769 : DEPTH DRILLER
DL  .FT                12757 : DEPTH LOGGER
BLI .FT                12751 : BOTTOM LOG INTERVAL
TLI .FT                 9616 : TOP LOG INTERVAL
CBD .FT                 9625 : CASING BOTTOM DRILLER
BS  .IN                  8.5 : BIT SIZE
BSD .FT                12769 : BIT SIZE AT DEPTH
DFT .                    GEL : DRILLING FLUID TYPE
DFD .                    9.1 : DRILLING FLUID DENSITY
DFV .                     51 : DRILLING FLUID VISCOSITY
DFPH.                     10 : DRILLING FLUID PH
DFL .                     22 : DRILLING FLUID LOSS
MSS .               FLOWLINE : MUD SAMPLE SOURCE
RMF .OHMM              0.809 : RESISTIVITY MUD FILTRATE SAMPLE
MFST.DEGF                 63 : MUD FILTRATE SAMPLE TEMPERATURE
TCS .HRS                  12 : TIME CIRCULATED STOPPED
LUN .                   7800 : LOGGING UNIT NUMBER
LUL .                    EDM : LOGGING UNIT LOCATION
ENGI.               BERNISKY : RECORDING ENGINEER
WITN.               BRINKMAN : WITNESSED BY
CLNT.                A2DTECH : CLIENT CODE
ORIG.            2" 5" PRINT : ORIGIN OF DATA
UWI .       100060805217W500 : UNIQUE WELL ID
DICO. A2D Technologies, Inc. : DIGITIZING COMPANY
~Other -----------------------------------------------------
~ASCII -----------------------------------------------------
# ...
 4750.00000    -999.25   13.18440   13.18440   65.57220   56.52560    -999.25    -999.25    -999.25    -999.25    -999.25    -999.25   17.69110   74.11420   74.11420    -999.25   76.68330   76.68330   17.69110    -999.25   13.20810    -999.25    -999.25    -999.25    -999.25    -999.25 -295.23100   -8.68760   13.20810
 4800.00000    -999.25   12.67020   12.67020   26.89090   23.54850    -999.25    -999.25    -999.25    -999.25    -999.25    -999.25   42.51270   56.19870   56.19870    -999.25   48.18990   48.18990   42.51270    -999.25   47.61580    -999.25    -999.25    -999.25    -999.25    -999.25 -292.22140  -11.74310   47.61580
 4850.00000    -999.25   13.26000   13.26000   77.22070   92.45220    -999.25    -999.25    -999.25    -999.25    -999.25    -999.25   10.81640   84.58120   84.58120    -999.25   74.48280   74.48280   10.81640    -999.25   14.58820    -999.25    -999.25    -999.25    -999.25    -999.25 -293.91680  -10.09390   14.58820
 4900.00000    -999.25   14.66610   14.66610  122.42620  121.78640    -999.25    -999.25    -999.25    -999.25    -999.25    -999.25    8.21110   79.68010   79.68010    -999.25   74.36220   74.36220    8.21110    -999.25    9.26830    -999.25    -999.25    -999.25    -999.25    -999.25 -296.44610   -7.61040    9.26830
 4950.00000    -999.25   15.03240   15.03240  157.86800  161.32410    -999.25    -999.25    -999.25    -999.25    -999.25    -999.25    6.19870   75.88220   75.88220    -999.25   82.29250   82.29250    6.19870    -999.25    7.63030    -999.25    -999.25    -999.25    -999.25    -999.25 -295.20140   -8.90130    7.63030
 5000.00000    -999.25   13.95420   13.95420  125.28690  117.96350    -999.25    -999.25    -999.25    -999.25    -999.25    -999.25    8.47720   77.36760   77.36760    -999.25   80.96490   80.96490    8.47720    -999.25    7.71490    -999.25    -999.25    -999.25    -999.25    -999.25 -297.53550   -6.61310    7.71490
 5050.00000    -999.25   14.34070   14.34070   80.16280   87.13730    -999.25    -999.25    -999.25    -999.25    -999.25    -999.25   11.55050   75.84060   75.84060    -999.25   81.39660   81.39660   11.55050    -999.25    9.50050    -999.25    -999.25    -999.25    -999.25    -999.25 -294.88720   -9.30730    9.50050
 5100.00000    -999.25   13.98920   13.98920   92.14450  100.43990    -999.25    -999.25    -999.25    -999.25    -999.25    -999.25    9.95620   79.29640   79.29640    -999.25   87.27720   87.27720    9.95620    -999.25   17.33070    -999.25    -999.25    -999.25    -999.25    -999.25 -296.89430   -7.34640   17.33070
 5150.00000    -999.25   13.37730   13.37730   97.77220  100.78820    -999.25    -999.25    -999.25    -999.25    -999.25    -999.25    9.92180   77.29480   77.29480    -999.25   83.43100   83.43100    9.92180    -999.25   11.95300    -999.25    -999.25    -999.25    -999.25    -999.25 -299.67190   -4.61470   11.95300
 5200.00000    -999.25   13.30560   13.30560   79.94980   82.53890    -999.25    -999.25    -999.25    -999.25    -999.25    -999.25   12.11550   72.82980   72.82980    -999.25   78.54150   78.54150   12.11550    -999.25   13.89660    -999.25    -999.25    -999.25    -999.25    -999.25 -295.43210   -8.90070   13.89660
 5250.00000    -999.25   14.20890   14.20890   75.08250   77.42400    -999.25    -999.25    -999.25    -999.25    -999.25    -999.25   12.91590   74.41820   74.41820    -999.25   77.83960   77.83960   12.91590    -999.25   14.02800    -999.25    -999.25    -999.25    -999.25    -999.25 -295.17130   -9.20740   14.02800
 5300.00000    -999.25   13.56480   13.56480   79.87140   85.31750    -999.25    -999.25    -999.25    -999.25    -999.25    -999.25   11.72100   73.05440   73.05440    -999.25   77.45850   77.45850   11.72100    -999.25   13.84690    -999.25    -999.25    -999.25    -999.25    -999.25 -297.86500   -6.55960   13.84690
 5350.00000    -999.25   14.14960   14.14960   62.30910   43.43520    -999.25    -999.25    -999.25    -999.25    -999.25    -999.25   23.02280  107.36310  107.36310    -999.25   77.18880   77.18880   23.02280    -999.25   12.79150    -999.25    -999.25    -999.25    -999.25    -999.25 -299.91700   -4.55380   12.79150
 5400.00000    -999.25   12.52310   12.52310   44.01770   43.15240    -999.25    -999.25    -999.25    -999.25    -999.25    -999.25   23.17370   67.58260   67.58260    -999.25   63.20910   63.20910   23.17370    -999.25   23.94470    -999.25    -999.25    -999.25    -999.25    -999.25 -299.34090   -5.17570   23.94470
 5450.00000    -999.25   13.98230   13.98230  110.05000  112.24350    -999.25    -999.25    -999.25    -999.25    -999.25    -999.25    8.90920   80.71520   80.71520    -999.25   79.37830   79.37830    8.90920    -999.25   15.48300    -999.25    -999.25    -999.25    -999.25    -999.25 -300.91460   -3.64820   15.48300
 5500.00000    -999.25   13.28320   13.28320  107.16450  104.03880    -999.25    -999.25    -999.25    -999.25    -999.25    -999.25    9.61180   79.10280   79.10280    -999.25   82.10860   82.10860    9.61180    -999.25   11.39830    -999.25    -999.25    -999.25    -999.25    -999.25 -302.05360   -2.55510   11.39830
 5550.00000    -999.25   13.38860   13.38860  101.90310  102.14350    -999.25    -999.25    -999.25    -999.25    -999.25    -999.25    9.79880   79.58930   79.58930    -999.25  119.58130  119.58130    9.79880    -999.25   11.78010    -999.25    -999.25    -999.25    -999.25    -999.25 -300.98130   -3.67330   11.78010
 5600.00000    -999.25   13.76780   13.76780   69.41930   87.06550    -999.25    -999.25    -999.25    -999.25    -999.25    -999.25   11.48560   75.42000   75.42000    -999.25  103.70040  103.70040   11.48560    -999.25   17.96410    -999.25    -999.25    -999.25    -999.25    -999.25 -300.85590   -3.84490   17.96410
 5650.00000    -999.25   12.93660   12.93660   94.36850   96.07260    -999.25    -999.25    -999.25    -999.25    -999.25    -999.25   10.40880   69.81360   69.81360    -999.25   99.16620   99.16620   10.40880    -999.25   10.92680    -999.25    -999.25    -999.25    -999.25    -999.25 -302.03240   -2.71430   10.92680
 5700.00000    -999.25   13.34130   13.34130   86.73280   80.92250    -999.25    -999.25    -999.25    -999.25    -999.25    -999.25   12.35750   71.35430   71.35430    -999.25  104.01550  104.01550   12.35750    -999.25   14.79790    -999.25    -999.25    -999.25    -999.25    -999.25 -301.05330   -3.73960   14.79790
 5750.00000    -999.25   13.74940   13.74940   92.25200   89.18780    -999.25    -999.25    -999.25    -999.25    -999.25    -999.25   11.21230   77.53390   77.53390    -999.25  119.58080  119.58080   11.21230    -999.25   12.70640    -999.25    -999.25    -999.25    -999.25    -999.25 -301.26660   -3.57220   12.70640
 5800.00000    -999.25   13.23420   13.23420   87.27790   85.63130    -999.25    -999.25    -999.25    -999.25    -999.25    -999.25   11.67850   79.59180   79.59180    -999.25  118.06380  118.06380   11.67850    -999.25    9.73830    -999.25    -999.25    -999.25    -999.25    -999.25 -302.37860   -2.50610    9.73830
 5850.00000    -999.25   12.74640   12.74640   75.93520   76.31200    -999.25    -999.25    -999.25    -999.25    -999.25    -999.25   13.10410   82.16300   82.16300    -999.25  114.99650  114.99650   13.10410    -999.25   16.29470    -999.25    -999.25    -999.25    -999.25    -999.25 -304.47610   -0.45480   16.29470
 5900.00000    -999.25   12.22030   12.22030   58.65430   54.98370    -999.25    -999.25    -999.25    -999.25    -999.25    -999.25   18.18720   81.84370   81.84370    -999.25  137.51450  137.51450   18.18720    -999.25   16.18250    -999.25    -999.25    -999.25    -999.25    -999.25 -301.81950   -3.15720   16.18250
 5950.00000    -999.25   13.01630   13.01630   64.48340   65.86620    -999.25    -999.25    -999.25    -999.25    -999.25    -999.25   15.18230   76.25390   76.25390    -999.25  110.20260  110.20260   15.18230    -999.25   15.71560    -999.25    -999.25    -999.25    -999.25    -999.25 -303.16880   -1.85410   15.71560
