~Version ---------------------------------------------------
VERS.      2.0 : CWLS log ASCII Standard -VERSION 2.0
WRAP.       NO : One line per depth step
CREA. 09/27/17 : LAS Creation Date
~Well ------------------------------------------------------
STRT.FT                    300.0 : START DEPTH
STOP.FT                  13950.0 : STOP DEPTH
STEP.FT                 50.00000 : STEP LENGTH
NULL.                    -999.25 : NULL VALUE
COMP.   PENN WEST PETROLEUM LTD. : COMPANY
WELL. CONOCO WEB PECO 6-26-47-15 : WELL
FLD .                       PECO : FIELD
LOC .                            : LOCATION
CTRY.                     CANADA : COUNTRY
SRVC.     Schlumberger of Canada : SERVICE COMPANY
DATE.                03-May-1960 : LOGDATE
PROV.                    Alberta : PROVINCE
UWI .           100062604715W500 : UNIQUE WELL ID
SLAT.WGS84         53.0817985535 : SURFACE LATITUDE
SLON.WGS84       -116.0888900757 : SURFACE LONGITUDE
~Curve Information -----------------------------------------
DEPT  .FT         : Depth Curve
CALMED.IN         : CALIPER FROM MICRO LOG [ADJ. TO EL LOG]
CALWS .IN         : CALIPER [MCALED SPL. TO CALMED @ 9383']
CILDED.MMHO       : CONDUCTIVITY FROM IL LOG
CONDWS.MMHO       : CONDUCTIVITY [1000/DRESWS]
DRESWS.OHMM       : DEEP RESISTIVITY [LNED]
DT1ED .US/F       : DELTA-T 1 FEET SPACING FROM SONIC LOG [ADJ. TO EL LOG/DTED]
DTED  .US/F       : DELTA-T 3 FEET SPACING FROM SONIC LOG [ADJ. TO EL LOG]
DTWS  .US/F       : COMPRESSIONAL SONIC [DTED]
GRSED .UgRa-Eq/T  : GAMMA RAY FROM SONIC LOG [ADJ. TO EL LOG]
GRWS  .GAPI       : GAMMA RAY [GRSED*16.50, GRWS (CSG+15) @ 9354'-9407']
ILDED .OHMM       : DEEP INDUCTION FROM IL LOG
LNED  .OHMM       : LONG NORMAL FROM EL LOG
LT18ED.OHMM       : LATERAL 18 FROM EL LOG
MCALED.IN         : CALIPER FROM MICRO LOG [ADJ. TO EL LOG]
MLLED .OHMM       : CALIPER FROM MICRO LOG [ADJ. TO EL LOG]
SNED  .OHMM       : SHORT NORMAL FROM EL LOG
SPR1ED.MV         : SPONTANEOUS POTENTIAL FROM IL LOG
SPRED .MV         : SPONTANEOUS POTENTIAL FROM EL LOG
SPWS  .MV         : SPONTANEOUS POTENTIAL [SPRED SPL. TO SPR1ED @ 9383', BASELINE 0 MV]
SRESWS.OHMM       : SHALLOW RESISTIVITY [SNED]
~Params ----------------------------------------------------
PD  .                    GND : PERMANENT DATUM
LMF .                    GND : LOG MEASURED FROM
DMF .                    GND : DRILLING MEASURED FROM
EGL .FT                 3857 : GROUND LEVEL
DATE.               05/03/60 : RUN DATE
RUN .                      2 : RUN NUMBER
DD  .FT                13975 : DEPTH DRILLER
DL  .FT                13965 : DEPTH LOGGER
BLI .FT                13960 : BOTTOM LOG INTERVAL
TLI .FT                 9389 : TOP LOG INTERVAL
CBD .FT                 9386 : CASING BOTTOM DRILLER
CBL .FT                 9389 : CASING BOTTOM LOGGER
BS  .IN                8.875 : BIT SIZE
BSD .FT                13975 : BIT SIZE AT DEPTH
DFT .                   LIME : DRILLING FLUID TYPE
DFD .                     10 : DRILLING FLUID DENSITY
DFV .                     96 : DRILLING FLUID VISCOSITY
DFPH.                     13 : DRILLING FLUID PH
RMS .OHMM               0.69 : RESISTIVITY MUD SAMPLE
MST .DEGF                 58 : MUD SAMPLE TEMPERATURE
RMF .OHMM                0.4 : RESISTIVITY MUD FILTRATE SAMPLE
MFST.DEGF                 70 : MUD FILTRATE SAMPLE TEMPERATURE
RMC .OHMM                0.7 : RESISTIVITY MUD CAKE
MCST.DEGF                 70 : MUD CAKE SAMPLE TEMPERATURE
RMB .OHMM               0.16 : RESISTIVITY MUD AT BHT
TCS .HRS                   5 : TIME CIRCULATED STOPPED
LUN .               DSU C 72 : LOGGING UNIT NUMBER
ENGI.                  JAMES : RECORDING ENGINEER
WITN.               SHERRIFF : WITNESSED BY
CLNT.                A2DTECH : CLIENT CODE
ORIG.            2" 5" PRINT : ORIGIN OF DATA
UWI .       100062604715W500 : UNIQUE WELL ID
DICO. A2D Technologies, Inc. : DIGITIZING COMPANY
~Other -----------------------------------------------------
TOOL RAN: IL-EL-SONIC-ML-MLL LOG RAN.
EL LOG ARE FROM SMALL SECTION @FR-5350'& 680'0-7600',8200'-8900'
SONIC LOG ARE FROM SMALL SECTION @ FR-5000'& 6800'-7900',8200'-9000'
~ASCII -----------------------------------------------------
# ...
 5550.00000    -999.25   16.60990   88.50500   68.21960   14.66140    -999.25   72.00420   72.00420    3.97450   65.57920   12.03130   14.66140   13.37090   16.60990    -999.25    8.70380  -46.75790  -41.23180   -4.31470    8.70380
 5600.00000    -999.25   16.56450  146.32390   66.54910   15.02650    -999.25   86.80790   86.80790    4.08390   67.38430    6.75830   15.02650   18.36490   16.56450    -999.25    7.01500  -45.64660  -40.77070   -4.05610    7.01500
 5650.00000    -999.25   16.40690  321.98820  136.10760    7.34830    -999.25   92.47200   92.47200    4.89470   80.76260    2.81980    7.34830   18.13250   16.40690    -999.25    3.69760  -46.74600  -42.28160   -5.76820    3.69760
 5700.00000    -999.25   16.68470  129.88190   97.71540   10.23380   85.99960   82.99420   82.99420    4.42800   73.06200    7.98520   10.23380    6.78070   16.68470    -999.25    6.12200  -47.52420  -41.24210   -4.93120    6.12200
 5750.00000    -999.25   13.61580   63.77710   30.19560   33.11740   76.22320   75.56460   75.56460    3.17780   52.43370   16.80340   33.11740   19.82220   13.61580    -999.25   15.23690  -60.06020  -54.58350  -18.47380   15.23690
 5800.00000    -999.25   16.58280  189.77850   80.55100   12.41450   84.26830   87.32000   87.32000    4.55090   75.08900    5.40860   12.41450   19.76970   16.58280    -999.25    5.75680  -46.42540  -41.34360   -5.43510    5.75680
 5850.00000    -999.25   12.93650   64.27260   33.33160   30.00160   73.47490   71.07660   71.07660    3.32720   54.89880   16.78640   30.00160   32.60230   12.93650    -999.25   15.27420  -55.96420  -50.15180  -14.44580   15.27420
 5900.00000    -999.25   14.08090  115.89620   57.39270   17.42420   82.35070   83.16240   83.16240    4.28400   70.68600    8.87470   17.42420   22.67560   14.08090    -999.25    8.44400  -46.82760  -41.66250   -6.15770    8.44400
 5950.00000    -999.25   16.54520  106.57450   66.66930   14.99940  117.75220   92.39550   92.39550    3.67110   60.57310    9.58770   14.99940   21.08330   16.54520    -999.25    7.57960  -42.24420  -39.11560   -3.81330    7.57960
 6000.00000    -999.25   16.38190   91.33060   64.40930   15.52570   80.61760   78.39140   78.39140    4.01420   66.23430   11.17560   15.52570   18.77100   16.38190    -999.25    8.27630  -45.54760  -38.23230   -3.13120    8.27630
 6050.00000    -999.25   16.63020  135.93460   66.20310   15.10500    -999.25   83.45850   83.45850    3.31530   54.70160    7.47300   15.10500   14.90460   16.63020    -999.25    7.32270  -41.80100  -37.88520   -2.98520    7.32270
 6100.00000    -999.25   15.98070  141.43550   70.66840   14.15060    -999.25   78.02540   78.02540    3.18100   52.48650    7.20980   14.15060   31.95890   15.98070    -999.25    7.39150  -49.91790  -40.28880   -5.59140    7.39150
 6150.00000    -999.25   16.64960  154.48590   62.91640   15.89410    -999.25   81.31380   81.31380    3.97540   65.59410    7.24710   15.89410   26.37190   16.64960    -999.25    6.55600  -45.51770  -36.10350   -1.60720    6.55600
 6200.00000    -999.25   16.66780  121.24060   66.77930   14.97470    -999.25   78.80770   78.80770    3.42690   56.54380    8.60820   14.97470   19.30030   16.66780    -999.25    7.36410  -46.61460  -37.56120   -3.23970    7.36410
 6250.00000    -999.25   14.00440   50.76060   23.20560   43.09300   72.58100   69.34730   69.34730    2.67800   44.18700   20.65170   43.09300   28.99650   14.00440    -999.25   18.78000  -56.17190  -44.89400  -10.72280   18.78000
 6300.00000    -999.25   13.58640   55.87460   25.21760   39.65660   61.26280   63.92080   63.92080    2.90520   47.93580   21.35410   39.65660   24.50120   13.58640    -999.25   18.84230  -58.39990  -48.23570  -14.21480   18.84230
 6350.00000    -999.25   16.10080   86.14000   50.89810   19.64710   72.70300   73.02760   73.02760    3.50400   57.81600   11.96670   19.64710   35.14900   16.10080    -999.25    9.85820  -49.17180  -38.62700   -4.75740    9.85820
 6400.00000    -999.25   16.20270   47.32530   24.72780   40.44470   72.29400   72.93240   72.93240    4.02520   66.41660   24.10280   40.44470   28.93610   16.20270    -999.25   17.94910  -55.78700  -47.43440  -13.71510   17.94910
 6450.00000    -999.25   15.55120  108.38110   46.48980   21.51010   82.98700   79.72970   79.72970    2.59540   42.82410    9.86550   21.51010   63.26570   15.55120    -999.25    9.37740  -49.63410  -45.42540  -11.85740    9.37740
 6500.00000    -999.25   16.65850  114.15590   50.70270   19.72280   85.47500   83.61670   83.61670    4.03730   66.61540    9.30440   19.72280   30.32500   16.65850    -999.25    8.78110  -46.69580  -40.60740   -7.18980    8.78110
 6550.00000    -999.25   16.63680   60.53010   58.49180   17.09730   71.71890   78.02970   78.02970    3.47860   57.39770   17.99020   17.09730   22.74220   16.63680    -999.25    8.41620  -41.37190  -34.92370   -1.65640    8.41620
 6600.00000    -999.25   16.61050   95.43690   57.83520   17.29050    -999.25   77.14870   77.14870    4.24590   70.05740   11.30890   17.29050   18.32780   16.61050    -999.25    8.68690  -43.18800  -39.30910   -6.19310    8.68690
 6650.00000    -999.25   16.70570   90.54790   34.95270   28.61320   78.34150   77.90420   77.90420    2.97770   49.13200   11.35820   28.61320   37.27880   16.70570    -999.25   12.37210  -45.19580  -40.37630   -7.41060   12.37210
 6700.00000    -999.25   13.18120   46.72550   17.46470   57.25850   68.81220   66.26290   66.26290    2.72830   45.01700   25.99240   57.25850   34.37580   13.18120    -999.25   21.45090  -61.57430  -59.49420  -26.67980   21.45090
 6750.00000    -999.25   15.58230  126.47050   58.79520   17.00820    -999.25   79.41230   79.41230    4.03540   66.58410    8.51840   17.00820   19.48190   15.58230    -999.25    8.29780  -44.21300  -38.05890   -5.39480    8.29780
 6800.00000    -999.25   16.21900  163.96790   84.56740   11.82560    -999.25   82.31070   82.31070    3.80960   62.85840    6.39350   11.82560   13.01160   16.21900    -999.25    6.72260  -42.10220  -35.00970   -2.49590    6.72260
 6850.00000    -999.25   16.43430    -999.25   52.65930   18.99000    -999.25   82.75290   82.75290    4.70430   77.62090    -999.25   18.99000   19.51520   16.43430    -999.25    9.32780    -999.25  -41.56900   -9.04830    9.32780
 6900.00000    -999.25   16.53910    -999.25   52.90120   18.90340    -999.25   74.67220   74.67220    4.63030   76.40080    -999.25   18.90340   19.23310   16.53910    -999.25    8.99110    -999.25  -43.39220  -10.82930    8.99110
 6950.00000    -999.25   16.26370    -999.25   52.85160   18.92090    -999.25   81.72550   81.72550    5.33170   87.97310    -999.25   18.92090   21.93200   16.26370    -999.25    9.14220    -999.25  -45.89870  -13.29340    9.14220
 7000.00000    -999.25   15.66440    -999.25   55.60190   17.98500    -999.25   74.79740   74.79740    4.98060   82.17990    -999.25   17.98500   22.44350   15.66440    -999.25    8.96380    -999.25  -46.02440  -13.37700    8.96380
 7050.00000    -999.25   16.08050    -999.25   54.75090   18.26460    -999.25   76.42590   76.42590    5.48990   90.58340    -999.25   18.26460   20.83620   16.08050    -999.25    9.04750    -999.25  -45.24160  -12.55210    9.04750
 7100.00000    -999.25   16.49540    -999.25   60.51800   16.52400    -999.25   75.75830   75.75830    5.16830   85.27690    -999.25   16.52400   23.72640   16.49540    -999.25    8.37310    -999.25  -44.09590  -11.36400    8.37310
 7150.00000    -999.25   16.26800    -999.25   59.16000   16.90330    -999.25   82.28290   82.28290    5.74290   94.75790    -999.25   16.90330   20.24350   16.26800    -999.25    8.38580    -999.25  -42.05060   -9.27660    8.38580
 7200.00000    -999.25   15.50640    -999.25   41.86750   23.88490    -999.25   77.29080   77.29080    4.95890   81.82180    -999.25   23.88490   26.47090   15.50640    -999.25   10.92290    -999.25  -43.36400  -10.54760   10.92290
 7250.00000    -999.25   16.19710    -999.25   49.67170   20.13220    -999.25   81.60290   81.60290    5.28860   87.26190    -999.25   20.13220   26.51900   16.19710    -999.25    9.58520    -999.25  -43.20650  -10.34800    9.58520
