~Version ---------------------------------------------------
VERS.      2.0 : CWLS log ASCII Standard -VERSION 2.0
WRAP.       NO : One line per depth step
CREA. 07/27/17 : LAS Creation Date
~Well ------------------------------------------------------
STRT.FT                           800.0 : START DEPTH
STOP.FT                         10500.0 : STOP DEPTH
STEP.FT                        50.00000 : STEP LENGTH
NULL.                           -999.25 : NULL VALUE
COMP.        THE CALIFORNIA STANDARD CO : COMPANY
WELL. CALSTAN BA KAYBOB WEST 2-28-63-20 : WELL
FLD .                                WC : FIELD
LOC .                                   : LOCATION
CTRY.                            CANADA : COUNTRY
SRVC.            Schlumberger of Canada : SERVICE COMPANY
DATE.                       31-Dec-1960 : LOGDATE
PROV.                           Alberta : PROVINCE
UWI .                  100022806320W500 : UNIQUE WELL ID
SLAT.WGS84                     54.47443 : SURFACE LATITUDE
SLON.WGS84                    -116.9579 : SURFACE LONGITUDE
~Curve Information -----------------------------------------
DEPT  .FT         : Depth Curve
CALWS .IN         : CALIPER [MCALED]
CILDED.MMHO       : INDUCTION DEEP CONDUCTIVITY FROM IEL LOG
CONDWS.MMHO       : CONDUCTIVITY [1000/DRESWS]
DRESWS.OHMM       : DEEP RESISTIVITY [CALC FROM 1000/CILDED, IF ILDED<1, ILDED]
DTED  .US/F       : COMPRESSIONAL DELTA-T (INTERVAL TRANSIT TIME) FROM SONIC LOG
DTWS  .US/F       : COMPRESSIONAL SONIC [DTED]
GRSED .UgRa-Eq/T  : GAMMA RAY FROM SONIC LOG FROM SONIC LOG
GRWS  .GAPI       : GAMMA RAY [GRSED*16.5 CONVERTED TO API UNIT]
ILDED .OHMM       : DEEP INDUCTION FROM IEL LOG
MCALED.IN         : MLT (MICROLOG) CALIPER FROM ML LOG
SNED  .OHMM       : SHORT NORMAL INDUCTION FROM IEL LOG
SPRED .MV         : SPONTANEOUS POTENTIAL FROM IEL LOG
SPWS  .MV         : SPONTANEOUS POTENTIAL [BASELINE 0 MV, SPRED]
SRESWS.OHMM       : SHALLOW RESISTIVITY [SNED]
~Params ----------------------------------------------------
LMF .                     KB : LOG MEASURED FROM
DMF .                     KB : DRILLING MEASURED FROM
EKB .FT                 2582 : KELLY BUSHING
EGL .FT                 2568 : GROUND LEVEL
DATE.               12/31/60 : RUN DATE
RUN .                      2 : RUN NUMBER
DD  .FT                10548 : DEPTH DRILLER
DL  .FT                10549 : DEPTH LOGGER
BLI .FT                10548 : BOTTOM LOG INTERVAL
TLI .FT                 6778 : TOP LOG INTERVAL
BSD .FT                10548 : BIT SIZE AT DEPTH
DFT .               OIL EMUL : DRILLING FLUID TYPE
DFD .                   10.1 : DRILLING FLUID DENSITY
DFV .                    109 : DRILLING FLUID VISCOSITY
DFPH.                     10 : DRILLING FLUID PH
DFL .                   10.2 : DRILLING FLUID LOSS
MSS .             CIRCULATED : MUD SAMPLE SOURCE
RMS .OHMM                5.2 : RESISTIVITY MUD SAMPLE
MST .DEGF                 58 : MUD SAMPLE TEMPERATURE
RMF .OHMM               1.64 : RESISTIVITY MUD FILTRATE SAMPLE
MFST.DEGF                 74 : MUD FILTRATE SAMPLE TEMPERATURE
RMC .OHMM               2.22 : RESISTIVITY MUD CAKE
MCST.DEGF                 74 : MUD CAKE SAMPLE TEMPERATURE
RMB .OHMM               0.75 : RESISTIVITY MUD AT BHT
TCS .HRS                 2.5 : TIME CIRCULATED STOPPED
LUN .                   1534 : LOGGING UNIT NUMBER
LUL .                     WC : LOGGING UNIT LOCATION
ENGI.                   GRAY : RECORDING ENGINEER
WITN.               MALOWANY : WITNESSED BY
CLNT.                A2DTECH : CLIENT CODE
ORIG.            2" 5" PRINT : ORIGIN OF DATA
UWI .       100022806320W500 : UNIQUE WELL ID
DICO. A2D Technologies, Inc. : DIGITIZING COMPANY
~Other -----------------------------------------------------
~ASCII -----------------------------------------------------
  800.00000    -999.25    -999.25    -999.25    -999.25    -999.25    -999.25    5.62380   92.79190    -999.25    -999.25    -999.25    -999.25    -999.25    -999.25
  850.00000    -999.25    -999.25    -999.25    -999.25    -999.25    -999.25    6.70450  110.62430    -999.25    -999.25    -999.25    -999.25    -999.25    -999.25
  900.00000    -999.25    -999.25    -999.25    -999.25    -999.25    -999.25    -999.25    -999.25    -999.25    -999.25    -999.25    -999.25    -999.25    -999.25
  950.00000    -999.25    -999.25    -999.25    -999.25    -999.25    -999.25    4.62080   76.24320    -999.25    -999.25    -999.25    -999.25    -999.25    -999.25
 1000.00000    -999.25    -999.25    -999.25    -999.25    -999.25    -999.25    4.97740   82.12710    -999.25    -999.25    -999.25    -999.25    -999.25    -999.25
 1050.00000    -999.25    -999.25    -999.25    -999.25    -999.25    -999.25    6.21600  102.56480    -999.25    -999.25    -999.25    -999.25    -999.25    -999.25
 1100.00000    9.86280    -999.25    -999.25    -999.25    -999.25    -999.25    -999.25    -999.25    -999.25    9.86280    -999.25    -999.25    -999.25    -999.25
 1150.00000    9.74020   71.08200   81.76350   12.23040   81.33960   81.33960    8.18190  135.00140   12.23040    9.74020   12.52120  -76.60690   -4.49240   12.52120
 1200.00000   12.00510  195.36720  259.00700    3.86090  117.73250  117.73250    7.65110  126.24310    3.86090   12.00510    5.84190  -77.27110   -4.63600    5.84190
 1250.00000    9.22670  143.83220  157.20060    6.36130  105.64420  105.64420    8.15510  134.55910    6.36130    9.22670    6.30120  -74.91540   -2.64780    6.30120
 1300.00000   12.55370  211.08720  271.11290    3.68850  119.83020  119.83020    8.70760  143.67540    3.68850   12.55370    5.04340  -76.41200   -4.51200    5.04340
 1350.00000   11.96990  240.67440  343.06490    2.91490  135.33150  135.33150    9.09170  150.01300    2.91490   11.96990    4.70140  -76.32130   -4.79120    4.70140
 1400.00000   10.54170  189.37360  255.85260    3.90850  112.43820  112.43820    8.83730  145.81550    3.90850   10.54170    5.44040  -75.03600   -3.87350    5.44040
 1450.00000   10.03580   86.47780   99.39960   10.06040   95.07520   95.07520    8.50770  140.37710   10.06040   10.03580   10.95430  -75.09140   -4.24500   10.95430
 1500.00000   11.25510  172.65720  230.78170    4.33310  104.36950  104.36950    8.38630  138.37400    4.33310   11.25510    5.77980  -75.05520   -4.12190    5.77980
 1550.00000   11.52910  298.87770  479.45530    2.08570  128.38150  128.38150    9.36080  154.45240    2.08570   11.52910    4.02330  -75.01150   -3.99130    4.02330
 1600.00000   10.69980  268.97400  388.68160    2.57280  132.90970  132.90970    9.19620  151.73730    2.57280   10.69980    5.47820  -75.40480   -4.29720    5.47820
 1650.00000   10.86680  163.28420  201.84890    4.95420  121.23630  121.23630    8.64870  142.70360    4.95420   10.86680    7.23000  -75.61250   -4.41800    7.23000
 1700.00000   12.31830  235.42530  327.65400    3.05200  100.88150  100.88150    8.79360  145.09440    3.05200   12.31830    4.71580  -75.25330   -3.97140    4.71580
 1750.00000    9.05100  116.21140  122.30620    8.17620   96.30480   96.30480    7.95350  131.23280    8.17620    9.05100    8.57820  -75.77130   -4.40250    8.57820
 1800.00000    8.52340   72.09280   70.70640   14.14300   83.62900   83.62900    8.88730  146.64050   14.14300    8.52340   13.18020  -76.33390   -4.87820   13.18020
 1850.00000   11.01980  289.25190  422.70790    2.36570  105.15400  105.15400    9.57000  157.90500    2.36570   11.01980    4.60910  -75.33140   -3.78820    4.60910
 1900.00000   12.41500  329.83120  493.29120    2.02720  110.10450  110.10450    9.52120  157.09980    2.02720   12.41500    3.96920  -74.98470   -3.35460    3.96920
 1950.00000    8.52750   52.35140   55.27730   18.09060   95.61500   95.61500    8.20000  135.30000   18.09060    8.52750   15.55430  -81.12140   -9.40390   15.55430
 2000.00000   11.15490  203.44270  298.46290    3.35050  106.18370  106.18370    7.96680  131.45220    3.35050   11.15490    4.64580  -74.55160   -2.74720    4.64580
 2050.00000   11.87410  210.65020  286.37700    3.49190  107.19140  107.19140    8.44110  139.27810    3.49190   11.87410    5.51550  -75.68170   -3.79040    5.51550
 2100.00000    8.82290  100.05110  113.72040    8.79350   98.41450   98.41450    7.79760  128.66040    8.79350    8.82290   10.75550  -79.32160   -7.34290   10.75550
 2150.00000   12.09830  317.64400  531.66040    1.88090  113.02770  113.02770    8.37700  138.21970    1.88090   12.09830    3.94230  -74.78010   -2.71450    3.94230
 2200.00000   11.25980  221.30380  318.74540    3.13730  130.33800  130.33800    8.04550  132.75080    3.13730   11.25980    5.46410  -76.35080   -4.19770    5.46410
 2250.00000    8.57950   54.43990   62.95170   15.88520   88.95350   88.95350    7.61540  125.65410   15.88520    8.57950   19.20860  -77.62790   -5.38790   19.20860
 2300.00000   11.16680  232.71350  296.41050    3.37370  112.68920  112.68920    8.82080  145.54320    3.37370   11.16680    5.68520  -74.86600   -2.53920    5.68520
 2350.00000   12.37000  150.12940  182.88560    5.46790   95.32420   95.32420    8.39630  138.53900    5.46790   12.37000    7.17580  -73.91310   -1.49880    7.17580
 2400.00000   10.18970  214.53940  291.29040    3.43300  112.39870  112.39870    8.59540  141.82330    3.43300   10.18970    6.02160  -76.11610   -3.61490    6.02160
 2450.00000   11.85840  211.90060  300.91480    3.32320   99.40250   99.40250    8.58700  141.68550    3.32320   11.85840    5.28680  -75.94150   -3.35290    5.28680
 2500.00000    9.92420   39.40540   43.62070   22.92490   90.01600   90.01600    7.80270  128.74460   22.92490    9.92420   24.65350  -83.33470  -10.65920   24.65350
 2550.00000   10.96800  137.73840  175.27250    5.70540  101.54770  101.54770    8.78370  144.93190    5.70540   10.96800    7.28590  -75.78450   -3.02210    7.28590
 2600.00000    8.23760   77.55060  102.88700    9.71940   96.73450   96.73450    7.79040  128.54160    9.71940    8.23760   16.22090  -89.85200  -17.00210   16.22090
 2650.00000    8.89450   64.39220   70.22320   14.24030   82.62630   82.62630    7.62450  125.80340   14.24030    8.89450   16.32860  -76.57820   -3.64150   16.32860
 2700.00000   10.26860  109.68170  135.69440    7.36950   93.28950   93.28950    8.00760  132.12540    7.36950   10.26860    8.45780  -76.03470   -3.01050    8.45780
 2750.00000    9.81370  154.00730  190.83970    5.24000   97.35380   97.35380    7.66280  126.43620    5.24000    9.81370    7.91560  -76.13840   -3.02730    7.91560
 2800.00000   10.67160  174.22550  229.98550    4.34810  100.70530  100.70530    8.45670  139.53560    4.34810   10.67160    6.55860  -75.80080   -2.60280    6.55860
 2850.00000    9.94920  191.31370  234.34570    4.26720  103.83100  103.83100    9.06540  149.57910    4.26720    9.94920    7.10930  -76.24930   -2.96390    7.10930
 2900.00000   10.83180  157.95930  211.09070    4.73730   96.97550   96.97550    8.50580  140.34650    4.73730   10.83180    8.88710  -77.14010   -3.76780    8.88710
 2950.00000    9.50770  138.32580  177.50320    5.63370   96.75050   96.75050    9.06120  149.50980    5.63370    9.50770    7.73420  -76.12550   -2.66570    7.73420
 3000.00000   10.27260  140.81560  182.17590    5.48920   97.79720   97.79720    8.76680  144.65220    5.48920   10.27260    8.18400  -76.47610   -2.92950    8.18400
 3050.00000    9.91720  132.08630  158.61940    6.30440   89.21200   89.21200    8.52560  140.67160    6.30440    9.91720    8.96220  -75.34790   -1.71440    8.96220
 3100.00000    -999.25  126.77420  155.15180    6.44530   90.12750   90.12750    9.46630  156.19400    6.44530    -999.25    9.33880  -76.25240   -2.54000    9.33880
 3150.00000    -999.25  103.55290  122.64970    8.15330   92.69700   92.69700   10.11800  166.94700    8.15330    -999.25   10.30560  -78.69540   -4.98300   10.30560
 3200.00000    -999.25  103.44850  123.91570    8.07000   91.23600   91.23600    9.96450  164.41420    8.07000    -999.25   10.40660  -78.33980   -4.62740   10.40660
