~Version ---------------------------------------------------
VERS.      2.0 : CWLS log ASCII Standard -VERSION 2.0
WRAP.       NO : One line per depth step
CREA. 11/13/17 : LAS Creation Date
~Well ------------------------------------------------------
STRT.FT                     900.0 : START DEPTH
STOP.FT                   12300.0 : STOP DEPTH
STEP.FT                  50.00000 : STEP LENGTH
NULL.                     -999.25 : NULL VALUE
COMP.        TALISMAN ENERGY INC. : COMPANY
WELL. TRIAD C&E DEBOLT 11-11-68-3 : WELL
FLD .                          WC : FIELD
LOC .                             : LOCATION
CTRY.                      CANADA : COUNTRY
SRVC.      Schlumberger of Canada : SERVICE COMPANY
DATE.                 22-Oct-1959 : LOGDATE
PROV.                     Alberta : PROVINCE
UWI .            100111106803W600 : UNIQUE WELL ID
SLAT.WGS84          54.8741972951 : SURFACE LATITUDE
SLON.WGS84        -118.3466714855 : SURFACE LONGITUDE
~Curve Information -----------------------------------------
DEPT  .FT         : Depth Curve
CALWS .IN         : CALIPER [MCALED]
CILDED.MMHO       : CONDUCTIVITY FROM RESISTIVITY LOG
CONDWS.MMHO       : CONDUCTIVITY [1000/DRESWS]
DRESWS.OHMM       : DEEP RESISTIVITY [1000/CILDED IF 1LDED<5 ,ILDED]
GRNED .UgRa-Eq/T  : GAMMA RAY  FROM GRN LOG  [ADJ. TO RESISTIVITY]
GRWS  .GAPI       : GAMMA RAY [GRNED*16.5 TO CONVERT TO GAPI]
ILDED .OHMM       : DEEP INDUCTION FROM RESISTIVITY LOG
MCALED.IN         : CALIPER FROM MICROLOG
NEUTED.CPS        : NEUTRON FROM GRN LOG [ADJ. TO RESISTIVITY]
NEUTWS.CPS        : NEUTRON [NEUTED]
SNED  .OHMM       : SHORT NORMAL FROM RESISTIVITY LOG
SPRED .MV         : SPONTANEOUS POTENTIAL FROM RESISTIVITY LOG
SPWS  .MV         : SPONTANEOUS POTENTIAL [BASELINE 0 MV,SPRED]
SRESWS.OHMM       : SHALLOW RESISTIVITY [SNED]
~Params ----------------------------------------------------
LMF .                     KB : LOG MEASURED FROM
DMF .                     KB : DRILLING MEASURED FROM
EKB .FT                 2343 : KELLY BUSHING
DATE.               10/22/59 : RUN DATE
RUN .                      2 : RUN NUMBER
DD  .FT                12312 : DEPTH DRILLER
DL  .FT                12312 : DEPTH LOGGER
BLI .FT                12304 : BOTTOM LOG INTERVAL
TLI .FT                 7822 : TOP LOG INTERVAL
BS  .IN                    9 : BIT SIZE
BSD .FT                12312 : BIT SIZE AT DEPTH
DFT .              LIME BASE : DRILLING FLUID TYPE
DFD .                     10 : DRILLING FLUID DENSITY
DFV .                    164 : DRILLING FLUID VISCOSITY
DFPH.                   12.5 : DRILLING FLUID PH
DFL .                     12 : DRILLING FLUID LOSS
RMS .OHMM               0.72 : RESISTIVITY MUD SAMPLE
MST .DEGF                 88 : MUD SAMPLE TEMPERATURE
RMF .OHMM               0.46 : RESISTIVITY MUD FILTRATE SAMPLE
MFST.DEGF                 78 : MUD FILTRATE SAMPLE TEMPERATURE
RMC .OHMM               1.49 : RESISTIVITY MUD CAKE
MCST.DEGF                 78 : MUD CAKE SAMPLE TEMPERATURE
RMB .OHMM                0.3 : RESISTIVITY MUD AT BHT
TCS .HRS                   5 : TIME CIRCULATED STOPPED
LUN .                 1573WC : LOGGING UNIT NUMBER
ENGI.              HAUSEGGER : RECORDING ENGINEER
WITN.              HENDERSON : WITNESSED BY
CLNT.                A2DTECH : CLIENT CODE
ORIG.            2" 5" PRINT : ORIGIN OF DATA
UWI .       100111106803W600 : UNIQUE WELL ID
DICO. A2D Technologies, Inc. : DIGITIZING COMPANY
~Other -----------------------------------------------------
IEL-ML-GRN LOG RAN
ALL RESISTIVITY CURVES 2" (FROM TOP TO 2477'] ON LOG IMAGE
~ASCII -----------------------------------------------------
# ...
 5800.00000   12.12280   63.46400   64.12510   15.59690    -999.25    -999.25   15.54820   12.12280    -999.25    -999.25   18.61050  -79.03810  -25.76240   18.61050
 5850.00000   10.45060   45.11720   42.35280   23.61120    -999.25    -999.25   23.61120   10.45060    -999.25    -999.25   26.44280  -92.26890  -39.27010   26.44280
 5900.00000   11.49940   60.02240   59.32460   16.85640    -999.25    -999.25   16.85640   11.49940    -999.25    -999.25   18.60150  -91.04430  -38.32090   18.60150
 5950.00000   11.47770   70.12050   69.47920   14.39280    -999.25    -999.25   14.39280   11.47770    -999.25    -999.25   16.87800  -83.06620  -30.61830   16.87800
 6000.00000   10.91460   61.92840   62.50510   15.99870    -999.25    -999.25   15.99870   10.91460    -999.25    -999.25   19.22840  -71.11020  -18.93770   19.22840
 6050.00000   11.06360   63.38350   62.76060   15.93450    -999.25    -999.25   15.88580   11.06360    -999.25    -999.25   18.79560  -78.10180  -26.20340   18.79560
 6100.00000    9.51470   76.87900   75.41480   13.26000    -999.25    -999.25   13.26000    9.51470    -999.25    -999.25   21.99030 -104.75570  -53.13410   21.99030
 6150.00000   10.37450   27.51770   26.33510   37.97220    -999.25    -999.25   37.97220   10.37450    -999.25    -999.25   37.06340  -64.44290  -13.09680   37.06340
 6200.00000   11.78000   50.74170   49.86880   20.05260    -999.25    -999.25   20.05260   11.78000    -999.25    -999.25   29.18390  -53.74160   -2.86600   29.18390
 6250.00000   10.44390   35.83170   39.76410   25.14830    -999.25    -999.25   25.14830   10.44390    -999.25    -999.25   28.40700  -63.81130  -14.83620   28.40700
 6300.00000   10.38440   26.68310   24.49120   40.99050    -999.25    -999.25   42.14080   10.38440    -999.25    -999.25   39.93240  -76.87650  -29.79260   39.93240
 6350.00000   10.33210   39.31610   38.77700   25.78850    -999.25    -999.25   25.78850   10.33210    -999.25    -999.25   31.55780  -67.12420  -21.95040   31.55780
 6400.00000    9.58530   49.79650   51.29420   19.49540    -999.25    -999.25   19.49540    9.58530    -999.25    -999.25   32.22900 -105.25000  -61.97680   32.22900
 6450.00000   10.77460   37.86700   34.45610   29.02240    -999.25    -999.25   29.02240   10.77460    -999.25    -999.25   35.41070  -69.76790  -28.39530   35.41070
 6500.00000   10.17710   59.29800   59.45090   16.82060    -999.25    -999.25   16.82060   10.17710    -999.25    -999.25   21.29290  -60.78400  -21.31200   21.29290
 6550.00000   12.25470   47.08550   49.61490   20.16870    -999.25    -999.25   19.98550   12.25470    -999.25    -999.25   23.83420  -73.27020  -35.68930   23.83420
 6600.00000   11.71500   33.85210   31.93570   31.31290    -999.25    -999.25   31.31290   11.71500    -999.25    -999.25   30.62750  -89.37850  -53.70780   30.62750
 6650.00000   11.86400   78.22310   79.98340   12.50260    -999.25    -999.25   12.50260   11.86400    -999.25    -999.25   13.79460  -69.48750  -35.71730   13.79460
 6700.00000   14.16350  273.26520  273.26520    3.65940    -999.25    -999.25    3.97520   14.16350    -999.25    -999.25    5.29080  -71.99190  -40.12230    5.29080
 6750.00000   14.89180  165.38070  161.10060    6.20730    -999.25    -999.25    6.20730   14.89180    -999.25    -999.25    8.01680  -64.96580  -34.99680    8.01680
 6800.00000   15.77390  215.18440  212.84430    4.72930    -999.25    -999.25    3.66130   15.77390    -999.25    -999.25    4.76820  -62.20210  -34.12420    4.76820
 6850.00000    9.14630    -999.25    1.42100  703.73300    -999.25    -999.25  703.73300    9.14630    -999.25    -999.25  183.47720  -39.07660  -12.90880  183.47720
 6900.00000    9.14720    -999.25    1.36820  730.86960    -999.25    -999.25  730.86960    9.14720    -999.25    -999.25  145.05080  -51.76410  -25.65040  145.05080
 6950.00000    9.31130    5.45850   12.38240   80.75960    -999.25    -999.25   80.75960    9.31130    -999.25    -999.25   64.10230  -76.95390  -50.06470   64.10230
 7000.00000    9.36540    -999.25    1.28250  779.69920    -999.25    -999.25  779.69920    9.36540    -999.25    -999.25  134.21890  -81.23680  -53.57210  134.21890
 7050.00000    8.73000   45.88630  113.03750    8.84800    -999.25    -999.25    8.81120    8.73000    -999.25    -999.25   35.95140 -172.81050 -144.37420   35.95140
 7100.00000    9.33900   27.47560   67.59820   14.79330    -999.25    -999.25   14.79330    9.33900    -999.25    -999.25   22.07310 -130.37060 -101.15490   22.07310
 7150.00000    9.24100   16.91960   42.07130   23.76920    -999.25    -999.25   23.76920    9.24100    -999.25    -999.25   29.36760 -106.51990  -76.52870   29.36760
 7200.00000    9.25240   10.12040   26.00400   38.45560    -999.25    -999.25   38.45560    9.25240    -999.25    -999.25   37.68100 -122.47950  -91.71280   37.68100
 7250.00000    9.12650    2.91860    4.87690  205.04750    -999.25    -999.25  205.04750    9.12650    -999.25    -999.25   78.02060 -115.36160  -83.81940   78.02060
 7300.00000    9.23040    4.23760    8.22790  122.20970    -999.25    -999.25  125.64270    9.23040    -999.25    -999.25   63.44730 -102.06720  -69.75340   63.44730
 7350.00000    9.20820    7.23250   16.10640   62.08710    -999.25    -999.25   62.08710    9.20820    -999.25    -999.25   52.72200  -87.19080  -54.09760   52.72200
 7400.00000    9.20280    7.76630   19.94480   50.13830    -999.25    -999.25   50.13830    9.20280    -999.25    -999.25   44.75600  -62.66760  -28.79880   44.75600
 7450.00000    9.31080   15.25650   35.56520   28.11740    -999.25    -999.25   28.11740    9.31080    -999.25    -999.25   36.52770  -37.97830   -3.33410   36.52770
 7500.00000    9.27990    4.02790    8.87240  112.70920    -999.25    -999.25  112.70920    9.27990    -999.25    -999.25   66.94330  -40.38850   -4.96880   66.94330
 7550.00000    8.99310    5.76800   12.33950   81.87680    -999.25    -999.25   79.11900    8.99310    -999.25    -999.25   62.40290  -56.05610  -20.55100   62.40290
 7600.00000    9.13190   10.53030   26.93790   37.12240    -999.25    -999.25   37.12240    9.13190    -999.25    -999.25   38.88050  -51.72070  -16.21570   38.88050
 7650.00000    9.17720    7.73870   20.86150   47.93510    -999.25    -999.25   47.93510    9.17720    -999.25    -999.25   47.98540  -50.25800  -14.75300   47.98540
 7700.00000    9.21480    5.82290   15.55030   64.30750    2.21940   36.62010   64.30750    9.21480  362.10890  362.10890   64.17690 -111.90820  -76.40310   64.17690
 7750.00000    8.57050  241.32120  241.32120    4.14390    0.96270   15.88460    2.18510    8.57050  278.93480  278.93480   15.61710 -185.12950 -149.62450   15.61710
 7800.00000    8.67180  136.49260  135.51320    7.39550    4.33170   71.47310    3.13710    8.67180  270.93910  270.93910    8.58810 -179.80510 -144.30010    8.58810
 7850.00000    8.75560   39.67040   32.59280   30.68160    1.49120   24.60480   30.68160    8.75560  301.94870  301.94870   30.16540    -999.25    -999.25   30.16540
 7900.00000    9.27480   51.96490   44.96690   22.23860    2.08460   34.39590   22.23860    9.27480  334.97180  334.97180   27.80750    -999.25    -999.25   27.80750
 7950.00000    9.82830   45.55140   37.41170   26.72960    1.77130   29.22650   26.72960    9.82830  305.29710  305.29710   24.33270    -999.25    -999.25   24.33270
 8000.00000    8.97670   19.69390   12.32340   81.14630    1.72700   28.49550   81.14630    8.97670  394.84410  394.84410   46.72000    -999.25    -999.25   46.72000
 8050.00000    9.22770   12.57700    8.14020  123.53530    1.78000   29.37000  128.32510    9.22770  404.21020  404.21020   61.94160    -999.25    -999.25   61.94160
 8100.00000    9.68550   16.71490   10.23000   97.75150    0.87480   14.43420   97.75150    9.68550  418.83870  418.83870   70.51610    -999.25    -999.25   70.51610
 8150.00000    9.05880   32.34280   28.89870   34.60360    1.28240   21.15960   34.60360    9.05880  326.22620  326.22620   30.75820    -999.25    -999.25   30.75820
 8200.00000    8.86580   46.00160   36.48960   27.40510    2.48640   41.02560   27.40510    8.86580  280.15890  280.15890   37.54310    -999.25    -999.25   37.54310
