~Version ---------------------------------------------------
VERS.      2.0 : CWLS log ASCII Standard -VERSION 2.0
WRAP.       NO : One line per depth step
CREA. 11/13/17 : LAS Creation Date
~Well ------------------------------------------------------
STRT.FT                            1100.0 : START DEPTH
STOP.FT                           11000.0 : STOP DEPTH
STEP.FT                          50.00000 : STEP LENGTH
NULL.                             -999.25 : NULL VALUE
COMP.        PAN AMERICAN PETROLEUM CORP. : COMPANY
WELL. PAN AM A-1 ASPLUND CREEK 4-22-66-23 : WELL
FLD .                                     : FIELD
LOC .                                     : LOCATION
CTRY.                              CANADA : COUNTRY
SRVC.              Schlumberger of Canada : SERVICE COMPANY
DATE.                         29-Mar-1964 : LOGDATE
PROV.                             Alberta : PROVINCE
UWI .                    100042206623W500 : UNIQUE WELL ID
SLAT.WGS84                       54.72149 : SURFACE LATITUDE
SLON.WGS84                      -117.4003 : SURFACE LONGITUDE
~Curve Information -----------------------------------------
DEPT  .FT    : Depth Curve
CALSED.IN    : CALIPER FROM SONIC LOG
CALWS .IN    : CALIPER [CALSED]
CILDED.MMHO  : CONDUCTIVITY FROM RESISTIVITY LOG
CONDWS.MMHO  : CONDUCTIVITY [1000/DRESWS]
DRESWS.OHMM  : DEEP RESISTIVITY [ILDED] IF ILDED<2;1000/CILDED;ELSE ILDED
DTED  .US/F  : DELTA TIME FROM SONIC LOG
DTWS  .US/F  : DELTA TIME [DTED]
GRSED .GAPI  : GAMMA RAY FROM SONIC LOG
GRWS  .GAPI  : GAMMA RAY [GRSED]
ILDED .OHMM  : INDUCTION LOG DEEP RESISTIVITY
SNED  .OHMM  : 16 INCH SHORT NORMAL RESISTIVITY FROM RESISTIVITY LOG
SPRED .MV    : SPONTANEOUS POTENTIAL FROM RESISTIVITY LOG
SPWS  .MV    : SPONTANEOUS POTENTIAL [BASELINE 0 MV] [SPRED]
SRESWS.OHMM  : SHALLOW RESISTIVITY [SNED]
~Params ----------------------------------------------------
PD  .                     GL : PERMANENT DATUM
EPD .FT               2726.1 : ELEVATION PERMANENT DATUM
LMF .                     KB : LOG MEASURED FROM
DAPD.FT                 13.1 : FEET ABOVE PERMANENT DATUM
EKB .FT               2739.2 : KELLY BUSHING
EGL .FT               2726.1 : GROUND LEVEL
DATE.               03/29/64 : RUN DATE
RUN .                      1 : RUN NUMBER
DD  .FT                11007 : DEPTH DRILLER
DL  .FT                11012 : DEPTH LOGGER
BLI .FT                11011 : BOTTOM LOG INTERVAL
TLI .FT                 1140 : TOP LOG INTERVAL
CBD .FT                 1138 : CASING BOTTOM DRILLER
CBL .FT                 1139 : CASING BOTTOM LOGGER
BS  .IN                 8.75 : BIT SIZE
BSD .FT                11007 : BIT SIZE AT DEPTH
DFT .               GEL CHEM : DRILLING FLUID TYPE
DFD .                    9.2 : DRILLING FLUID DENSITY
DFV .                     75 : DRILLING FLUID VISCOSITY
DFPH.                    8.5 : DRILLING FLUID PH
DFL .                   13.4 : DRILLING FLUID LOSS
RMS .OHMM               4.61 : RESISTIVITY MUD SAMPLE
MST .DEGF                 60 : MUD SAMPLE TEMPERATURE
RMF .OHMM                  4 : RESISTIVITY MUD FILTRATE SAMPLE
MFST.DEGF                 66 : MUD FILTRATE SAMPLE TEMPERATURE
RMC .OHMM               3.83 : RESISTIVITY MUD CAKE
MCST.DEGF                 64 : MUD CAKE SAMPLE TEMPERATURE
RMB .OHMM               1.61 : RESISTIVITY MUD AT BHT
TCS .HRS                   5 : TIME CIRCULATED STOPPED
LUN .                   3534 : LOGGING UNIT NUMBER
LUL .                    WCT : LOGGING UNIT LOCATION
ENGI.                 HAMTON : RECORDING ENGINEER
WITN.               FONTEYNE : WITNESSED BY
CLNT.                A2DTECH : CLIENT CODE
ORIG.            2" 5" PRINT : ORIGIN OF DATA
UWI .       100042206623W500 : UNIQUE WELL ID
DICO. A2D Technologies, Inc. : DIGITIZING COMPANY
~Other -----------------------------------------------------
~ASCII -----------------------------------------------------
# ...
 3550.00000    9.98970    9.98970  124.24900  115.55350    8.65400   96.16600   96.16600   87.24390   87.24390    8.65400    9.05040  -40.18600   -4.69780    9.05040
 3600.00000    9.55820    9.55820  111.65780  104.24160    9.59310   89.90870   89.90870   78.67860   78.67860    9.59310   10.00130  -39.67380   -4.24790   10.00130
 3650.00000    9.49700    9.49700  128.10910  117.71490    8.49510   95.15610   95.15610   91.47620   91.47620    8.49510    8.88180  -39.89970   -4.53580    8.88180
 3700.00000   10.59680   10.59680  144.25880  132.28910    7.55920   91.14650   91.14650   89.25760   89.25760    7.55920    8.38180  -42.32190   -7.25660    8.38180
 3750.00000   11.76890   11.76890  147.70790  137.31170    7.28270   94.95320   94.95320   86.88020   86.88020    7.28270    8.35480  -42.92880   -8.16640    8.35480
 3800.00000   12.99100   12.99100  164.37930  148.47590    6.73510  102.45250  102.45250   79.46170   79.46170    6.73510    7.92770  -41.18900   -6.72950    7.92770
 3850.00000   14.15320   14.15320  134.35340  123.30000    8.11030   99.67660   99.67660   79.55620   79.55620    8.11030    9.63640  -40.48040   -6.32590    9.63640
 3900.00000   14.21670   14.21670  149.22280  135.01110    7.40680  101.80950  101.80950   64.46150   64.46150    7.40680    8.88800  -40.41930   -6.56770    8.88800
 3950.00000   13.26320   13.26320   95.91700   89.07970   11.22590   89.33220   89.33220   73.64230   73.64230   11.22590   13.69180  -40.69380   -7.14720   13.69180
 4000.00000   12.73530   12.73530  118.56570  109.54700    9.12850   91.64330   91.64330   71.43060   71.43060    9.12850   11.34540  -43.70530  -10.46160   11.34540
 4050.00000   10.11960   10.11960   74.06960   72.88580   13.72010   89.17980   89.17980   97.34140   97.34140   13.72010   23.13960  -41.10930   -8.16850   23.13960
 4100.00000   12.38600   12.38600  150.19720  137.27020    7.28490   98.87260   98.87260   78.74290   78.74290    7.28490    9.31700  -40.65770   -8.02190    9.31700
 4150.00000   11.11400   11.11400  119.27390  108.61180    9.20710   83.08600   83.08600   72.35260   72.35260    9.20710   10.84500  -41.38600   -9.05310   10.84500
 4200.00000   11.26420   11.26420  135.75590  124.53460    8.02990   86.30030   86.30030   69.74720   69.74720    8.02990    8.77670  -40.22470   -8.19670    8.77670
 4250.00000   10.90410   10.90410  156.19530  142.63710    7.01080   86.54200   86.54200   65.26220   65.26220    7.01080    8.82990  -40.27240   -8.54740    8.82990
 4300.00000   11.90470   11.90470  189.82140  165.03010    6.05950   94.54620   94.54620   71.40700   71.40700    6.05950    7.52910  -39.02500   -7.60290    7.52910
 4350.00000   10.44790   10.44790  112.18930  102.99620    9.70910   88.91560   88.91560   64.18130   64.18130    9.70910   12.19270  -48.92780  -17.81070   12.19270
 4400.00000   10.25710   10.25710  132.01480  121.51700    8.22930   91.38570   91.38570   80.58400   80.58400    8.22930    9.38720  -43.38530  -12.57110    9.38720
 4450.00000    9.94660    9.94660  112.16950  105.87050    9.44550   62.49770   62.49770   56.90820   56.90820    9.44550   10.58820  -42.24660  -11.73730   10.58820
 4500.00000   12.77450   12.77450  220.09100  194.25020    5.14800  100.76440  100.76440   76.60230   76.60230    5.14800    6.02890  -40.30770  -10.10140    6.02890
 4550.00000   13.80780   13.80780  196.41280  169.61510    5.89570   97.41500   97.41500   79.14190   79.14190    5.89570    6.61430  -39.97250  -10.06910    6.61430
 4600.00000   12.91910   12.91910  200.04680  176.21150    5.67500   93.23250   93.23250   80.26070   80.26070    5.67500    6.69220  -39.55370   -9.95530    6.69220
 4650.00000   12.98840   12.98840  344.81470  274.89900    3.63770  107.66390  107.66390   86.42420   86.42420    3.63770    4.36700  -37.78810   -8.49260    4.36700
 4700.00000   12.52700   12.52700  407.91590  303.99760    3.28950  103.25490  103.25490   65.02740   65.02740    3.28950    3.67550  -37.78810   -8.79750    3.67550
 4750.00000   13.51310   13.51310  280.78520  231.46000    4.32040  112.00000  112.00000   67.69450   67.69450    4.32040    4.80950  -39.21820  -10.53060    4.80950
 4800.00000   14.39180   14.39180  212.39770  187.99470    5.31930  107.25760  107.25760   59.47850   59.47850    5.31930    5.87580  -38.77840  -10.39370    5.87580
 4850.00000   13.92470   13.92470  223.02740  188.03350    5.31820   95.07290   95.07290   72.87800   72.87800    5.31820    6.09260  -42.36150  -14.28180    6.09260
 4900.00000    8.45180    8.45180   61.43000   57.44780   17.40710   80.57810   80.57810   47.97750   47.97750   17.40710   33.12950 -103.28400  -75.50720   33.12950
 4950.00000   10.29960   10.29960  121.74430  112.28760    8.90570   84.16710   84.16710   67.03250   67.03250    8.90570   11.27960  -51.39190  -23.92000   11.27960
 5000.00000   10.25210   10.25210  122.99020  111.32630    8.98260   81.02310   81.02310   79.80550   79.80550    8.98260   10.66070  -42.85900  -15.69010   10.66070
 5050.00000    8.25430    8.25430   72.44690   68.38170   14.62380   83.45930   83.45930   24.93940   24.93940   14.62380   32.14690 -113.64910  -86.78310   32.14690
 5100.00000    8.17280    8.17280   57.44040   54.16240   18.46300   83.01870   83.01870   28.05100   28.05100   18.46300   31.47130 -102.32740  -75.76630   31.47130
 5150.00000   11.40630   11.40630  137.65380  124.73810    8.01680   84.04590   84.04590   66.88290   66.88290    8.01680   10.26260  -48.98160  -22.72350   10.26260
 5200.00000   11.99870   11.99870  124.22520  118.23130    8.45800   99.50140   99.50140   58.83310   58.83310    8.45800   12.41870  -45.84180  -19.88860   12.41870
 5250.00000    9.09890    9.09890   58.91230   52.99870   18.86840   78.70520   78.70520   33.20960   33.20960   18.86840   30.82450  -98.55150  -72.90130   30.82450
 5300.00000   12.07390   12.07390   81.03200   76.45140   13.08020   67.15240   67.15240   43.82580   43.82580   13.08020   18.12100  -56.65050  -31.30320   18.12100
 5350.00000   11.93590   11.93590  104.96050   99.42930   10.05740   74.24520   74.24520   59.76560   59.76560   10.05740   15.12610  -41.87630  -16.83390   15.12610
 5400.00000   12.67550   12.67550  188.40140  161.36320    6.19720   81.29340   81.29340   55.91030   55.91030    6.19720    8.22030  -42.64210  -17.90270    8.22030
 5450.00000   11.82540   11.82540  103.19080   94.13710   10.62280   78.53750   78.53750   61.05990   61.05990   10.62280   13.79500  -50.25690  -25.82240   13.79500
 5500.00000   12.61860   12.61860   46.40850   41.88290   23.87610  117.70690  117.70690   45.36960   45.36960   23.87610   28.71210  -48.98840  -24.85690   28.71210
 5550.00000   10.45280   10.45280   98.51730   94.41360   10.59170   77.01920   77.01920   48.61080   48.61080   10.59170   26.09810  -83.93560  -60.10700   26.09810
 5600.00000   12.05820   12.05820  116.14690  104.12000    9.60430   73.57130   73.57130   57.34290   57.34290    9.60430   12.60650  -50.84710  -27.32340   12.60650
 5650.00000    9.01300    9.01300   67.00680   62.13610   16.09370   73.45010   73.45010   41.08690   41.08690   16.09370   42.39330 -126.95980 -103.73910   42.39330
 5700.00000    9.53300    9.53300   82.92580   75.61670   13.22460   71.24930   71.24930   54.60530   54.60530   13.22460   29.08190  -77.09800  -54.18220   29.08190
 5750.00000   11.09360   11.09360  103.05620   93.94520   10.64450   76.92590   76.92590   66.18420   66.18420   10.64450   14.34560  -41.20520  -18.59240   14.34560
 5800.00000   13.40210   13.40210  300.93230  248.54600    4.02340  119.74240  119.74240   66.68130   66.68130    4.02340    6.09860  -48.40560  -26.09570    6.09860
 5850.00000   10.26870   10.26870   82.33920   77.42930   12.91500   76.76080   76.76080   41.59760   41.59760   12.91500   20.75140  -69.61070  -47.60570   20.75140
 5900.00000   10.95450   10.95450   66.85950   61.58890   16.23670   70.90980   70.90980   36.32710   36.32710   16.23670   44.91300 -105.70600  -84.00400   44.91300
 5950.00000   12.14140   12.14140   75.74890   68.55280   14.58730   80.68080   80.68080   75.83900   75.83900   14.58730   18.85900  -47.97780  -26.58070   18.85900
