~Version ---------------------------------------------------
VERS.      2.0 : CWLS log ASCII Standard -VERSION 2.0
WRAP.       NO : One line per depth step
CREA. 11/14/17 : LAS Creation Date
~Well ------------------------------------------------------
STRT.FT                             950.0 : START DEPTH
STOP.FT                           10850.0 : STOP DEPTH
STEP.FT                          50.00000 : STEP LENGTH
NULL.                             -999.25 : NULL VALUE
COMP.        CANADIAN HOMESTEAD OILS LTD. : COMPANY
WELL. HOMESTEAD ET AL ROSEVEAR 11-5-55-15 : WELL
FLD .                                     : FIELD
LOC .                                     : LOCATION
CTRY.                              CANADA : COUNTRY
SRVC.              Schlumberger of Canada : SERVICE COMPANY
DATE.                         05-Oct-1975 : LOGDATE
PROV.                             Alberta : PROVINCE
UWI .                    100110505515W500 : UNIQUE WELL ID
SLAT.WGS84                       53.72589 : SURFACE LATITUDE
SLON.WGS84                      -116.1973 : SURFACE LONGITUDE
~Curve Information -----------------------------------------
DEPT    .FT    : Depth Curve
CALDED  .IN    : CALIPER FROM DENSITY LOG
CALSED  .IN    : CALIPER FROM SONIC LOG
CALWS   .IN    : CALIPER [CALDED]
CONDWS  .MMHO  : CONDUCTIVITY [1000/DRESWS]
DCORWS  .G/C3  : DENSITY CORRECTION [DRHOED]
DENWS   .G/C3  : FORMATION BULK DENSITY [RHOBED]
DPHILSED.V/V   : DENSITY POROSITY LIME [M=2.71, F=1.00] FROM DENSITY LOG [ADJ. TO RHOBED]
DPHISSED.V/V   : DENSITY POROSITY SAND [M=2.65, F=1.00] FROM DENSITY LOG [ADJ. TO RHOBED]
DPOLSWS .V/V   : DENSITY POROSITY LIME [CALC FROM DENWS, M=2.71, F=1.00]
DRESWS  .OHMM  : DEEP RESISTIVITY [ILDED]
DRHOED  .G/C3  : DENSITY CORRECTION FROM DENSITY LOG
DTED    .US/F  : DELTA-T FROM SONIC LOG [ADJ. TO DENSITY LOG]
DTWS    .US/F  : COMPRESSIONAL SONIC [DTED]
GRDED   .GAPI  : GAMMA RAY FROM DENSITY LOG
GRSED   .GAPI  : GAMMA RAY FROM SONIC LOG
GRWS    .GAPI  : GAMMA RAY [GRSED SPL. TO GRDED @ 1083']
ILDED   .OHMM  : DEEP INDUCTION RESISTIVITY FROM RESISTIVITY LOG
ILMED   .OHMM  : INDUCTION MEDIUM RESISTIVITY FROM RESISTIVITY LOG
LL8ED   .OHMM  : LATEROLOG-8 RESISTIVITY FROM RESISTIVITY LOG
MRESWS  .OHMM  : MEDIUM RESISTIVITY [ILMED]
NPHILSED.V/V   : NEUTRON POROSITY LIME FROM DENSITY LOG
NPHISSED.V/V   : NEUTRON POROSITY SAND FROM DENSITY LOG
NPOLSWS .V/V   : NEUTRON POROSITY LIME [SS MATRIX CONVERT TO LS & SPL. TO LS @ 7306']
RHOBED  .G/C3  : BULK DENSITY FROM DENSITY LOG
SPRED   .MV    : SPONTANEOUS POTENTIAL FROM RESISTIVITY LOG
SPWS    .MV    : SPONTANEOUS POTENTIAL [BASELINE 0 MV, SPRED]
SRESWS  .OHMM  : SHALLOW RESISTIVITY [LL8ED]
~Params ----------------------------------------------------
PD  .                     GL : PERMANENT DATUM
EPD .FT               2836.1 : ELEVATION PERMANENT DATUM
LMF .                     KB : LOG MEASURED FROM
DAPD.FT                15.85 : FEET ABOVE PERMANENT DATUM
EKB .FT              2851.95 : KELLY BUSHING
EGL .FT               2836.1 : GROUND LEVEL
DATE.               10/05/75 : RUN DATE
RUN .                      1 : RUN NUMBER
DD  .FT                10878 : DEPTH DRILLER
DL  .FT                10878 : DEPTH LOGGER
BLI .FT                10872 : BOTTOM LOG INTERVAL
TLI .FT                 1099 : TOP LOG INTERVAL
CBD .FT                 1096 : CASING BOTTOM DRILLER
CBL .FT                 1099 : CASING BOTTOM LOGGER
BS  .IN                 8.75 : BIT SIZE
BSD .FT                10878 : BIT SIZE AT DEPTH
DFT .               GEL CHEM : DRILLING FLUID TYPE
DFD .                    9.7 : DRILLING FLUID DENSITY
DFV .                    487 : DRILLING FLUID VISCOSITY
DFPH.                   10.5 : DRILLING FLUID PH
MSS .             CIRCULATED : MUD SAMPLE SOURCE
RMS .OHMM               1.34 : RESISTIVITY MUD SAMPLE
MST .DEGF                 64 : MUD SAMPLE TEMPERATURE
RMF .OHMM               0.91 : RESISTIVITY MUD FILTRATE SAMPLE
MFST.DEGF                 74 : MUD FILTRATE SAMPLE TEMPERATURE
RMB .OHMM               0.34 : RESISTIVITY MUD AT BHT
TCS .HRS                   4 : TIME CIRCULATED STOPPED
LUN .                   7690 : LOGGING UNIT NUMBER
LUL .                    EDM : LOGGING UNIT LOCATION
ENGI.     WILLIGER WILTSHIRE : RECORDING ENGINEER
WITN.                  SLOAN : WITNESSED BY
CLNT.                A2DTECH : CLIENT CODE
ORIG.            2" 5" PRINT : ORIGIN OF DATA
UWI .       100110505515W500 : UNIQUE WELL ID
DICO. A2D Technologies, Inc. : DIGITIZING COMPANY
~Other -----------------------------------------------------
~ASCII -----------------------------------------------------
# ...
 8750.00000   10.74980    9.76980   10.74980    0.58700    0.23680    2.56380    0.09070    -999.25    0.08550 1703.66060    0.23680   49.21120   49.21120   25.67360    7.33550   25.67360 1703.66060 1990.78710 1466.89490 1990.78710    0.01200    -999.25    0.01200    2.56380 -172.59590  -87.07720 1466.89490
 8800.00000   12.15570    9.41000   12.15570    0.59680    0.22960    2.64260    0.04200    -999.25    0.03940 1675.50360    0.22960   50.06070   50.06070   19.41640    5.47430   19.41640 1675.50360 1535.56120 1421.48770 1535.56120    0.00380    -999.25    0.00380    2.64260 -173.33810  -87.92600 1421.48770
 8850.00000   13.57440    9.35420   13.57440    0.57100    0.26310    2.34930    0.21630    -999.25    0.21090 1751.24890    0.26310   51.19640   51.19640   18.41430    6.16000   18.41430 1751.24890  227.47400 1549.96420  227.47400    0.01710    -999.25    0.01710    2.34930 -175.56760  -90.26290 1549.96420
 8900.00000   11.73490    9.77150   11.73490    4.00290    0.23980    2.35070    0.23130    -999.25    0.21010  249.81930    0.23980   49.36190   49.36190   19.90580    7.56740   19.90580  249.81930 1225.00710 1530.52330 1225.00710    0.06020    -999.25    0.06020    2.35070 -204.96010 -119.76210 1530.52330
 8950.00000    9.03440    9.13230    9.03440   10.68280    0.09120    2.79450   -0.05060    -999.25   -0.04940   93.60850    0.09120   50.58950   50.58950   18.23100    6.02620   18.23100   93.60850  125.59600 1130.10230  125.59600    0.06120    -999.25    0.06120    2.79450 -204.96010 -119.86950 1130.10230
 9000.00000    9.31910    8.97700    9.31910    1.31560    0.08080    2.99020   -0.10670    -999.25   -0.16390  760.08340    0.08080   51.16570   51.16570   35.84030    8.95080   35.84030  760.08340 1967.67520 1503.76700 1967.67520    0.03680    -999.25    0.03680    2.99020 -161.48980  -76.50580 1503.76700
 9050.00000    9.71530    8.74410    9.71530   23.06810    0.25730    2.61730    0.05740    -999.25    0.05420   43.37300    0.25730   46.09300   46.09300   21.42410    7.33400   21.42410   43.37300   41.10320  150.05410   41.10320    0.07130    -999.25    0.07130    2.61730 -187.94520 -103.06790  150.05410
 9100.00000   13.86170   10.20580   13.86170    0.64740    0.25050    2.32400    0.22480    -999.25    0.22570 1544.69090    0.25050   54.08370   54.08370   32.40940   10.57770   32.40940 1544.69090   76.20990  211.55620   76.20990    0.07930    -999.25    0.07930    2.32400 -184.07930  -99.30940  211.55620
 9150.00000   11.70110   10.00410   11.70110    0.63510    0.26440    2.21620    0.28640    -999.25    0.28880 1574.59570    0.26440   50.98600   50.98600   31.46120    8.85920   31.46120 1574.59570  110.68510  149.97780  110.68510    0.07760    -999.25    0.07760    2.21620 -182.10120  -97.43790  149.97780
 9200.00000    9.48930    9.84020    9.48930    3.56470    0.04860    2.83740   -0.08040    -999.25   -0.07450  280.53160    0.04860   51.31830   51.31830   37.40450   11.36590   37.40450  280.53160  283.77190  904.60910  283.77190    0.02380    -999.25    0.02380    2.83740 -126.41160  -41.85570  904.60910
 9250.00000   10.49630    8.82210   10.49630   22.67490    0.26760    2.76820   -0.03320    -999.25   -0.03400   44.10170    0.26760   42.27010   42.27010   47.26530   12.35330   47.26530   44.10170   47.47780   69.25880   47.47780    0.05100    -999.25    0.05100    2.76820 -102.93070  -18.48150   69.25880
 9300.00000    9.82320    8.84470    9.82320   33.76890    0.03280    2.77430   -0.03510    -999.25   -0.03760   29.68540    0.03280   57.42080   57.42080   53.08260   17.24220   53.08260   29.68540   34.60050   51.21540   34.60050    0.07210    -999.25    0.07210    2.77430 -103.94930  -19.60670   51.21540
 9350.00000   10.19530    8.96470   10.19530   59.16880    0.07370    2.74310   -0.01540    -999.25   -0.01940   16.90080    0.07370   61.67790   61.67790   61.49240   18.50490   61.49240   16.90080   17.89830   25.81440   17.89830    0.10100    -999.25    0.10100    2.74310  -97.13580  -12.90060   25.81440
 9400.00000    9.81260   10.06110    9.81260   37.32000    0.03290    2.78150   -0.04170    -999.25   -0.04180   26.79530    0.03290   57.79550   57.79550   54.29310   15.05120   54.29310   26.79530   28.87310   39.85590   28.87310    0.08240    -999.25    0.08240    2.78150  -98.01450  -13.88600   39.85590
 9450.00000    9.83220    9.97850    9.83220   59.97830    0.04530    2.78870   -0.04500    -999.25   -0.04600   16.67270    0.04530   59.07090   59.07090   64.23590   15.19180   64.23590   16.67270   17.99720   25.64900   17.99720    0.09700    -999.25    0.09700    2.78870  -95.61440  -11.59330   25.64900
 9500.00000   13.51280   10.47450   13.51280  171.87450    0.23420    2.24150    0.26780    -999.25    0.27400    5.81820    0.23420   79.71410   79.71410   91.30540   23.48530   91.30540    5.81820    3.97270    7.38420    3.97270    0.37660    -999.25    0.37660    2.24150 -103.76550  -19.85100    7.38420
 9550.00000    9.98060   12.01000    9.98060   34.43120    0.02710    2.73440   -0.01300    -999.25   -0.01420   29.04340    0.02710   66.47310   66.47310   85.41870   23.36120   85.41870   29.04340   27.39020   58.84950   27.39020    0.17910    -999.25    0.17910    2.73440  -97.77720  -13.96940   58.84950
 9600.00000   10.56130    8.89290   10.56130   53.77990    0.22080    2.67330    0.01950    -999.25    0.02150   18.59430    0.22080   66.63500   66.63500   62.62220   17.29710   62.62220   18.59430   16.27350   24.84650   16.27350    0.16390    -999.25    0.16390    2.67330  -94.65030  -10.94990   24.84650
 9650.00000   12.80230   11.66290   12.80230  150.55030    0.23330    2.35100    0.21270    -999.25    0.20990    6.64230    0.23330   76.53490   76.53490   95.38690   24.21060   95.38690    6.64230    5.81900    8.99410    5.81900    0.32380    -999.25    0.32380    2.35100  -99.95930  -16.36550    8.99410
 9700.00000   10.02780   10.54720   10.02780   45.87830    0.16560    2.73990   -0.00780    -999.25   -0.01750   21.79680    0.16560   62.70740   62.70740   76.16550   18.68870   76.16550   21.79680   23.07710   34.83920   23.07710    0.13110    -999.25    0.13110    2.73990  -96.87600  -13.38960   34.83920
 9750.00000   10.04470    8.64470   10.04470   52.63660    0.07280    2.75990   -0.02870    -999.25   -0.02920   18.99820    0.07280   63.51440   63.51440   91.79220   21.96490   91.79220   18.99820   19.73510   27.15570   19.73510    0.15480    -999.25    0.15480    2.75990  -92.75230   -9.37260   27.15570
 9800.00000   10.20660    8.98430   10.20660   62.55300    0.24580    2.73720   -0.02080    -999.25   -0.01590   15.98770    0.24580   63.94470   63.94470   79.42910   21.84790   79.42910   15.98770   15.77360   24.56880   15.77360    0.15310    -999.25    0.15310    2.73720  -93.06330   -9.79020   24.56880
 9850.00000    9.35560    8.64980    9.35560   40.24970    0.01540    2.72000   -0.00640    -999.25   -0.00580   24.84490    0.01540   59.69480   59.69480   68.81920   17.88980   68.81920   24.84490   27.39080   39.83030   27.39080    0.12380    -999.25    0.12380    2.72000  -88.82620   -5.66050   39.83030
 9900.00000   10.68180    9.12290   10.68180   85.50150    0.20520    2.58230    0.07830    -999.25    0.07470   11.69570    0.20520   67.83690   67.83690   90.42290   24.67750   90.42290   11.69570   12.41780   16.58790   12.41780    0.21590    -999.25    0.21590    2.58230  -92.43420   -9.37520   16.58790
 9950.00000   10.97560    9.13550   10.97560   80.51980    0.22580    2.63310    0.03170    -999.25    0.04500   12.41930    0.22580   69.29530   69.29530  105.37560   25.88040  105.37560   12.41930   12.82840   20.41650   12.82840    0.20570    -999.25    0.20570    2.63310  -92.84620   -9.89460   20.41650
 10000.00000   11.00770    9.01300   11.00770   92.55920    0.26460    2.59840    0.07310    -999.25    0.06530   10.80390    0.26460   68.47650   68.47650   88.02870   22.28990   88.02870   10.80390   11.43860   16.76150   11.43860    0.21170    -999.25    0.21170    2.59840  -93.29350  -10.44850   16.76150
