~Version ---------------------------------------------------
VERS.      2.0 : CWLS log ASCII Standard -VERSION 2.0
WRAP.      YES : Multiple lines per depth step
CREA. 09/25/17 : LAS Creation Date
~Well ------------------------------------------------------
STRT.FT                      300.0 : START DEPTH
STOP.FT                    12100.0 : STOP DEPTH
STEP.FT                   50.00000 : STEP LENGTH
NULL.                      -999.25 : NULL VALUE
COMP. TRANS-PRAIRIES PIPELINES LTD : COMPANY
WELL.  TPPL DEEP VALLEY 7-11-64-25 : WELL
FLD .                              : FIELD
LOC .                              : LOCATION
CTRY.                       CANADA : COUNTRY
SRVC.       Schlumberger of Canada : SERVICE COMPANY
DATE.                  16-Mar-1975 : LOGDATE
PROV.                      Alberta : PROVINCE
UWI .             100071106425W500 : UNIQUE WELL ID
SLAT.WGS84                54.52029 : SURFACE LATITUDE
SLON.WGS84               -117.6631 : SURFACE LONGITUDE
~Curve Information -----------------------------------------
DEPT    .FT    : Depth Curve
CALDED  .IN    : CALIPER FROM DENSITY LOG
CALSED  .IN    : CALIPER FROM SONIC LOG
CALWS   .IN    : CALIPER [CALSED]
CILDED  .MMHO  : CONDUCTIVITY FROM RESISTIVITY LOG
CONDWS  .MMHO  : CONDUCTIVITY [1000/DRESWS]
DCORED  .G/C3  : DENSITY CORRECTION FROM DENSITY LOG
DCORWS  .G/C3  : DENSITY CORRECTION [DCORED]
DENWS   .G/C3  : FORMATION BULK DENSITY [RHOBED]
DPHILSED.V/V   : DENSITY POROSITY LIME [M=2.71, F=1.0] FROM DENSITY LOG [ADJ. TO RHOBED]
DPHISSED.V/V   : DENSITY POROSITY SAND [M=2.65, F=1.0] FROM DENSITY LOG [ADJ. TO RHOBED]
DPOLSWS .V/V   : DENSITY POROSITY LIME [CALC. FROM DENWS, M=2.71, F=1.0]
DRESWS  .OHMM  : DEEP RESISTIVITY [1000/CILDED, IF ILDED < 1, ILDED]
DTED    .US/F  : DELTA-T FROM SONIC LOG
DTWS    .US/F  : COMPRESSIONAL SONIC [DTED]
GRDED   .GAPI  : GAMMA RAY FROM DENSITY LOG
GRWS    .GAPI  : GAMMA RAY [GRDED]
ILDED   .OHMM  : DEEP INDUCTION FROM RESISTIVITY LOG
ILMED   .OHMM  : MEDIUM INDUCTION FROM RESISTIVITY LOG
LL8ED   .OHMM  : LATEROLOG FROM RESISTIVITY LOG
MRESWS  .OHMM  : MEDIUM RESISTIVITY [ILMED]
NPHILSED.V/V   : NEUTRON POROSITY LIME FROM DENSITY LOG [ADJ. TO RHOBED]
NPHISSED.V/V   : NEUTRON POROSITY SAND FROM DENSITY LOG [ADJ. TO RHOBED]
NPOLSWS .V/V   : NEUTRON POROSITY LIME [SS MATRIX CONVERTED TO LS & SPL. TO NPHILSED @ 7950']
RHOBED  .G/C3  : BULK DENSITY FROM DENSITY LOG
SPRED   .MV    : SPONTANEOUS POTENTIAL FROM RESISTIVITY LOG
SPWS    .MV    : SPONTANEOUS POTENTIAL [BASELINE 0 MV,SPRED]
SRESWS  .OHMM  : SHALLOW RESISTIVITY [LL8ED]
~Params ----------------------------------------------------
EKB .FT                 2835 : KELLY BUSHING
EGL .FT                 2813 : GROUND LEVEL
DATE.               03/16/75 : RUN DATE
RUN .                      1 : RUN NUMBER
DD  .FT                12140 : DEPTH DRILLER
DL  .FT                12139 : DEPTH LOGGER
BLI .FT                12133 : BOTTOM LOG INTERVAL
TLI .FT                 1603 : TOP LOG INTERVAL
CBD .FT                 1603 : CASING BOTTOM DRILLER
CBL .FT                 1604 : CASING BOTTOM LOGGER
BS  .IN                  8.5 : BIT SIZE
BSD .FT                12140 : BIT SIZE AT DEPTH
DFT .               GEL CHEM : DRILLING FLUID TYPE
DFD .                    9.3 : DRILLING FLUID DENSITY
DFV .                    109 : DRILLING FLUID VISCOSITY
DFPH.                    9.5 : DRILLING FLUID PH
DFL .                    7.8 : DRILLING FLUID LOSS
MSS .               FLOWLINE : MUD SAMPLE SOURCE
RMS .OHMM               1.57 : RESISTIVITY MUD SAMPLE
MST .DEGF                 61 : MUD SAMPLE TEMPERATURE
RMF .OHMM               1.19 : RESISTIVITY MUD FILTRATE SAMPLE
MFST.DEGF                 63 : MUD FILTRATE SAMPLE TEMPERATURE
RMC .OHMM               2.57 : RESISTIVITY MUD CAKE
MCST.DEGF                 60 : MUD CAKE SAMPLE TEMPERATURE
TCS .HRS                   4 : TIME CIRCULATED STOPPED
LUN .                   7691 : LOGGING UNIT NUMBER
LUL .                    EDM : LOGGING UNIT LOCATION
ENGI.                  BORLE : RECORDING ENGINEER
WITN.                 TAYLOR : WITNESSED BY
CLNT.                A2DTECH : CLIENT CODE
ORIG.            2" 5" PRINT : ORIGIN OF DATA
UWI .       100071106425W500 : UNIQUE WELL ID
DICO. A2D Technologies, Inc. : DIGITIZING COMPANY
~Other -----------------------------------------------------
~ASCII -----------------------------------------------------
# ...
 5500.00000   12.78140   10.59570   10.59570    -999.25  146.50080   -0.53680   -0.53680    2.56620    -999.25    0.07510    0.08410    6.82590   81.71610   81.71610  109.33010  109.33010    6.82590    7.31850    7.78610    7.31850    -999.25    0.29500    0.25100    2.56620 -136.92720   -8.89810    7.78610
 5550.00000   14.38220   10.52090   10.52090    -999.25  171.09230   -0.53640   -0.53640    2.45220    -999.25    0.12680    0.15080    5.84480   84.87640   84.87640  116.53330  116.53330    5.84480    6.28120    6.86680    6.28120    -999.25    0.33440    0.29060    2.45220 -136.06120   -8.49120    6.86680
 5600.00000   14.22190    9.55130    9.55130    -999.25  126.97450   -0.55340   -0.55340    2.58000    -999.25    0.04760    0.07600    7.87560   81.33380   81.33380  110.44160  110.44160    7.87560    8.44120    8.79570    8.44120    -999.25    0.31280    0.26890    2.58000 -135.89580   -8.78500    8.79570
 5650.00000   14.80270    8.60580    8.60580    -999.25  338.51260   -0.60560   -0.60560    2.42740    -999.25    0.15150    0.16530    2.95410   97.42740   97.42740  130.17510  130.17510    2.95410    3.28760    3.62880    3.28760    -999.25    0.41840    0.37590    2.42740 -132.72840   -6.07670    3.62880
 5700.00000   15.07180   10.87320   10.87320    -999.25  285.46140   -0.57410   -0.57410    2.39150    -999.25    0.15910    0.18630    3.50310   97.01040   97.01040   94.21390   94.21390    3.50310    3.22130    4.52390    3.22130    -999.25    0.36890    0.32550    2.39150 -132.71310   -6.52050    4.52390
 5750.00000   13.13090    9.24230    9.24230    -999.25  294.67230   -0.55930   -0.55930    2.37310    -999.25    0.17460    0.19700    3.39360   98.72420   98.72420  106.62680  106.62680    3.39360    2.94260    3.92840    2.94260    -999.25    0.39870    0.35580    2.37310 -129.94980   -4.21640    3.92840
 5800.00000   13.13940   10.73020   10.73020    -999.25  208.27260   -0.58660   -0.58660    2.46990    -999.25    0.12450    0.14040    4.80140   91.11850   91.11850  108.88700  108.88700    4.80140    5.11270    5.49160    5.11270    -999.25    0.35440    0.31080    2.46990 -132.02070   -6.74640    5.49160
 5850.00000   12.96770   10.77020   10.77020    -999.25  122.22850   -0.71860   -0.71860    2.43580    -999.25    0.11970    0.16040    8.18140   82.80290   82.80290  104.78560  104.78560    8.18140    8.48130   10.02890    8.48130    -999.25    0.27120    0.22720    2.43580 -133.57770   -8.76260   10.02890
 5900.00000    9.97750    9.99590    9.99590    -999.25   82.41780   -0.60280   -0.60280    2.59920    -999.25    0.03320    0.06480   12.13330   75.92230   75.92230  114.40420  114.40420   12.13330   12.95960   14.80970   12.95960    -999.25    0.27250    0.22850    2.59920 -132.06130   -7.70530   14.80970
 5950.00000    8.91310    8.60300    8.60300    -999.25   70.05300   -0.63470   -0.63470    2.44510    -999.25    0.13640    0.15490   14.27490   72.27060   72.27060   34.12220   34.12220   14.27490   16.41070   20.34770   16.41070    -999.25    0.18460    0.14140    2.44510 -180.48800  -56.59120   20.34770
 6000.00000   12.83560   10.26220   10.26220    -999.25  164.63340   -0.62810   -0.62810    2.13660    -999.25    0.28680    0.33530    6.07410   78.57510   78.57510   80.72500   80.72500    6.07410    4.89850    6.85990    4.89850    -999.25    0.42760    0.38530    2.13660 -127.00070   -3.56300    6.85990
 6050.00000   12.03750   10.12850   10.12850    -999.25  100.83800   -0.71250   -0.71250    2.57090    -999.25    0.05410    0.08130    9.91690   74.56880   74.56880   90.42550   90.42550    9.91690   10.42200   11.82650   10.42200    -999.25    0.30960    0.26570    2.57090 -130.39600   -7.41740   11.82650
 6100.00000   10.47740    9.76230    9.76230    -999.25   79.49190   -0.54550   -0.54550    2.58890    -999.25    0.04240    0.07080   12.57990   78.05010   78.05010   82.03030   82.03030   12.57990   13.48980   17.04850   13.48980    -999.25    0.26080    0.21680    2.58890 -132.24160   -9.68620   17.04850
 6150.00000   10.47520    9.98740    9.98740    -999.25  108.88740   -0.62800   -0.62800    2.54230    -999.25    0.07460    0.09810    9.18380   73.81610   73.81610   53.52420   53.52420    9.18380    9.53070   10.13010    9.53070    -999.25    0.20390    0.16040    2.54230 -134.19160  -12.02340   10.13010
 6200.00000    9.87770    9.57590    9.57590    -999.25   45.92610   -0.59560   -0.59560    2.65460    -999.25   -0.00450    0.03240   21.77410   74.50660   74.50660   72.11500   72.11500   21.77410   23.19510   32.74360   23.19510    -999.25    0.21010    0.16650    2.65460 -136.27500  -14.49390   32.74360
 6250.00000    9.79290   12.36010   12.36010    -999.25   55.86940   -0.53000   -0.53000    2.35520    -999.25    0.16430    0.20750   17.89890  102.30340  102.30340   68.15360   68.15360   17.89890   18.71810   22.77440   18.71810    -999.25    0.32660    0.28270    2.35520 -137.89910  -16.50520   22.77440
 6300.00000   11.54340   12.03480   12.03480    -999.25  287.18300   -0.62730   -0.62730    1.94530    -999.25    0.42100    0.44720    3.48210   95.79110   95.79110  105.24070  105.24070    3.48210    3.00420    3.88880    3.00420    -999.25    0.41870    0.37620    1.94530 -130.73530   -9.72850    3.88880
 6350.00000   11.19360    9.76810    9.76810    -999.25   63.07910   -0.67580   -0.67580    2.43570    -999.25    0.12470    0.16040   15.85310   70.90990   70.90990   90.07300   90.07300   15.85310   17.62210   18.88050   17.62210    -999.25    0.26730    0.22330    2.43570 -132.90960  -12.29000   18.88050
 6400.00000    9.59030    9.89460    9.89460    -999.25   35.58450   -0.53410   -0.53410    2.25770    -999.25    0.22420    0.26450   28.10210  108.97610  108.97610   63.23550   63.23550   28.10210   22.11710   33.80310   22.11710    -999.25    0.35110    0.30750    2.25770 -125.35210   -5.11970   33.80310
 6450.00000   10.40160   10.42260   10.42260    -999.25   81.56210   -0.53760   -0.53760    2.61500    -999.25    0.02590    0.05560   12.26060   69.91800   69.91800   65.98580   65.98580   12.26060   13.42600   18.74020   13.42600    -999.25    0.21120    0.16760    2.61500 -137.00870  -20.16820   18.74020
 6500.00000   10.44390    9.97060    9.97060    -999.25  132.20340   -0.55080   -0.55080    2.46550    -999.25    0.11720    0.14300    7.56410   73.50740   73.50740   53.61750   53.61750    7.56410   10.31440   17.24710   10.31440    -999.25    0.21980    0.17610    2.46550 -180.53490  -67.61660   17.24710
 6550.00000   10.06370   10.28640   10.28640    -999.25   92.03700   -0.50740   -0.50740    2.49720    -999.25    0.08830    0.12440   10.86520   87.60570   87.60570   87.48970   87.48970   10.86520   11.37510   16.42780   11.37510    -999.25    0.35870    0.31520    2.49720 -129.77050  -20.77440   16.42780
 6600.00000   10.55170   10.11140   10.11140    -999.25  103.42010   -0.51520   -0.51520    2.54100    -999.25    0.06500    0.09880    9.66930   72.33670   72.33670   56.88070   56.88070    9.66930   10.85420   16.54560   10.85420    -999.25    0.22030    0.17660    2.54100 -139.42090  -34.34700   16.54560
 6650.00000    9.89770    9.45250    9.45250    -999.25   96.43570   -0.56030   -0.56030    2.56220    -999.25    0.06050    0.08640   10.36960   73.32750   73.32750   58.22820   58.22820   10.36960   10.91460   14.38040   10.91460    -999.25    0.20980    0.16620    2.56220 -119.76740  -18.61570   14.38040
 6700.00000   10.41140   10.36420   10.36420    -999.25  101.34790   -0.50240   -0.50240    2.48910    -999.25    0.09830    0.12920    9.86700   70.80310   70.80310   63.30440   63.30440    9.86700   11.44040   16.02840   11.44040    -999.25    0.22430    0.18060    2.48910 -142.32080  -44.70080   16.02840
 6750.00000   10.63150   10.26090   10.26090    -999.25   76.15390   -0.52340   -0.52340    2.60580    -999.25    0.02530    0.06090   13.13130   71.67200   71.67200   78.18470   78.18470   13.13130   13.61000   16.24300   13.61000    -999.25    0.22350    0.17980    2.60580 -135.35540  -37.75280   16.24300
