~Version ---------------------------------------------------
VERS.      2.0 : CWLS log ASCII Standard -VERSION 2.0
WRAP.       NO : One line per depth step
CREA. 12/14/17 : LAS Creation Date
~Well ------------------------------------------------------
STRT.FT                        1500.0 : START DEPTH
STOP.FT                        9650.0 : STOP DEPTH
STEP.FT                      50.00000 : STEP LENGTH
NULL.                         -999.25 : NULL VALUE
COMP.           OCELOT INDUSTRIES LTD : COMPANY
WELL. OIL ET AL VIRGHILLS 11-15-63-13 : WELL
FLD .                                 : FIELD
LOC .                                 : LOCATION
CTRY.                          CANADA : COUNTRY
SRVC.                   Dresser Atlas : SERVICE COMPANY
DATE.                     19-Jun-1978 : LOGDATE
PROV.                         Alberta : PROVINCE
UWI .                100111506313W500 : UNIQUE WELL ID
SLAT.WGS84                   54.45302 : SURFACE LATITUDE
SLON.WGS84                  -115.8819 : SURFACE LONGITUDE
~Curve Information -----------------------------------------
DEPT     .FT    : Depth Curve
CALD1ED  .IN    : CALIPER FROM CNFD LOG [AJ. TO RESISTIVITY LOG]
CALDED   .IN    : CALIPER FROM CDL-CNL LOG [AJ. TO RESISTIVITY LOG]
CALWS    .IN    : CALIPER [CALD1ED SPL. TO CALDED @ 1881.3M]
CONDWS   .MMHO  : CONDUCTIVITY [1000/DRESWS]
CORRED   .G/C3  : DENSITY CORRECTION FROM CDL-CNL LOG [ADJ. TO RESISTIVITY LOG/DPHILSED/DPHISSED] [CORRED*1000]
DCORED   .G/C3  : DENSITY CORRECTION FROM CNFD LOG [ADJ. TO RESISTIVITY LOG/DPHISS1ED] [DCOR1ED*1000]
DCORWS   .G/C3  : DENSITY CORRECTION [DCORED SPL.TO CORRED @ 5900']
DENWS    .G/C3  : FORMATION BULK DENSITY [CALC. FROM DPOLSWS M=2.71,F=1.00]
DPHILSED .V/V   : DENSITY POROSITY LIMESTONE [M=2.71,F=1.0] FROM CDL-CNL LOG [AJ. TO RESISTIVITY LOG]
DPHISS1ED.V/V   : DENSITY POROSITY SANDSTONE [M=2.65,F=1.0] FROM CNFD LOG [AJ. TO RESISTIVITY LOG]
DPHISSED .V/V   : DENSITY POROSITY SANDSTONE [M=2.65,F=1.0] FROM CDL-CNL LOG [AJ. TO RESISTIVITY LOG]
DPOLSWS  .V/V   : DENSITY POROSITY LIMESTONE [DPHISS1ED CONVERTED TO LIMESTONE MATRIX, M=2.71,F=1.00, SPL. TO DPHILSED @ 5604']
DRESWS   .OHMM  : DEEP RESISTIVITY [ILDED]
GRD1ED   .GAPI  : GAMMA RAY FROM CNFD LOG [AJ. TO RESISTIVITY LOG]
GRDED    .GAPI  : GAMMA RAY FROM CDL-CNL LOG [AJ. TO RESISTIVITY LOG]
GRWS     .GAPI  : GAMMA RAY [GRD1ED SPL. TO GRDED @ 5873']
ILDED    .OHMM  : DEEP INDUCTION FROM RESISTIVITY LOG
ILMED    .OHMM  : MEDIUM INDUCTION FROM RESISTIVITY LOG
MRESWS   .OHMM  : MEDIUM RESISTIVITY [ILMED]
NPHILSED .V/V   : NEUTRON POROSITY LIMESTONE FROM CDL-CNL LOG [AJ. TO RESISTIVITY LOG]
NPHISS1ED.V/V   : NEUTRON POROSITY SANDSTONE FROM CNFD LOG [AJ. TO RESISTIVITY LOG]
NPHISSED .V/V   : NEUTRON POROSITY SANDSTONE FROM CDL-CNL LOG [AJ. TO RESISTIVITY LOG]
NPOLSWS  .V/V   : NEUTRON POROSITY LIMESTONE [NPHISSED MATRIX CONVERSION FOR LIMESTONE FROM SCHLUMBERGER (CNL), SPL. TO NPHILSED @ 5604']
RHOB1ED  .G/C3  : BULK DENSITY FROM CNFD LOG [ADJ. TO RESISTIVITY LOG/DPHISS1ED]
RHOBED   .G/C3  : BULK DENSITY FROM CDL-CNL LOG [ADJ. TO RESISTIVITY LOG/DPHILSED/DPHISSED]
SFLED    .OHMM  : SPHERICALLY FOCUSED FROM RESISTIVITY LOG
SPRED    .MV    : SPONTANEOUS POTENTIAL FROM RESISTIVITY LOG
SPWS     .MV    : SPONTANEOUS POTENTIAL [BASELINE 0 MV, SPRED]
SRESWS   .OHMM  : SHALLOW RESISTIVITY [SFLED]
~Params ----------------------------------------------------
PD  .                     GL : PERMANENT DATUM
EPD .FT               3435.5 : ELEVATION PERMANENT DATUM
LMF .                     KB : LOG MEASURED FROM
DAPD.FT                 15.5 : FEET ABOVE PERMANENT DATUM
DMF .                     KB : DRILLING MEASURED FROM
EKB .FT                 3451 : KELLY BUSHING
EGL .FT               3435.5 : GROUND LEVEL
DATE.               06/19/78 : RUN DATE
RUN .                      1 : RUN NUMBER
DD  .FT                 9683 : DEPTH DRILLER
DL  .FT                 9684 : DEPTH LOGGER
BLI .FT                 9681 : BOTTOM LOG INTERVAL
TLI .FT                 1517 : TOP LOG INTERVAL
CS  .IN                8.625 : CASING SIZE
CBD .FT                 1517 : CASING BOTTOM DRILLER
CBL .FT                 1517 : CASING BOTTOM LOGGER
BS  .IN                7.875 : BIT SIZE
BSD .FT                 9683 : BIT SIZE AT DEPTH
DFT .               GEL CHEM : DRILLING FLUID TYPE
DFD .                    9.1 : DRILLING FLUID DENSITY
DFV .                     65 : DRILLING FLUID VISCOSITY
DFPH.                      9 : DRILLING FLUID PH
DFL .                     11 : DRILLING FLUID LOSS
MSS .                   CIRC : MUD SAMPLE SOURCE
RMS .OHMM                  3 : RESISTIVITY MUD SAMPLE
MST .DEGF                 76 : MUD SAMPLE TEMPERATURE
RMF .OHMM                2.8 : RESISTIVITY MUD FILTRATE SAMPLE
MFST.DEGF                 72 : MUD FILTRATE SAMPLE TEMPERATURE
RMC .OHMM                2.5 : RESISTIVITY MUD CAKE
MCST.DEGF                 72 : MUD CAKE SAMPLE TEMPERATURE
MFSS.                   MEAS : MUD FILTRATE SAMPLE SOURCE
MCSS.                   MEAS : MUD CAKE SAMPLE SOURCE
RMB .OHMM               1.23 : RESISTIVITY MUD AT BHT
TCS .HRS                   5 : TIME CIRCULATED STOPPED
LUN .                HL 6155 : LOGGING UNIT NUMBER
LUL .                     VV : LOGGING UNIT LOCATION
ENGI.                 GORDON : RECORDING ENGINEER
WITN.                  BROCK : WITNESSED BY
CLNT.                A2DTECH : CLIENT CODE
ORIG.            2" 5" PRINT : ORIGIN OF DATA
UWI .       100111506313W500 : UNIQUE WELL ID
DICO. A2D Technologies, Inc. : DIGITIZING COMPANY
~Other -----------------------------------------------------
DIL-CNFD-CNL-CDL LOG RUN
RHOBED,RHOB1ED,CORRED & DCORED VERIFY FROM 2" SCALE
~ASCII -----------------------------------------------------
# ...
 7750.00000    -999.25    7.98160    7.98160   52.95570   -0.00470    -999.25   -0.00470    2.67700    0.01930    -999.25    -999.25    0.01930   18.88370    -999.25   60.59170   60.59170   18.88370   20.97460   20.97460    0.11210    -999.25    -999.25    0.11210    -999.25    2.66180   24.40490  -80.07030  -65.42580   24.40490
 7800.00000    -999.25    8.09120    8.09120   21.21260    0.01130    -999.25    0.01130    2.76170   -0.03030    -999.25    -999.25   -0.03030   47.14250    -999.25   63.91950   63.91950   47.14250   53.49110   53.49110    0.07860    -999.25    -999.25    0.07860    -999.25    2.73920   49.47900  -27.29140  -12.84200   49.47900
 7850.00000    -999.25    8.06550    8.06550   23.79860    0.02140    -999.25    0.02140    2.75740   -0.02770    -999.25    -999.25   -0.02770   42.01920    -999.25   60.28680   60.28680   42.01920   46.39480   46.39480    0.07320    -999.25    -999.25    0.07320    -999.25    2.73020  106.41070  -21.69360   -7.44060  106.41070
 7900.00000    -999.25    8.40900    8.40900   61.56600    0.00400    -999.25    0.00400    2.68140    0.01680    -999.25    -999.25    0.01680   16.24370    -999.25   77.10410   77.10410   16.24370   16.72890   16.72890    0.10290    -999.25    -999.25    0.10290    -999.25    2.66540   24.18020  -19.96560   -5.90770   24.18020
 7950.00000    -999.25    8.10230    8.10230   41.74090    0.00290    -999.25    0.00290    2.68450    0.01490    -999.25    -999.25    0.01490   23.95730    -999.25   72.82200   72.82200   23.95730   25.45260   25.45260    0.07120    -999.25    -999.25    0.07120    -999.25    2.66660   27.42180  -24.81490  -10.95340   27.42180
 8000.00000    -999.25    8.72170    8.72170  129.84820    0.04000    -999.25    0.04000    2.69920    0.00630    -999.25    -999.25    0.00630    7.70130    -999.25   96.92570   96.92570    7.70130    8.02940    8.02940    0.14450    -999.25    -999.25    0.14450    -999.25    2.68280   10.93160  -17.57730   -3.91090   10.93160
 8050.00000    -999.25    8.21150    8.21150   55.12690    0.00470    -999.25    0.00470    2.70430    0.00340    -999.25    -999.25    0.00340   18.14100    -999.25   60.94510   60.94510   18.14100   18.87280   18.87280    0.08930    -999.25    -999.25    0.08930    -999.25    2.68540   19.69440  -23.23500   -9.76370   19.69440
 8100.00000    -999.25    8.33090    8.33090   91.29090    0.01550    -999.25    0.01550    2.72390   -0.00810    -999.25    -999.25   -0.00810   10.95400    -999.25   76.40030   76.40030   10.95400   11.75990   11.75990    0.11550    -999.25    -999.25    0.11550    -999.25    2.70200   12.48500  -17.20400   -3.92910   12.48500
 8150.00000    -999.25    8.76020    8.76020   89.19610    0.03690    -999.25    0.03690    2.71440   -0.00250    -999.25    -999.25   -0.00250   11.21130    -999.25   88.25750   88.25750   11.21130   12.10280   12.10280    0.14780    -999.25    -999.25    0.14780    -999.25    2.69930   13.53940  -19.04110   -5.96130   13.53940
 8200.00000    -999.25    9.96230    9.96230  167.37800    0.10910    -999.25    0.10910    2.24440    0.21450    -999.25    -999.25    0.27230    5.97450    -999.25  119.99810  119.99810    5.97450    6.47690    6.47690    0.24380    -999.25    -999.25    0.24380    -999.25    2.24440    7.24080  -27.76860  -14.41390    7.24080
 8250.00000    -999.25    8.41280    8.41280   62.71520    0.02510    -999.25    0.02510    2.70500    0.00300    -999.25    -999.25    0.00300   15.94510    -999.25   68.97070   68.97070   15.94510   16.69720   16.69720    0.10990    -999.25    -999.25    0.10990    -999.25    2.68810   17.49470  -20.19730   -6.50700   17.49470
 8300.00000    -999.25   11.27780   11.27780  157.20170    0.17600    -999.25    0.17600    2.44120    0.15720    -999.25    -999.25    0.15720    6.36660    -999.25   88.42360   88.42360    6.36660    7.15120    7.15120    0.24990    -999.25    -999.25    0.24990    -999.25    2.43220   11.47760  -27.57990  -13.55410   11.47760
 8350.00000    -999.25   13.48590   13.48590  219.40890    0.12980    -999.25    0.12980    2.34200    0.21520    -999.25    -999.25    0.21520    4.55770    -999.25  105.37750  105.37750    4.55770    4.87910    4.87910    0.31900    -999.25    -999.25    0.31900    -999.25    2.32770    5.97610  -46.27340  -31.90980    5.97610
 8400.00000    -999.25   11.46970   11.46970  181.31180    0.08140    -999.25    0.08140    2.07110    0.37370    -999.25    -999.25    0.37370    5.51550    -999.25  105.13480  105.13480    5.51550    5.82080    5.82080    0.31100    -999.25    -999.25    0.31100    -999.25    2.05710    6.35620  -42.49880  -27.79970    6.35620
 8450.00000    -999.25    8.61770    8.61770  111.26070    0.08290    -999.25    0.08290    2.63010    0.04670    -999.25    -999.25    0.04670    8.98790    -999.25  106.84770  106.84770    8.98790    9.54800    9.54800    0.16760    -999.25    -999.25    0.16760    -999.25    2.61580    9.74940  -28.57250  -13.53560    9.74940
 8500.00000    -999.25    8.73530    8.73530  133.87780    0.10290    -999.25    0.10290    2.43930    0.15830    -999.25    -999.25    0.15830    7.46950    -999.25  101.98490  101.98490    7.46950    8.09710    8.09710    0.19130    -999.25    -999.25    0.19130    -999.25    2.42700    8.71730  -34.50160  -19.12920    8.71730
 8550.00000    -999.25    8.69020    8.69020  137.58770    0.10450    -999.25    0.10450    2.53090    0.10470    -999.25    -999.25    0.10470    7.26820    -999.25  104.03840  104.03840    7.26820    7.96170    7.96170    0.17700    -999.25    -999.25    0.17700    -999.25    2.51960    8.94510  -30.53110  -14.82310    8.94510
 8600.00000    -999.25    9.58080    9.58080  178.53640    0.12420    -999.25    0.12420    2.40340    0.17930    -999.25    -999.25    0.17930    5.60110    -999.25  104.39520  104.39520    5.60110    5.78580    5.78580    0.27330    -999.25    -999.25    0.27330    -999.25    2.38490    6.72740  -46.23340  -30.18760    6.72740
 8650.00000    -999.25    9.49690    9.49690  147.82220    0.11300    -999.25    0.11300    2.54870    0.09430    -999.25    -999.25    0.09430    6.76500    -999.25   86.29420   86.29420    6.76500    7.07070    7.07070    0.22000    -999.25    -999.25    0.22000    -999.25    2.53160    7.32200  -34.66550  -18.28420    7.32200
 8700.00000    -999.25    9.26390    9.26390  169.13320    0.09940    -999.25    0.09940    2.38010    0.19290    -999.25    -999.25    0.19290    5.91250    -999.25   71.00070   71.00070    5.91250    6.15360    6.15360    0.20270    -999.25    -999.25    0.20270    -999.25    2.37510    6.61360  -35.67730  -18.95820    6.61360
 8750.00000    -999.25   10.11180   10.11180  184.85310    0.16370    -999.25    0.16370    2.56520    0.08470    -999.25    -999.25    0.08470    5.40970    -999.25   79.72010   79.72010    5.40970    5.80520    5.80520    0.24670    -999.25    -999.25    0.24670    -999.25    2.55050    6.28800  -43.23230  -26.17770    6.28800
 8800.00000    -999.25    9.97580    9.97580  197.75820    0.17100    -999.25    0.17100    2.53730    0.10100    -999.25    -999.25    0.10100    5.05790    -999.25   93.66470   93.66470    5.05790    5.43910    5.43910    0.24830    -999.25    -999.25    0.24830    -999.25    2.52470    5.87730  -38.86720  -21.47700    5.87730
 8850.00000    -999.25   11.26620   11.26620  253.69120    0.24070    -999.25    0.24070    2.43260    0.16220    -999.25    -999.25    0.16220    3.94180    -999.25   91.54050   91.54050    3.94180    4.21710    4.21710    0.28690    -999.25    -999.25    0.28690    -999.25    2.40540    5.34140  -48.59870  -30.87080    5.34140
 8900.00000    -999.25    8.65430    8.65430   20.52680    0.01530    -999.25    0.01530    2.58590    0.07260    -999.25    -999.25    0.07260   48.74290    -999.25  107.74740  107.74740   48.74290   64.47290   64.47290    0.16050    -999.25    -999.25    0.16050    -999.25    2.57610  192.43150  -29.38290  -11.31940  192.43150
 8950.00000    -999.25    8.75710    8.75710   69.28420    0.05130    -999.25    0.05130    2.67970    0.01770    -999.25    -999.25    0.01770   14.43330    -999.25   76.87470   76.87470   14.43330   16.62660   16.62660    0.17590    -999.25    -999.25    0.17590    -999.25    2.67020   21.94410  -23.44290   -4.49500   21.94410
