~Version ---------------------------------------------------
VERS.      2.0 : CWLS log ASCII Standard -VERSION 2.0
WRAP.       NO : One line per depth step
CREA. 09/02/13 : LAS Creation Date
~Well ------------------------------------------------------
STRT.M                           400.0 : START DEPTH
STOP.M                          2850.0 : STOP DEPTH
STEP.M                        50.00000 : STEP LENGTH
NULL.                          -999.25 : NULL VALUE
COMP. CHEVRON CANADA RESOURCES LIMITED : COMPANY
WELL.   CHEVRON VALLEYVIEW 13-20-71-21 : WELL
FLD .                                  : FIELD
LOC .                                  : LOCATION
CTRY.                           CANADA : COUNTRY
SRVC.                    Dresser Atlas : SERVICE COMPANY
DATE.                      01-May-1983 : LOGDATE
PROV.                          Alberta : PROVINCE
UWI .                 100132007121W500 : UNIQUE WELL ID
SLAT.WGS84                    55.17042 : SURFACE LATITUDE
SLON.WGS84                   -117.2038 : SURFACE LONGITUDE
~Curve Information -----------------------------------------
DEPT    .M      : DEPTH METER
ACED    .US/M   : ACOUSTIC FROM SONIC LOG [ADJ . TO RESISTIVITY LOG]
C13ED   .MM     : CALIPER 13 FROM DENSITY LOG [ADJ . TO RESISTIVITY LOG]
C24ED   .MM     : CALIPER 24 FROM DENSITY LOG [ADJ . TO RESISTIVITY LOG]
CALSED  .MM     : CALIPER FROM SONIC LOG [ADJ . TO RESISTIVITY LOG]
CALWS   .MM     : CALIPER [C13ED]
CNLSED  .V/V    : COMPENSATED NEUTRON POROSITY LIMESTONE FROM DENSITY LOG [ADJ . TO RESISTIVITY LOG]
CNSSED  .V/V    : COMPENSATED NEUTRON POROSITY SANDSTONE FROM DENSITY LOG [ADJ . TO RESISTIVITY LOG]
CONDWS  .MMHO   : CONDUCTIVITY [1000/DRESWS]
CORRED  .KG/M3  : DENSITY CORRECTION FROM DENSITY LOG [ADJ . TO RESISTIVITY LOG]
DCORWS  .KG/M3  : DENSITY CORRECTION [CORRED]
DENED   .KG/M3  : BULK DENSITY FROM DENSITY LOG [ADJ . TO RESISTIVITY LOG]
DENWS   .KG/M3  : FORMATION BULK DENSITY [DENED]
DPOLSWS .V/V    : DENSITY POROSITY LIMESTONE [CALC FROM DENWS, M=2710,F=1000]
DRESWS  .OHMM   : DEEP RESISTIVITY [RILDED]
DTWS    .US/M   : COMPRESSIONAL SONIC [ACED]
GRDED   .GAPI   : GAMMA RAY FROM DENSITY LOG [ADJ . TO RESISTIVITY LOG]
GRRED   .GAPI   : GAMMA RAY FROM RESISTIVITY LOG
GRSED   .GAPI   : GAMMA RAY FROM SONIC LOG [ADJ . TO RESISTIVITY LOG]
GRWS    .GAPI   : GAMMA RAY [GRSED SPL. TO GRDED @ 406M]
MRESWS  .OHMM   : MEDIUM RESISTIVITY [RILMED]
NPOLSWS .V/V    : NEUTRON POROSITY LIMESTONE [CNSSED MATRIX CONVERSION FOR LIMESTONE, SPL. TO CNLSED @ 1450M]
PORDLSED.V/V    : DENSITY POROSITY LIMESTONE [M=2710,F=1000] FROM DENSITY LOG [ADJ . TO RESISTIVITY LOG]
PORDSSED.V/V    : DENSITY POROSITY SANDSTONE [M=2650,F=1000] FROM DENSITY LOG [ADJ . TO RESISTIVITY LOG]
RFOCED  .OHMM   : SHALLOW FOCUSED LOG RESISTIVITY FROM RESISTIVITY LOG
RILDED  .OHMM   : DEEP INDUCTION RESISTIVITY FROM RESISTIVITY LOG
RILMED  .OHMM   : MEDIUM INDUCTION RESISTIVITY FROM RESISTIVITY LOG
SPRED   .MV     : SPONTANEOUS POTENTIAL FROM RESISTIVITY LOG
SPWS    .MV     : SPONTANEOUS POTENTIAL [BASELINE 0 MV, SPRED]
SRESWS  .OHMM   : SHALLOW RESISTIVITY [RFOCED]
TENDED  .N      : TENSION FROM DENSITY LOG [ADJ . TO RESISTIVITY LOG]
TENRED  .N      : TENSION FROM RESISTIVITY LOG
TENSED  .N      : TENSION FROM SONIC LOG [ADJ . TO RESISTIVITY LOG]
~Params ----------------------------------------------------
PD  .                         GL : PERMANENT DATUM
EPD .M                    669.45 : ELEVATION PERMANENT DATUM
LMF .                         KB : LOG MEASURED FROM
DAPD.M                      5.79 : FEET ABOVE PERMANENT DATUM
DMF .                         KB : DRILLING MEASURED FROM
EKB .M                    675.24 : KELLY BUSHING
EGL .M                    669.45 : GROUND LEVEL
DATE.                   05/01/83 : RUN DATE
RUN .                          1 : RUN NUMBER
DD  .M                      2885 : DEPTH DRILLER
DL  .M                      2886 : DEPTH LOGGER
BLI .M                    2885.6 : BOTTOM LOG INTERVAL
TLI .M                     419.6 : TOP LOG INTERVAL
CS  .MM                    244.5 : CASING SIZE
CBD .M                     419.6 : CASING BOTTOM DRILLER
CBL .M                     419.6 : CASING BOTTOM LOGGER
BS  .MM                      222 : BIT SIZE
BSD .M                      2885 : BIT SIZE AT DEPTH
DFT .                   GEL CHEM : DRILLING FLUID TYPE
DFD .                       1110 : DRILLING FLUID DENSITY
DFV .                         80 : DRILLING FLUID VISCOSITY
DFPH.                          9 : DRILLING FLUID PH
DFL .                         11 : DRILLING FLUID LOSS
MSS .                   FLOWLINE : MUD SAMPLE SOURCE
RMS .OHMM                    1.8 : RESISTIVITY MUD SAMPLE
MST .DEGC                     17 : MUD SAMPLE TEMPERATURE
RMF .OHMM                    1.9 : RESISTIVITY MUD FILTRATE SAMPLE
MFST.DEGC                     17 : MUD FILTRATE SAMPLE TEMPERATURE
RMC .OHMM                      2 : RESISTIVITY MUD CAKE
MCST.DEGC                     17 : MUD CAKE SAMPLE TEMPERATURE
MFSS.                       MEAS : MUD FILTRATE SAMPLE SOURCE
MCSS.                       MEAS : MUD CAKE SAMPLE SOURCE
RMB .OHMM                   0.68 : RESISTIVITY MUD AT BHT
TCS .HRS                       5 : TIME CIRCULATED STOPPED
LUN .                       6219 : LOGGING UNIT NUMBER
LUL .                        G P : LOGGING UNIT LOCATION
ENGI.                    LAMBERT : RECORDING ENGINEER
WITN.                   MCLENNAN : WITNESSED BY
CLNT.                    A2DTECH : CLIENT CODE
ORIG. 6.5"/100M 16.5"/100M PRINT : ORIGIN OF DATA
UWI .           100132007121W500 : UNIQUE WELL ID
DICO.     A2D Technologies, Inc. : DIGITIZING COMPANY
~Other -----------------------------------------------------
DIL-SFL-CDL-CNT-BHC ACOUSTILOG TOOL RUN
TENR FROM SMALL SECTION
SP EXHIBITS TULLERIC DRIFT IN CARBONATES
NEUTRON MATRIX CONVERSION: BAKER HUGHES (CNL:2420)
~ASCII -----------------------------------------------------
# ...
 1500.00000  191.96720  237.16630  248.24700  242.14270  237.16630    0.11390    -999.25  143.62240   67.80000   67.80000 2684.20000 2684.20000    0.01510    6.96270  191.96720   56.59050   45.88460   49.20920   56.59050    7.64490    0.11390    0.01640    -999.25   10.08620    6.96270    7.64490 -170.00750  -57.09040   10.08620 -1828.49030 -8213.12350 -2682.05760
 1550.00000  190.08230  241.40240  257.34450  254.07830  241.40240    0.08540    -999.25  133.28000  203.90000  203.90000 2634.80000 2634.80000    0.04400    7.50300  190.08230   36.62000   31.95060   30.04430   36.62000   10.42080    0.08540    0.05140    -999.25   40.81400    7.50300   10.42080 -172.89500  -55.59880   40.81400 -848.08010 -7869.33460 -2012.97120
 1600.00000  187.38190  240.40220  260.98900  261.68090  240.40220    0.08480    -999.25  155.02190  250.90000  250.90000 2568.30000 2568.30000    0.08290    6.45070  187.38190   41.61820   34.32370   27.27710   41.61820    8.96340    0.08480    0.08860    -999.25   31.66350    6.45070    8.96340 -112.27100  -31.69790   31.66350 -2507.32080 -7884.28750 -2481.82470
 1650.00000  204.77840  235.29660  282.31290  253.35390  235.29660    0.08350    -999.25   11.96100  116.90000  116.90000 2654.70000 2654.70000    0.03230   83.60490  204.77840   57.06920   49.74880   49.47000   57.06920  108.48940    0.08350    0.03450    -999.25   21.23720   83.60490  108.48940 -107.57360  -20.17960   21.23720 -1948.84920 -7910.20570 -2371.59610
 1700.00000  183.58300  247.17480  249.07970  249.85320  247.17480    0.06170    -999.25   79.82820   52.20000   52.20000 2613.00000 2613.00000    0.05670   12.52690  183.58300   26.26670   14.34530   18.64170   26.26670   14.55130    0.06170    0.05880    -999.25   26.76940   12.52690   14.55130 -141.42050  -75.91720   26.76940 -3514.66410 -8431.94640 -1950.60040
 1750.00000  193.05140  229.30880  258.73290  252.47620  229.30880    0.10950    -999.25  141.34680  250.00000  250.00000 2373.70000 2373.70000    0.19670    7.07480  193.05140   28.05550   20.48880   20.95540   28.05550   10.98500    0.10950    0.19880    -999.25   42.72700    7.07480   10.98500 -143.32040  -85.60840   42.72700  -66.38510 -8542.30980 -1053.53080
 1800.00000  181.37660  263.52190  258.00820  271.76360  263.52190    0.06400    -999.25   70.37350  250.00000  250.00000 2546.10000 2546.10000    0.09580   14.20990  181.37660   22.23220   12.52750   15.11300   22.23220   16.67590    0.06400    0.09720    -999.25   57.96710   14.20990   16.67590 -134.64580  -42.98650   57.96710 -2022.66130 -2724.61700 -2588.42070
 1850.00000  220.69340  250.48780  313.74540  279.08370  250.48780    0.09290    -999.25  112.84010  253.50000  253.50000 2556.90000 2556.90000    0.08950    8.86210  220.69340   66.17200   55.84530   51.91150   66.17200    9.70250    0.09290    0.08560    -999.25   12.27170    8.86210    9.70250  -83.88320  -21.76160   12.27170 -1314.09580 -1473.44870 -2623.18040
 1900.00000  201.30640  237.93250  242.36490  244.08010  237.93250    0.08920    -999.25   60.15760   76.50000   76.50000 2601.60000 2601.60000    0.06340   16.62300  201.30640   60.26160   60.49580   52.27920   60.26160   18.98370    0.08920    0.06970    -999.25   25.23890   16.62300   18.98370  -32.29860   -1.67810   25.23890 -417.63680 -1488.62600 -1965.75080
 1950.00000  176.22510  231.15040  232.93700  229.14120  231.15040    0.03140    -999.25   16.57910   33.50000   33.50000 2678.50000 2678.50000    0.01840   60.31690  176.22510   32.57570   27.62460   22.75310   32.57570   71.90670    0.03140    0.01920    -999.25  101.19320   60.31690   71.90670  -79.20680  -57.63870  101.19320 -1459.60050 -1503.79440 -1896.39310
 2000.00000  203.52440  241.01280  243.43430  239.45920  241.01280    0.07960    -999.25   54.61940   89.50000   89.50000 2645.30000 2645.30000    0.03780   18.30850  203.52440   53.74980   48.94710   46.40530   53.74980   22.42980    0.07960    0.03750    -999.25   27.54360   18.30850   22.42980  -63.07690  -41.77480   27.54360 -1814.51640 -1518.96270 -1531.83200
 2050.00000  163.02010  239.26100  254.32200  251.89760  239.26100    0.01230    -999.25    3.65680   93.00000   93.00000 2697.40000 2697.40000    0.00740  273.46660  163.02010   22.95090   14.68590   14.54930   22.95090  641.38480    0.01230    0.00740    -999.25 1367.29240  273.46660  641.38480  -96.29370  -75.25770 1367.29240 -1145.78020 -1575.39720 -1705.45520
 2100.00000  160.05510  229.62770  250.66450  236.21280  229.62770    0.01230    -999.25    6.45680  118.60000  118.60000 2716.90000 2716.90000   -0.00400  154.87630  160.05510   20.44530   11.58220   15.08150   20.44530  255.11930    0.01230   -0.00090    -999.25  299.82770  154.87630  255.11930 -103.12650  -82.35650  299.82770 -972.44440 -1670.65510 -1477.59780
 2150.00000  165.65750  226.02040  254.52860  240.06070  226.02040    0.03170    -999.25   27.09010  102.30000  102.30000 2705.20000 2705.20000    0.00280   36.91380  165.65750   16.15610    9.70710   10.62290   16.15610   46.05900    0.03170    0.00440    -999.25  125.37280   36.91380   46.05900 -114.82210  -94.31810  125.37280 -1570.44890 -1765.92200 -2567.50030
 2200.00000  159.34890  216.41180  257.28360  235.75430  216.41180    0.01350    -999.25    3.91150   86.30000   86.30000 2649.70000 2649.70000    0.03530  255.65840  159.34890   18.36760   12.24640   14.19950   18.36760 2026.10450    0.01350    0.03690    -999.25 2018.79440  255.65840 2026.10450 -124.00690 -103.76900 2018.79440 -1301.54080 -1861.18890 -1739.92300
 2250.00000  157.86540  208.69780  261.34530  228.25450  208.69780    0.01130    -999.25    0.71490  203.40000  203.40000 2764.00000 2764.00000   -0.03160 1398.83280  157.86540   24.58290   14.51310   15.06390   24.58290 2005.33850    0.01130   -0.03200    -999.25  604.60270 1398.83280 2005.33850 -135.73360 -115.76170  604.60270 -475.69680 -1956.45580 -2306.02820
 2300.00000  161.46600  222.48700  240.12800  224.41440  222.48700    0.09090    -999.25   27.60410  183.30000  183.30000 2670.70000 2670.70000    0.02300   36.22650  161.46600   25.07070   19.64550   20.56700   25.07070   46.74430    0.09090    0.02440    -999.25  286.87970   36.22650   46.74430 -118.45980  -98.75400  286.87970 -1852.86390 -1959.29370 -1278.46950
 2350.00000  169.73620  230.70500  226.27830  228.29320  230.70500    0.04100    -999.25   20.77620   17.30000   17.30000 2656.00000 2656.00000    0.03160   48.13190  169.73620   21.11860   14.53430   13.79440   21.11860   50.97580    0.04100    0.03370    -999.25   55.44570   48.13190   50.97580  -95.30410  -76.51640   55.44570 -1638.21700 -1922.50890 -1734.13050
 2400.00000  262.55340  280.67830  389.18020  330.21380  280.67830    0.20600    -999.25  228.89580  254.70000  254.70000 2443.20000 2443.20000    0.15600    4.36880  262.55340  100.61210   86.73810   87.81170  100.61210    4.49140    0.20600    0.15910    -999.25    6.70580    4.36880    4.49140  -44.67140  -22.13820    6.70580 -211.49470 -1885.71510 -1945.14920
 2450.00000  245.40190  299.33720  421.97540  378.54500  299.33720    0.18670    -999.25  185.02760  250.00000  250.00000 2313.90000 2313.90000    0.23160    5.40460  245.40190   83.26250   81.49240   75.71590   83.26250    5.70210    0.18670    0.23330    -999.25    6.04890    5.40460    5.70210  -47.13970   -9.67900    6.04890 -2753.43600 -1848.93030 -2822.56910
 2500.00000  258.19320  301.74230  422.22720  379.28690  301.74230    0.23630    -999.25  204.58680   36.80000   36.80000 1667.00000 1667.00000    0.60990    4.88790  258.19320   85.28190   78.24470   75.98540   85.28190    4.49090    0.23630    0.61210    -999.25    5.47660    4.88790    4.49090  -37.89590  -15.26420    5.47660 -3279.19100 -1787.26910 -2469.55710
 2550.00000  221.72040  239.98790  242.15110  242.12700  239.98790    0.14440    -999.25  102.44120   61.30000   61.30000 2611.00000 2611.00000    0.05790    9.76170  221.72040   90.49620   82.81650   75.56290   90.49620   11.10690    0.14440    0.06000    -999.25   13.22250    9.76170   11.10690  -56.72140  -49.07200   13.22250 -1560.12110 -1662.36600 -1243.35510
