~Version ---------------------------------------------------
VERS. 2.0 : CWLS log ASCII Standard -VERSION 2.0
WRAP.  NO : ONE LINE PER DEPTH STEP
~Well ------------------------------------------------------
STRT.M                             300.0 : START DEPTH
STOP.M                            2700.0 : STOP DEPTH
STEP.M                          50.00000 : STEP LENGTH
NULL.                            -999.25 : NULL VALUE
COMP.            PETROMARK MINERALS LTD. : COMPANY
WELL. PETROMK ET AL MORSE RIVER 2-2-65-8 : WELL
FLD .                                    : FIELD
LOC .                                    : LOCATION
CTRY.                             CANADA : COUNTRY
SRVC.                       Schlumberger : SERVICE COMPANY
DATE.                        29-Sep-1978 : LOGDATE
PROV.                            Alberta : PROVINCE
UWI .                   100020206508W500 : UNIQUE WELL ID
SLAT.WGS84                      54.59157 : SURFACE LATITUDE
SLON.WGS84                     -115.0921 : SURFACE LONGITUDE
~Curve Information -----------------------------------------
DEPT   .M     0   1   0  0 : 1 MEASURED DEPTH
ILD    .OHMM  07 120 46 00 : INDUCTION DEEP RESISTIVITY
ILM    .OHMM  07 120 44 00 : INDUCTION MEDIUM RESISTIVITY
SFL    .OHMM  07 220 01 00 : SPHERICALLY FOCUSED LOG
SPR    .MV    07 010 01 00 : SPONTANEOUS POTENTIAL FROM RESISTIVITY LOG
GRS    .GAPI  60 310 01 00 : GAMMA RAY FROM SONIC LOG
CALS   .MM    60 280 50 00 : CALIPER FROM SONIC LOG
DT     .US/M  60 500 00 00 : DELTA-T (INTERVAL TRANSIT TIME)
GRD    .GAPI  45 310 01 00 : GAMMA RAY FROM DENSITY LOG
CALD   .MM    45 280 60 00 : CALIPER FROM DENSITY LOG
CORR   .KG/M3 45 356 01 00 : DENSITY CORRECTION
RHOB   .KG/M3 45 350 01 00 : BULK DENSITY
NPHI_SS.DEC   42 890 03 00 : NEUTRON POROSITY SANDSTONE
DPHI_SS.DEC   45 890 12 00 : DENSITY POROSITY SANDSTONE
NPHI_LS.DEC   42 890 01 00 : NEUTRON POROSITY LIMESTONE
DPHI_LS.DEC   45 890 10 00 : DENSITY POROSITY LIMESTONE
~Params ----------------------------------------------------
PD  .                     GL : PERMANENT DATUM
EPD .M                 859.9 : ELEVATION PERMANENT DATUM
LMF .                     KB : LOG MEASURED FROM
DAPD.M                   3.6 : FEET ABOVE PERMANENT DATUM
DMF .                     KB : DRILLING MEASURED FROM
EKB .M                 863.5 : KELLY BUSHING
EGL .M                 859.9 : GROUND LEVEL
DATE.             09/29/1978 : RUN DATE
RUN .                      1 : RUN NUMBER
DD  .M                  2712 : DEPTH DRILLER
DL  .M                  2710 : DEPTH LOGGER
BLI .M                  2709 : BOTTOM LOG INTERVAL
TLI .M                   285 : TOP LOG INTERVAL
CBD .M                   285 : CASING BOTTOM DRILLER
CBL .M                   285 : CASING BOTTOM LOGGER
BS  .MM                215.9 : BIT SIZE
BSD .M                  2712 : BIT SIZE AT DEPTH
DFT .               GEL CHEM : DRILLING FLUID TYPE
DFD .                   1130 : DRILLING FLUID DENSITY
DFV .                    120 : DRILLING FLUID VISCOSITY
DFPH.                     10 : DRILLING FLUID PH
DFL .                    8.6 : DRILLING FLUID LOSS
MSS .               FLOWLINE : MUD SAMPLE SOURCE
RMS .OHMM               1.48 : RESISTIVITY MUD SAMPLE
MST .DEGC                 26 : MUD SAMPLE TEMPERATURE
RMF .OHMM                1.3 : RESISTIVITY MUD FILTRATE SAMPLE
MFST.DEGC                 21 : MUD FILTRATE SAMPLE TEMPERATURE
TCS .HRS                   3 : TIME CIRCULATED STOPPED
ENGI.               BERNISKY : RECORDING ENGINEER
CLNT.                A2DTECH : CLIENT CODE
ORIG.  6.6" 16.6"/100M PRINT : ORIGIN OF DATA
UWI .       100020206508W500 : UNIQUE WELL ID
DICO. A2D Technologies, Inc. : DIGITIZING COMPANY
~Other -----------------------------------------------------
~ASCII -----------------------------------------------------
  300.00000    4.78360    4.44400    3.65280  -45.45980   76.01230  247.50110  377.48720   77.77670  259.67040  112.15840 2210.82470    0.42190    0.21740    -999.25    -999.25
  350.00000    4.94870    4.07970    4.31150  -41.87270   70.93500  252.73380  370.45000   65.34830  297.67900   50.34710 2313.59520    0.45780    0.20150    -999.25    -999.25
  400.00000    5.61270    4.97720    5.05910  -43.92490   72.21840  233.31570  368.05170   62.24700  232.27030   29.34720 2335.98970    0.46840    0.20650    -999.25    -999.25
  450.00000    9.12110    8.13180    8.69250  -46.53050   70.45500  217.85090  268.95750   54.49920  217.43710   66.88990 2457.63870    0.30150    0.09200    -999.25    -999.25
  500.00000    8.55240    8.39810    8.14810  -61.75340   57.62430  218.50340  368.26260   44.85570  232.61950  116.51540 2250.99710    0.39390    0.26350    -999.25    -999.25
  550.00000   13.94970   17.68150   24.09570  -49.03070   44.58140  235.59890  241.59790   48.01820  258.83830   88.60480 2426.16280    0.28270    0.12500    -999.25    -999.25
  600.00000    4.76540    4.27840    4.85510  -46.12440   98.68200  227.00680  350.60860   82.26420  353.69470  106.39940 2371.68920    0.39320    0.14910    -999.25    -999.25
  650.00000    4.78630    4.14950    4.95100  -53.34900  122.08870  214.38620  380.65790  111.16920  326.22520  117.54050 2338.39600    0.44490    0.19120    -999.25    -999.25
  700.00000    5.83010    5.36320    6.64740  -51.66900  104.21290  237.86340  333.57560   98.96560  294.94730   84.55430 2409.37770    0.36150    0.15210    -999.25    -999.25
  750.00000    6.19940    5.66370    6.38010  -52.02290  112.11550  253.10590  306.97770  101.67590  256.67000   93.89740 2409.37960    0.39920    0.12230    -999.25    -999.25
  800.00000    6.81880    6.02030    6.60180  -52.17560  118.84500  268.83840  303.33690  110.50630  278.14810   94.92850 2362.09570    0.36580    0.14710    -999.25    -999.25
  850.00000    5.37650    4.98640    6.20360  -44.60210  136.35250  219.40390  351.01440  125.33290  260.85790  225.18680 2283.61470    0.44290    0.18330    -999.25    -999.25
  900.00000    4.66230    4.24360    4.50410  -44.36960  110.43240  241.80850  314.62350   99.48040  269.60420  237.29660 2281.26760    0.35910    0.23450    -999.25    -999.25
  950.00000    5.26630    4.89640    5.77610  -44.08020  120.87340  254.39080  302.55660  113.18580  278.50370  190.84500 2365.60110    0.40870    0.17020    -999.25    -999.25
 1000.00000    1.88380    1.71200    2.25150  -35.61680  108.35350  226.45080  361.52450   98.33490  241.71380  211.89910 2276.91580    0.45400    0.23470    -999.25    -999.25
 1050.00000    4.57720    4.30580    5.69040  -36.67050  180.78340  248.27240  318.21710  162.16560  264.55890   70.77360 2440.24540    0.41740    0.11760    -999.25    -999.25
 1100.00000    4.42630    4.98930    8.44950  -56.46890   75.73670  254.96740  352.05960   71.30090  264.66980   46.50310 2385.11790    0.39400    0.26790    0.30550    0.27750
 1150.00000    3.65470    5.47590   14.42390 -107.87400   58.13140  207.68130  259.65720   56.62560  217.14000  115.53130 2451.92850    -999.25    -999.25    0.25740    0.16170
 1200.00000    4.75210    5.12290    5.67280  -37.98350  112.29380  257.33490  281.10450   92.25280  268.69060  102.47020 2480.64840    -999.25    -999.25    0.33080    0.11630
 1250.00000    7.90700    8.80000   10.03350  -39.44530   97.10760  277.32050  265.74870   97.90290  300.87330  211.21340 2309.30100    -999.25    -999.25    0.35610    0.18810
 1300.00000   31.73150   37.02780   91.19310 -113.67880   15.23040  258.98280  176.42110   10.98250  252.72410   24.31950 2628.80220    -999.25    -999.25    0.04840    0.05750
 1350.00000    7.96230    8.37940    9.13280  -50.40360   78.89510  239.42620  220.48020   65.77330  251.41990   11.61770 2596.98900    -999.25    -999.25    0.12670    0.05770
 1400.00000    9.07690   11.14500   13.66760  -52.34480   61.61020  241.12450  191.15020   42.54530  246.22170   49.68980 2735.68140    -999.25    -999.25   -0.05370   -0.01000
 1450.00000    9.62190   12.71080   62.15210 -144.59960   16.42330  210.15820  170.23350    9.83880  224.87180   97.69610 2706.69430    -999.25    -999.25    0.02890    0.01760
 1500.00000   22.67290   28.50300   90.50750 -161.80560   12.72430  224.69000  166.26700   11.25990  228.70610   47.59680 2707.64940    -999.25    -999.25    0.01750    0.00720
 1550.00000   24.77760   53.34270  176.45930 -180.70010   17.22990  197.03240  177.48920   12.37370  208.60600  224.15820 2684.25100    -999.25    -999.25    0.07510    0.03410
 1600.00000   49.12410   83.41160  117.87450 -136.90390   18.96150  228.94930  160.29640   13.95170  227.61170   43.42650 2775.47730    -999.25    -999.25    0.01840   -0.01830
 1650.00000    5.44260    8.52970   44.00540 -182.84560   14.46890  198.28160  188.53610   12.50120  212.75480  124.43840 2644.20480    -999.25    -999.25    0.09440    0.06370
 1700.00000    2.62060    2.81450    4.04210  -94.49020   88.75390  226.42740  217.00210   80.44190  263.68390  118.77260 2564.22120    -999.25    -999.25    0.18690    0.08390
 1750.00000    8.51050    8.83810   12.15770  -96.30820   44.40150  232.09690  182.21930   32.51980  230.92340   26.86070 2733.44070    -999.25    -999.25    0.13600   -0.03100
 1800.00000    4.13870    4.29890    5.02400  -48.63980  113.03660  257.16420  255.46210   97.50920  260.29120   59.71540 2650.38480    -999.25    -999.25    0.25200    0.04680
 1850.00000    7.44730    9.29520    8.21480  -49.65440   70.77980  228.30580  191.45160   39.23960  229.70650   28.55610 2682.41850    -999.25    -999.25    0.06620    0.05340
 1900.00000    3.23220    3.36520    3.77370  -49.20940  111.85700  292.77570  278.22220   95.46330  319.96190  159.13210 2450.58790    -999.25    -999.25    0.33860    0.18200
 1950.00000    3.56110    3.70920    4.66410  -43.78540  102.15330  266.60150  267.26200   93.46080  393.32980  162.33840 2563.02830    -999.25    -999.25    0.31620    0.08670
 2000.00000    8.15650    8.56160   12.41100  -36.14280   70.24430  231.96990  220.01110   48.97060  232.29380   51.46650 2758.47270    -999.25    -999.25    0.10170   -0.02060
 2050.00000   27.11430   27.79590   36.07490  -34.85810   54.79450  218.82310  195.27710   52.09490  227.76760   17.94830 2706.59840    -999.25    -999.25    0.08060    0.02370
 2100.00000    9.84690   10.65170   13.29020  -39.08200   60.08420  227.13540  205.65790   53.20990  226.63830   33.97330 2748.63110    -999.25    -999.25    0.12400   -0.02930
 2150.00000   13.84280   15.77760   18.91340  -31.38070   72.01860  218.79710  219.99320   57.24280  228.44140   24.89390 2684.34740    -999.25    -999.25    0.12590    0.00750
 2200.00000   33.24680   45.55730   59.63370  -36.82500   30.19230  225.27350  172.05200   23.34200  227.27920   10.47300 2703.36010    -999.25    -999.25    0.02350   -0.02320
 2250.00000    9.74460   10.43990   12.99510  -32.66480   63.76520  218.94920  210.30800   67.14870  226.55140   40.86030 2736.91360    -999.25    -999.25    0.13620   -0.03060
 2300.00000  227.03760  400.69310  773.23310  -40.37030   27.47220  223.30460  165.05870   23.65840  224.20080   42.08940 2757.16500    -999.25    -999.25    0.00860   -0.03530
 2350.00000    5.37670    5.90120    9.13600  -65.38620   79.97080  220.22110  207.02650  103.68360  225.78740   62.40220 2783.75980    0.17210   -0.00720    0.13160   -0.03480
 2400.00000    9.38210   10.09170   11.61750  -43.49950  117.70950  219.24500  194.11490  133.65470  227.74410   42.43440 2748.73390    0.14240    -999.25    0.10840   -0.03610
 2450.00000    0.29240    0.46810    1.75900 -150.88760   62.37940  183.13530  256.47980   63.64210  205.76780  200.50650 2453.19920    0.16600    0.11170    0.16450    0.18510
 2500.00000    5.69320    8.64700   19.75660 -151.92090  141.63170  225.19170  191.12020  125.45560  228.07420   36.59950 2657.47120    0.13330    0.00930    0.08050    0.03440
 2550.00000    3.99010    4.53290    6.19040 -115.05630  187.51030  233.62310  261.04190  164.18020  242.76820  241.94320 2605.12330    0.33010    0.07970    0.26820    0.05780
