~Version ---------------------------------------------------
VERS.      2.0 : CWLS log ASCII Standard -VERSION 2.0
WRAP.       NO : One line per depth step
CREA. 11/21/17 : LAS Creation Date
~Well ------------------------------------------------------
STRT.FT                          1000.0 : START DEPTH
STOP.FT                         13800.0 : STOP DEPTH
STEP.FT                        50.00000 : STEP LENGTH
NULL.                           -999.25 : NULL VALUE
COMP. HUDSONS BAY OIL & GAS COMPANY LTD : COMPANY
WELL. HB AMOCO FINA BAYBERNE 11-5-57-18 : WELL
FLD .                                   : FIELD
LOC .                                   : LOCATION
CTRY.                            CANADA : COUNTRY
SRVC.                           Unknown : SERVICE COMPANY
DATE.                       13-Aug-1977 : LOGDATE
PROV.                           Alberta : PROVINCE
UWI .                  100110505718W500 : UNIQUE WELL ID
SLAT.WGS84                     53.89911 : SURFACE LATITUDE
SLON.WGS84                    -116.6428 : SURFACE LONGITUDE
~Curve Information -----------------------------------------
DEPT    .FT    : Depth Curve
CALDED  .IN    : CALIPER FROM DENSITY LOG [ADJ. TO RESISTIVITY LOG]
CALSED  .IN    : CALIPER FROM SONIC LOG
CALWS   .IN    : CALIPER [CALSED SPL. TO CALDED @ 5994']
CILDED  .MMHO  : CONDUCTIVITY FROM RESISTIVITY LOG
CONDWS  .MMHO  : CONDUCTIVITY [1000/DRESWS]
DCORWS  .G/C3  : DENSITY CORRECTION [DRHOED]
DENWS   .G/C3  : FORMATION BULK DENSITY [RHOBED]
DPHILSED.V/V   : DENSITY POROSITY LIMESTONE [M=2.71, F=1.00] FROM DENSITY LOG [ADJ. TO RESISTIVITY LOG]
DPHISSED.V/V   : DENSITY POROSITY SANDSTONE [M=2.65, F=1.00] FROM DENSITY LOG [ADJ. TO RESISTIVITY LOG]
DPOLSWS .V/V   : DENSITY POROSITY LIMESTONE [CALC. FROM DENWS, M=2.71, F=1.00]
DRESWS  .OHMM  : DEEP RESISTIVITY [ILDED]
DRHOED  .G/C3  : DENSITY CORRECTION FROM DENSITY LOG [ADJ. TO RESISTIVITY LOG]
DTED    .US/F  : DELTA TIME FROM SONIC LOG
DTWS    .US/F  : COMPRESSIONAL SONIC [DTED]
GRDED   .GAPI  : GAMMA RAY FROM DENSITY LOG [ADJ. TO RESISTIVITY LOG]
GRSED   .GAPI  : GAMMA RAY FROM SONIC LOG
GRWS    .GAPI  : GAMMA RAY [GRSED SPL. TO GRDED @ 13780']
ILDED   .OHMM  : DEEP INDUCTION RESISTIVITY FROM RESISTIVITY LOG
ILMED   .OHMM  : MEDIUM INDUCTION RESISTIVITY FROM RESISTIVITY LOG
LL8ED   .OHMM  : LATEROLOG-8 RESISTIVITY FROM RESISTIVITY LOG
MRESWS  .OHMM  : MEDIUM RESISTIVITY [ILMED]
NPHILSED.V/V   : NEUTRON POROSITY LIMESTONE FROM DENSITY LOG [ADJ. TO RESISTIVITY LOG]
NPHISSED.V/V   : NEUTRON POROSITY SANDSTONE FROM DENSITY LOG [ADJ. TO RESISTIVITY LOG]
NPOLSWS .V/V   : NEUTRON POROSITY LIMESTONE [NPHISSED MATRIX CONVERSION FOR LIMESTONE, SPL. TO NPHILSED @ 8509']
RHOBED  .G/C3  : BULK DENSITY FROM DENSITY LOG [ADJ. TO RESISTIVITY LOG]
SPRED   .MV    : SPONTANEOUS POTENTIAL FROM RESISTIVITY LOG [ADJ. TO RESISTIVITY LOG]
SPWS    .MV    : SPONTANEOUS POTENTIAL [BASELINE 0 MV, SPRED]
SRESWS  .OHMM  : SHALLOW RESISTIVITY [LL8ED]
~Params ----------------------------------------------------
PD  .                     GL : PERMANENT DATUM
EPD .FT               3898.7 : ELEVATION PERMANENT DATUM
LMF .                     KB : LOG MEASURED FROM
DAPD.FT                 20.4 : FEET ABOVE PERMANENT DATUM
DMF .                     KB : DRILLING MEASURED FROM
EKB .FT               3919.1 : KELLY BUSHING
EGL .FT               3898.7 : GROUND LEVEL
DATE.               08/13/77 : RUN DATE
RUN .                      2 : RUN NUMBER
DD  .FT                13825 : DEPTH DRILLER
DL  .FT                13826 : DEPTH LOGGER
BLI .FT                13820 : BOTTOM LOG INTERVAL
TLI .FT                 8771 : TOP LOG INTERVAL
CBD .FT                 8770 : CASING BOTTOM DRILLER
CBL .FT                 8771 : CASING BOTTOM LOGGER
BS  .IN                  8.5 : BIT SIZE
BSD .FT                13825 : BIT SIZE AT DEPTH
DFT .                    GEL : DRILLING FLUID TYPE
DFD .                    8.9 : DRILLING FLUID DENSITY
DFV .                    120 : DRILLING FLUID VISCOSITY
DFPH.                     11 : DRILLING FLUID PH
DFL .                   11.2 : DRILLING FLUID LOSS
MSS .                    MUD : MUD SAMPLE SOURCE
RMS .OHMM               1.38 : RESISTIVITY MUD SAMPLE
MST .DEGF                 62 : MUD SAMPLE TEMPERATURE
RMF .OHMM                1.0 : RESISTIVITY MUD FILTRATE SAMPLE
MFST.DEGF                 62 : MUD FILTRATE SAMPLE TEMPERATURE
RMC .OHMM               1.72 : RESISTIVITY MUD CAKE
MCST.DEGF                 64 : MUD CAKE SAMPLE TEMPERATURE
RMB .OHMM               0.24 : RESISTIVITY MUD AT BHT
TCS .HRS                 3.5 : TIME CIRCULATED STOPPED
LUN .                   7809 : LOGGING UNIT NUMBER
LUL .                    EDM : LOGGING UNIT LOCATION
ENGI.     CROCKFORD DEROCHIE : RECORDING ENGINEER
WITN.       NORTON GILBREATH : WITNESSED BY
CLNT.                A2DTECH : CLIENT CODE
ORIG.            2" 5" PRINT : ORIGIN OF DATA
UWI .       100110505718W500 : UNIQUE WELL ID
DICO. A2D Technologies, Inc. : DIGITIZING COMPANY
~Other -----------------------------------------------------
DIL-FDC-CNL-BHC LOG RUN
ALL RESISTIVITY & SONIC DATA FROM SMALL SECTION @ TOP-5928'
CALS INVALID FROM 4993' TO CASING ON MAIN PASS, THEREFORE THIS SECTION WAS RELOGGED
~ASCII -----------------------------------------------------
# ...
 7250.00000   14.03930   12.74030   14.03930    -999.25  148.95360    0.25000    2.46130    -999.25    0.11630    0.14540    6.71350    0.25000   78.62980   78.62980  118.89830  139.11950  139.11950    6.71350    7.76320    8.99560    7.76320    -999.25    0.30710    0.26310    2.46130 -105.79620   -5.32440    8.99560
 7300.00000   13.48410   12.51070   13.48410    -999.25  158.80960    0.24210    2.57840    -999.25    0.04310    0.07700    6.29690    0.24210   77.48200   77.48200  124.06270  150.68440  150.68440    6.29690    7.69680    9.26520    7.69680    -999.25    0.29690    0.25290    2.57840 -105.53650   -4.99430    9.26520
 7350.00000   16.24790   13.43430   16.24790    -999.25  215.40120    0.26310    2.36080    -999.25    0.18780    0.20420    4.64250    0.26310   89.26680   89.26680  132.39280  144.78460  144.78460    4.64250    4.88540    6.29900    4.88540    -999.25    0.41530    0.37270    2.36080 -109.32660   -8.71350    6.29900
 7400.00000   13.46850   12.45890   13.46850    -999.25  188.48010    0.16780    2.49490    -999.25    0.09840    0.12580    5.30560    0.16780   89.35450   89.35450  155.30550  171.05560  171.05560    5.30560    6.01540    7.06100    6.01540    -999.25    0.31700    0.27310    2.49490 -106.97740   -6.29390    7.06100
 7450.00000   15.24970   13.28440   15.24970    -999.25  302.73670    0.17050    2.37040    -999.25    0.16850    0.19860    3.30320    0.17050   89.79110   89.79110  121.71350  145.47650  145.47650    3.30320    3.92740    4.46150    3.92740    -999.25    0.38650    0.34340    2.37040 -111.53300  -10.77870    4.46150
 7500.00000   14.61960   12.99920   14.61960    -999.25  162.58840    0.25000    2.18560    -999.25    0.28040    0.30670    6.15050    0.25000   81.09390   81.09390  122.90090  141.70720  141.70720    6.15050    7.59620    8.67990    7.59620    -999.25    0.35140    0.30780    2.18560 -104.54450   -3.71980    8.67990
 7550.00000   12.91700   12.47980   12.91700    -999.25   94.44670    0.25000    2.51370    -999.25    0.08750    0.11480   10.58820    0.25000   70.39800   70.39800   64.86870   75.23230   75.23230   10.58820   15.80180   17.12970   15.80180    -999.25    0.13570    0.09330    2.51370 -110.24820   -9.53160   17.12970
 7600.00000   12.38640   12.63070   12.38640    -999.25   77.95930    0.07530    2.61850    -999.25    0.02340    0.05350   12.82720    0.07530   67.93690   67.93690   79.99270   77.45170   77.45170   12.82720   19.36970   23.28620   19.36970    -999.25    0.13310    0.09070    2.61850 -108.75980   -8.22530   23.28620
 7650.00000   12.38610   12.93110   12.38610    -999.25  120.26890    0.07610    2.57080    -999.25    0.05250    0.08140    8.31470    0.07610   69.76530   69.76530   86.29670   96.15300   96.15300    8.31470   10.37210   13.15940   10.37210    -999.25    0.28570    0.24170    2.57080 -107.62410   -7.27040   13.15940
 7700.00000   12.46660   13.10160   12.46660    -999.25   95.69650    0.06840    2.65830    -999.25    0.00000    0.03020   10.44970    0.06840   66.12560   66.12560   70.50090   77.57760   77.57760   10.44970   16.84230   20.07070   16.84230    -999.25    0.19800    0.15460    2.65830 -108.88770   -8.71610   20.07070
 7750.00000   12.44720   12.93720   12.44720    -999.25  103.44260    0.05570    2.67900    -999.25   -0.02170    0.01810    9.66720    0.05570   65.57580   65.57580   73.63160   79.52770   79.52770    9.66720   14.30110   18.80360   14.30110    -999.25    0.22450    0.18080    2.67900 -108.96180   -8.97110   18.80360
 7800.00000   12.53680   12.76930   12.53680    -999.25  114.01980    0.02040    2.68890    -999.25   -0.02210    0.01230    8.77260    0.02040   72.06150   72.06150  104.50020  117.19870  117.19870    8.77260   11.52840   13.45660   11.52840    -999.25    0.25880    0.21480    2.68890 -106.56170   -6.75180   13.45660
 7850.00000   13.06260   12.33900   13.06260    -999.25  200.55350    0.08970    2.52830    -999.25    0.07990    0.10630    4.98620    0.08970   78.77780   78.77780  102.84210  117.93990  117.93990    4.98620    9.97670   16.94820    9.97670    -999.25    0.38510    0.34190    2.52830 -106.83430   -7.20650   16.94820
 7900.00000   12.33220   12.47890   12.33220    -999.25  175.45710    0.16580    2.23380    -999.25    0.25790    0.27850    5.69940    0.16580   81.33630   81.33630   98.52390  115.24760  115.24760    5.69940    6.53270   10.27640    6.53270    -999.25    0.45260    0.41100    2.23380 -109.44920  -10.00230   10.27640
 7950.00000   12.50140   12.34690   12.50140    -999.25   84.14460    0.02150    2.70180    -999.25   -0.03060    0.00480   11.88430    0.02150   66.72280   66.72280   77.37830   78.94320   78.94320   11.88430   14.77850   20.18250   14.77850    -999.25    0.24600    0.20210    2.70180 -100.56790   -1.30300   20.18250
 8000.00000   12.73910   12.39590   12.73910    -999.25   98.95500    0.04520    2.55280    -999.25    0.06650    0.09190   10.10560    0.04520   72.61250   72.61250   62.65670   73.03170   73.03170   10.10560   14.78730   18.59740   14.78730    -999.25    0.16270    0.11990    2.55280 -103.17090   -4.08690   18.59740
 8050.00000   12.40430   12.33040   12.40430    -999.25  108.80510    0.03190    2.63490    -999.25    0.01420    0.04390    9.19170    0.03190   82.36640   82.36640  111.77950  126.84520  126.84520    9.19170   11.89490   15.67840   11.89490    -999.25    0.33170    0.28790    2.63490  -98.99300   -0.08990   15.67840
 8100.00000   12.81150   12.43370   12.81150    -999.25   84.58230    0.03220    2.36480    -999.25    0.17750    0.20190   11.82280    0.03220   81.02230   81.02230   93.26590   98.80010   98.80010   11.82280   15.59550   18.17190   15.59550    -999.25    0.37080    0.32740    2.36480  -99.72530   -1.00420   18.17190
 8150.00000   12.54020   12.34600   12.54020    -999.25  179.17290    0.05330    2.54400    -999.25    0.06690    0.09710    5.58120    0.05330   71.41680   71.41680   62.30190   67.98430   67.98430    5.58120    6.30950    6.62710    6.30950    -999.25    0.23160    0.18780    2.54400 -108.89790  -10.35770    6.62710
 8200.00000   12.60050   12.37830   12.60050    -999.25  117.74400    0.01790    2.63120    -999.25    0.00710    0.04610    8.49300    0.01790   69.82790   69.82790   78.43200   94.35720   94.35720    8.49300   10.42720   12.30710   10.42720    -999.25    0.22180    0.17810    2.63120 -102.29540   -3.93730   12.30710
 8250.00000   12.50490   12.35710   12.50490    -999.25   99.30090    0.04410    2.63570    -999.25    0.01030    0.04350   10.07040    0.04410   70.56010   70.56010   99.51560  117.50940  117.50940   10.07040   12.09300   15.30510   12.09300    -999.25    0.26650    0.22250    2.63570  -99.99610   -1.81880   15.30510
 8300.00000   12.49890   12.39100   12.49890    -999.25   76.37540    0.04760    2.64890    -999.25    0.00060    0.03570   13.11150    0.04760   64.11360   64.11360   73.43180   90.82520   90.82520   13.11150   19.16530   26.08770   19.16530    -999.25    0.16960    0.12660    2.64890 -100.59140   -2.59500   26.08770
 8350.00000   12.44910   12.37910   12.44910    -999.25   75.52580    0.05850    2.65530    -999.25   -0.00340    0.03200   13.24050    0.05850   70.20670   70.20670  111.31620  126.90950  126.90950   13.24050   19.14690   25.05690   19.14690    -999.25    0.21470    0.17110    2.65530  -99.86750   -2.05320   25.05690
 8400.00000   12.39050   12.47200   12.39050    -999.25   62.15390    0.04280    2.61110    -999.25    0.02890    0.05790   16.08910    0.04280   62.71430   62.71430   57.00840   63.49670   63.49670   16.08910   32.84530   37.59010   32.84530    -999.25    0.10530    0.06360    2.61110 -103.59050   -6.06800   37.59010
 8450.00000   13.03220   11.68480   13.03220    -999.25  115.77420    0.24280    2.42460    -999.25    0.14130    0.16690    8.63750    0.24280   76.58480   76.58480  117.86970  127.23450  127.23450    8.63750   16.72130   30.88020   16.72130    -999.25    0.29590    0.25190    2.42460 -103.92990   -6.76820   30.88020
