~Version ---------------------------------------------------
VERS.      2.0 : CWLS log ASCII Standard -VERSION 2.0
WRAP.       NO : One line per depth step
CREA. 11/15/17 : LAS Creation Date
~Well ------------------------------------------------------
STRT.FT                        1000.0 : START DEPTH
STOP.FT                       10050.0 : STOP DEPTH
STEP.FT                      50.00000 : STEP LENGTH
NULL.                         -999.25 : NULL VALUE
COMP.        SKELLY OIL OF CANADA LTD : COMPANY
WELL. SKELLY A2 TWO CREEK 10-20-62-16 : WELL
FLD .                              WC : FIELD
LOC .                                 : LOCATION
CTRY.                          CANADA : COUNTRY
SRVC.                   Dresser Atlas : SERVICE COMPANY
DATE.                     30-Jan-1976 : LOGDATE
PROV.                         Alberta : PROVINCE
UWI .                100102006216W500 : UNIQUE WELL ID
SLAT.WGS84                   54.38094 : SURFACE LATITUDE
SLON.WGS84                  -116.3576 : SURFACE LONGITUDE
~Curve Information -----------------------------------------
DEPT  .FT    : Depth Curve
ACED  .US/F  : DELTA TIME (ACOUSTIC) FROM BHC LOG [DEPTH ADJ. TO SFLED]
CALSED.IN    : CALIPER FROM BHC LOG [DEPTH ADJ. TO SFLED]
CALWS .IN    : CALIPER [CALSED]
CONDWS.MMHO  : CONDUCTIVITY [1000/DRESWS]
DRESWS.OHMM  : DEEP RESISTIVITY [ILDED]
DTWS  .US/F  : DELTA TIME [ACED]
GRSED .GAPI  : GAMMA RAY FROM BHC LOG [DEPTH ADJ. TO SFLED]
GRWS  .GAPI  : GAMMA RAY [GRSED]
ILDED .OHMM  : INDUCTION LOG DEEP RESISTIVITY FROM DIFL LOG
ILMED .OHMM  : INDUCTION LOG MEDIUM RESISTIVITY FROM DIFL LOG
MCALED.IN    : CALIPER MICROLOG FROM ML LOG [DEPTH ADJ. TO CALSED]
MRESWS.OHMM  : MEDIUM RESISTIVITY [ILMED]
SFLED .OHMM  : SPHERICALLY FOCUSED LOG RESISTIVITY FROM DIFL LOG
SPRED .MV    : SPONTANEOUS POTENTIAL FROM DIFL LOG
SPWS  .MV    : SPONTANEOUS POTENTIAL [BASELINE 0 MV] [SPRED]
SRESWS.OHMM  : SHALLOW RESISTIVITY [SFLED]
~Params ----------------------------------------------------
PD  .                     GL : PERMANENT DATUM
EPD .FT               3027.7 : ELEVATION PERMANENT DATUM
LMF .                     KB : LOG MEASURED FROM
DAPD.FT                 13.6 : FEET ABOVE PERMANENT DATUM
DMF .                     KB : DRILLING MEASURED FROM
EKB .FT               3041.3 : KELLY BUSHING
EGL .FT               3027.7 : GROUND LEVEL
DATE.               01/30/76 : RUN DATE
RUN .                      1 : RUN NUMBER
DD  .FT                10050 : DEPTH DRILLER
DL  .FT                10058 : DEPTH LOGGER
BLI .FT                10056 : BOTTOM LOG INTERVAL
TLI .FT                 1050 : TOP LOG INTERVAL
CS  .IN                9.625 : CASING SIZE
CBD .FT                 1062 : CASING BOTTOM DRILLER
CBL .FT                 1050 : CASING BOTTOM LOGGER
BS  .IN                  8.5 : BIT SIZE
BSD .FT                10050 : BIT SIZE AT DEPTH
DFT .           MUD GEL CHEM : DRILLING FLUID TYPE
DFD .                    9.1 : DRILLING FLUID DENSITY
DFV .                    100 : DRILLING FLUID VISCOSITY
DFPH.                     10 : DRILLING FLUID PH
DFL .                    7.8 : DRILLING FLUID LOSS
MSS .                   CIRC : MUD SAMPLE SOURCE
RMS .OHMM                2.2 : RESISTIVITY MUD SAMPLE
MST .DEGF                 62 : MUD SAMPLE TEMPERATURE
RMF .OHMM                1.8 : RESISTIVITY MUD FILTRATE SAMPLE
MFST.DEGF                 62 : MUD FILTRATE SAMPLE TEMPERATURE
RMC .OHMM                2.5 : RESISTIVITY MUD CAKE
MCST.DEGF                 60 : MUD CAKE SAMPLE TEMPERATURE
MFSS.                   MEAS : MUD FILTRATE SAMPLE SOURCE
MCSS.                   MEAS : MUD CAKE SAMPLE SOURCE
RMB .OHMM                0.8 : RESISTIVITY MUD AT BHT
TCS .HRS                   7 : TIME CIRCULATED STOPPED
LUN .                   6155 : LOGGING UNIT NUMBER
LUL .                    EDM : LOGGING UNIT LOCATION
ENGI.           HETHERINGTON : RECORDING ENGINEER
WITN.           BALL SHEDDON : WITNESSED BY
CLNT.                A2DTECH : CLIENT CODE
ORIG.        2" 5" 10" PRINT : ORIGIN OF DATA
UWI .       100102006216W500 : UNIQUE WELL ID
DICO. A2D Technologies, Inc. : DIGITIZING COMPANY
~Other -----------------------------------------------------
~ASCII -----------------------------------------------------
# ...
 7450.00000   49.21590    8.66290    8.66290    0.42110 2374.56150   49.21590   16.81100   16.81100 2374.56150 2860.69910    -999.25 2860.69910 2472.98660 -182.64130 -159.83450 2472.98660
 7500.00000   50.92300    8.64850    8.64850    0.42830 2334.86250   50.92300   17.02550   17.02550 2334.86250 2779.34550    -999.25 2779.34550 2393.95290 -195.39080 -171.06200 2393.95290
 7550.00000   49.98520    8.83540    8.83540    0.42800 2336.64750   49.98520   13.89430   13.89430 2336.64750 2895.83540    -999.25 2895.83540 2445.87720 -240.80590 -214.94740 2445.87720
 7600.00000   49.21030    8.69170    8.69170    2.42230  412.82690   49.21030   13.62870   13.62870  412.82690 2550.77440    -999.25 2550.77440 2448.59370 -214.58920 -187.19340 2448.59370
 7650.00000   51.11640    8.23550    8.23550    0.43330 2308.04250   51.11640   10.60360   10.60360 2308.04250 2771.39230    -999.25 2771.39230 2464.56250 -223.39180 -194.47400 2464.56250
 7700.00000   57.20140    7.95840    7.95840  125.55640    7.96460   57.20140   10.63370   10.63370    7.96460   15.13240    -999.25   15.13240 2464.73850 -209.59030 -179.13510 2464.73850
 7750.00000   49.15520    8.54920    8.54920    0.41200 2427.01780   49.15520   10.68050   10.68050 2427.01780 2839.50120    -999.25 2839.50120 2433.85840  -91.00400  -59.02680 2433.85840
 7800.00000   49.30590    8.63250    8.63250    0.42440 2356.32690   49.30590   10.79610   10.79610 2356.32690 2869.35280    -999.25 2869.35280 2476.93820  -48.84360  -15.33670 2476.93820
 7850.00000   50.71980    8.76160    8.76160    0.42570 2349.02770   50.71980   13.92280   13.92280 2349.02770 2830.36270    -999.25 2830.36270 2410.88300  -49.96510  -13.84790 2410.88300
 7900.00000   50.04740    8.70560    8.70560    0.42810 2336.15110   50.04740   13.53680   13.53680 2336.15110 2870.78340    -999.25 2870.78340 2402.76780  -77.64970  -38.65060 2402.76780
 7950.00000   52.49700    9.09570    9.09570   11.26390   88.77890   52.49700    9.63150    9.63150   88.77890  287.06700    -999.25  287.06700 2210.65360 -142.36680 -100.45670 2210.65360
 8000.00000   54.59050    8.15350    8.15350   51.88550   19.27320   54.59050   10.25990   10.25990   19.27320   39.89990    -999.25   39.89990 2370.41580 -200.87690 -156.08490 2370.41580
 8050.00000   49.95240    8.61530    8.61530    0.39620 2523.71190   49.95240   18.22900   18.22900 2523.71190 2846.04810    -999.25 2846.04810 2470.16480 -212.06280 -164.37430 2470.16480
 8100.00000   49.99510    8.74600    8.74600    0.43250 2312.04040   49.99510   15.61900   15.61900 2312.04040 2772.55540    -999.25 2772.55540 2219.23140 -240.80070 -190.20130 2219.23140
 8150.00000   49.17060    8.65080    8.65080    0.43340 2307.30660   49.17060   21.86790   21.86790 2307.30660 2879.53390    -999.25 2879.53390 2461.76880 -176.36120 -122.87980 2461.76880
 8200.00000   51.26250    8.80890    8.80890    0.42220 2368.56030   51.26250   17.70170   17.70170 2368.56030 2790.04530    -999.25 2790.04530 2514.15160 -251.51440 -195.12200 2514.15160
 8250.00000   47.76510    8.68950    8.68950    0.43360 2306.33010   47.76510   28.81710   28.81710 2306.33010 2816.52250    -999.25 2816.52250 2487.97560 -179.00760 -119.73330 2487.97560
 8300.00000   49.68030    8.77050    8.77050   11.39000   87.79660   49.68030   28.61600   28.61600   87.79660  121.96040    -999.25  121.96040  112.74580 -141.58880  -79.41800  112.74580
 8350.00000   53.35430    8.70190    8.70190    1.55100  644.74180   53.35430   42.36260   42.36260  644.74180 1309.93000    -999.25 1309.93000  808.68680 -120.77640  -55.69470  808.68680
 8400.00000   52.17920    8.68120    8.68120    0.42890 2331.48120   52.17920   30.38790   30.38790 2331.48120 2775.50930    -999.25 2775.50930 2487.66160 -183.48310 -115.51940 2487.66160
 8450.00000   51.57120    8.71400    8.71400    0.42990 2325.86200   51.57120   39.12340   39.12340 2325.86200 2766.22720    -999.25 2766.22720 2433.67210 -176.12810 -105.25340 2433.67210
 8500.00000   55.41050    8.73440    8.73440   15.76770   63.42080   55.41050   56.71200   56.71200   63.42080   65.76960    -999.25   65.76960  155.14980  -94.11690  -20.36030  155.14980
 8550.00000   57.63920    8.90420    8.90420   34.15000   29.28260   57.63920   66.00610   66.00610   29.28260   30.72200    8.71670   30.72200   44.96930  -82.20940   -6.86520   44.96930
 8600.00000   59.29810    9.02780    9.02780   36.64070   27.29210   59.29810   68.53650   68.53650   27.29210   28.09210    8.75970   28.09210   41.66370 -116.19730  -39.62850   41.66370
 8650.00000   60.06050    9.07670    9.07670   51.16210   19.54570   60.06050   70.90000   70.90000   19.54570   20.49590    8.73510   20.49590   36.51010 -166.07810  -88.29700   36.51010
 8700.00000   64.75570    9.26410    9.26410   90.20220   11.08620   64.75570   79.71580   79.71580   11.08620   11.95260    8.80640   11.95260   18.71290 -161.13990  -82.13430   18.71290
 8750.00000   58.16860    9.06660    9.06660   44.67160   22.38560   58.16860   68.77810   68.77810   22.38560   23.04230    8.69440   23.04230   29.11800 -163.66460  -83.44660   29.11800
 8800.00000   66.82630    9.98800    9.98800  102.04710    9.79940   66.82630   99.66850   99.66850    9.79940   10.60990   10.15870   10.60990   17.14660 -164.33070  -82.89430   17.14660
 8850.00000   66.76740    9.23560    9.23560   53.89590   18.55430   66.76740  118.44130  118.44130   18.55430   19.72530    8.89210   19.72530   41.27430 -156.22390  -73.56290   41.27430
 8900.00000   63.66750    9.07240    9.07240   93.18970   10.73080   63.66750   91.94570   91.94570   10.73080   12.01650    9.37410   12.01650   20.79270 -124.12710  -40.25380   20.79270
 8950.00000   60.82550   10.56430   10.56430   81.57210   12.25910   60.82550   87.82300   87.82300   12.25910   13.52520   10.63080   13.52520   23.82080 -155.03010  -69.93230   23.82080
 9000.00000   74.71980   10.62540   10.62540  114.46360    8.73640   74.71980  103.20430  103.20430    8.73640    9.62340   10.50550    9.62340   10.54570 -161.74640  -75.43620   10.54570
 9050.00000   62.64000    9.27940    9.27940   64.24420   15.56560   62.64000   88.78880   88.78880   15.56560   17.22690    8.85250   17.22690   21.35470 -149.47180  -61.94320   21.35470
 9100.00000   68.73170    9.37200    9.37200   93.18060   10.73190   68.73170  117.71460  117.71460   10.73190   11.95510    9.11690   11.95510   15.42730 -163.32390  -74.57080   15.42730
 9150.00000   61.75790    8.29620    8.29620   50.74730   19.70550   61.75790   96.26600   96.26600   19.70550   24.48220    8.89260   24.48220   27.94820 -163.47330  -73.50780   27.94820
 9200.00000   70.84770    9.59760    9.59760  110.92620    9.01500   70.84770  138.78100  138.78100    9.01500   10.19430    9.55520   10.19430   14.33590 -173.86110  -82.67110   14.33590
 9250.00000   74.41150    9.33520    9.33520  114.52920    8.73140   74.41150  142.26240  142.26240    8.73140    9.28650    9.50190    9.28650   11.68380 -161.98410  -69.58170   11.68380
 9300.00000   70.63430    9.17800    9.17800  109.25380    9.15300   70.63430  123.45560  123.45560    9.15300   10.00320    8.99810   10.00320   13.01710 -131.62550  -38.00470   13.01710
 9350.00000   66.63800    9.04120    9.04120   71.92280   13.90380   66.63800  114.40860  114.40860   13.90380   16.91020    8.72760   16.91020   19.10260 -115.48680  -20.64140   19.10260
 9400.00000   69.28270    8.32530    8.32530    0.41730 2396.29050   69.28270  146.99760  146.99760 2396.29050 2879.17530    8.49180 2879.17530 2493.53540 -178.05890  -88.49030 2493.53540
 9450.00000   64.98230    8.18200    8.18200    0.42060 2377.56020   64.98230  208.50850  208.50850 2377.56020 2851.14700    8.55470 2851.14700 2493.98770 -142.83550  -60.51190 2493.98770
 9500.00000   52.66600    8.63330    8.63330    0.42160 2371.79300   52.66600   33.20980   33.20980 2371.79300 2788.78170    8.62910 2788.78170 2481.71440 -135.61550  -60.46480 2481.71440
 9550.00000   60.81010    8.72030    8.72030   24.35450   41.06010   60.81010   83.72230   83.72230   41.06010   72.03230    8.63500   72.03230   98.85160 -107.59940  -39.65760   98.85160
