~Version ---------------------------------------------------
VERS. 2.0 : CWLS log ASCII Standard -VERSION 2.0
WRAP.  NO : ONE LINE PER DEPTH STEP
~Well ------------------------------------------------------
STRT.F                     300.0 : START DEPTH
STOP.F                    7750.0 : STOP DEPTH
STEP.F                  50.00000 : STEP LENGTH
NULL.                    -999.25 : NULL VALUE
COMP.        GULF CANADA LIMITED : COMPANY
WELL. B.A. CPR HUXLEY 2-33-33-22 : WELL
FLD .                            : FIELD
LOC .                            : LOCATION
CTRY.                     CANADA : COUNTRY
SRVC.     Schlumberger of Canada : SERVICE COMPANY
DATE.                09-May-1959 : LOGDATE
PROV.                    Alberta : PROVINCE
UWI .           100023303322W400 : UNIQUE WELL ID
SLAT.WGS84              51.86894 : SURFACE LATITUDE
SLON.WGS84             -113.0601 : SURFACE LONGITUDE
~Curve Information -----------------------------------------
DEPT.F      0   1   0  0 : 1 MEASURED DEPTH
MCAL.IN     15 280 01 00 : MLT (MICROLOG) CALIPER
GRN .MG/TON 35 310 00 00 : GAMMA RAY FROM GRN LOG
NEUT.CPS    35 330 30 00 : NEUTRON
CALM.IN     20 280 01 00 : CALIPER FROM MICROLATEROLOG
MLL .OHMM   20 270 04 00 : MICRO FOCUSED LATEROLOG RESISTIVITY
ILD .OHMM   05 120 46 00 : INDUCTION DEEP RESISTIVITY
SN  .OHMM   05 040 16 00 : SHORT NORMAL RESISTIVITY
SPR .MV     05 010 01 00 : SPONTANEOUS POTENTIAL FROM RESISTIVITY LOG
CILD.MMHO   05 110 46 00 : INDUCTION DEEP CONDUCTIVITY
~Params ----------------------------------------------------
LMF .                     KB : LOG MEASURED FROM
DMF .                     KB : DRILLING MEASURED FROM
EKB .FT                 2780 : KELLY BUSHING
DATE.               05/09/59 : RUN DATE
RUN .                      2 : RUN NUMBER
DD  .FT                 7791 : DEPTH DRILLER
DL  .FT                 7795 : DEPTH LOGGER
BLI .FT                 7790 : BOTTOM LOG INTERVAL
TLI .FT                 5209 : TOP LOG INTERVAL
CBD .FT                  612 : CASING BOTTOM DRILLER
CBL .FT                  615 : CASING BOTTOM LOGGER
BS  .IN                    9 : BIT SIZE
BSD .FT                 7791 : BIT SIZE AT DEPTH
DFT .               GYP BASE : DRILLING FLUID TYPE
DFD .                   10.4 : DRILLING FLUID DENSITY
DFV .                     72 : DRILLING FLUID VISCOSITY
DFPH.                      7 : DRILLING FLUID PH
DFL .                    7.8 : DRILLING FLUID LOSS
RMS .OHMM                0.7 : RESISTIVITY MUD SAMPLE
MST .DEGF                 65 : MUD SAMPLE TEMPERATURE
RMF .OHMM               0.43 : RESISTIVITY MUD FILTRATE SAMPLE
MFST.DEGF                 78 : MUD FILTRATE SAMPLE TEMPERATURE
RMC .OHMM               0.84 : RESISTIVITY MUD CAKE
MCST.DEGF                 78 : MUD CAKE SAMPLE TEMPERATURE
RMB .OHMM               0.32 : RESISTIVITY MUD AT BHT
TCS .HRS                   2 : TIME CIRCULATED STOPPED
LUN .                  27410 : LOGGING UNIT NUMBER
ENGI.                MCKEOWN : RECORDING ENGINEER
WITN.                DOMANKO : WITNESSED BY
CLNT.                A2DTECH : CLIENT CODE
ORIG.            2" 5" PRINT : ORIGIN OF DATA
UWI .       100023303322W400 : UNIQUE WELL ID
DICO. A2D Technologies, Inc. : DIGITIZING COMPANY
~Other -----------------------------------------------------
~ASCII -----------------------------------------------------
# ...
 3950.00000   12.69200    6.31840  177.17750    -999.25    -999.25    7.26650    9.88510  -29.69700  140.15060
 4000.00000    9.33930    8.34490  182.02700    -999.25    -999.25   11.23520   15.82400  -32.57430   94.46410
 4050.00000    9.91010    9.65310  169.77480    -999.25    -999.25    6.29620    8.87680  -31.33800  158.69580
 4100.00000    9.32650    9.14470  185.73800    -999.25    -999.25    5.88360    7.52930  -34.94910  172.55230
 4150.00000   11.67270    6.10760  163.56910    -999.25    -999.25    4.18710    5.75200  -35.09520  248.27200
 4200.00000   12.55680    5.90790  172.26340    -999.25    -999.25    3.30380    4.34310  -35.95800  315.83710
 4250.00000    9.45070   10.19830  190.07200    -999.25    -999.25    8.49100   12.47950  -38.83120  132.81200
 4300.00000    9.30350    4.06440  247.91790    -999.25    -999.25   14.84110   17.77020  -42.61220   73.42930
 4350.00000   10.05690    5.65470  218.62950    -999.25    -999.25    7.15580    9.16150  -35.98710  141.59450
 4400.00000   14.87950    5.24880  178.77670    -999.25    -999.25    2.54710    3.34400  -35.02650  402.41630
 4450.00000   13.01620    5.66970  161.73890    -999.25    -999.25    2.23990    2.78730  -34.13160  477.13870
 4500.00000   10.04720    4.68420  208.74750    -999.25    -999.25    9.26240   11.87380  -35.50140  118.07290
 4550.00000   10.10000    5.25600  206.17840    -999.25    -999.25   11.22220   12.83850  -37.25350   97.73830
 4600.00000   10.17050    4.48640  199.18990    -999.25    -999.25   14.51250   20.24270  -37.44210   74.68650
 4650.00000    9.80440    3.40920  226.61240    -999.25    -999.25   10.38560   13.35770  -30.41620   99.00340
 4700.00000   10.81000    4.09830  204.40070    -999.25    -999.25    7.67110    9.68730  -28.93600  133.86700
 4750.00000   10.45090    5.09340  190.07080    -999.25    -999.25    9.22200   12.90270  -20.26410  112.75420
 4800.00000   11.06870    4.93820  189.80110    -999.25    -999.25    8.11950   11.15900  -20.37160  129.26340
 4850.00000   10.63150    5.72710  177.72990    -999.25    -999.25    8.79400   11.44960  -20.52830  117.66310
 4900.00000    9.37880    1.86710  358.22840    -999.25    -999.25   81.31830   94.64630  -29.17470   14.00050
 4950.00000    9.54620    2.51030  310.54560    -999.25    -999.25   69.19850   66.06430  -29.56230   15.16780
 5000.00000    9.46590    3.25220  288.72310    -999.25    -999.25   30.77000   36.36530  -16.53850   41.95330
 5050.00000    9.47400    3.53720  275.51160    -999.25    -999.25   25.59140   29.32300  -21.80000   47.05590
 5100.00000    9.63620    4.48660  250.71940    -999.25    -999.25   10.78940   14.86040  -24.97450  103.71120
 5150.00000    9.43820    4.46780  255.76650    -999.25    -999.25   10.68650   14.92800  -20.84630   97.80820
 5200.00000    9.44400    4.35260  257.59740    -999.25    -999.25   11.41180   16.71000  -22.97290   92.70840
 5250.00000    9.43730    4.53500  251.69570   11.95730   14.04450   10.39750   17.22840  -18.19350  102.07870
 5300.00000    9.35810    4.51770  229.55650   12.45030   11.92470    8.45870   13.51750  -17.74360  123.37120
 5350.00000    9.25980    4.60900  226.30390   12.69040   18.48600    8.64450   13.48570  -13.16510  123.74660
 5400.00000    8.88120   15.38890  275.45690    9.65590  296.35970   67.91590   50.61550  -61.41200   18.20470
 5450.00000    -999.25    0.79320  319.26140    9.47950   95.36910   67.00470   39.68710  -73.17150   16.79870
 5500.00000    -999.25    0.77330  356.10820   10.23920 1003.90680   99.14120   53.85430  -53.48860   13.28380
 5550.00000    -999.25    1.42350  326.45530   10.88660  470.72670   35.99700   33.19740  -51.41070   29.90760
 5600.00000    -999.25    0.93130  295.96930    9.45420  906.13480   75.14820   53.77040  -68.21960   16.23720
 5650.00000    -999.25    0.70450  336.54630    9.81190  518.27530  107.09540   68.48100  -53.55290   11.50260
 5700.00000    -999.25    0.93080  315.80320    9.58010   60.68340   33.59480   33.84820  -32.60330   30.75280
 5750.00000    -999.25    1.24920  326.60090    9.45040  489.30360   98.88730   70.96820  -37.98730   11.56060
 5800.00000    -999.25    1.25000  309.68170   10.74850   54.67530   30.06520   78.89590  -42.30190   43.64530
 5850.00000    -999.25    0.70890  336.14340    9.30350  673.83280   98.36700   72.32840  -77.21650   11.53790
 5900.00000    -999.25    0.83850  350.95870    9.66110  654.18650   88.83340   68.75810 -121.25050   24.73550
 5950.00000    -999.25    0.89680  365.49260    9.35200  549.74690  161.16070   71.89570 -142.27570    7.29910
 6000.00000    -999.25    2.12390  333.66840    9.17040  156.29190   33.42320   42.95480 -176.06980   31.62610
 6050.00000    -999.25    1.39700  332.08830    9.16770  747.82500  380.53370   78.00160 -199.18680    5.68860
 6100.00000    -999.25    0.92400  270.95970    9.09770  147.85250   43.15200   52.94500 -222.39430   24.79680
 6150.00000    -999.25    0.90550  295.11570    9.17280  257.51440   42.05460   43.49740 -209.04230   24.85390
 6200.00000    -999.25    3.83250  250.09360    9.13610   56.10670   38.94620   29.80870 -163.41840   26.56150
 6250.00000    -999.25    2.83650  324.74460    9.19530  152.30680   92.92970   54.36140 -155.65130   15.61150
 6300.00000    -999.25    3.24810  277.15110    9.19830  182.64940  139.27440   58.71460 -124.34730    9.29250
 6350.00000    -999.25    4.76650  249.01320    9.29820   86.91600   42.68300   35.21210 -100.03910   24.39560
 6400.00000    -999.25    6.20130  242.23100    9.30050   36.15940   22.82130   23.96160  -99.13740   45.48710
 6450.00000    -999.25    5.92470  252.98710    9.35510   40.94130   24.03570   24.78780  -97.36070   43.15920
 6500.00000    -999.25    6.74820  225.20090    9.27080   38.54180   21.37360   22.78860  -92.15080   49.42880
 6550.00000    -999.25    6.21200  213.60370    9.53190   37.47470   18.74960   22.32320  -87.74990   53.68380
 6600.00000    -999.25    4.37980  293.14620    9.30780  594.79210  155.07660  110.29040  -75.42750    7.40140
 6650.00000    -999.25    5.67720  264.70450    9.27640  992.52950  486.60310   67.50480  -70.89110    3.54770
 6700.00000    -999.25    4.35080  237.58570    9.33710  993.70370  159.90970   93.35520  -54.99390   11.24540
 6750.00000    -999.25    2.78100  274.93740    9.11610  154.93380   77.24110   53.35140  -58.85500   15.10440
 6800.00000    -999.25    1.04520  353.94520   10.14590  167.70320   95.78110   81.64960  -57.71020   14.12870
 6850.00000    -999.25    1.15790  361.70110    9.20790  312.84050   59.32540   62.27780  -89.78630   20.23090
 6900.00000    -999.25    0.86010  343.46140    9.14510  335.38620   48.73190   57.89390  -84.09240   21.66050
 6950.00000    -999.25    2.27920  330.80450   10.04210    9.12940   76.45180   61.96410  -55.16470   16.01830
 7000.00000    -999.25    0.82960  401.71000    9.28900    8.13120   86.34030   62.76860  -89.84540   13.38210
 7050.00000    -999.25    2.64640  277.31140    9.30420  124.15060   67.76560   56.48380  -98.78280   17.16350
 7100.00000    -999.25    1.65770  266.71080    9.28480   87.97350   49.08630   57.97270 -105.13710   19.11190
 7150.00000    -999.25    0.88610  349.24280    9.04190  257.88020   40.19190   43.92160 -114.06740   25.81610
 7200.00000    -999.25    0.95770  417.52700   10.01330   19.24970   97.19370   85.98400 -163.88900   11.93640
 7250.00000    -999.25    0.97020  394.97450    9.07320  265.66780   72.16270   55.43370 -246.97000   16.53510
 7300.00000    -999.25    4.19900  227.63100    9.13740   46.86760   28.23800   35.28780 -230.27580   36.50600
 7350.00000    -999.25    2.65930  310.07510    9.09570  227.93460   90.28630   99.88670 -237.43470   13.57990
 7400.00000    -999.25    2.21730  299.30750   10.81620   17.50570   78.50010   83.51310 -272.88290   14.65980
 7450.00000    -999.25    0.87920  364.46650    9.02260   53.10140   64.70330   59.08940 -179.72400   18.59410
 7500.00000    -999.25    1.40270  376.67240   10.15320   11.53340  168.99310   75.68860 -170.82870    6.69310
 7550.00000    -999.25    3.75930  250.81110    9.09340   83.03610   41.41730   41.60160 -208.49080   23.68150
