~Version ---------------------------------------------------
VERS.      2.0 : CWLS log ASCII Standard -VERSION 2.0
WRAP.       NO : One line per depth step
CREA. 08/02/17 : LAS Creation Date
~Well ------------------------------------------------------
STRT.FT                            1100.0 : START DEPTH
STOP.FT                           10850.0 : STOP DEPTH
STEP.FT                          50.00000 : STEP LENGTH
NULL.                             -999.25 : NULL VALUE
COMP.        PAN AMERICAN PETROLEUM CORP. : COMPANY
WELL. PAN AM ET AL E-3 KAYBOBS 6-26-59-18 : WELL
FLD .                        KAYBOB SOUTH : FIELD
LOC .                                     : LOCATION
CTRY.                              CANADA : COUNTRY
SRVC.                        Schlumberger : SERVICE COMPANY
DATE.                         16-Jul-1969 : LOGDATE
PROV.                             Alberta : PROVINCE
UWI .                    100062605918W500 : UNIQUE WELL ID
SLAT.WGS84                       54.12901 : SURFACE LATITUDE
SLON.WGS84                       -116.593 : SURFACE LONGITUDE
~Curve Information -----------------------------------------
DEPT   .FT        : Depth Curve
CALSED .IN        : CALIPER FROM SONIC LOG [ADJ. TO RESISTIVITY LOG]
CALWS  .IN        : CALIPER [CALSED]
CONDWS .MMHO      : CONDUCTIVITY [1000/DRESWS]
DRESWS .OHMM      : DEEP RESISTIVITY [ILDED]
DTED   .US/F      : DELTA-T FROM SONIC LOG [ADJ. TO RESISTIVITY LOG]
DTWS   .US/F      : COMPRESSIONAL SONIC [DTED]
GRSED  .GAPI      : GAMMA RAY FROM SONIC LOG [ADJ. TO RESISTIVITY LOG]
GRTED  .GAPI      : THEORETICAL GAMMA RAY VALUE TDT FROM TDT LOG [ADJ. TO RESISTIVITY LOG]
GRWS   .GAPI      : GAMMA RAY [GRSED]
ILDED  .OHMM      : DEEP INDUCTION RESISTIVITY FROM RESISTIVITY LOG
ILMED  .OHMM      : MEDIUM INDUCTION RESISTIVITY FROM RESISTIVITY LOG
LL8ED  .OHMM      : LATEROLOG 8 FROM RESISTIVITY LOG
MRESWS .OHMM      : MEDIUM RESISTIVITY [ILMED]
RATIOED.UNITLESS  : RATIO FROM TDT LOG [ADJ. TO RESISTIVITY LOG]
SIGMAED.CU        : SIGMA FROM TDT LOG [ADJ. TO RESISTIVITY LOG]
SIGMED .CU        : SIGM FROM TDT LOG [ADJ. TO RESISTIVITY LOG]
SPRED  .MV        : SPONTANEOUS POTENTIAL FROM RESISTIVITY LOG
SPWS   .MV        : SPONTANEOUS POTENTIAL [BASELINE 0MV, SPRED]
SRESWS .OHMM      : SHALLOW RESISTIVITY [LL8ED]
TAUED  .us        : NEUTRON DECAY TIME FROM TDT LOG [ADJ. TO RESISTIVITY LOG]
TRATED .UNITLESS  : NEAR/FAR CAPTURE RATIO FROM TDT LOG [ADJ. TO RESISTIVITY LOG]
~Params ----------------------------------------------------
PD  .              2" OUTLET : PERMANENT DATUM
EPD .FT               2964.7 : ELEVATION PERMANENT DATUM
LMF .                     KB : LOG MEASURED FROM
DAPD.FT                 14.3 : FEET ABOVE PERMANENT DATUM
EKB .FT               2979.0 : KELLY BUSHING
EGL .FT               2964.7 : GROUND LEVEL
DATE.               07/16/69 : RUN DATE
RUN .                      1 : RUN NUMBER
DD  .FT                10855 : DEPTH DRILLER
DL  .FT                10862 : DEPTH LOGGER
BLI .FT                10858 : BOTTOM LOG INTERVAL
TLI .FT                 1104 : TOP LOG INTERVAL
CBD .FT                 1104 : CASING BOTTOM DRILLER
CBL .FT                 1104 : CASING BOTTOM LOGGER
BS  .IN                 8.75 : BIT SIZE
BSD .FT                10855 : BIT SIZE AT DEPTH
DFT .               GEL CHEM : DRILLING FLUID TYPE
DFD .                    9.3 : DRILLING FLUID DENSITY
DFV .                     90 : DRILLING FLUID VISCOSITY
DFPH.                    9.0 : DRILLING FLUID PH
DFL .                    9.2 : DRILLING FLUID LOSS
MSS .                   CIRC : MUD SAMPLE SOURCE
RMS .OHMM                1.6 : RESISTIVITY MUD SAMPLE
MST .DEGF                 62 : MUD SAMPLE TEMPERATURE
RMF .OHMM               1.29 : RESISTIVITY MUD FILTRATE SAMPLE
MFST.DEGF                 67 : MUD FILTRATE SAMPLE TEMPERATURE
RMC .OHMM               1.35 : RESISTIVITY MUD CAKE
MCST.DEGF                 62 : MUD CAKE SAMPLE TEMPERATURE
TCS .HRS                   2 : TIME CIRCULATED STOPPED
LUN .                   7502 : LOGGING UNIT NUMBER
LUL .                    EDM : LOGGING UNIT LOCATION
ENGI.                 EDGSON : RECORDING ENGINEER
WITN.                  REMUS : WITNESSED BY
CLNT.                A2DTECH : CLIENT CODE
ORIG.            2" 5" PRINT : ORIGIN OF DATA
UWI .       100062605918W500 : UNIQUE WELL ID
DICO. A2D Technologies, Inc. : DIGITIZING COMPANY
~Other -----------------------------------------------------
~ASCII -----------------------------------------------------
# ...
 2750.00000   10.21950   10.21950  322.93480    3.09660  137.75740  137.75740   99.05420    -999.25   99.05420    3.09660    2.78200    2.75520    2.78200    -999.25    -999.25    -999.25  -96.61990   -4.52760    2.75520    -999.25    -999.25
 2800.00000    9.54890    9.54890  140.30800    7.13070   84.91440   84.91440   63.65210    -999.25   63.65210    7.13070    6.78380    7.63900    6.78380    -999.25    -999.25    -999.25  -94.25570   -2.36510    7.63900    -999.25    -999.25
 2850.00000    9.52620    9.52620   88.56060   11.29170   86.74180   86.74180   52.92740    -999.25   52.92740   11.29170   10.82200   10.28500   10.82200    -999.25    -999.25    -999.25 -104.23950  -12.55200   10.28500    -999.25    -999.25
 2900.00000   10.31270   10.31270  249.91880    4.00130  130.98430  130.98430   80.89130    -999.25   80.89130    4.00130    3.87180    4.30320    3.87180    -999.25    -999.25    -999.25  -94.23760   -2.75180    4.30320    -999.25    -999.25
 2950.00000   11.56090   11.56090  166.59450    6.00260   85.95630   85.95630   77.48460    -999.25   77.48460    6.00260    5.66200    6.12710    5.66200    -999.25    -999.25    -999.25  -93.22540   -1.94270    6.12710    -999.25    -999.25
 3000.00000   10.43050   10.43050  126.48620    7.90600   82.73750   82.73750   66.33860    -999.25   66.33860    7.90600    7.65300    7.55510    7.65300    -999.25    -999.25    -999.25  -94.25370   -3.17280    7.55510    -999.25    -999.25
 3050.00000   10.33300   10.33300  180.93260    5.53990   85.13830   85.13830   55.12450    -999.25   55.12450    5.53990    5.14880    5.34090    5.14880    -999.25    -999.25    -999.25  -94.65570   -3.77650    5.34090    -999.25    -999.25
 3100.00000    9.21750    9.21750   43.94990   22.75320   85.00250   85.00250   34.56080    -999.25   34.56080   22.75320   20.75240   18.89980   20.75240    -999.25    -999.25    -999.25 -102.20840  -11.53230   18.89980    -999.25    -999.25
 3150.00000    9.34550    9.34550  101.02440    9.89860   75.54690   75.54690   48.93760    -999.25   48.93760    9.89860    8.86040   14.43110    8.86040    -999.25    -999.25    -999.25  -93.85800   -3.38360   14.43110    -999.25    -999.25
 3200.00000   11.31870   11.31870  201.85300    4.95410  115.71680  115.71680   55.66000    -999.25   55.66000    4.95410    4.12000    4.57400    4.12000    -999.25    -999.25    -999.25  -94.46270   -4.19140    4.57400    -999.25    -999.25
 3250.00000    9.41290    9.41290   77.05470   12.97780   80.84000   80.84000   40.63170    -999.25   40.63170   12.97780   12.19740   11.49370   12.19740    -999.25    -999.25    -999.25  -93.86070   -3.79120   11.49370    -999.25    -999.25
 3300.00000    9.87730    9.87730  184.33510    5.42500   93.87450   93.87450   59.57580    -999.25   59.57580    5.42500    5.01580    5.69190    5.01580    -999.25    -999.25    -999.25  -93.83650   -3.96870    5.69190    -999.25    -999.25
 3350.00000   10.54070   10.54070  205.41900    4.86810   97.03340   97.03340   62.66550    -999.25   62.66550    4.86810    4.68580    4.31560    4.68580    -999.25    -999.25    -999.25  -94.68780   -5.02310    4.31560    -999.25    -999.25
 3400.00000   10.19270   10.19270  125.04220    7.99730   93.85880   93.85880   52.29490    -999.25   52.29490    7.99730    7.09990    7.49080    7.09990    -999.25    -999.25    -999.25  -93.64090   -4.17790    7.49080    -999.25    -999.25
 3450.00000    9.81740    9.81740  143.00220    6.99290   84.35960   84.35960   57.80950    -999.25   57.80950    6.99290    6.71100    8.46640    6.71100    -999.25    -999.25    -999.25  -96.16670   -6.90680    8.46640    -999.25    -999.25
 3500.00000   10.21590   10.21590  170.14330    5.87740   96.16210   96.16210   56.90510    -999.25   56.90510    5.87740    5.40250    5.16920    5.40250    -999.25    -999.25    -999.25  -92.60520   -3.54710    5.16920    -999.25    -999.25
 3550.00000    9.32520    9.32520  107.14510    9.34200   80.91000   80.91000   38.79620    -999.25   38.79620    9.34200    8.98590    9.92060    8.98590    -999.25    -999.25    -999.25  -92.88490   -4.02850    9.92060    -999.25    -999.25
 3600.00000    9.89580    9.89580  192.01230    5.20800   94.29200   94.29200   56.63950    -999.25   56.63950    5.20800    4.93320    5.85780    4.93320    -999.25    -999.25    -999.25  -91.73170   -3.07840    5.85780    -999.25    -999.25
 3650.00000    9.51810    9.51810   46.35450   21.57290   75.43080   75.43080   48.56000    -999.25   48.56000   21.57290   24.89320   30.72170   24.89320    -999.25    -999.25    -999.25  -94.91210   -6.46050   30.72170    -999.25    -999.25
 3700.00000   10.72340   10.72340  137.55540    7.26980  113.47290  113.47290   55.51060    -999.25   55.51060    7.26980    5.87610    6.07960    5.87610    -999.25    -999.25    -999.25  -91.74680   -3.49830    6.07960    -999.25    -999.25
 3750.00000    9.69070    9.69070  150.48230    6.64530   92.07700   92.07700   52.56450    -999.25   52.56450    6.64530    6.01580    6.45350    6.01580    -999.25    -999.25    -999.25  -91.28460   -3.23790    6.45350    -999.25    -999.25
 3800.00000    8.39040    8.39040   32.24780   31.01180   72.70030   72.70030   33.75540    -999.25   33.75540   31.01180   27.25480   31.81370   27.25480    -999.25    -999.25    -999.25 -129.23460  -41.38960   31.81370    -999.25    -999.25
 3850.00000    9.41720    9.41720   96.85980   10.32420   84.47230   84.47230   61.36760    -999.25   61.36760   10.32420    9.51860    8.63460    9.51860    -999.25    -999.25    -999.25  -98.61800  -10.97610    8.63460    -999.25    -999.25
 3900.00000    9.80930    9.80930  212.25560    4.71130   89.46060   89.46060   66.37890    -999.25   66.37890    4.71130    4.44740    5.56800    4.44740    -999.25    -999.25    -999.25  -89.74500   -2.30480    5.56800    -999.25    -999.25
 3950.00000   10.25870   10.25870  154.85870    6.45750   87.91120   87.91120   65.85910    -999.25   65.85910    6.45750    6.16800    7.16330    6.16800    -999.25    -999.25    -999.25  -91.30370   -4.06660    7.16330    -999.25    -999.25
 4000.00000   10.50870   10.50870  115.77960    8.63710   85.59650   85.59650   83.29410    -999.25   83.29410    8.63710    7.69250    8.27210    7.69250    -999.25    -999.25    -999.25  -91.20660   -4.17810    8.27210    -999.25    -999.25
 4050.00000   10.92770   10.92770  130.35160    7.67170   86.21860   86.21860   88.92060    -999.25   88.92060    7.67170    7.36370    8.47560    7.36370    -999.25    -999.25    -999.25  -92.01170   -5.19890    8.47560    -999.25    -999.25
 4100.00000   11.64010   11.64010  123.80990    8.07690   86.46730   86.46730   94.39300    -999.25   94.39300    8.07690    7.67210    8.45490    7.67210    -999.25    -999.25    -999.25  -92.25230   -5.65650    8.45490    -999.25    -999.25
 4150.00000   11.17130   11.17130  113.30420    8.82580   90.55650   90.55650   94.41000    -999.25   94.41000    8.82580    8.17850    9.74590    8.17850    -999.25    -999.25    -999.25  -92.45450   -6.07440    9.74590    -999.25    -999.25
 4200.00000   10.83960   10.83960  122.74160    8.14720   95.54900   95.54900  133.93990    -999.25  133.93990    8.14720    7.66800   11.86640    7.66800    -999.25    -999.25    -999.25  -90.86360   -4.70050   11.86640    -999.25    -999.25
 4250.00000   10.35140   10.35140   83.42510   11.98680   83.75140   83.75140   99.60110    -999.25   99.60110   11.98680   11.48780   16.57700   11.48780    -999.25    -999.25    -999.25  -91.15690   -5.20950   16.57700    -999.25    -999.25
 4300.00000   10.52780   10.52780  101.29970    9.87170   85.32050   85.32050   92.66680    -999.25   92.66680    9.87170    9.61190   12.02640    9.61190    -999.25    -999.25    -999.25  -91.41490   -5.68310   12.02640    -999.25    -999.25
 4350.00000   11.53830   11.53830  145.69400    6.86370   93.52850   93.52850   93.13540    -999.25   93.13540    6.86370    6.36740    7.08160    6.36740    -999.25    -999.25    -999.25  -91.82820   -6.31350    7.08160    -999.25    -999.25
