~Version ---------------------------------------------------
VERS.      2.0 : CWLS log ASCII Standard -VERSION 2.0
WRAP.       NO : One line per depth step
CREA. 12/14/17 : LAS Creation Date
~Well ------------------------------------------------------
STRT.FT                                        800.0 : START DEPTH
STOP.FT                                       7700.0 : STOP DEPTH
STEP.FT                                     50.00000 : STEP LENGTH
NULL.                                        -999.25 : NULL VALUE
COMP. GREAT PLAINS DEVELOPMENT COMPANY OF CANADA LTD : COMPANY
WELL.                   GRT PLNS THUNDER LK 2-6-59-4 : WELL
FLD .                                                : FIELD
LOC .                                                : LOCATION
CTRY.                                         CANADA : COUNTRY
SRVC.                                   Schlumberger : SERVICE COMPANY
DATE.                                    23-Jun-1962 : LOGDATE
PROV.                                        Alberta : PROVINCE
UWI .                               100020605904W500 : UNIQUE WELL ID
SLAT.WGS84                                  54.06654 : SURFACE LATITUDE
SLON.WGS84                                 -114.5851 : SURFACE LONGITUDE
~Curve Information -----------------------------------------
DEPT  .FT    : Depth Curve
CALSED.IN    : CALIPER FROM SONIC LOG [ADJ TO ILDED]
CALWS .IN    : CALIPER [CALSED]
CILDED.MMHO  : CONDUCTIVITY FROM IE LOG
CONDWS.MMHO  : CONDUCTIVITY [1000/DRESWS]
DRESWS.OHMM  : DEEP RESISTIVITY [ILDED]
DT1ED .US/F  : DELTA TIME SPACING 3' PICKUP SPAN 1' FROM SONIC LOG [ADJ TO ILDED]
DT2ED .US/F  : DELTA TIME SPACING 3' PICKUP SPAN 3' FROM SONIC LOG [ADJ TO ILDED]
DT3ED .US/F  : DELTA TIME SPACING 3' PICKUP SPAN 1' FROM SONIC LOG [ADJ TO ILDED]
DTED  .US/F  : DELTA TIME SPACING 3' PICKUP SPAN 3' FROM SONIC LOG [ADJ TO ILDED]
DTWS  .US/F  : DELTA TIME [DTED]
GRSED .GAPI  : GAMMA RAY FROM SONIC LOG [ADJ TO ILDED]
GRWS  .GAPI  : GAMMA RAY [GRSED]
ILDED .OHMM  : INDUCTION LOG DEEP RESISTIVITY FROM IE LOG
SNED  .OHMM  : 16 INCH SHORT NORMAL RESISTIVITY FROM IE LOG
SPRED .MV    : SPONTANEOUS POTENTIAL FROM IE LOG
SPWS  .MV    : SPONTANEOUS POTENTIAL [BASELINE 0 MV] [SPRED]
SRESWS.OHMM  : SHALLOW RESISTIVITY [SNED]
~Params ----------------------------------------------------
PD  .                 GROUND : PERMANENT DATUM
EPD .FT                 2131 : ELEVATION PERMANENT DATUM
LMF .                     KB : LOG MEASURED FROM
DAPD.FT                 12.3 : FEET ABOVE PERMANENT DATUM
EKB .FT               2143.3 : KELLY BUSHING
EGL .FT                 2131 : GROUND LEVEL
DATE.             06/23/1962 : RUN DATE
RUN .                      2 : RUN NUMBER
CBD .FT                  804 : CASING BOTTOM DRILLER
BS  .IN                 8.75 : BIT SIZE
DFT .              SALT& GEL : DRILLING FLUID TYPE
DFD .                   10.6 : DRILLING FLUID DENSITY
DFV .                     70 : DRILLING FLUID VISCOSITY
DFPH.                      7 : DRILLING FLUID PH
DFL .                    6.6 : DRILLING FLUID LOSS
RMF .OHMM               1.02 : RESISTIVITY MUD FILTRATE SAMPLE
MFST.DEGF                 69 : MUD FILTRATE SAMPLE TEMPERATURE
RMC .OHMM               1.85 : RESISTIVITY MUD CAKE
MCST.DEGF                 69 : MUD CAKE SAMPLE TEMPERATURE
ENGI.             ARMBRUSTER : RECORDING ENGINEER
WITN.                GOODMAN : WITNESSED BY
CLNT.                A2DTECH : CLIENT CODE
ORIG.           2", 5" PRINT : ORIGIN OF DATA
UWI .       100020605904W500 : UNIQUE WELL ID
DICO. A2D Technologies, Inc. : DIGITIZING COMPANY
~Other -----------------------------------------------------
IE-SONIC LOGS RUN
IE LOG ALL CURVES DATA TOP-2650' FROM 2" SECTION
~ASCII -----------------------------------------------------
# ...
 4900.00000    9.08450    9.08450  202.72190  205.74000    4.86240   74.51780   75.14270   74.28700   75.20350   75.20350  103.77630  103.77630    4.86240    7.63720  -80.84690  -33.28240    7.63720
 4950.00000    8.72830    8.72830  467.71690  467.71690    2.13800   52.97590   58.03780   52.64680   58.27200   58.27200   34.83350   34.83350    1.65980   21.16610 -146.06430  -97.63380   21.16610
 5000.00000    8.75200    8.75200  152.76690  155.71230    6.42210   54.62190   56.59820   54.34200   56.68960   56.68960   36.94800   36.94800    6.42210   31.21850 -131.56360  -82.27140   31.21850
 5050.00000    8.75040    8.75040   86.04420   82.65530   12.10840   54.47350   54.25500   53.95990   54.44500   54.44500   34.15340   34.15340   12.10840   43.53590 -133.44320  -83.29360   43.53590
 5100.00000    8.80140    8.80140  218.38490  224.58280    4.45270   62.82020   61.80910   61.83500   62.09750   62.09750   53.24010   53.24010    4.45270    8.72410  -93.94950  -42.93390    8.72410
 5150.00000    9.44970    9.44970  121.90100  119.04230    8.40040   75.94890   74.13810   74.95130   74.36670   74.36670   78.07750   78.07750    8.40040   13.16600  -62.14200  -10.26900   13.16600
 5200.00000    9.74800    9.74800  292.47870  338.22630    2.95660   90.47100    -999.25    -999.25   93.15580   93.15580  108.00030  108.00030    2.95660    5.06560  -62.37150   -9.63250    5.06560
 5250.00000    8.79780    8.79780  147.98280  142.51920    7.01660   54.66430   66.64750   52.58870   65.90910   65.90910   75.67690   75.67690    7.01660    9.34660  -59.26550   -6.29960    9.34660
 5300.00000    8.87750    8.87750   50.66870   48.04690   20.93090   67.02840   64.04140   66.34470   63.85240   63.85240   74.63080   74.63080   20.93090   21.79270  -70.32410  -17.90440   21.79270
 5350.00000   10.24030   10.24030  187.55460  195.80580    5.10710   73.02090   75.71370   72.40660   76.49980   76.49980   69.41650   69.41650    5.10710    8.62900  -63.90310  -12.03510    8.62900
 5400.00000   10.26250   10.26250  181.09620  185.70620    5.38790   80.81350   73.48940   79.95860   73.05980   73.05980   86.57790   86.57790    5.38790    7.58320  -59.64210   -8.32030    7.58320
 5450.00000   11.47660   11.47660  202.81280  207.39570    4.82170   83.66330    -999.25   80.05820   85.60090   85.60090   88.45830   88.45830    4.82170    6.37520  -56.33510   -5.56490    6.37520
 5500.00000   11.09910   11.09910  232.01110  241.73270    4.13680   82.81030    -999.25   79.98070   84.98760   84.98760   82.33900   82.33900    4.13680    6.12240  -54.42670   -4.20550    6.12240
 5550.00000    9.63210    9.63210  195.59800  193.33000    5.17310   80.42140   77.60630   77.13460   77.42940   77.42940   78.41120   78.41120    5.17310    7.51930  -56.00240   -6.32740    7.51930
 5600.00000    8.89560    8.89560   36.13020   34.97700   28.59020   57.42990   56.18770   56.86700   56.38700   56.38700   45.86780   45.86780   28.59020   31.21190  -56.51390   -7.39050   31.21190
 5650.00000    9.37530    9.37530   99.76240   99.87110   10.02430   59.06480   70.89930   58.94090   70.74140   70.74140   37.82000   37.82000   10.02430   14.33460  -59.73750  -11.16020   14.33460
 5700.00000    9.21020    9.21020   63.58200   61.03930   16.38290   57.24870   62.33730   56.61910   62.57310   62.57310   41.93050   41.93050   16.38290   21.93490  -53.37750   -5.35200   21.93490
 5750.00000    9.40180    9.40180  121.54040  118.99100    8.40400   65.70880   68.62920   66.83160   67.89480   67.89480   69.47970   69.47970    8.40400   11.37380  -54.81560   -7.33900   11.37380
 5800.00000    9.02150    9.02150   46.97700   46.45420   21.52670   59.90310   60.72410   59.16310   60.92600   60.92600   43.85130   43.85130   21.52670   26.95260  -52.55160   -5.62120   26.95260
 5850.00000    9.28950    9.28950  108.21390  107.25240    9.32380   65.75230   70.85320   66.06370   70.54270   70.54270   62.54130   62.54130    9.32380   13.15250  -50.21230   -3.83360   13.15250
 5900.00000    9.78480    9.78480  207.62800  219.06310    4.56690   79.67510   78.86430   77.40760   79.21640   79.21640   63.40760   63.40760    4.56690    8.51250  -53.30700   -7.47450    8.51250
 5950.00000   10.01390   10.01390  196.91960  196.46750    5.08990   80.67300   76.53730   79.96550   76.48660   76.48660   59.95230   59.95230    5.08990    8.61550  -50.34200   -5.06110    8.61550
 6000.00000    9.52940    9.52940  246.17510  260.30820    3.84160   84.50500    -999.25    -999.25   85.00100   85.00100  102.83720  102.83720    3.84160    7.17660  -55.01180  -10.27980    7.17660
 6050.00000    8.65900    8.65900   46.77740   45.14280   22.15640   63.62640   64.77290   63.61550   65.64120   65.64120   56.80190   56.80190   22.15640   33.65160  -49.03130   -4.84550   33.65160
 6100.00000    8.94620    8.94620   79.07090   77.69770   12.87040   64.32690   62.87780   63.73880   63.03370   63.03370   55.79470   55.79470   12.87040   17.10470  -50.82130   -6.79140   17.10470
 6150.00000    8.93060    8.93060   44.52780   44.73620   22.35470   57.84940   57.95960   57.46260   58.18100   58.18100   39.84730   39.84730   22.35470   28.22370  -49.30110   -5.29230   28.22370
 6200.00000   10.19160   10.19160  294.74070  337.60970    2.96200   83.07110    -999.25   79.97130   82.46840   82.46840   92.36130   92.36130    2.96200    5.66510  -57.36610  -13.37870    5.66510
 6250.00000   10.49720   10.49720  213.91600  214.94740    4.65230   78.59950   77.24590   79.90950   78.09280   78.09280   75.19660   75.19660    4.65230    6.90950  -54.63940  -10.67320    6.90950
 6300.00000   10.57850   10.57850  248.20440  269.69180    3.70850   77.72940   78.71940   77.40760   79.27990   79.27990   79.64560   79.64560    3.70850    6.14910  -56.45370  -12.50860    6.14910
 6350.00000    8.92180    8.92180   82.18700   71.77460   13.93250   56.00350   68.38580   55.44420   70.76080   70.76080   65.42190   65.42190   13.93250   18.21140  -48.72410   -4.80040   18.21140
 6400.00000    8.96680    8.96680   34.27680   34.06300   29.36210   58.86420   56.46900   58.68050   56.63660   56.63660   41.80990   41.80990   29.36210   33.27380  -64.55080  -20.64820   33.27380
 6450.00000    8.90120    8.90120   74.25880   68.32610   14.63570   56.21980   58.69000   56.66350   59.34580   59.34580   48.06340   48.06340   14.63570   18.24010  -60.71520  -16.83390   18.24010
 6500.00000    9.11470    9.11470   31.26150   29.49030   33.90950   52.13570   52.09820   51.50200   52.37660   52.37660   24.55730   24.55730   33.90950   39.20480  -62.37930  -18.51930   39.20480
 6550.00000    8.98040    8.98040   69.92710   68.33550   14.63700   62.35960   61.41360   61.99280   61.68920   61.68920   44.91230   44.91230   14.63700   20.27280  -58.86480  -15.02590   20.27280
 6600.00000    8.79470    8.79470    9.04340    6.68120  149.67400   49.71320   51.10480   49.39570   51.45130   51.45130   24.98970   24.98970  149.67400   89.41840  -74.86040  -31.04280   89.41840
 6650.00000    9.36840    9.36840   26.00980   22.65880   44.39760   55.48670   51.82740   54.71860   52.11530   52.11530   35.65720   35.65720   44.39760   37.69680  -61.92500  -18.12860   37.69680
 6700.00000    9.00230    9.00230   83.56580   81.04780   12.33840   62.59870   64.09700   62.32520   63.98090   63.98090   61.97150   61.97150   12.33840   16.49600  -57.69200  -13.91690   16.49600
 6750.00000    8.76000    8.76000   10.35460    8.03520  124.45300   48.33880   53.45670   48.06830   53.59240   53.59240   20.94440   20.94440  124.45300   99.09070  -83.54190  -39.78800   99.09070
 6800.00000    8.99360    8.99360  124.88110  123.48260    8.09840   69.75030   70.77400   70.05610   71.03760   71.03760   90.06260   90.06260    8.09840   11.95970  -57.20420  -13.47150   11.95970
 6850.00000    8.94550    8.94550   18.93420   15.59640   64.11740   52.96070   53.71980   52.82180   53.94380   53.94380   33.82860   33.82860   64.11740   59.70720  -62.46370  -18.75230   59.70720
 6900.00000    8.92920    8.92920   52.88150   50.50810   19.81210   64.99370   66.37730   64.68470   66.60760   66.60760   61.85900   61.85900   19.81210   26.86200  -48.96700   -5.27670   26.86200
