~Version ---------------------------------------------------
VERS. 2.0 : CWLS log ASCII Standard -VERSION 2.0
WRAP.  NO : ONE LINE PER DEPTH STEP
~Well ------------------------------------------------------
STRT.F                               950.0 : START DEPTH
STOP.F                              9900.0 : STOP DEPTH
STEP.F                            50.00000 : STEP LENGTH
NULL.                              -999.25 : NULL VALUE
COMP.        HUDSON'S BAY OIL & GAS CO LTD : COMPANY
WELL. HB QUINTANA UNION GIROUX 10-25-66-20 : WELL
FLD .                                      : FIELD
LOC .                                      : LOCATION
CTRY.                               CANADA : COUNTRY
SRVC.                         Schlumberger : SERVICE COMPANY
DATE.                          21-Feb-1973 : LOGDATE
PROV.                              Alberta : PROVINCE
UWI .                     100102506620W500 : UNIQUE WELL ID
SLAT.WGS84                        54.74426 : SURFACE LATITUDE
SLON.WGS84                       -116.8814 : SURFACE LONGITUDE
~Curve Information -----------------------------------------
DEPT.F    0   1   0  0 : 1 MEASURED DEPTH
DT  .US/F 60 500 32 00 : DELTA-T (INTERVAL TRANSIT TIME)
GRS .GAPI 60 310 01 00 : GAMMA RAY FROM SONIC LOG
CALS.IN   60 280 50 00 : CALIPER FROM SONIC LOG
SPR .MV   07 010 01 00 : SPONTANEOUS POTENTIAL FROM RESISTIVITY LOG
ILD .OHMM 07 120 46 00 : INDUCTION DEEP RESISTIVITY
ILM .OHMM 07 120 44 00 : INDUCTION MEDIUM RESISTIVITY
LL8 .OHMM 07 220 08 00 : LATEROLOG 8
CILD.MMHO 07 110 46 00 : INDUCTION DEEP CONDUCTIVITY
~Params ----------------------------------------------------
PD  .                     GL : PERMANENT DATUM
EPD .FT                 2603 : ELEVATION PERMANENT DATUM
LMF .                     KB : LOG MEASURED FROM
DAPD.FT                   15 : FEET ABOVE PERMANENT DATUM
EKB .FT                 2618 : KELLY BUSHING
EGL .FT                 2603 : GROUND LEVEL
DATE.               02/21/73 : RUN DATE
RUN .                      1 : RUN NUMBER
DD  .FT                 9904 : DEPTH DRILLER
DL  .FT                 9905 : DEPTH LOGGER
BLI .FT                 9902 : BOTTOM LOG INTERVAL
TLI .FT                  994 : TOP LOG INTERVAL
CBD .FT                  993 : CASING BOTTOM DRILLER
CBL .FT                  994 : CASING BOTTOM LOGGER
BS  .IN                 8.75 : BIT SIZE
BSD .FT                 9904 : BIT SIZE AT DEPTH
DFT .                    GEL : DRILLING FLUID TYPE
DFD .                    9.4 : DRILLING FLUID DENSITY
DFV .                    310 : DRILLING FLUID VISCOSITY
DFPH.                   10.5 : DRILLING FLUID PH
DFL .                    7.2 : DRILLING FLUID LOSS
MSS .             CIRCULATED : MUD SAMPLE SOURCE
RMS .OHMM               1.85 : RESISTIVITY MUD SAMPLE
MST .DEGF                 58 : MUD SAMPLE TEMPERATURE
RMF .OHMM               1.56 : RESISTIVITY MUD FILTRATE SAMPLE
MFST.DEGF                 68 : MUD FILTRATE SAMPLE TEMPERATURE
RMC .OHMM                1.5 : RESISTIVITY MUD CAKE
MCST.DEGF                 58 : MUD CAKE SAMPLE TEMPERATURE
RMB .OHMM               0.56 : RESISTIVITY MUD AT BHT
TCS .HRS                   3 : TIME CIRCULATED STOPPED
LUN .                   7667 : LOGGING UNIT NUMBER
LUL .                  LLOYD : LOGGING UNIT LOCATION
ENGI.                  LEWIS : RECORDING ENGINEER
WITN.                 HARRIS : WITNESSED BY
CLNT.                A2DTECH : CLIENT CODE
ORIG.            2" 5" PRINT : ORIGIN OF DATA
UWI .       100102506620W500 : UNIQUE WELL ID
DICO. A2D Technologies, Inc. : DIGITIZING COMPANY
~Other -----------------------------------------------------
~ASCII -----------------------------------------------------
  950.00000    -999.25   69.25530    -999.25    -999.25    -999.25    -999.25    -999.25    -999.25
 1000.00000  155.21350   81.70630    9.07930  -99.51460    1.14900    -999.25    3.43290  428.77940
 1050.00000  123.01770   88.70200    9.66660 -104.53230    2.97970    -999.25    3.23230  260.04600
 1100.00000  119.15100   81.81220    9.18560 -105.01520    1.96050    -999.25    2.55540  364.70040
 1150.00000  110.53810   80.41910    8.82360 -112.32070    9.53370    -999.25    9.87240   89.35810
 1200.00000  120.01360   77.96720    9.39020 -103.64980    3.10480    -999.25    3.32440  236.56750
 1250.00000  129.69770   83.58660    9.54430 -103.40140    1.44020    -999.25    2.20300  424.88020
 1300.00000  125.01450   62.35010   10.10480 -102.71600    2.70670    -999.25    3.14790  268.40040
 1350.00000  121.72910  100.37570    8.87260 -103.05250    2.88620    -999.25    2.98840  263.96880
 1400.00000  122.71360   78.83440    9.02450 -101.20100    2.21080    -999.25    2.68580  327.62200
 1450.00000  113.20250   67.19300    8.57010 -109.16970    6.07310    -999.25    6.58650  139.80560
 1500.00000  115.91720   77.54180    9.07170 -101.59680    2.89180    -999.25    3.67860  285.44180
 1550.00000   75.19380   55.13700    9.05890 -102.43910    3.00600    -999.25    3.81330  290.33920
 1600.00000  120.54780   79.45650    9.36840 -101.06550    3.22770    -999.25    3.82650  229.28460
 1650.00000  120.01900   66.72130    9.13200 -104.14900    4.24570    -999.25    5.10170  189.62470
 1700.00000  144.13730   65.44310    9.30470  -99.41700    2.36520    -999.25    3.14360  293.50480
 1750.00000  103.18360   54.66700    9.07580  -99.63610    7.36040    -999.25    7.82000  115.05880
 1800.00000  113.32810   61.53210    8.89240  -99.40820    4.28020    -999.25    4.93970  192.54790
 1850.00000  120.40330   44.02430    8.68520  -99.10390    8.85450    -999.25    8.34800  100.51690
 1900.00000   96.14490   54.21980    8.73600  -97.46730    2.47430    -999.25    3.33880  284.89420
 1950.00000  119.13100   70.92210    9.61380  -98.26110    2.64230    -999.25    3.34400  277.59770
 2000.00000  132.47130   59.79460    9.93470  -96.97410    3.26590    -999.25    3.80780  231.53830
 2050.00000  125.78990   64.64410    9.67250  -95.91000    2.29780    -999.25    2.94280  311.48080
 2100.00000   73.18090   47.99230    9.38280  -96.98370   15.17660    -999.25   21.81110   58.13430
 2150.00000  114.45520   71.83670    9.38040  -93.43000    4.92440    -999.25    5.81210  156.43470
 2200.00000  127.27840   69.01890   10.39780  -91.56600    2.58300    -999.25    3.24760  294.67370
 2250.00000  131.85220   74.74140    9.90120  -96.32630    2.49350    -999.25    3.92410  296.87010
 2300.00000  102.71320   61.19970    9.16440  -99.56930    3.12090    -999.25    4.12510  251.26980
 2350.00000  115.27870   74.99830    9.49850  -96.86530    2.27610    -999.25    3.32450  312.84200
 2400.00000  109.21580   75.88980    9.66450  -97.32080    3.28080    -999.25    4.18090  245.76390
 2450.00000  107.62470   70.88980    9.82030  -97.59950    4.31700    -999.25    4.84950  187.52220
 2500.00000  107.44110  101.43550   11.79310  -99.66790    4.74470    -999.25    5.64730  175.30650
 2550.00000  104.97770   96.45620   11.28750  -99.50950    4.71190    -999.25    5.56120  180.39050
 2600.00000  109.17640  119.58550   11.00430  -98.96900    5.11280    -999.25    6.48940  165.48350
 2650.00000  110.29780  138.04590   10.70820  -96.36420    5.98060    -999.25    8.61580  141.19070
 2700.00000  109.88890  103.66550   10.11680  -97.14140    5.46970    -999.25    7.33190  156.42520
 2750.00000  107.65720   99.27420   10.30010  -97.93150    4.87980    -999.25    5.39930  176.24220
 2800.00000   94.59680   92.22810   10.72990  -94.98660    5.34690    -999.25    5.73770  163.25670
 2850.00000  109.53630   98.39870   10.76930  -96.71650    4.82780    -999.25    5.61220  174.08750
 2900.00000  102.43950  104.39040   10.11980  -99.85470    6.70050    -999.25    7.75970  130.87000
 2950.00000  101.63490   97.12440   10.32860 -100.81670    4.90920    -999.25    5.45240  178.02900
 3000.00000  107.90450   98.42110   11.10100 -101.41510    5.88650    -999.25    6.31280  139.87840
 3050.00000   99.69980  100.86120    9.99370 -100.88830    5.73290    -999.25    6.04590  156.65880
 3100.00000  114.94180   87.74780   10.07250  -99.14340    6.08860    -999.25    6.41150  141.92500
 3150.00000   93.12050   93.88950   10.55740  -99.23590    6.68660    -999.25    7.20600  128.61580
 3200.00000  109.94490   97.40620   10.07340  -98.09380    5.69080    -999.25    6.52500  151.72530
 3250.00000  103.70400   95.33390    9.54550  -96.95640    5.88110    -999.25    6.87690  145.76120
 3300.00000  106.98080  107.19350   10.47920  -96.00850    4.96160    -999.25    6.29610  168.66000
 3350.00000  106.62420  101.18510   10.60520  -94.74870    4.78730    -999.25    6.43210  176.41540
 3400.00000  111.32210  106.58570    9.69730  -93.49540    4.83760    -999.25    6.59780  175.62260
 3450.00000  112.84150  137.07680    9.08380  -93.69550    6.05860    -999.25    9.40060  141.03490
 3500.00000  107.75540  121.47040    9.24460  -89.41660    5.11770    -999.25    7.78890  162.42520
 3550.00000  113.82610  117.16630    9.36350  -89.74300    5.17730    -999.25    7.57530  163.37780
 3600.00000  115.04950  153.98750    9.03820  -87.83320    7.70470    -999.25   13.67960  116.17170
 3650.00000   94.70230   99.29020    9.52430  -89.33900    6.93090    -999.25    8.60100  127.30390
 3700.00000  101.82690  105.85510    9.77450  -86.84180    3.97520    -999.25    5.38670  209.91260
 3750.00000   99.92450  103.58140   10.01180  -87.81280    4.46040    -999.25    6.49770  185.52170
 3800.00000   98.93140  108.70080    9.55150  -89.21580    4.26970    -999.25    5.80150  198.88440
 3850.00000   92.83580  113.11820    9.24050  -84.91940    5.17820    -999.25    7.43180  162.80560
 3900.00000  102.18690  103.87450   10.14970  -83.71050    3.43350    -999.25    4.85580  236.98020
 3950.00000   94.09810   99.65240    9.59750  -89.20450    2.98830    -999.25    4.47340  258.23210
 4000.00000   95.21300  102.58510    9.68490  -87.90290    4.64830    4.33820    5.99520  211.60760
 4050.00000   99.30030  111.73040    9.54790  -87.47080    4.65880    4.56930    5.97750    -999.25
 4100.00000  120.88730  141.75290    9.78090  -86.06490    2.82810    2.66650    4.19350    -999.25
 4150.00000  129.64430   99.58420   10.05610  -85.20860    2.22620    1.99260    2.94750    -999.25
 4200.00000  111.18590  102.48130   10.21340  -85.23660    2.71320    2.65940    3.63430    -999.25
 4250.00000   96.44010  103.35170    9.86560  -84.74390    4.22890    4.30540    5.13750    -999.25
 4300.00000  119.53240  111.31980   10.38660  -82.58920    2.95330    3.01450    3.98850    -999.25
 4350.00000   80.36950   53.87250    9.21730  -93.95170    9.65060   11.18510   15.43870    -999.25
 4400.00000  117.35440   83.86590   10.43540  -81.98130    2.87320    2.96610    3.60670    -999.25
 4450.00000   87.96060   83.23660    9.50680  -90.52730    6.89990    7.28800    9.03640    -999.25
 4500.00000   88.86760   33.54300    8.64000 -137.95420   10.59920   14.39690   19.46920    -999.25
 4550.00000  119.97600   76.66610    9.79290  -80.66940    7.22370    7.64420   24.77350    -999.25
 4600.00000   89.69360   69.47690    9.93280 -111.04330    5.84480    7.43070   10.80910    -999.25
 4650.00000   95.53650   69.77090    9.88560  -93.91970    7.33290    7.94110   11.92310    -999.25
 4700.00000   76.08430   54.45490    9.28540  -81.36370   11.08000   12.06560   13.06040    -999.25
 4750.00000   70.28360   83.56440    9.60910  -77.94450    8.08370    8.71400   13.99050    -999.25
 4800.00000   70.21250   62.12340    9.80180  -97.73540    6.14260    6.52260   10.35990    -999.25
 4850.00000   68.95470   82.38150   10.05720  -79.81070    4.93360    5.02540    7.09500    -999.25
 4900.00000   69.09100   85.62800    9.90490 -111.54770    4.75420    6.21480   12.55720    -999.25
