~Version ---------------------------------------------------
VERS.      2.0 : CWLS log ASCII Standard -VERSION 2.0
WRAP.       NO : One line per depth step
CREA. 10/27/17 : LAS Creation Date
~Well ------------------------------------------------------
STRT.FT                           1200.0 : START DEPTH
STOP.FT                          14850.0 : STOP DEPTH
STEP.FT                         50.00000 : STEP LENGTH
NULL.                            -999.25 : NULL VALUE
COMP.   SOCONY MOBIL OIL OF CANADA, LTD. : COMPANY
WELL. MOBIL SCURRY PEM RIVER A6-15-47-16 : WELL
FLD .                                    : FIELD
LOC .                                    : LOCATION
CTRY.                             CANADA : COUNTRY
SRVC.             Schlumberger of Canada : SERVICE COMPANY
DATE.                        26-Jul-1962 : LOGDATE
PROV.                            Alberta : PROVINCE
UWI .                   102061504716W500 : UNIQUE WELL ID
SLAT.WGS84                      53.05247 : SURFACE LATITUDE
SLON.WGS84                     -116.2582 : SURFACE LONGITUDE
~Curve Information -----------------------------------------
DEPT  .FT    : Depth Curve
CALWS .IN    : CALIPER [MCALED]
CILDED.MMHO  : DEEP INDUCTION CONDUCTIVITY FROM RESISTIVITY LOG [ADJ. TO ILDED]
CONDWS.MMHO  : CONDUCTIVITY [1000/DRESWS]
DRESWS.OHMM  : DEEP RESISTIVITY [1000/CILDED,IF ILDED<5,ILDED]
DT1ED .US/F  : DELTA TIME (3' SPACING- 1' PICKUP SPAN) FROM SONIC LOG
DTED  .US/F  : DELTA TIME (3' SPACING- 3' PICKUP SPAN) FROM SONIC LOG
DTWS  .US/F  : COMPRESSIONAL SONIC [DTED]
GRNED .GAPI  : GAMMA RAY GRN LOG
GRSED .GAPI  : GAMMA RAY FROM SONIC LOG
GRWS  .GAPI  : GAMMA RAY [SPLICED GRSED/GRNED FROM 11818' TO 12795']
ILDED .OHMM  : DEEP INDUCTION RESISTIVITY FROM RESISTIVITY LOG
MCALED.IN    : CALIPER FROM MICRO LOG
NEUTED.NAPI  : NEUTRON FROM GRN LOG
NEUTWS.NAPI  : NEUTRON [NEUTED]
SNED  .OHMM  : 16 INCH  SHORT NORMAL FROM RESISTIVITY LOG
SPRED .MV    : SPONTANEOUS POTENTIAL FROM RESISTIVITY LOG
SPWS  .MV    : SPONTANEOUS POTENTIAL [BASELINE 0 MV,SPRED]
SRESWS.OHMM  : SHALLOW RESISTIVITY [SNED]
~Params ----------------------------------------------------
PD  .                     GL : PERMANENT DATUM
LMF .                     KB : LOG MEASURED FROM
EKB .FT                 4176 : KELLY BUSHING
DATE.               07/26/62 : RUN DATE
RUN .                      3 : RUN NUMBER
DD  .FT                14885 : DEPTH DRILLER
DL  .FT                14889 : DEPTH LOGGER
BLI .FT                14888 : BOTTOM LOG INTERVAL
TLI .FT                12790 : TOP LOG INTERVAL
CBD .FT                12971 : CASING BOTTOM DRILLER
CBL .FT                12790 : CASING BOTTOM LOGGER
BS  .IN                    9 : BIT SIZE
BSD .FT                14885 : BIT SIZE AT DEPTH
DFT .              LIME BASE : DRILLING FLUID TYPE
DFD .                   14.7 : DRILLING FLUID DENSITY
DFV .                     50 : DRILLING FLUID VISCOSITY
DFPH.                     14 : DRILLING FLUID PH
DFL .                      4 : DRILLING FLUID LOSS
RMS .OHMM               0.44 : RESISTIVITY MUD SAMPLE
MST .DEGF                 71 : MUD SAMPLE TEMPERATURE
RMF .OHMM               0.24 : RESISTIVITY MUD FILTRATE SAMPLE
MFST.DEGF                 76 : MUD FILTRATE SAMPLE TEMPERATURE
RMC .OHMM                1.1 : RESISTIVITY MUD CAKE
MCST.DEGF                 77 : MUD CAKE SAMPLE TEMPERATURE
RMB .OHMM               0.12 : RESISTIVITY MUD AT BHT
TCS .HRS                   3 : TIME CIRCULATED STOPPED
LUN .                   1576 : LOGGING UNIT NUMBER
LUL .                     DV : LOGGING UNIT LOCATION
ENGI.               HATLELID : RECORDING ENGINEER
WITN.                 CARSON : WITNESSED BY
CLNT.                A2DTECH : CLIENT CODE
ORIG.            2" 5" PRINT : ORIGIN OF DATA
UWI .       102061504716W500 : UNIQUE WELL ID
DICO. A2D Technologies, Inc. : DIGITIZING COMPANY
~Other -----------------------------------------------------
GRN-IEL-ML-SONIC USED
NO SP RECORDED DUE TO EXCESSIVE TELLURIC CURRENTS, SP BELOW 3610M IS NOT LOOK VALID
~ASCII -----------------------------------------------------
# ...
 7050.00000   10.46300   75.16060   77.50260   12.90280    -999.25   79.36600   79.36600    -999.25   60.26240   60.26240   12.90280   10.46300    -999.25    -999.25   10.31930  -19.00370   -5.35920   10.31930
 7100.00000   10.03110   34.60860   31.37720   31.87110    -999.25   65.80000   65.80000    -999.25   59.25300   59.25300   31.87110   10.03110    -999.25    -999.25   14.52100  -17.15560   -4.19230   14.52100
 7150.00000   11.08810   65.25780   66.54640   15.02710    -999.25   75.21690   75.21690    -999.25   73.44450   73.44450   15.02710   11.08810    -999.25    -999.25    9.54340  -19.06190   -6.77310    9.54340
 7200.00000   11.58700   69.38340   67.46300   14.82360    -999.25   80.00520   80.00520    -999.25   79.14730   79.14730   14.82360   11.58700    -999.25    -999.25    9.37020  -15.43200   -3.82440    9.37020
 7250.00000   12.07010   98.80570   96.17880   10.39730    -999.25   80.99790   80.99790    -999.25   86.12830   86.12830   10.39730   12.07010    -999.25    -999.25    7.70740  -14.26960   -3.33660    7.70740
 7300.00000   10.09620   30.03180   27.74260   36.04570    -999.25   68.39250   68.39250    -999.25   58.66550   58.66550   36.04570   10.09620    -999.25    -999.25   21.01120  -20.36930   -9.83620   21.01120
 7350.00000   10.56750   62.54040   62.02720   16.15310    -999.25   64.45040   64.45040    -999.25   73.41110   73.41110   16.15310   10.56750    -999.25    -999.25   13.64930  -13.66720   -3.36060   13.64930
 7400.00000   10.69550   87.34690   87.17410   11.47130    -999.25   79.26290   79.26290    -999.25   82.97580   82.97580   11.47130   10.69550    -999.25    -999.25    9.06860  -15.36180   -5.62580    9.06860
 7450.00000   10.13560   51.46290   49.63660   20.15600    -999.25   72.79420   72.79420    -999.25  101.01880  101.01880   20.15600   10.13560    -999.25    -999.25   13.26820  -13.66660   -4.50690   13.26820
 7500.00000   11.19090   48.28170   46.99340   21.27960    -999.25   71.49350   71.49350    -999.25  100.25400  100.25400   21.27960   11.19090    -999.25    -999.25   12.96340  -12.97600   -4.38690   12.96340
 7550.00000   10.33870   66.22800   63.21510   15.81900    -999.25   74.96690   74.96690    -999.25  100.31970  100.31970   15.81900   10.33870    -999.25    -999.25   11.27110  -13.77460   -5.75900   11.27110
 7600.00000   10.40690   67.41830   64.09920   15.60140    -999.25   72.76700   72.76700    -999.25  109.40540  109.40540   15.60140   10.40690    -999.25    -999.25   10.98430  -10.24960   -2.81020   10.98430
 7650.00000   10.22310   66.14300   63.88310   15.65360    -999.25   75.21430   75.21430    -999.25  110.00210  110.00210   15.65360   10.22310    -999.25    -999.25   11.01840  -12.68990   -5.82120   11.01840
 7700.00000   10.18660   76.96940   73.75060   13.55980    -999.25   75.60390   75.60390    -999.25  115.87680  115.87680   13.55980   10.18660    -999.25    -999.25   10.15890  -10.40900   -4.11670   10.15890
 7750.00000   10.18570   78.23410   76.34050   13.09920    -999.25   79.02180   79.02180    -999.25  124.66950  124.66950   13.09920   10.18570    -999.25    -999.25   10.03820   -7.70350   -1.98170   10.03820
 7800.00000    9.76340   65.56230   65.09020   15.36330    -999.25   74.66170   74.66170    -999.25  104.03030  104.03030   15.36330    9.76340    -999.25    -999.25   12.59660   -5.87040   -0.72200   12.59660
 7850.00000   10.14120   66.25410   64.23660   15.56930    -999.25   76.41430   76.41430    -999.25  113.55410  113.55410   15.56930   10.14120    -999.25    -999.25   12.93000   -6.44120   -1.86920   12.93000
 7900.00000   10.16240   72.67080   70.16610   14.25190    -999.25   82.51240   82.51240    -999.25  136.98160  136.98160   14.25190   10.16240    -999.25    -999.25   11.96740   -6.27910   -2.27770   11.96740
 7950.00000   10.33150   83.70640   79.03930   12.65440    -999.25   82.30780   82.30780    -999.25  122.36890  122.36890   12.65440   10.33150    -999.25    -999.25   10.82640   -5.78620   -2.18210   10.82640
 8000.00000   10.03080  108.32250  106.73160    9.36930    -999.25   80.56650   80.56650    -999.25  122.37650  122.37650    9.36930   10.03080    -999.25    -999.25    8.00720   -7.07620   -2.61840    8.00720
 8050.00000   10.00780   89.33700   83.94120   11.91310    -999.25   77.60620   77.60620    -999.25  105.96410  105.96410   11.91310   10.00780    -999.25    -999.25    9.01900   -8.81390   -3.49800    9.01900
 8100.00000    9.97730  127.51890  128.37480    7.78970    -999.25   82.60790   82.60790    -999.25  121.46390  121.46390    7.78970    9.97730    -999.25    -999.25    6.81810   -9.06160   -2.88330    6.81810
 8150.00000   10.07320  119.63720  120.22120    8.31800    -999.25   77.36130   77.36130    -999.25  114.49900  114.49900    8.31800   10.07320    -999.25    -999.25    7.19010  -11.17850   -4.13430    7.19010
 8200.00000   10.13970  131.01530  128.13580    7.80430    -999.25   79.99520   79.99520    -999.25  119.63840  119.63840    7.80430   10.13970    -999.25    -999.25    7.06140  -12.74300   -4.22560    7.06140
 8250.00000   10.33050  141.33860  144.29180    6.93040    -999.25   78.25970   78.25970    -999.25  114.23830  114.23830    6.93040   10.33050    -999.25    -999.25    6.19840  -14.29350   -4.31750    6.19840
 8300.00000   10.31250  125.89330  127.21030    7.86100    -999.25   78.94510   78.94510    -999.25  120.85270  120.85270    7.86100   10.31250    -999.25    -999.25    7.02160  -16.48510   -5.04320    7.02160
 8350.00000    9.66630   90.80510   92.12150   10.87900    -999.25   72.93300   72.93300    -999.25  111.97450  111.97450   10.87900    9.66630    -999.25    -999.25    8.66940  -20.33940   -7.42430    8.66940
 8400.00000    9.82120  116.58100  115.03380    8.69310    -999.25   77.67480   77.67480    -999.25  117.20610  117.20610    8.69310    9.82120    -999.25    -999.25    7.28670  -21.95000   -7.57630    7.28670
 8450.00000    9.75750  106.50170  103.02210    9.70710    -999.25   76.93070   76.93070    -999.25  118.77050  118.77050    9.70710    9.75750    -999.25    -999.25    7.57550  -22.88510   -7.03820    7.57550
 8500.00000    9.75350  134.02020  133.70060    7.47940    -999.25   85.89620   85.89620    -999.25  127.59360  127.59360    7.47940    9.75350    -999.25    -999.25    6.80750  -21.95670   -4.65130    6.80750
 8550.00000    9.94770  185.83950  178.62880    5.59820    -999.25   84.51370   84.51370    -999.25  111.39170  111.39170    5.59820    9.94770    -999.25    -999.25    5.01040  -22.85110   -4.10910    5.01040
 8600.00000    9.80640  149.39660  149.29430    6.69820    -999.25   82.37850   82.37850    -999.25  119.71400  119.71400    6.69820    9.80640    -999.25    -999.25    5.81190  -23.88070   -5.13870    5.81190
 8650.00000    9.31070  110.06830  109.66720    9.11850    -999.25   78.56980   78.56980    -999.25  116.22670  116.22670    9.11850    9.31070    -999.25    -999.25    7.34050  -25.56570   -6.82370    7.34050
 8700.00000    9.38940  104.23420  104.31290    9.58670    -999.25   73.98370   73.98370    -999.25  115.06300  115.06300    9.58670    9.38940    -999.25    -999.25    7.74400  -27.14300   -8.40100    7.74400
 8750.00000   11.15290   82.27350   93.57430   10.68670    -999.25   76.10020   76.10020    -999.25   91.33740   91.33740   10.68670   11.15290    -999.25    -999.25    8.32750  -21.55800   -2.82550    8.32750
 8800.00000   10.88580   62.99030   64.38740   15.53100    -999.25   76.61230   76.61230    -999.25   81.64000   81.64000   15.53100   10.88580    -999.25    -999.25   10.09900  -25.84290   -8.05610   10.09900
 8850.00000    9.56270   66.40840   70.37500   14.20970    -999.25   73.73790   73.73790    -999.25   85.80560   85.80560   14.20970    9.56270    -999.25    -999.25   10.66830  -26.20670   -9.37030   10.66830
 8900.00000    9.91420   68.29810   73.56240   13.59390    -999.25   73.80930   73.80930    -999.25   79.72590   79.72590   13.59390    9.91420    -999.25    -999.25   10.72330  -24.15750   -8.26210   10.72330
 8950.00000   11.00520   95.79180  108.07770    9.25380    -999.25   77.66290   77.66290    -999.25   87.64890   87.64890    9.25380   11.00520    -999.25    -999.25    8.27350  -22.70490   -7.75990    8.27350
