~Version ---------------------------------------------------
VERS.      2.0 : CWLS log ASCII Standard -VERSION 2.0
WRAP.       NO : One line per depth step
CREA. 11/03/17 : LAS Creation Date
~Well ------------------------------------------------------
STRT.FT                    1000.0 : START DEPTH
STOP.FT                    9800.0 : STOP DEPTH
STEP.FT                  50.00000 : STEP LENGTH
NULL.                     -999.25 : NULL VALUE
COMP.      FRONTIER PRODUCING INC : COMPANY
WELL. FRONT BA KAYBOB 10-31-63-17 : WELL
FLD .                             : FIELD
LOC .                             : LOCATION
CTRY.                      CANADA : COUNTRY
SRVC.                Schlumberger : SERVICE COMPANY
DATE.                 21-Feb-1966 : LOGDATE
PROV.                     Alberta : PROVINCE
UWI .            100103106317W500 : UNIQUE WELL ID
SLAT.WGS84               54.49605 : SURFACE LATITUDE
SLON.WGS84              -116.5551 : SURFACE LONGITUDE
~Curve Information -----------------------------------------
DEPT  .FT    : Depth Curve
CALSED.IN    : CALIPERFROM SONIC LOG [ADJ. TO RESISTIVITY LOG]
CALWS .IN    : CALIPER [CALSED]
CILDED.MMHO  : CONDUCTIVITY FROM RESISTIVITY LOG
CONDWS.MMHO  : CONDUCTIVITY [1000/DRESWS]
DRESWS.OHMM  : DEEP RESISTIVITY [1000/CILDED, IF ILDED<5, ILDED]
DTED  .US/F  : DELTA TIME FROM SONIC LOG [ADJ. TO RESISTIVITY LOG]
DTWS  .US/F  : COMPRESSIONAL SONIC [DTED]
GRSED .GAPI  : GAMMA RAY FROM SONIC LOG [ADJ. TO RESISTIVITY LOG]
GRWS  .GAPI  : GAMMA RAY [GRSED]
ILDED .OHMM  : DEEP INDUCTION RESISTIVITY FROM RESISTIVITY LOG
SNED  .OHMM  : SHORT NORMAL 16" RESISTIVITY FROM RESISTIVITY LOG
SPRED .MV    : SPONTANEOUS POTENTIAL FROM RESISTIVITY LOG
SPWS  .MV    : SPONTANEOUS POTENTIAL [BASELINE 0 MV, SPRED]
SRESWS.OHMM  : SHALLOW RESISTIVITY [SNED]
~Params ----------------------------------------------------
PD  .                     GL : PERMANENT DATUM
EPD .FT                 2653 : ELEVATION PERMANENT DATUM
LMF .                     KB : LOG MEASURED FROM
DAPD.FT                   13 : FEET ABOVE PERMANENT DATUM
EKB .FT                 2666 : KELLY BUSHING
EGL .FT                 2653 : GROUND LEVEL
DATE.               02/21/66 : RUN DATE
RUN .                      1 : RUN NUMBER
DD  .FT                 9820 : DEPTH DRILLER
DL  .FT                 9821 : DEPTH LOGGER
BLI .FT                 9820 : BOTTOM LOG INTERVAL
TLI .FT                  996 : TOP LOG INTERVAL
CBD .FT                  996 : CASING BOTTOM DRILLER
CBL .FT                  996 : CASING BOTTOM LOGGER
BS  .IN                7.875 : BIT SIZE
BSD .FT                 9820 : BIT SIZE AT DEPTH
DFT .            CAUSTIC GEL : DRILLING FLUID TYPE
DFD .                    9.7 : DRILLING FLUID DENSITY
DFV .                    110 : DRILLING FLUID VISCOSITY
DFPH.                     10 : DRILLING FLUID PH
DFL .                    8.2 : DRILLING FLUID LOSS
RMS .OHMM               2.59 : RESISTIVITY MUD SAMPLE
MST .DEGF                 46 : MUD SAMPLE TEMPERATURE
RMF .OHMM               1.16 : RESISTIVITY MUD FILTRATE SAMPLE
MFST.DEGF                 46 : MUD FILTRATE SAMPLE TEMPERATURE
RMC .OHMM                2.7 : RESISTIVITY MUD CAKE
MCST.DEGF                 46 : MUD CAKE SAMPLE TEMPERATURE
TCS .HRS                   3 : TIME CIRCULATED STOPPED
LUN .                   3534 : LOGGING UNIT NUMBER
LUL .                    WCT : LOGGING UNIT LOCATION
ENGI.               THOMPSON : RECORDING ENGINEER
WITN.                   YONT : WITNESSED BY
CLNT.                A2DTECH : CLIENT CODE
ORIG.            2" 5" PRINT : ORIGIN OF DATA
UWI .       100103106317W500 : UNIQUE WELL ID
DICO. A2D Technologies, Inc. : DIGITIZING COMPANY
~Other -----------------------------------------------------
IEL-SONIC TOOL RUN
CALS DARK PART @ 9800'-FR HAS TAKEN FROM SMALL SECTION
RESISTIVITY LOG (TOP TO 4630') AND SONIC LOG (1356'-1480') FROM SMALL SECTION
~ASCII -----------------------------------------------------
# ...
 3450.00000    -999.25    -999.25  163.49980  163.49980    6.11620    -999.25    -999.25    -999.25    -999.25    6.45670    7.04440  -65.76850  -10.28600    7.04440
 3500.00000    -999.25    -999.25  154.99110  154.99110    6.45200    -999.25    -999.25    -999.25    -999.25    6.40900    7.36510  -65.43630   -9.84470    7.36510
 3550.00000    -999.25    -999.25  151.41790  151.41790    6.60420    -999.25    -999.25    -999.25    -999.25    6.62730    7.42760  -65.14100   -9.44030    7.42760
 3600.00000    -999.25    -999.25  122.79390  122.79390    8.14370    -999.25    -999.25    -999.25    -999.25    8.10360    9.06910  -65.69870   -9.88830    9.06910
 3650.00000    -999.25    -999.25  114.24880  114.24880    8.75280    -999.25    -999.25    -999.25    -999.25    8.72180    9.19260  -65.53670   -9.61720    9.19260
 3700.00000    -999.25    -999.25  152.24760  152.24760    6.56820    -999.25    -999.25    -999.25    -999.25    6.61710    7.48230  -64.60140   -8.57220    7.48230
 3750.00000    -999.25    -999.25  177.37440  177.37440    5.63780    -999.25    -999.25    -999.25    -999.25    5.80860    6.75430  -63.17600   -7.03770    6.75430
 3800.00000    -999.25    -999.25  170.08820  170.08820    5.87930    -999.25    -999.25    -999.25    -999.25    5.73180    6.94710  -64.06220   -7.81490    6.94710
 3850.00000    -999.25    -999.25  187.14410  187.14410    5.34350    -999.25    -999.25    -999.25    -999.25    5.35190    6.90200  -61.43660   -5.07950    6.90200
 3900.00000    -999.25    -999.25  137.50480  137.50480    7.27250    -999.25    -999.25    -999.25    -999.25    7.51760    9.24980  -63.17600   -6.70980    9.24980
 3950.00000    -999.25    -999.25  156.56990  156.56990    6.38690    -999.25    -999.25    -999.25    -999.25    6.62430    8.73250  -60.59490   -4.01900    8.73250
 4000.00000    -999.25    -999.25  117.34660  117.34660    8.52180    -999.25    -999.25    -999.25    -999.25    8.77670   12.72830  -61.13540   -4.45040   12.72830
 4050.00000    -999.25    -999.25  131.30040  131.30040    7.61610    -999.25    -999.25    -999.25    -999.25    7.87770   11.60060  -60.36210   -3.56810   11.60060
 4100.00000    -999.25    -999.25  167.72200  167.72200    5.96220    -999.25    -999.25    -999.25    -999.25    6.02840    8.75580  -60.38850   -3.48470    8.75580
 4150.00000    -999.25    -999.25  198.44180  198.44180    5.03930    -999.25    -999.25    -999.25    -999.25    5.43330    6.76000  -61.25720   -4.24430    6.76000
 4200.00000    -999.25    -999.25  185.95900  185.95900    5.37750    -999.25    -999.25    -999.25    -999.25    5.07440    6.48810  -61.39280   -4.27020    6.48810
 4250.00000    -999.25    -999.25  153.59940  153.59940    6.51040    -999.25    -999.25    -999.25    -999.25    6.52950    8.27970  -60.95490   -3.72320    8.27970
 4300.00000    -999.25    -999.25  201.24110  201.24110    4.96920    -999.25    -999.25    -999.25    -999.25    5.03860    6.35980  -65.61270   -8.27360    6.35980
 4350.00000    -999.25    -999.25   94.21430   94.21430   10.61410    -999.25    -999.25    -999.25    -999.25   10.45320   16.14970  -86.17560  -28.84960   16.14970
 4400.00000    -999.25    -999.25  190.43440  190.43440    5.25120    -999.25    -999.25    -999.25    -999.25    4.57070    6.73930  -66.53420   -9.22130    6.73930
 4450.00000    -999.25    -999.25  289.10510  289.10510    3.45890    -999.25    -999.25    -999.25    -999.25    2.83270    4.70720  -80.75330  -23.45360    4.70720
 4500.00000    -999.25    -999.25  228.13020  228.13020    4.38350    -999.25    -999.25    -999.25    -999.25    3.89830    5.74410  -80.29460  -23.00800    5.74410
 4550.00000    -999.25    -999.25  351.31600  351.31600    2.84640    -999.25    -999.25    -999.25    -999.25    2.01690    3.80590  -80.92190  -23.64840    3.80590
 4600.00000    -999.25    -999.25  427.92490  427.92490    2.33690    -999.25    -999.25    -999.25    -999.25    1.49600    2.83120  -80.72140  -23.46110    2.83120
 4650.00000   10.34870   10.34870  238.40420  238.40420    4.19460   97.33400   97.33400   78.71620   78.71620    3.56350    4.94410  -80.09910  -22.85180    4.94410
 4700.00000    9.49470    9.49470  170.25530  178.97410    5.58740   75.58240   75.58240   82.88440   82.88440    5.58740    7.94240  -81.45480  -24.22070    7.94240
 4750.00000    8.72350    8.72350   95.32730   95.03990   10.52190   74.72180   74.72180   72.72520   72.72520   10.52190   14.09380  -81.15560  -23.93460   14.09380
 4800.00000    9.30860    9.30860  833.55210  833.55210    1.19970  120.48520  120.48520   86.01930   86.01930    0.51680    1.45620  -78.18610  -20.97820    1.45620
 4850.00000    8.76510    8.76510   57.93080   51.35080   19.47390   73.46110   73.46110   53.92590   53.92590   19.47390   24.35270  -94.66930  -37.47460   24.35270
 4900.00000    8.95780    8.95780   55.97390   50.30690   19.87800   62.92980   62.92980   43.06680   43.06680   19.87800   34.95660  -85.14480  -27.96310   34.95660
 4950.00000    9.00400    9.00400   99.62820  101.55480    9.84690   74.52290   74.52290   73.07930   73.07930    9.84690   15.60310  -85.59900  -28.43050   15.60310
 5000.00000   10.59760   10.59760  231.61460  231.61460    4.31750  101.96820  101.96820   86.56010   86.56010    3.81340    5.99560  -76.50950  -19.35410    5.99560
 5050.00000    9.38620    9.38620   90.77080   87.63090   11.41150   75.98610   75.98610   59.17410   59.17410   11.41150   16.28650  -81.00720  -23.86490   16.28650
 5100.00000    9.69440    9.69440  131.96060  137.23630    7.28670   79.63580   79.63580   86.75030   86.75030    7.28670   10.64720  -75.94830  -18.81920   10.64720
 5150.00000    9.86930    9.86930  120.63910  120.18220    8.32070   81.74420   81.74420   55.12080   55.12080    8.32070   16.82930  -87.28220  -30.16620   16.82930
 5200.00000    9.31500    9.31500   51.90920   56.61620   17.66280   79.15550   79.15550   82.17410   82.17410   17.66280   22.04930  -75.30220  -18.19930   22.04930
 5250.00000    8.90440    8.90440  198.16860  198.16860    5.04620   76.37970   76.37970   57.33650   57.33650    4.39250   14.07930 -105.62420  -48.53440   14.07930
 5300.00000    9.61670    9.61670  133.24450  133.24450    7.50500   65.85660   65.85660   45.85190   45.85190    7.04150   16.68440  -86.22770  -29.15100   16.68440
 5350.00000    9.60830    9.60830  174.23410  174.23410    5.73940   79.49940   79.49940   66.30470   66.30470    5.28470   10.68290  -82.18150  -25.11800   10.68290
 5400.00000    9.18530    9.18530  129.65970  129.65970    7.71250   65.47460   65.47460   49.49300   49.49300    7.75320   12.60170  -85.12230  -28.07190   12.60170
 5450.00000    9.27890    9.27890  107.15610  107.15610    9.33220   76.68290   76.68290   81.80240   81.80240    9.19640   13.00960  -67.74350  -10.70620   13.00960
 5500.00000    9.83990    9.83990  205.74730  205.74730    4.86030   87.24500   87.24500   87.38370   87.38370    4.48780    7.98570  -66.69860   -9.67440    7.98570
 5550.00000    9.65630    9.65630  115.07770  115.07770    8.68980   65.97600   65.97600   33.96620   33.96620    9.58660   16.17240  -86.18210  -29.17100   16.17240
 5600.00000    8.98940    8.98940   63.35290   55.75410   17.93590   71.08740   71.08740   37.60510   37.60510   17.93590   28.50860  -81.29460  -24.29670   28.50860
 5650.00000   10.19210   10.19210  111.82800  114.47410    8.73560   62.42120   62.42120   93.91690   93.91690    8.73560   12.47300  -66.56530   -9.58050   12.47300
 5700.00000    9.61400    9.61400  147.83500  147.83500    6.76430   67.97480   67.97480   81.15900   81.15900    6.39870    9.04920  -67.98070  -11.00900    9.04920
 5750.00000   11.45250   11.45250  204.12190  204.12190    4.89900   82.83760   82.83760   89.85450   89.85450    4.54620    6.76160  -62.73010   -5.77150    6.76160
 5800.00000    9.61630    9.61630   64.03090   63.02590   15.86650   92.98240   92.98240  111.23470  111.23470   15.86650   29.02860  -61.03580   -4.09030   29.02860
 5850.00000   10.20930   10.20930   82.96210   74.68540   13.38950   65.61180   65.61180   77.22240   77.22240   13.38950   17.33700  -86.36180  -29.42950   17.33700
