~Version ---------------------------------------------------
VERS.      2.0 : CWLS log ASCII Standard -VERSION 2.0
WRAP.       NO : One line per depth step
CREA. 12/13/17 : LAS Creation Date
~Well ------------------------------------------------------
STRT.FT                   900.0 : START DEPTH
STOP.FT                  9200.0 : STOP DEPTH
STEP.FT                50.00000 : STEP LENGTH
NULL.                   -999.25 : NULL VALUE
COMP.     TEXACO CANADA LIMITED : COMPANY
WELL. TEXACO SUNSET 16-17-69-19 : WELL
FLD .                           : FIELD
LOC .                           : LOCATION
CTRY.                    CANADA : COUNTRY
SRVC.                   Unknown : SERVICE COMPANY
DATE.               16-Oct-1970 : LOGDATE
PROV.                   Alberta : PROVINCE
UWI .          100161706919W500 : UNIQUE WELL ID
SLAT.WGS84               54.979 : SURFACE LATITUDE
SLON.WGS84            -116.8515 : SURFACE LONGITUDE
~Curve Information -----------------------------------------
DEPT  .FT    : Depth Curve
ACED  .US/F  : DELTA TIME FROM SONIC LOG [ADJ. TO RESISTIVITY LOG]
CALSED.IN    : CALIPER FROM SONIC LOG [ADJ. TO RESISTIVITY LOG]
CALWS .IN    : CALIPER [MCALED SPL. TO CALSED @ 4782']
CONDWS.MMHO  : CONDUCTIVITY [1000/DRESWS]
DRESWS.OHMM  : DEEP RESISTIVITY [ILDED]
DTWS  .US/F  : COMPRESSIONAL SONIC [ACED]
GRSED .GAPI  : GAMMA RAY FROM SONIC LOG [ADJ. TO RESISTIVITY LOG]
GRWS  .GAPI  : GAMMA RAY [GRSED]
ILDED .OHMM  : DEEP INDUCTION RESISTIVITY FROM RESISTIVITY LOG
ILMED .OHMM  : MEDIUM INDUCTION RESISTIVITY FROM RESISTIVITY LOG
MCALED.IN    : MICRO CALIPER FROM ML LOG
MRESWS.OHMM  : MEDIUM RESISTIVITY [ILMED]
SFLED .OHMM  : SPHERICALLY FOCUSED RESISTIVITY FROM RESISTIVITY LOG
SPRED .MV    : SPONTANEOUS POTENTIAL FROM RESISTIVITY LOG
SPWS  .MV    : SPONTANEOUS POTENTIAL [BASELINE 0 MV, SPRED]
SRESWS.OHMM  : SHALLOW RESISTIVITY [SFLED]
~Params ----------------------------------------------------
PD  .                     GL : PERMANENT DATUM
EPD .FT               2413.8 : ELEVATION PERMANENT DATUM
LMF .                     KB : LOG MEASURED FROM
DAPD.FT                    2 : FEET ABOVE PERMANENT DATUM
DMF .                     KB : DRILLING MEASURED FROM
EKB .FT                 2428 : KELLY BUSHING
EGL .FT               2413.8 : GROUND LEVEL
DATE.               10/16/70 : RUN DATE
RUN .                      1 : RUN NUMBER
DD  .FT                 9205 : DEPTH DRILLER
DL  .FT                 9205 : DEPTH LOGGER
BLI .FT                 9204 : BOTTOM LOG INTERVAL
TLI .FT                  929 : TOP LOG INTERVAL
CS  .IN                8.625 : CASING SIZE
CBD .FT                  929 : CASING BOTTOM DRILLER
CBL .FT                  929 : CASING BOTTOM LOGGER
BS  .IN                7.875 : BIT SIZE
BSD .FT                 9205 : BIT SIZE AT DEPTH
DFT .                MUD GEL : DRILLING FLUID TYPE
DFD .                    9.4 : DRILLING FLUID DENSITY
DFV .                     75 : DRILLING FLUID VISCOSITY
DFPH.                    9.5 : DRILLING FLUID PH
DFL .                    8.4 : DRILLING FLUID LOSS
MSS .                   CIRC : MUD SAMPLE SOURCE
RMS .OHMM                0.9 : RESISTIVITY MUD SAMPLE
MST .DEGF                 65 : MUD SAMPLE TEMPERATURE
RMF .OHMM                0.8 : RESISTIVITY MUD FILTRATE SAMPLE
MFST.DEGF                 65 : MUD FILTRATE SAMPLE TEMPERATURE
RMC .OHMM                1.4 : RESISTIVITY MUD CAKE
MCST.DEGF                 65 : MUD CAKE SAMPLE TEMPERATURE
MFSS.                   MEAS : MUD FILTRATE SAMPLE SOURCE
MCSS.                   MEAS : MUD CAKE SAMPLE SOURCE
RMB .OHMM                0.3 : RESISTIVITY MUD AT BHT
TCS .HRS                   3 : TIME CIRCULATED STOPPED
LUN .                   6090 : LOGGING UNIT NUMBER
LUL .                    V V : LOGGING UNIT LOCATION
ENGI.                 OFFORD : RECORDING ENGINEER
WITN.        PATTERSON IRVIN : WITNESSED BY
CLNT.                A2DTECH : CLIENT CODE
ORIG.            2" 5" PRINT : ORIGIN OF DATA
UWI .       100161706919W500 : UNIQUE WELL ID
DICO. A2D Technologies, Inc. : DIGITIZING COMPANY
~Other -----------------------------------------------------
~ASCII -----------------------------------------------------
# ...
 3050.00000   94.10000    -999.25   14.77280  170.89930    5.85140   94.10000  110.89790  110.89790    5.85140    6.30420   14.77280    6.30420    6.54230 -116.48380   -8.73190    6.54230
 3100.00000   90.43140    -999.25   13.39790   96.99510   10.30980   90.43140  116.39410  116.39410   10.30980    8.98850   13.39790    8.98850    8.07640 -119.07790  -11.15530    8.07640
 3150.00000  101.46940    -999.25   14.23270  142.80000    7.00280  101.46940  114.60060  114.60060    7.00280    6.42190   14.23270    6.42190    5.96240 -114.90870   -6.81650    5.96240
 3200.00000   99.81670    -999.25   15.31750  164.96990    6.06280   99.81670  128.27040  128.27040    6.06280    5.92180   15.31750    5.92180    5.63800 -114.04260   -5.77970    5.63800
 3250.00000  110.27790    -999.25   14.58380  316.10560    3.16350  110.27790  126.19530  126.19530    3.16350    3.66660   14.58380    3.66660    4.03190 -111.55620   -3.12370    4.03190
 3300.00000  112.06250    -999.25   15.37880  361.92540    2.76300  112.06250  115.68630  115.68630    2.76300    3.20130   15.37880    3.20130    3.54740 -111.79110   -3.18900    3.54740
 3350.00000  101.98390    -999.25   15.32060  219.48600    4.55610  101.98390  109.75860  109.75860    4.55610    4.88520   15.32060    4.88520    5.36330 -114.23560   -5.50020    5.36330
 3400.00000   98.52430    -999.25   14.78020  201.96720    4.95130   98.52430  115.30200  115.30200    4.95130    5.15390   14.78020    5.15390    5.61630 -113.46210   -4.78480    5.61630
 3450.00000  110.98200    -999.25   14.17170  298.77630    3.34700  110.98200  110.36880  110.36880    3.34700    3.79220   14.17170    3.79220    4.48490 -111.68330   -3.06440    4.48490
 3500.00000   99.00530    -999.25   11.97780  222.66760    4.49100   99.00530  100.95120  100.95120    4.49100    4.71760   11.97780    4.71760    5.59250 -111.98330   -3.42240    5.59250
 3550.00000   86.48450    -999.25   10.16920  134.56410    7.43140   86.48450  101.27490  101.27490    7.43140    7.85630   10.16920    7.85630    8.63640 -120.18140  -11.67850    8.63640
 3600.00000  106.72330    -999.25    9.65270  145.44610    6.87540  106.72330   77.27890   77.27890    6.87540    7.58670    9.65270    7.58670    8.53080 -121.24270  -12.79820    8.53080
 3650.00000   89.12010    -999.25    7.07090   73.06630   13.68620   89.12010   51.99980   51.99980   13.68620   21.59620    7.07090   21.59620   25.49700 -152.34350  -43.95710   25.49700
 3700.00000   94.14960    -999.25    8.24430  170.48780    5.86560   94.14960   88.98500   88.98500    5.86560    6.56020    8.24430    6.56020    7.76000 -118.51220  -10.18420    7.76000
 3750.00000  122.06840    -999.25    8.80960  199.23490    5.01920  122.06840   85.52370   85.52370    5.01920    6.15220    8.80960    6.15220    4.44720 -117.24940   -8.97940    4.44720
 3800.00000   78.94860    -999.25    6.57970  105.19560    9.50610   78.94860   60.22720   60.22720    9.50610   15.85220    6.57970   15.85220   21.59110 -159.62940  -51.41740   21.59110
 3850.00000   96.29730    -999.25   10.77900  166.37550    6.01050   96.29730   96.35840   96.35840    6.01050    6.32310   10.77900    6.32310    6.92610 -115.96460   -7.81100    6.92610
 3900.00000   88.29470    -999.25    8.28290  164.03390    6.09630   88.29470   72.02770   72.02770    6.09630    7.72480    8.28290    7.72480    9.30320 -140.15280  -32.05730    9.30320
 3950.00000   75.26260    -999.25    6.96090  106.67230    9.37820   75.26260   49.99200   49.99200    9.37820   17.80720    6.96090   17.80720   30.54690 -164.74390  -56.70680   30.54690
 4000.00000   86.20280    -999.25    7.87760  165.66440    6.03630   86.20280   60.94200   60.94200    6.03630   10.33210    7.87760   10.33210   20.88610 -170.37670  -62.39760   20.88610
 4050.00000   87.55030    -999.25    6.95890  164.45480    6.08070   87.55030   67.73440   67.73440    6.08070   11.87130    6.95890   11.87130   21.81560 -182.10680  -74.18570   21.81560
 4100.00000   82.52360    -999.25    6.76070  100.14320    9.98570   82.52360   63.14380   63.14380    9.98570   19.77990    6.76070   19.77990   26.49430 -160.62200  -52.75930   26.49430
 4150.00000   83.05940    -999.25    7.04210  163.01510    6.13440   83.05940   70.12100   70.12100    6.13440   10.24410    7.04210   10.24410   17.40490 -177.38610  -69.58140   17.40490
 4200.00000   80.53100    -999.25    7.94510  134.67430    7.42700   80.53100   82.41010   82.41010    7.42700    9.44200    7.94510    9.44200   15.29030 -134.16100  -26.41480   15.29030
 4250.00000   87.79980    -999.25    7.42120  149.03130    6.71000   87.79980   78.53990   78.53990    6.71000   10.55740    7.42120   10.55740   14.11640 -154.65430  -46.96610   14.11640
 4300.00000   83.44220    -999.25    7.66630  160.95800    6.21280   83.44220   80.01300   80.01300    6.21280    7.68440    7.66630    7.68440   11.06910 -134.95100  -27.32080   11.06910
 4350.00000   87.89480    -999.25    8.06670  141.79170    7.05260   87.89480   94.29570   94.29570    7.05260    7.34060    8.06670    7.34060    8.63210 -118.73240  -11.16060    8.63210
 4400.00000   93.51860    -999.25    8.33080  142.12420    7.03610   93.51860  105.82390  105.82390    7.03610    7.77010    8.33080    7.77010    8.03670 -119.81260  -12.29880    8.03670
 4450.00000   90.72470    -999.25   13.15910  218.33230    4.59160   90.72470   98.75530   98.75530    4.59160    5.23020   13.15910    5.23020    5.64370 -113.54380   -6.08840    5.64370
 4500.00000   77.43670    -999.25    8.59210   81.95920   12.20120   77.43670   87.64880   87.64880   12.20120   10.87930    8.59210   10.87930   10.13040 -120.96780  -13.57050   10.13040
 4550.00000   70.18250    -999.25    8.45900   37.38770   26.74680   70.18250   72.82050   72.82050   26.74680   24.03700    8.45900   24.03700   47.40200 -121.81480  -14.47550   47.40200
 4600.00000   89.70000    -999.25    8.68610   83.59950   11.96180   89.70000   95.27170   95.27170   11.96180   10.35470    8.68610   10.35470   10.69200 -115.27360   -7.99270   10.69200
 4650.00000   93.40750    -999.25   14.26920  310.15450    3.22420   93.40750   94.02920   94.02920    3.22420    3.63960   14.26920    3.63960    4.57710 -107.02300    0.19990    4.57710
 4700.00000   99.28560    -999.25    7.80080   74.30280   13.71660   99.28560  113.30190  113.30190   13.71660   18.75960    7.80080   18.75960   25.59000 -113.07770   -5.91320   25.59000
 4750.00000  107.01370    -999.25    7.74270   33.15770   30.15890  107.01370  146.30750  146.30750   30.15890   29.05810    7.74270   29.05810   43.45370 -118.34440  -11.23800   43.45370
 4800.00000   75.94030    8.38910    8.38910    8.18260  122.21030   75.94030  316.05790  316.05790  122.21030  149.12780    7.46080  149.12780  232.78770 -126.85360  -19.80520  232.78770
 4850.00000   79.47100    9.07840    9.07840   53.87320   18.56210   79.47100  149.19490  149.19490   18.56210   22.75300    8.34750   22.75300   40.66000 -114.82390   -7.83390   40.66000
 4900.00000   76.40060    9.08450    9.08450  156.43090    6.39260   76.40060   77.29540   77.29540    6.39260   10.16110    7.69990   10.16110   20.54480 -171.24020  -64.30820   20.54480
 4950.00000   74.58270    9.46950    9.46950  245.30260    4.07660   74.58270   73.91310   73.91310    4.07660    6.01880    9.10590    6.01880    5.80450 -149.86770  -42.99410    5.80450
 5000.00000   75.40700    9.82940    9.82940  260.73580    3.83530   75.40700   95.93420   95.93420    3.83530    4.90320    9.72790    4.90320    8.94420 -144.66820  -37.85270    8.94420
 5050.00000   81.30080    8.73030    8.73030  347.02940    2.88160   81.30080   35.20690   35.20690    2.88160    4.29800    8.08090    4.29800    4.91380 -157.64280  -50.88530    4.91380
 5100.00000   71.12280    8.08820    8.08820  338.69600    2.95250   71.12280   24.59230   24.59230    2.95250    7.24890    6.92600    7.24890   40.47700 -223.80620 -117.10710   40.47700
 5150.00000   54.27090    8.37340    8.37340   66.33980   15.07390   54.27090   25.54380   25.54380   15.07390   25.99770    7.41400   25.99770   39.44010 -207.15410 -100.51300   39.44010
