~Version ---------------------------------------------------
VERS.      2.0 : CWLS log ASCII Standard -VERSION 2.0
WRAP.       NO : One line per depth step
CREA. 12/14/17 : LAS Creation Date
~Well ------------------------------------------------------
STRT.FT                   850.0 : START DEPTH
STOP.FT                 12200.0 : STOP DEPTH
STEP.FT                50.00000 : STEP LENGTH
NULL.                   -999.25 : NULL VALUE
COMP. ATLANTIC REFINING COMPANY : COMPANY
WELL.  HB ET AL MARL 6-16-55-18 : WELL
FLD .                           : FIELD
LOC .                           : LOCATION
CTRY.                    CANADA : COUNTRY
SRVC.              Schlumberger : SERVICE COMPANY
DATE.               23-Apr-1959 : LOGDATE
PROV.                   Alberta : PROVINCE
UWI .          100061605518W500 : UNIQUE WELL ID
SLAT.WGS84             53.75017 : SURFACE LATITUDE
SLON.WGS84            -116.6167 : SURFACE LONGITUDE
~Curve Information -----------------------------------------
DEPT   .FT      : Depth Curve
CALWS  .IN      : CALIPER [MCALED]
CILDED .MMHO    : CONDUCTIVITY FROM IE LOG
CNCLSED.V/V     : NEUTRON POROSITY LIMESTONE FROM DENSITY LOG
CONDWS .MMHO    : CONDUCTIVITY [1000/DRESWS]
DRESWS .OHMM    : DEEP RESISTIVITY [ILDED] IF ILDED<1;1000/CILDED;ELSE ILDED
DTED   .US/F    : DELTA TIME FROM SONIC LOG [ADJ TO GRNED]
DTWS   .US/F    : DELTA TIME [DTED]
GRDED  .GAPI    : GAMMA RAY FROM DENSITY LOG
GRED   .GAPI    : GAMMA RAY FROM CBL LOG [ADJ TO GRDED]
GRNED  .CU      : GAMMA RAY FROM GRN LOG LOG [ADJ TO GRDED]
GRSED  .MG/TON  : GAMMA RAY FROM SONIC LOG LOG [ADJ TO GRNED]
GRWS   .GAPI    : GAMMA RAY [SPL GRED 5480' GRDED 8374' GRNED 10882' GRDED, CONVERTED TO GAPI UNIT (8374'-10880')*2.16, (10882'-FR)*16.5]
ILDED  .OHMM    : INDUCTION LOG DEEP RESISTIVITY FROM IE LOG
LL7ED  .OHMM    : LATEROLOG 7 FROM LATEROLOG [ADJ TO ILDED]
LNED   .OHMM    : 64 INCH LONG NORMAL RESISTIVITY FROM EL
LT18ED .OHMM    : LATERAL 18' 8" FROM EL LOG
MCALED .IN      : CALIPER MICROLOG
NEUTED .CU      : NEUTRON FROM GRN LOG [ADJ TO CNCLSED]
NEUTWS .CU      : NEUTRON [NEUTED]
NPOLSWS.V/V     : NEUTRON POROSITY LIMESTONE [CNCLSED]
SN1ED  .OHMM    : 16 INCH SHORT NORMAL RESISTIVITY FROM EL
SNED   .OHMM    : 16 INCH SHORT NORMAL RESISTIVITY FROM IE
SPR1ED .MV      : SPONTANEOUS POTENTIAL FROM EL LOG
SPRED  .MV      : SPONTANEOUS POTENTIAL FROM IE LOG
SPSED  .MV      : SPONTANEOUS POTENTIAL FROM SONIC LOG [ADJ TO GRNED]
SPWS   .MV      : SPONTANEOUS POTENTIAL [BASELINE 0 MV] [SPRED]
SRESWS .OHMM    : SHALLOW RESISTIVITY [SNED]
~Params ----------------------------------------------------
LMF .                     KB : LOG MEASURED FROM
DMF .                     KB : DRILLING MEASURED FROM
EKB .FT                 3203 : KELLY BUSHING
EGL .FT                 3190 : GROUND LEVEL
DATE.               04/23/59 : RUN DATE
RUN .                      3 : RUN NUMBER
DD  .FT                12230 : DEPTH DRILLER
DL  .FT                12233 : DEPTH LOGGER
BLI .FT                12228 : BOTTOM LOG INTERVAL
TLI .FT                10500 : TOP LOG INTERVAL
BS  .IN                8.625 : BIT SIZE
BSD .FT                12230 : BIT SIZE AT DEPTH
DFT .                    GYP : DRILLING FLUID TYPE
DFD .                    9.3 : DRILLING FLUID DENSITY
DFV .                     68 : DRILLING FLUID VISCOSITY
DFPH.                   12.5 : DRILLING FLUID PH
DFL .                    6.8 : DRILLING FLUID LOSS
RMS .OHMM               0.75 : RESISTIVITY MUD SAMPLE
MST .DEGF                 54 : MUD SAMPLE TEMPERATURE
RMF .OHMM               0.35 : RESISTIVITY MUD FILTRATE SAMPLE
MFST.DEGF                 80 : MUD FILTRATE SAMPLE TEMPERATURE
RMC .OHMM               0.72 : RESISTIVITY MUD CAKE
MCST.DEGF                 80 : MUD CAKE SAMPLE TEMPERATURE
RMB .OHMM               0.75 : RESISTIVITY MUD AT BHT
TCS .HRS                 3.5 : TIME CIRCULATED STOPPED
LUN .                   1571 : LOGGING UNIT NUMBER
LUL .                    EDM : LOGGING UNIT LOCATION
ENGI.                REBYRNA : RECORDING ENGINEER
WITN.                  EVANS : WITNESSED BY
CLNT.                A2DTECH : CLIENT CODE
ORIG.            2" 5" PRINT : ORIGIN OF DATA
UWI .       100061605518W500 : UNIQUE WELL ID
DICO. A2D Technologies, Inc. : DIGITIZING COMPANY
~Other -----------------------------------------------------
IE-EL-LL/ML/CNL/GRN/CBL/SONIC LOGS RUN
~ASCII -----------------------------------------------------
# ...
 7350.00000    9.02920   45.09010    0.43460   41.63870   24.01610    -999.25    -999.25   49.89790    -999.25   35.69970    -999.25   49.89790   24.01610   43.82870   23.42300   11.04290    9.02920 1214.88000 1214.88000    0.43460   21.75570    6.17450  -38.97030  -34.28880    -999.25   -8.60870    6.17450
 7400.00000    8.83980   59.96110    0.55100   51.03450   19.59460    -999.25    -999.25   45.35770    -999.25   34.32900    -999.25   45.35770   19.59460   34.58250   25.58560   13.68230    8.83980 1121.96250 1121.96250    0.55100   22.44880    5.63060  -35.41880  -36.66330    -999.25   -9.94540    5.63060
 7450.00000    8.79230   86.20620    0.54200   67.15650   14.89060    -999.25    -999.25   56.81310    -999.25   28.46850    -999.25   56.81310   14.89060   22.97950   31.77580   20.64290    8.79230 1108.74020 1108.74020    0.54200   29.25400    5.96510  -35.53110  -34.74540    -999.25   -6.98970    5.96510
 7500.00000    9.02300   68.27250    0.32210   72.31290   13.82880    -999.25    -999.25   42.76510    -999.25   28.82900    -999.25   42.76510   13.82880   34.92310   22.78520   62.32220    9.02300 1501.53420 1501.53420    0.32210   23.59210    5.22390  -39.43030  -36.69600    -999.25   -7.90240    5.22390
 7550.00000   11.52600  143.01990    0.73930  121.16290    8.25330    -999.25    -999.25   24.94080    -999.25   16.63930    -999.25   24.94080    8.25330   12.95570   30.55380  103.63430   11.52600 1015.51070 1015.51070    0.73930   30.32960    4.25450  -36.44210  -31.51600    -999.25   -1.68990    4.25450
 7600.00000   11.73410   62.66930    0.22290   45.92460   21.77480    -999.25    -999.25   44.28920    -999.25   23.39360    -999.25   44.28920   21.77480   33.15030   34.54500   17.73950   11.73410 1811.64750 1811.64750    0.22290   17.39380    4.17610  -35.38770  -36.50840    -999.25   -5.75670    4.17610
 7650.00000    9.88690   51.93620    0.27960   45.63210   21.91440    -999.25    -999.25   42.97800    -999.25   29.34680    -999.25   42.97800   21.91440   35.17540   29.99800   35.66200    9.88690 1723.46960 1723.46960    0.27960   20.36060    5.20200  -35.45260  -38.49700    -999.25   -6.99390    5.20200
 7700.00000    9.33270   65.04980    0.32030   57.43300   17.41160    -999.25    -999.25   56.94400    -999.25   31.03180    -999.25   56.94400   17.41160   34.36100   37.63510    7.31100    9.33270 1433.92750 1433.92750    0.32030   26.34920    5.65860  -31.20240  -39.01980    -999.25   -6.76540    5.65860
 7750.00000    9.87050   74.63900    0.64020   68.51850   14.59460    -999.25    -999.25   39.64820    -999.25   28.10320    -999.25   39.64820   14.59460   37.56260   45.18870   27.80280    9.87050 1052.21330 1052.21330    0.64020   18.78350    5.28010  -40.24220  -38.52900    -999.25   -5.52330    5.28010
 7800.00000    9.24900   72.08160    0.20950   63.92820   15.64260    -999.25    -999.25   35.01700    -999.25   18.04670    -999.25   35.01700   15.64260   26.14650   27.06820   26.72200    9.24900 1490.39450 1490.39450    0.20950   20.63690    5.28120  -41.78390  -57.83980    -999.25  -24.08650    5.28120
 7850.00000    9.12990   70.35890    0.44300   55.53700   18.00600    -999.25    -999.25   47.71250    -999.25   31.28430    -999.25   47.71250   18.00600   24.89560   24.05860   30.12410    9.12990 1378.73490 1378.73490    0.44300   32.38740    5.10830  -45.99200  -56.45890    -999.25  -21.95060    5.10830
 7900.00000    9.86100   69.46680    0.13730   45.95910   21.75850    -999.25    -999.25   33.96790    -999.25   18.80160    -999.25   33.96790   21.75850   36.22870   38.68020   17.07660    9.86100 1956.84010 1956.84010    0.13730   32.20720    5.34270  -33.35320  -55.09550    -999.25  -19.83580    5.34270
 7950.00000   10.20150   65.00050    0.23200   60.95960   16.40430    -999.25    -999.25   56.53770    -999.25   35.27010    -999.25   56.53770   16.40430   23.26380   27.70890   26.07690   10.20150 1527.71280 1527.71280    0.23200   23.97990    4.72970  -40.87070  -43.96550    -999.25   -8.07220    4.72970
 8000.00000    9.70960   34.60970    0.20740   25.14980   39.76180    -999.25    -999.25   53.05110    -999.25   26.35700    -999.25   53.05110   39.76180   69.07760   81.93700   86.48400    9.70960 1753.69550 1753.69550    0.20740   50.26430    8.20330  -41.12580  -51.58570    -999.25  -15.47600    8.20330
 8050.00000    8.93750   49.53950    0.24180   37.86000   26.41310    -999.25    -999.25   51.07260    -999.25   32.66140    -999.25   51.07260   26.41310   72.84510   38.38110   38.09670    8.93750 1320.47670 1320.47670    0.24180   28.28090    6.52320  -37.03560  -52.17990    -999.25  -15.85480    6.52310
 8100.00000    8.70020   33.44540    0.20930   20.95190   47.72840    -999.25    -999.25   58.01600    -999.25   33.76620    -999.25   58.01600   47.72840  107.28930   91.59060   50.06090    8.70020 1632.09680 1632.09680    0.20930   53.50900    9.22930  -40.87280  -51.04530    -999.25  -14.50270    9.22930
 8150.00000    9.71700   46.42390    0.22210   35.47620   28.18790   68.74030   68.74030   51.11620    -999.25   33.22040    5.65360   51.11620   28.18790   43.87910   41.77830   28.58790    9.71700 1390.59060 1390.59060    0.22210   36.25010    6.41880  -37.66840  -43.28190    -999.25   -6.52290    6.41880
 8200.00000    8.68920   53.31810    0.31660   43.99760   22.72850   79.47670   79.47670   59.95590    -999.25   33.67580    5.82920   59.95590   22.72850   35.35240   54.05410   46.96980    8.68920 1255.04800 1255.04800    0.31660   34.36940    6.18370  -52.48780  -51.91230    -999.25  -14.93690    6.18370
 8250.00000    9.61800   38.94790    0.31660   35.07110   28.51350   77.72650   77.72650   63.73530    -999.25   37.49380    5.85850   63.73530   28.51350   74.18030   82.59780   88.05670    9.61800 1297.38330 1297.38330    0.31660    -999.25    9.61230  -35.09290  -65.56850    -999.25  -28.37670    9.61230
 8300.00000    8.91020  138.72020    0.40910  125.95730    7.93920  100.23400  100.23400   61.48170    -999.25   39.40360    6.69680   61.48170    7.93920   14.54270    7.72510   13.38590    8.91020 1168.96980 1168.96980    0.40910   11.30630    3.82880  -30.51860  -53.69300    -999.25  -16.28590    3.82880
 8350.00000    9.17160  182.48610    0.51040  178.85250    5.59120    -999.25    -999.25   60.05150    -999.25   38.11850    -999.25   60.05150    5.59120   12.99030   10.21070   13.70570    9.17160 1074.33660 1074.33660    0.51040   10.98060    2.80210  -28.97060  -58.05200    -999.25  -20.42730    2.80210
 8400.00000    7.77300   36.87120    -999.25   27.69230   36.11110    -999.25    -999.25    -999.25    -999.25   11.24010    -999.25   24.27860   36.11110   77.35570  138.73260  105.56390    7.77300 2028.47920 2028.47920    -999.25   81.12940    9.75550 -140.50100  -66.48070    -999.25  -28.63960    9.75550
 8450.00000    8.44350   13.29230    -999.25    7.00360  142.78330    -999.25    -999.25    -999.25    -999.25   10.21860    -999.25   22.07220  142.78330  699.77220    -999.25  736.66280    8.44350 2357.43700 2357.43700    -999.25  183.91720   20.07110 -116.69050  -72.80930    -999.25  -34.75180   20.07110
 8500.00000    8.00070   15.68630    -999.25    9.86670  101.35130    -999.25    -999.25    -999.25    -999.25    9.30080    -999.25   20.08970  101.35130  324.66640  446.68030  623.23550    8.00070 2211.53080 2211.53080    -999.25  152.85070   17.29000 -101.22240  -69.20510    -999.25  -30.93120   17.29000
 8550.00000    8.52220   10.30660    -999.25    3.76780  265.40430    -999.25    -999.25    -999.25    -999.25  121.76720    -999.25  263.01700  265.40430 2583.32920  426.60190  377.94490    8.52220 1681.44230 1681.44230    -999.25  177.94280   15.14030  -57.37610  -53.30600    -999.25  -14.81680   15.14030
 8600.00000    7.78400   23.65060    -999.25   13.78030   72.56750    -999.25    -999.25    -999.25    -999.25    9.00260    -999.25   19.44560   72.56750  167.12760  178.69390  120.87570    7.78400 2068.59660 2068.59660    -999.25   88.51660   11.33490 -139.89360  -72.31170    -999.25  -36.42110   11.33490
