~Version ---------------------------------------------------
VERS.      2.0 : CWLS log ASCII Standard -VERSION 2.0
WRAP.       NO : One line per depth step
CREA. 08/22/14 : LAS Creation Date
~Well ------------------------------------------------------
STRT.FT                 1143.82546 : START DEPTH
STOP.FT                11159.82546 : STOP DEPTH
STEP.FT                    0.50000 : STEP LENGTH
NULL.                      -999.25 : NULL VALUE
COMP.            TRIAD OIL CO. LTD : COMPANY
WELL. TRIAD PAN AM ANTE 2-27-66-25 : WELL
FLD .                              : FIELD
LOC .                              : LOCATION
CTRY.                       CANADA : COUNTRY
SRVC.                   Lane Wells : SERVICE COMPANY
DATE.                  15-Aug-1967 : LOGDATE
PROV.                      Alberta : PROVINCE
UWI .             100022706625W500 : UNIQUE WELL ID
SLAT.WGS84                54.73614 : SURFACE LATITUDE
SLON.WGS84                 -117.69 : SURFACE LONGITUDE
~Curve Information -----------------------------------------
DEPT.FT    : DEPTH FEET
CALS.IN    : CALIPER FROM SONIC LOG
DT  .US/F  : DELTA TIME FROM SONIC LOG
GRS .GAPI  : GAMMA RAY FROM SONIC LOG
ILD .OHMM  : INDUCTION LOG DEEP RESISTIVITY
SN  .OHMM  : 16 INCH SHORT NORMAL RESISTIVITY FROM IEL
SPR .MV    : SPONTANEOUS POTENTIAL FROM RESISTIVITY LOG
~Params ----------------------------------------------------
PD  .                     GL : PERMANENT DATUM
EPD .FT               2399.7 : ELEVATION PERMANENT DATUM
LMF .                     KB : LOG MEASURED FROM
DAPD.FT                   15 : FEET ABOVE PERMANENT DATUM
DMF .                     KB : DRILLING MEASURED FROM
EKB .FT               2414.7 : KELLY BUSHING
EGL .FT               2399.7 : GROUND LEVEL
DATE.               08/15/67 : RUN DATE
RUN .                      1 : RUN NUMBER
DD  .FT                11172 : DEPTH DRILLER
DL  .FT                11160 : DEPTH LOGGER
BLI .FT                11156 : BOTTOM LOG INTERVAL
TLI .FT                 1144 : TOP LOG INTERVAL
CS  .IN                9.625 : CASING SIZE
CBD .FT                 1145 : CASING BOTTOM DRILLER
CBL .FT                 1144 : CASING BOTTOM LOGGER
BS  .IN                7.625 : BIT SIZE
BSD .FT                11172 : BIT SIZE AT DEPTH
DFT .                MUD GEL : DRILLING FLUID TYPE
DFD .                    9.9 : DRILLING FLUID DENSITY
DFV .                     89 : DRILLING FLUID VISCOSITY
DFPH.                      9 : DRILLING FLUID PH
DFL .                    7.2 : DRILLING FLUID LOSS
MSS .                   CIRC : MUD SAMPLE SOURCE
RMS .OHMM                3.0 : RESISTIVITY MUD SAMPLE
MST .DEGF                 86 : MUD SAMPLE TEMPERATURE
RMF .OHMM                2.4 : RESISTIVITY MUD FILTRATE SAMPLE
MFST.DEGF                 86 : MUD FILTRATE SAMPLE TEMPERATURE
RMC .OHMM                3.2 : RESISTIVITY MUD CAKE
MCST.DEGF                 86 : MUD CAKE SAMPLE TEMPERATURE
MFSS.                   MEAS : MUD FILTRATE SAMPLE SOURCE
MCSS.                   MEAS : MUD CAKE SAMPLE SOURCE
RMB .OHMM                1.2 : RESISTIVITY MUD AT BHT
TCS .HRS                   6 : TIME CIRCULATED STOPPED
LUN .                   1256 : LOGGING UNIT NUMBER
LUL .                    EDM : LOGGING UNIT LOCATION
ENGI.      KOWALCHUK DOMSTAD : RECORDING ENGINEER
WITN.            DANIELEWICZ : WITNESSED BY
CLNT.                A2DTECH : CLIENT CODE
ORIG.            2" 5" PRINT : ORIGIN OF DATA
UWI .       100022706625W500 : UNIQUE WELL ID
DICO. A2D Technologies, Inc. : DIGITIZING COMPANY
~Other -----------------------------------------------------
~ASCII -----------------------------------------------------
# ...
 9126.32546   10.66510   46.59760   20.80830  283.15890  232.71220  -89.46160
 9126.82546   11.18600   47.50900   20.86900  292.74400  230.24300  -89.81600
 9127.32546   11.28320   48.08650   20.25650  293.38440  229.17570  -90.06390
 9127.82546   11.36600   48.90200   20.04700  289.42900  226.64500  -90.65800
 9128.32546   11.38010   49.15270   20.53160  285.83610  225.63310  -90.61080
 9128.82546   11.27600   49.72100   22.13300  287.16700  223.04600  -90.05300
 9129.32546   11.19710   49.55150   22.11600  289.59930  222.10350  -89.77480
 9129.82546   10.92560   49.05050   21.70410  293.41460  220.23230  -89.06790
 9130.32546   10.75280   48.77440   20.21070  293.27440  220.05300  -89.12870
 9130.82546   10.46060   47.94780   19.18240  297.90770  220.33370  -89.87910
 9131.32546   10.32090   47.74520   20.05570  301.66730  220.86870  -90.36670
 9131.82546   10.05260   47.55480   20.89270  303.14130  222.19000  -91.15980
 9132.32546    9.92810   47.45240   20.38270  299.66790  222.84780  -91.02400
 9132.82546   10.02190   47.06630   18.77570  280.16640  224.16470  -90.15490
 9133.32546   10.11210   46.99150   18.44130  273.40010  224.82230  -90.06730
 9133.82546   10.16890   47.26470   18.89480  268.22470  226.12390  -90.88380
 9134.32546   10.30960   47.45010   19.39720  264.83800  226.56110  -91.50550
 9134.82546   10.78810   47.33150   20.24640  256.40100  225.55940  -92.74030
 9135.32546   10.90910   47.20090   20.01510  251.93510  224.46580  -93.01700
 9135.82546   10.82420   47.15120   20.26590  245.84930  222.49560  -91.79460
 9136.32546   10.80300   47.58300   22.34500  249.31500  220.47100  -91.31900
 9136.82546   10.91380   47.59670   22.19310  251.07030  219.53610  -92.19730
 9137.32546   11.15100   47.23300   21.58300  248.29100  217.46600  -94.20900
 9137.82546   11.19580   47.01410   22.02080  246.96160  216.57440  -93.49380
 9138.32546   11.18800   46.84300   21.54500  247.04900  214.05900  -91.27400
 9138.82546   11.16560   47.00130   21.18710  254.55080  212.65350  -92.06370
 9139.32546   11.22400   47.50600   21.44500  273.82600  209.04500  -94.39000
 9139.82546   11.25880   47.78200   21.82330  280.70110  207.72900  -94.55670
 9140.32546   11.33790   48.46820   22.91360  291.69700  204.43400  -94.91930
 9140.82546   11.31080   48.81150   22.79650  294.74700  202.78810  -95.08850
 9141.32546   11.22060   49.59760   21.92850  288.19580  199.50050  -95.42770
 9141.82546   11.23400   49.71220   21.38830  281.27140  197.85810  -95.51090
 9142.32546   11.32150   49.68410   20.66440  260.56200  194.57080  -95.40630
 9142.82546   11.37700   49.66860   20.66680  247.03990  192.93190  -95.28660
 9143.32546   11.38330   49.58560   21.22050  222.37420  189.60740  -95.05050
 9143.82546   11.31140   49.46520   21.10930  215.25840  188.19460  -94.93390
 9144.32546   11.08500   48.89360   20.06500  213.86910  187.14130  -95.36600
 9144.82546   10.95370   48.39730   19.87830  217.60350  187.76910  -95.78400
 9145.32546   10.71910   48.20380   20.80170  222.08600  189.87120  -95.14700
 9145.82546   10.61580   48.42760   21.49620  222.51070  190.91380  -94.20470
 9146.32546   10.59530   48.55430   21.79410  225.74010  192.98970  -94.01200
 9146.82546   10.80900   48.23300   20.39700  228.91100  195.12500  -95.02200
 9147.32546   10.86910   47.99200   20.11700  226.39440  196.10570  -94.23580
 9147.82546   11.01100   47.45400   20.93800  218.13100  198.28800  -93.08600
 9148.32546   10.99280   47.51450   21.44650  213.89850  198.75710  -93.75260
 9148.82546   10.86600   48.04400   21.78900  216.94600  198.10800  -95.31200
 9149.32546   10.80370   47.84420   21.10130  221.70660  196.97460  -95.44720
 9149.82546   10.82800   48.01400   19.73800  234.01800  194.04500  -95.46600
 9150.32546   10.88100   48.19240   20.86050  238.49030  192.97860  -95.41560
 9150.82546   10.93070   48.67200   22.15150  244.60700  190.31330  -95.28800
 9151.32546   10.90340   48.82670   21.82520  241.07170  188.97970  -95.42440
 9151.82546   10.89190   48.82530   20.82320  227.11830  186.31280  -96.11950
 9152.32546   10.93440   48.85610   21.07840  218.58650  184.97970  -96.55840
 9152.82546   11.02850   49.04360   22.15670  200.62010  182.32130  -97.43590
 9153.32546   10.95440   49.09810   21.73370  189.73520  180.90820  -97.87170
 9153.82546   10.71660   48.89990   21.13760  172.69330  179.47410  -99.14130
 9154.32546   10.60030   48.77510   21.58640  168.33020  179.54940  -99.74110
 9154.82546   10.35930   48.83030   22.78130  161.75090  180.06780 -100.41360
 9155.32546   10.24790   48.72090   22.78840  158.83920  181.27190 -100.62720
 9155.82546   10.03450   48.55590   21.52280  155.65430  185.77730 -101.04850
 9156.32546    9.94270   48.54310   20.90610  157.93960  188.35640 -101.26090
 9156.82546    9.79110   48.10970   20.99420  171.64740  193.77260 -101.47410
 9157.32546    9.69400   47.47600   22.44800  193.01800  201.14500 -101.28700
 9157.82546    9.73900   47.35820   23.10780  203.32000  204.71860 -100.99840
 9158.32546    9.94100   48.12400   23.08500  226.43100  212.74400  -99.98700
 9158.82546   10.09740   47.93650   22.78270  236.21900  216.14450  -99.50360
 9159.32546   10.22000   48.14100   23.38600  258.98200  224.11600  -98.40100
 9159.82546   10.35560   48.37130   23.72530  267.44040  225.81700  -98.23220
 9160.32546   10.72060   48.90790   23.70360  283.50430  229.37390  -97.84740
 9160.82546   10.80760   49.21240   23.08980  282.95030  230.91280  -97.65900
 9161.32546   10.79340   49.37430   22.60440  267.87270  232.04170  -97.27590
 9161.82546   10.70600   49.28400   22.95430  256.33500  232.04310  -97.52560
 9162.32546   10.42780   48.91890   22.87570  232.50520  232.03400  -98.76610
 9162.82546   10.29950   48.66240   22.12650  220.59050  232.03480  -99.52670
 9163.32546   10.06560   48.65890   21.96020  195.61710  232.05320 -101.04680
 9163.82546    9.98340   48.56920   22.09870  185.42710  232.71770 -101.80200
 9164.32546    9.90750   48.59980   20.53880  168.01880  236.33580 -103.01040
 9164.82546    9.93850   48.17080   20.61780  162.81140  238.80850 -103.31580
 9165.32546   10.09700   46.29660   21.79350  158.03690  243.80630 -103.52780
 9165.82546   10.21760   45.53400   21.52150  158.74870  246.29950 -103.08860
 9166.32546   10.53400   45.08820   21.04530  165.91070  251.28830 -101.42110
 9166.82546   10.66800   45.36000   21.52430  169.43030  253.78530 -100.57630
 9167.32546   10.87130   45.90100   23.20030  171.12920  258.78580  -98.89260
 9167.82546   11.16000   46.11200   23.84900  163.61000  263.98300  -97.15700
 9168.32546   11.33190   46.46800   23.38930  158.46410  265.05160  -96.37070
 9168.82546   11.88100   47.54900   25.06000  146.84000  266.98300  -94.59400
 9169.32546   11.93000   48.04860   25.78060  143.52730  266.87980  -93.84540
 9169.82546   11.90200   49.32100   26.92300  137.22600  266.61800  -91.95700
 9170.32546   11.84690   48.62000   26.95770  145.66950  266.51060  -92.27140
 9170.82546   11.70440   46.35560   26.05090  176.80940  266.25630  -93.58230
 9171.32546   11.68480   46.23300   25.41430  195.24410  266.12920  -94.38840
 9171.82546   11.72430   48.12900   26.01890  224.14780  265.87530  -95.72680
 9172.32546   11.75990   48.70860   26.53470  235.43320  265.74830  -96.32920
 9172.82546   11.70800   49.32840   25.37880  254.21130  265.49300  -96.86780
 9173.32546   11.66110   49.50120   25.70160  260.45730  265.36680  -96.45510
 9173.82546   11.68590   49.38370   28.34990  271.09640  265.13290  -95.23470
 9174.32546   11.65030   49.45710   29.44390  276.41050  265.62730  -94.87700
 9174.82546   11.40720   49.64100   29.24530  285.90170  268.44090  -95.10640
 9175.32546   11.23860   49.53080   28.06400  291.60100  270.28910  -95.03560
 9175.82546   10.89290   49.07560   25.03820  309.71900  274.14010  -94.21900
 9176.32546   10.68690   48.84330   23.76800  326.18020  276.30030  -93.77600
 9176.82546   10.37310   47.86040   22.32120  376.90070  280.87500  -93.27420
 9177.32546   10.36410   47.11350   21.81340  403.21940  283.16090  -93.29020
