~Version ---------------------------------------------------
VERS.      2.0 : CWLS log ASCII Standard -VERSION 2.0
WRAP.       NO : One line per depth step
CREA. 12/21/17 : LAS Creation Date
~Well ------------------------------------------------------
STRT.FT                                  900.0 : START DEPTH
STOP.FT                                 9200.0 : STOP DEPTH
STEP.FT                               50.00000 : STEP LENGTH
NULL.                                  -999.25 : NULL VALUE
COMP. THE BRITISH AMERICAN OIL COMPANY LIMITED : COMPANY
WELL.           B.A. VIRGINIA HILLS 2-24-66-17 : WELL
FLD .                                          : FIELD
LOC .                                          : LOCATION
CTRY.                                   CANADA : COUNTRY
SRVC.                             Schlumberger : SERVICE COMPANY
DATE.                              01-Mar-1963 : LOGDATE
PROV.                                  Alberta : PROVINCE
UWI .                         100022406617W500 : UNIQUE WELL ID
SLAT.WGS84                            54.72181 : SURFACE LATITUDE
SLON.WGS84                           -116.4291 : SURFACE LONGITUDE
~Curve Information -----------------------------------------
DEPT  .FT    : Depth Curve
CALSED.IN    : CALIPER FROM SONIC LOG
CALWS .IN    : CALIPER [CALSED]
CILDED.MMHO  : INDUCTION DEEP CONDUCTIVITY FROM IEL
CONDWS.MMHO  : CONDUCTIVITY [1000/DRESWS]
DRESWS.OHMM  : DEEP RESISTIVITY [ILDED, IF ILDED<2;1000/CILDED]
DTED  .US/F  : DELTA TIME (INTERVAL TRANSIT TIME)  FROM SONIC LOG
DTWS  .US/F  : COMPRESSIONAL SONIC [DTED]
GRSED .GAPI  : GAMMA RAY FROM SONIC LOG
GRWS  .GAPI  : GAMMA RAY [GRSED]
ILDED .OHMM  : INDUCTION DEEP RESISTIVITY FROM IEL
SNED  .OHMM  : SHORT NORMAL RESISTIVITY FROM IEL
SPRED .MV    : SPONTANEOUS POTENTIAL FROM IEL
SPWS  .MV    : SPONTANEOUS POTENTIAL [BASELINE 0 MV] [SPRED]
SRESWS.OHMM  : SHALLOW RESISTIVITY [SNED]
~Params ----------------------------------------------------
LMF .                     KB : LOG MEASURED FROM
EKB .FT                 2637 : KELLY BUSHING
DATE.             03/01/1963 : RUN DATE
RUN .                      2 : RUN NUMBER
DD  .FT                 9210 : DEPTH DRILLER
DL  .FT                 9214 : DEPTH LOGGER
BLI .FT                 9213 : BOTTOM LOG INTERVAL
TLI .FT                 8940 : TOP LOG INTERVAL
CBD .FT                  973 : CASING BOTTOM DRILLER
CBL .FT                  973 : CASING BOTTOM LOGGER
BS  .IN                    9 : BIT SIZE
BSD .FT                 9214 : BIT SIZE AT DEPTH
DFT .           GEL OIL CHEM : DRILLING FLUID TYPE
DFD .                    9.5 : DRILLING FLUID DENSITY
DFV .                     90 : DRILLING FLUID VISCOSITY
DFPH.                    9.5 : DRILLING FLUID PH
DFL .                    7.9 : DRILLING FLUID LOSS
RMS .OHMM               1.86 : RESISTIVITY MUD SAMPLE
MST .DEGF                 71 : MUD SAMPLE TEMPERATURE
RMF .OHMM               1.34 : RESISTIVITY MUD FILTRATE SAMPLE
MFST.DEGF                 66 : MUD FILTRATE SAMPLE TEMPERATURE
RMC .OHMM               2.16 : RESISTIVITY MUD CAKE
MCST.DEGF                 65 : MUD CAKE SAMPLE TEMPERATURE
RMB .OHMM               0.74 : RESISTIVITY MUD AT BHT
LUN .                3534 WC : LOGGING UNIT NUMBER
ENGI.               HATLELID : RECORDING ENGINEER
WITN.              MCDERMOTT : WITNESSED BY
CLNT.                A2DTECH : CLIENT CODE
ORIG.           2", 5" PRINT : ORIGIN OF DATA
UWI .       100022406617W500 : UNIQUE WELL ID
DICO. A2D Technologies, Inc. : DIGITIZING COMPANY
~Other -----------------------------------------------------
SP AFFECTED BY TELLURIC CURRENTS OVER BOTTOM SECTION OF HOLE
~ASCII -----------------------------------------------------
# ...
 3350.00000    8.90030    8.90030  120.78070  128.96570    7.75400   98.16580   98.16580  123.35380  123.35380    7.75400   10.88340 -134.75400   -5.96160   10.88340
 3400.00000    9.54550    9.54550  143.12580  162.95930    6.13650   82.96840   82.96840   75.45090   75.45090    6.13650    7.31660 -136.68250   -8.14310    7.31660
 3450.00000   10.85180   10.85180  177.82740  216.04340    4.62870   89.26340   89.26340   77.34260   77.34260    4.62870    4.86530 -136.11100   -7.82460    4.86530
 3500.00000   10.17940   10.17940  112.64840  121.60420    8.22340   79.17070   79.17070   66.55420   66.55420    8.22340    8.64410 -143.98390  -15.95050    8.64410
 3550.00000   10.51930   10.51930  171.23680  205.94350    4.85570   89.60540   89.60540   91.05600   91.05600    4.85570    5.40680 -134.00860   -6.22820    5.40680
 3600.00000   11.49160   11.49160  256.72740  370.05510    2.70230   96.50520   96.50520   85.45420   85.45420    2.70230    3.36760 -132.63610   -5.10870    3.36760
 3650.00000   10.85530   10.85530  185.86570  236.07180    4.23600   88.87470   88.87470   94.12310   94.12310    4.23600    4.86860 -132.50460   -5.23020    4.86860
 3700.00000   12.08770   12.08770  267.77480  377.13080    2.65160   92.83070   92.83070   93.76420   93.76420    2.65160    3.08900 -131.68240   -4.66100    3.08900
 3750.00000   11.72540   11.72540  197.80890  270.53350    3.69640   90.70810   90.70810   89.22190   89.22190    3.69640    4.31140 -131.41710   -4.64870    4.31140
 3800.00000   11.46960   11.46960  405.69710  405.69710    2.46490  105.77450  105.77450  101.25020  101.25020    1.22300    1.53470 -129.43090   -2.91550    1.53470
 3850.00000   11.90910   11.90910  450.43090  450.43090    2.22010  104.91170  104.91170   84.07290   84.07290    0.93930    1.08630 -130.04310   -3.78070    1.08630
 3900.00000   11.10290   11.10290  296.31260  460.93570    2.16950   94.40700   94.40700   74.12620   74.12620    2.16950    2.42260 -129.65640   -3.64700    2.42260
 3950.00000   10.84680   10.84680  187.52560  248.55840    4.02320   88.33380   88.33380   78.04430   78.04430    4.02320    4.50510 -129.91400   -4.15760    4.50510
 4000.00000   10.80750   10.80750  311.54040  437.44530    2.28600   99.00180   99.00180   84.23410   84.23410    2.28600    2.70140 -128.99900   -3.49560    2.70140
 4050.00000    9.32900    9.32900  134.05500  147.11290    6.79750   77.11260   77.11260   49.71960   49.71960    6.79750    9.04770 -141.12960  -16.09140    9.04770
 4100.00000   11.55860   11.55860  235.78490  282.43800    3.54060   72.26310   72.26310   64.25500   64.25500    3.54060    3.36420 -130.16160   -5.81850    3.36420
 4150.00000    9.63410    9.63410  128.66980  142.45620    7.01970   80.13000   80.13000   66.99660   66.99660    7.01970   10.92380 -137.46470  -13.81660   10.92380
 4200.00000   10.36830   10.36830  138.35410  161.20190    6.20340   80.12700   80.12700   64.84650   64.84650    6.20340    7.72830 -135.97440  -13.02140    7.72830
 4250.00000    9.72460    9.72460  186.31150  220.15280    4.54230   82.88450   82.88450   75.04980   75.04980    4.54230    6.09840 -130.12960   -7.87170    6.09840
 4300.00000    9.25050    9.25050  142.68140  172.44060    5.79910   79.55240   79.55240   56.96300   56.96300    5.79910   10.25020 -139.78270  -18.21980   10.25020
 4350.00000   10.13300   10.13300  170.92350  209.37590    4.77610   83.21640   83.21640   74.85770   74.85770    4.77610    6.25090 -127.57930   -6.71150    6.25090
 4400.00000    9.63310    9.63310  132.39180  144.63620    6.91390   75.94740   75.94740   45.94810   45.94810    6.91390   10.89710 -158.51150  -38.33870   10.89710
 4450.00000   10.34710   10.34710  122.25180  133.28180    7.50290   78.21140   78.21140   72.29340   72.29340    7.50290   11.36670 -127.07820   -7.60050   11.36670
 4500.00000    9.88590    9.88590  151.74730  175.47550    5.69880   79.41440   79.41440   72.62600   72.62600    5.69880    9.47120 -133.98990  -15.20720    9.47120
 4550.00000   10.30040   10.30040  194.29300  238.20300    4.19810   81.54310   81.54310   74.06780   74.06780    4.19810    5.54260 -119.10730   -1.01970    5.54260
 4600.00000    9.10090    9.10090  254.07970  347.22220    2.88000   81.12300   81.12300   48.26010   48.26010    2.88000   12.28360 -173.66310  -56.27060   12.28360
 4650.00000    8.20450    8.20450  215.63180  263.72700    3.79180   76.09640   76.09640   59.88040   59.88040    3.79180   13.31190 -165.67720  -48.97970   13.31190
 4700.00000   10.25930   10.25930  186.65140  230.66450    4.33530   77.34700   77.34700   74.71940   74.71940    4.33530    6.05310 -122.96540   -6.96300    6.05310
 4750.00000   10.86120   10.86120  142.08540  156.88000    6.37430   75.07330   75.07330   71.81130   71.81130    6.37430    7.62200 -121.45270   -6.14530    7.62200
 4800.00000   12.98660   12.98660  361.44850  494.55980    2.02200   83.99620   83.99620   65.37300   65.37300    2.02200    2.28580 -117.73500   -3.12270    2.28580
 4850.00000    8.51170    8.51170  101.95830  108.92300    9.18080   75.32640   75.32640   50.75400   50.75400    9.18080   19.91340 -165.67810  -51.86680   19.91340
 4900.00000    9.00260    9.00260  144.00140  159.39300    6.27380   80.18250   80.18250   54.57660   54.57660    6.27380   13.32120 -164.10590  -54.52090   13.32120
 4950.00000    9.44570    9.44570  104.86910  103.42550    9.66880   71.21570   71.21570   57.49730   57.49730    9.66880   16.47560 -129.75140  -24.39270   16.47560
 5000.00000    8.54130    8.54130  244.09650  323.46760    3.09150   73.21600   73.21600   25.52350   25.52350    3.09150   15.05480 -187.10710  -85.97470   15.05480
 5050.00000   10.94670   10.94670  138.07660  151.22420    6.61270   83.17580   83.17580   79.09070   79.09070    6.61270    9.64490 -110.54430  -13.63820    9.64490
 5100.00000   10.75810   10.75810  150.34420  174.85880    5.71890   87.70540   87.70540   85.77550   85.77550    5.71890    9.56070 -109.62650  -16.94670    9.56070
 5150.00000    9.01390    9.01390   14.45710    9.76140  102.44380   64.81780   64.81780  114.87260  114.87260  102.44380  136.92140  -99.98420  -11.53070  136.92140
 5200.00000    9.41890    9.41890   12.53450    8.31770  120.22560   63.82950   63.82950   61.88630   61.88630  120.22560  139.48160  -90.68810   -5.98250  139.48160
 5250.00000   10.19360   10.19360  233.26390  287.07580    3.48340   70.09060   70.09060  131.13110  131.13110    3.48340   13.06990 -106.83620  -22.67670   13.06990
 5300.00000    8.62360    8.62360  126.58820  138.61740    7.21410   57.67490   57.67490   27.73730   27.73730    7.21410   22.28990 -154.59880  -70.98540   22.28990
 5350.00000    8.84150    8.84150   83.95070   90.86450   11.00540   52.52550   52.52550   22.03590   22.03590   11.00540   41.29250 -187.65120 -104.58390   41.29250
 5400.00000    9.07380    9.07380   70.26570   63.10580   15.84640   54.72900   54.72900   42.36680   42.36680   15.84640   24.77050 -118.19010  -35.66890   24.77050
 5450.00000    9.76540    9.76540   80.65990   83.42790   11.98640   59.65650   59.65650   72.82950   72.82950   11.98640   19.97550  -89.07100   -5.32200   19.97550
 5500.00000    9.50620    9.50620   28.57600   28.17540   35.49200   52.61910   52.61910   38.98220   38.98220   35.49200   61.85370 -109.08570  -23.27420   61.85370
 5550.00000    9.73910    9.73910  197.67830  216.05270    4.62850   58.96960   58.96960   47.47730   47.47730    4.62850   12.37350 -170.46030  -82.58630   12.37350
 5600.00000    9.69720    9.69720   66.10000   61.73410   16.19850   51.73970   51.73970   28.47460   28.47460   16.19850   24.27230 -156.36130  -66.42480   24.27230
 5650.00000    8.78010    8.78010   67.00630   68.57960   14.58160   53.94310   53.94310   19.85000   19.85000   14.58160   62.46320 -207.71110 -115.71200   62.46320
 5700.00000    9.47130    9.47130   36.83310   36.68860   27.25640   50.58360   50.58360   22.68520   22.68520   27.25640   49.68500 -215.98340 -121.92180   49.68500
 5750.00000    9.16470    9.16470   55.22620   54.28060   18.42280   55.92910   55.92910   21.46410   21.46410   18.42280   68.13070 -229.57410 -133.45000   68.13070
