~Version ---------------------------------------------------
VERS.      2.0 : CWLS log ASCII Standard -VERSION 2.0
WRAP.       NO : One line per depth step
CREA. 01/05/18 : LAS Creation Date
~Well ------------------------------------------------------
STRT.FT                              300.0 : START DEPTH
STOP.FT                            15450.0 : STOP DEPTH
STEP.FT                           50.00000 : STEP LENGTH
NULL.                              -999.25 : NULL VALUE
COMP.                        BANFF OIL LTD : COMPANY
WELL. BANFF AQUIT CHIEFCO WAWA 11-20-42-13 : WELL
FLD .                                      : FIELD
LOC .                                      : LOCATION
CTRY.                               CANADA : COUNTRY
SRVC.               Schlumberger of Canada : SERVICE COMPANY
DATE.                          07-Apr-1970 : LOGDATE
PROV.                              Alberta : PROVINCE
UWI .                     100112004213W500 : UNIQUE WELL ID
SLAT.WGS84                        52.63304 : SURFACE LATITUDE
SLON.WGS84                       -115.8375 : SURFACE LONGITUDE
~Curve Information -----------------------------------------
DEPT    .FT    : Depth Curve
CALDED  .IN    : CALIPER FROM DENSITY LOG [ADJ. TO RESISTIVITY LOG]
CALNED  .IN    : CALIPER FROM SNP LOG [ADJ. TO RESISTIVITY LOG]
CALSED  .IN    : CALIPER FROM SONIC LOG [ADJ. TO RESISTIVITY LOG]
CALWS   .IN    : CALIPER [CALSED]
CONDWS  .MMHO  : CONDUCTIVITY [1000/DRESWS]
CORRED  .G/C3  : DENSITY CORRECTION FROM DENSITY LOG [ADJ. TO RESISTIVITY LOG]
DCORWS  .G/C3  : DENSITY CORRECTION [CORRED]
DENWS   .G/C3  : FORMATION BULK DENSITY [RHOBED]
DPHILSED.V/V   : DENSITY POROSITY LIMESTONE FROM DENSITY LOG [ADJ. TO RESISTIVITY LOG]
DPOLSWS .V/V   : DENSITY POROSITY LIMESTONE [CALC. FROM DENWS, M=2.71 F=1.00]
DRESWS  .OHMM  : DEEP RESISTIVITY [ILDED]
DTED    .US/F  : DELTA T FROM SONIC LOG [ADJ. TO RESISTIVITY LOG]
DTWS    .US/F  : COMPRESSIONAL SONIC [DTED]
GRDED   .GAPI  : GAMMA RAY FROM DENSITY LOG [ADJ. TO RESISTIVITY LOG]
GRDRED  .GAPI  : GAMMA RAY (REPEAT) FROM DENSITY LOG
GRNED   .GAPI  : GAMMA RAY FROM SNP LOG [ADJ. TO RESISTIVITY LOG]
GRSED   .GAPI  : GAMMA RAY FROM SONIC LOG [ADJ. TO RESISTIVITY LOG]
GRWS    .GAPI  : GAMMA RAY [GRSED]
ILDED   .OHMM  : DEEP INDUCTION RESISTIVITY FROM RESISTIVITY LOG
ILMED   .OHMM  : MEDIUM INDUCTION RESISTIVITY FROM RESISTIVITY LOG
ILMRED  .OHMM  : MEDIUM INDUCTION RESISTIVITY(REPEAT) FROM RESISTIVITY LOG [ADJ. TO ILDED]
LL8ED   .OHMM  : LATEROLOG 8 RESISTIVITY FROM RESISTIVITY LOG
MRESWS  .OHMM  : MEDIUM RESISTIVITY [ILMED SPL. TO ILMRED @ 15233']
NPOLSWS .V/V   : NEUTRON POROSITY LIMESTONE [SNPLSED]
RHOBED  .G/C3  : BULK DENSITY FROM DENSITY LOG [ADJ. TO RESISTIVITY LOG]
SNPLSED .V/V   : SIDEWALL NEUTRON POROSITY LIMESTONE FROM SNP LOG [ADJ. TO RESISTIVITY LOG]
SPRED   .MV    : SPONTANEOUS POTENTIAL FROM RESISTIVITY LOG
SPRRED  .MV    : SPONTANEOUS POTENTIAL(REPEAT) FROM RESISTIVITY LOG [ADJ. TO ILDED]
SPWS    .MV    : SPONTANEOUS POTENTIAL [BASELINE 0 MV, SPRED SPL. TO SPRRED @ 15223']
SRESWS  .OHMM  : SHALLOW RESISTIVITY [LL8ED]
~Params ----------------------------------------------------
PD  .                     GL : PERMANENT DATUM
EPD .FT                 4345 : ELEVATION PERMANENT DATUM
LMF .                     KB : LOG MEASURED FROM
DAPD.FT                   14 : FEET ABOVE PERMANENT DATUM
EKB .FT                 4359 : KELLY BUSHING
EGL .FT                 4345 : GROUND LEVEL
DATE.               06/04/70 : RUN DATE
RUN .                      3 : RUN NUMBER
DD  .FT                15476 : DEPTH DRILLER
DL  .FT                15473 : DEPTH LOGGER
BLI .FT                15471 : BOTTOM LOG INTERVAL
TLI .FT                14327 : TOP LOG INTERVAL
CBD .FT                12360 : CASING BOTTOM DRILLER
CBL .FT                12355 : CASING BOTTOM LOGGER
BS  .IN                    6 : BIT SIZE
BSD .FT                15476 : BIT SIZE AT DEPTH
DFT .               GEL CHEM : DRILLING FLUID TYPE
DFD .                    8.9 : DRILLING FLUID DENSITY
DFV .                     47 : DRILLING FLUID VISCOSITY
DFPH.                     11 : DRILLING FLUID PH
DFL .                   12.4 : DRILLING FLUID LOSS
MSS .               FLOWLINE : MUD SAMPLE SOURCE
RMS .OHMM               2.62 : RESISTIVITY MUD SAMPLE
TCS .HRS                   4 : TIME CIRCULATED STOPPED
LUN .                  CSU C : LOGGING UNIT NUMBER
LUL .                 364 RD : LOGGING UNIT LOCATION
ENGI.                 MEGSON : RECORDING ENGINEER
WITN.                BRINKER : WITNESSED BY
CLNT.                A2DTECH : CLIENT CODE
ORIG.        2" 5" 10" PRINT : ORIGIN OF DATA
UWI .       100112004213W500 : UNIQUE WELL ID
DICO. A2D Technologies, Inc. : DIGITIZING COMPANY
~Other -----------------------------------------------------
~ASCII -----------------------------------------------------
# ...
 14700.00000    6.47390    -999.25    6.12020    6.12020  166.43090    0.07380    0.07380    2.70070    0.00510    0.00540    6.00850   65.98160   65.98160    -999.25    -999.25    -999.25   69.16920   69.16920    6.00850    -999.25    -999.25    7.89960    -999.25    -999.25    2.70070    -999.25    -999.25    -999.25    -999.25    7.89960
 14750.00000    6.59070    -999.25    6.16440    6.16440  240.29800    0.12260    0.12260    2.65940    0.02000    0.02960    4.16150   71.88790   71.88790    -999.25    -999.25    -999.25   80.35840   80.35840    4.16150    -999.25    -999.25    5.72590    -999.25    -999.25    2.65940    -999.25    -999.25    -999.25    -999.25    5.72590
 14800.00000    6.64860    -999.25    6.11930    6.11930  113.43500    0.05090    0.05090    2.77630   -0.02740   -0.03880    8.81560   65.37450   65.37450    -999.25    -999.25    -999.25   63.70070   63.70070    8.81560    -999.25    -999.25   12.32950    -999.25    -999.25    2.77630    -999.25    -999.25    -999.25    -999.25   12.32950
 14850.00000    6.77020    -999.25    6.08420    6.08420   44.42770    0.09740    0.09740    2.56070    0.06060    0.08730   22.50850   88.89150   88.89150    -999.25    -999.25    -999.25  160.32220  160.32220   22.50850    -999.25    -999.25   23.76830    -999.25    -999.25    2.56070    -999.25    -999.25    -999.25    -999.25   23.76830
 14900.00000    6.68050    -999.25    6.14170    6.14170   47.76010    0.03310    0.03310    2.66200    0.02000    0.02810   20.93800   69.34240   69.34240    -999.25    -999.25    -999.25   54.90690   54.90690   20.93800    -999.25    -999.25   30.61260    -999.25    -999.25    2.66200    -999.25    -999.25    -999.25    -999.25   30.61260
 14950.00000    9.03390    -999.25    7.12490    7.12490  175.85200    0.25280    0.25280    1.98520    0.28300    0.42390    5.68660   79.24440   79.24440    -999.25    -999.25    -999.25   81.29020   81.29020    5.68660    -999.25    -999.25    6.52420    -999.25    -999.25    1.98520    -999.25    -999.25    -999.25    -999.25    6.52420
 15000.00000    7.17670    -999.25    6.41770    6.41770   14.75040    0.06040    0.06040    2.68620    0.00630    0.01390   67.79480   42.62210   42.62210    -999.25    -999.25    -999.25   17.13760   17.13760   67.79480    -999.25    -999.25  185.62320    -999.25    -999.25    2.68620    -999.25    -999.25    -999.25    -999.25  185.62320
 15050.00000    8.18650    -999.25    6.75790    6.75790  108.35310    0.25050    0.25050    2.29270    0.16330    0.24400    9.23720   73.77340   73.77340    -999.25    -999.25    -999.25   67.53480   67.53480    9.23720    -999.25    -999.25    6.12130    -999.25    -999.25    2.29270    -999.25    -999.25    -999.25    -999.25    6.12130
 15100.00000    6.40680    -999.25    6.00760    6.00760   55.69260    0.01400    0.01400    2.71030    0.00070   -0.00020   17.95570   76.64500   76.64500    -999.25    -999.25    -999.25   41.56300   41.56300   17.95570    -999.25    -999.25   36.24560    -999.25    -999.25    2.71030    -999.25    -999.25    -999.25    -999.25   36.24560
 15150.00000    6.57430    -999.25    5.98490    5.98490   21.56350    0.11420    0.11420    2.59060    0.04760    0.06980   46.37470   50.99420   50.99420    -999.25    -999.25    -999.25   25.17000   25.17000   46.37470    -999.25    -999.25  357.96520    -999.25    -999.25    2.59060    -999.25    -999.25    -999.25    -999.25  357.96520
 15200.00000    5.99460    -999.25    5.89250    5.89250   29.05330    0.01640    0.01640    2.71460   -0.00320   -0.00270   34.41950   55.83210   55.83210    -999.25  101.45290    -999.25   27.23040   27.23040   34.41950    -999.25    -999.25   42.00490    -999.25    -999.25    2.71460    -999.25    -999.25    -999.25    -999.25   42.00490
 15250.00000    5.97840    -999.25    5.95840    5.95840   46.62240    0.02100    0.02100    2.68350    0.01510    0.01550   21.44890   79.90290   79.90290    -999.25   39.37790    -999.25   41.47470   41.47470   21.44890    -999.25   24.09180   30.64560   24.09180    -999.25    2.68350    -999.25    -999.25  -46.40220  -14.01220   30.64560
 15300.00000    5.85650    -999.25    5.99270    5.99270    9.32040    0.06570    0.06570    2.65250    0.02220    0.03360  107.29980   55.96770   55.96770    -999.25   47.94590    -999.25   26.21840   26.21840  107.29980    -999.25  116.15870  115.52980  116.15870    -999.25    2.65250    -999.25    -999.25 -120.73220  -99.91370  115.52980
 15350.00000    6.18770    -999.25    5.93110    5.93110    0.76020    0.01930    0.01930    2.77300   -0.02540   -0.03680 1315.51350   60.69850   60.69850    -999.25   38.08590    -999.25   13.67100   13.67100 1315.51350    -999.25 1503.14790 1184.06350 1503.14790    -999.25    2.77300    -999.25    -999.25  -17.49080   -9.37700 1184.06350
 15400.00000    5.80250    -999.25    5.91630    5.91630    0.73740    0.04250    0.04250    2.71800   -0.00410   -0.00470 1356.13310   58.07440   58.07440    -999.25   47.04410    -999.25   12.47220   12.47220 1356.13310    -999.25 1481.07820  703.03430 1481.07820    -999.25    2.71800    -999.25    -999.25  -67.64580  -72.17370  703.03430
 15450.00000    5.64340    -999.25    5.93690    5.93690    3.91680    0.00710    0.00710    2.69340    0.00670    0.00970  255.30870   52.13170   52.13170    -999.25   46.14230    -999.25    -999.25    -999.25  255.30870    -999.25  410.30130  209.86450  410.30130    -999.25    2.69340    -999.25    -999.25  -15.19640  -24.78090  209.86450
