~Version ---------------------------------------------------
VERS. 2.0 : CWLS log ASCII Standard -VERSION 2.0
WRAP.  NO : ONE LINE PER DEPTH STEP
~Well ------------------------------------------------------
STRT.F                            650.0 : START DEPTH
STOP.F                           9200.0 : STOP DEPTH
STEP.F                         50.00000 : STEP LENGTH
NULL.                           -999.25 : NULL VALUE
COMP.                DENISON MINES LTD. : COMPANY
WELL. DENISON ET AL VIRGHILLS 2-6-65-12 : WELL
FLD .                                   : FIELD
LOC .                                   : LOCATION
CTRY.                            CANADA : COUNTRY
SRVC.                      Schlumberger : SERVICE COMPANY
DATE.                       14-Mar-1976 : LOGDATE
PROV.                           Alberta : PROVINCE
UWI .                  100020606512W500 : UNIQUE WELL ID
SLAT.WGS84                     54.59091 : SURFACE LATITUDE
SLON.WGS84                    -115.7994 : SURFACE LONGITUDE
~Curve Information -----------------------------------------
DEPT.F    0   1   0  0 : 1 MEASURED DEPTH
SPR .MV   07 010 01 00 : SPONTANEOUS POTENTIAL FROM RESISTIVITY LOG
ILD .OHMM 07 120 46 00 : INDUCTION DEEP RESISTIVITY
ILM .OHMM 07 120 44 00 : INDUCTION MEDIUM RESISTIVITY
LL8 .OHMM 07 220 08 00 : LATEROLOG 8
CILD.MMHO 07 110 46 00 : INDUCTION DEEP CONDUCTIVITY
DT  .US/F 60 500 00 00 : DELTA-T (INTERVAL TRANSIT TIME)
CALS.IN   60 280 50 00 : CALIPER FROM SONIC LOG
GRS .GAPI 60 310 01 00 : GAMMA RAY FROM SONIC LOG
~Params ----------------------------------------------------
PD  .                     GL : PERMANENT DATUM
EPD .FT               3411.5 : ELEVATION PERMANENT DATUM
LMF .                     KB : LOG MEASURED FROM
DAPD.FT                 14.2 : FEET ABOVE PERMANENT DATUM
EKB .FT               3425.7 : KELLY BUSHING
EGL .FT               3411.5 : GROUND LEVEL
DATE.               03/14/76 : RUN DATE
RUN .                      1 : RUN NUMBER
DD  .FT                 9226 : DEPTH DRILLER
DL  .FT                 9229 : DEPTH LOGGER
BLI .FT                 9223 : BOTTOM LOG INTERVAL
TLI .FT                  637 : TOP LOG INTERVAL
CBD .FT                  639 : CASING BOTTOM DRILLER
CBL .FT                  637 : CASING BOTTOM LOGGER
BS  .IN                7.875 : BIT SIZE
BSD .FT                 9226 : BIT SIZE AT DEPTH
DFT .               GEL CHEM : DRILLING FLUID TYPE
DFD .                    9.4 : DRILLING FLUID DENSITY
DFV .                    120 : DRILLING FLUID VISCOSITY
DFPH.                    9.5 : DRILLING FLUID PH
DFL .                    7.8 : DRILLING FLUID LOSS
MSS .             CIRCULATED : MUD SAMPLE SOURCE
RMS .OHMM               2.51 : RESISTIVITY MUD SAMPLE
MST .DEGF                 54 : MUD SAMPLE TEMPERATURE
RMF .OHMM               1.99 : RESISTIVITY MUD FILTRATE SAMPLE
MFST.DEGF                 50 : MUD FILTRATE SAMPLE TEMPERATURE
RMC .OHMM               2.94 : RESISTIVITY MUD CAKE
MCST.DEGF                 50 : MUD CAKE SAMPLE TEMPERATURE
RMB .OHMM               0.56 : RESISTIVITY MUD AT BHT
TCS .HRS                 3.5 : TIME CIRCULATED STOPPED
LUN .                   7691 : LOGGING UNIT NUMBER
LUL .                    EDM : LOGGING UNIT LOCATION
ENGI.              CROCKFORD : RECORDING ENGINEER
WITN.             CARRINGTON : WITNESSED BY
CLNT.                A2DTECH : CLIENT CODE
ORIG.            2" 5" PRINT : ORIGIN OF DATA
UWI .       100020606512W500 : UNIQUE WELL ID
DICO. A2D Technologies, Inc. : DIGITIZING COMPANY
~Other -----------------------------------------------------
~ASCII -----------------------------------------------------
  650.00000  -65.36240    4.20730    -999.25    3.94900  235.51400  138.20480   10.84010   85.62490
  700.00000  -62.72880    4.37350    -999.25    4.77460  215.43790  135.64120    9.31780   71.47580
  750.00000  -62.41660    4.35960    -999.25    3.97620  219.83660  119.42930    8.85850   70.37100
  800.00000  -71.99320   11.58430    -999.25   10.09950   84.70890  110.98340    8.65320   62.06340
  850.00000  -58.99340    5.45950    -999.25    4.99220  185.67390  127.77060    9.14710   66.80790
  900.00000  -58.41610    4.96520    -999.25    4.53340  193.67920  119.10970    9.47560   72.85560
  950.00000  -58.43420    4.01920    -999.25    3.72480  240.94720  124.97960    8.13180   69.52960
 1000.00000  -59.25040    3.79540    -999.25    3.36710  270.03020  131.05660    8.51950   79.96080
 1050.00000  -64.01310    4.51810    -999.25    3.75800  224.96670  136.33470   13.59050   47.15240
 1100.00000  -58.15170    4.77990    -999.25    4.09300  213.32670  127.21780    9.66830   77.16850
 1150.00000  -67.42200    7.53730    -999.25    6.38250  144.44380  108.71420    8.21300   73.23400
 1200.00000  -57.22160    3.69950    -999.25    3.33970  269.98770  138.54920   12.03290   61.20820
 1250.00000  -60.97490    6.28100    -999.25    5.64090  151.10190  106.53580    8.57840   60.01360
 1300.00000  -57.37350    4.57020    -999.25    4.17600  211.35330  115.40050    9.18330   72.39290
 1350.00000  -55.90790    2.76650    -999.25    2.30460  394.52190  133.32860    9.71740   90.37660
 1400.00000  -55.56600    4.27060    -999.25    3.87600  250.59000  124.71790    9.94220   70.78510
 1450.00000  -56.01750    4.88630    -999.25    4.46560  205.49570  118.63030    9.44670   71.23920
 1500.00000  -56.16490    2.69040    -999.25    2.66900  373.12370  146.19400   10.03250   79.48850
 1550.00000  -62.78170   12.37690    -999.25   10.94020   83.59270  113.88930    8.81290   57.52020
 1600.00000  -54.03220    4.13960    -999.25    3.81330  244.55460  140.14610    8.63150   73.74490
 1650.00000  -53.85310    5.31440    -999.25    4.57230  189.05310  121.46980    9.59110   61.50100
 1700.00000  -51.29190    5.03830    -999.25    4.48490  214.68190   95.82420    8.44530   68.00090
 1750.00000  -53.41770    3.73940    -999.25    3.06770  276.35780  119.90870    8.93530   75.47370
 1800.00000  -52.82020    2.98930    -999.25    2.65570  360.74050  124.60340    9.41300   67.76470
 1850.00000  -68.76790   10.01120    -999.25    8.37320   99.27630   96.91180    7.58740   51.84060
 1900.00000  -63.86850    6.17950    -999.25    5.51840  154.77120  107.03170    7.71920   56.91150
 1950.00000  -68.08520    9.07180    -999.25    7.84710  109.10870  104.69040    7.65570   54.22270
 2000.00000  -66.91450    7.29340    -999.25    6.23680  137.04710  108.98860    7.81350   54.58250
 2050.00000  -52.24860    3.72270    -999.25    3.37890  269.57040  112.23360    8.36670   71.36180
 2100.00000  -69.37360   10.96050    -999.25    9.19910   91.12740  107.88730    7.70410   54.44550
 2150.00000  -51.23440    4.39990    -999.25    4.01810  222.76760  109.89200    8.15300   63.61680
 2200.00000  -65.29520    7.67240    -999.25    7.03200  128.06650  106.69790    7.60420   52.44730
 2250.00000  -51.46980    8.50140    -999.25    7.50650  144.71510   78.88460    7.83130   52.72970
 2300.00000  -50.71900    4.30990    -999.25    3.95220  239.12170  106.88060    8.26290   59.71840
 2350.00000  -51.11760    4.28610    -999.25    3.90110  231.93310  111.85310    8.90160   57.26010
 2400.00000  -62.98310   14.87070    -999.25   12.01600   69.13880  112.73690    7.62140   42.29040
 2450.00000  -50.38610    3.91340    -999.25    3.60850  266.54900  101.59690    7.68480   57.08880
 2500.00000  -50.93590    7.70730    -999.25    7.17470  128.90880   88.76210    7.95220   45.57210
 2550.00000  -59.05350   16.10900    -999.25   31.33220   51.33800   68.39640    7.93160   34.41680
 2600.00000  -49.82480    4.27950    -999.25    3.84180  233.38620  105.73280    8.17340   57.36850
 2650.00000  -49.22000    3.78550    -999.25    4.47340  244.77940  112.20920    9.62570   49.61760
 2700.00000  -49.10300    5.37090    -999.25    4.75790  185.15990   98.80190    9.62490   51.68360
 2750.00000  -49.88790    3.64050    -999.25    4.02880  277.44410  142.74960    9.94320   50.79170
 2800.00000  -56.06990    4.20370    -999.25    4.77540  219.95330  117.23250    8.15400   56.46310
 2850.00000  -48.26840    3.64820    -999.25    2.99080  306.69170  100.87250    8.42600   63.41730
 2900.00000  -49.39340    3.73870    -999.25    4.62200  246.84920   97.39430    8.53340   51.54320
 2950.00000  -47.21530    4.25150    -999.25    4.02910  230.31280  102.70670    9.58240   57.08110
 3000.00000  -48.36780    5.21290    -999.25    4.94740  195.24500  102.35400    8.95500   74.56490
 3050.00000  -52.51320    5.47370    -999.25    5.08670  180.07850  106.73530   11.32110   75.46460
 3100.00000  -54.01800    6.68380    -999.25    6.20450  146.30530   96.55480   11.24910   81.51730
 3150.00000  -52.83640    5.02390    -999.25    4.58240  206.57750  103.64820   11.95930   92.03530
 3200.00000  -50.25010    7.86480    -999.25    8.56660  125.35520   96.52940   11.04640  108.38070
 3250.00000  -49.69030    5.75380    -999.25    6.24660  167.33830  100.62460   10.99320  104.27710
 3300.00000  -53.29020    6.68080    -999.25    6.24470  149.87390   95.53110   11.53760   94.89160
 3350.00000  -54.19280    5.98850    -999.25    5.68000  167.07270   89.86110   12.71710   85.99450
 3400.00000  -52.98870    6.16710    -999.25    5.85750  163.44240   96.51790   12.60330   92.66740
 3450.00000  -52.31920    6.67730    -999.25    6.36470  150.54690  103.39000   12.46260   96.88840
 3500.00000  -54.84500    6.58800    -999.25    5.80980  148.58660  102.57670   13.82430   96.68960
 3550.00000  -53.76460    6.68540    -999.25    5.97570  146.19160   96.09090   13.67590   90.36890
 3600.00000  -53.49450    5.15270    -999.25    4.83900  192.03320  101.43970   11.82340   89.88030
 3650.00000  -53.48660    6.62200    -999.25    5.97170  148.48660   98.38770   14.24850   71.29260
 3700.00000  -53.25270    6.93010    -999.25    6.49710  142.27750   82.13670   11.54130   89.85310
 3750.00000  -51.82970    6.33340    -999.25    5.93170  156.69180  100.38140   11.13080  103.10400
 3800.00000  -50.25020    6.25070    -999.25    5.77590  166.42470   98.44740   11.30330  101.54110
 3850.00000  -47.04530    5.40120    -999.25    6.03850  182.00570  105.02600   10.06880  101.15030
 3900.00000  -46.83950    5.92610    -999.25    7.05160  166.75020  103.27490    9.65830  120.69680
 3950.00000  -45.85710    5.92830    -999.25    7.08410  164.51900  102.37820    8.97510  114.77040
 4000.00000  -44.45960    7.70620    8.34570    9.55620    -999.25   99.68970    8.62640  122.45110
 4050.00000  -54.41080    7.46300    7.78890    8.04640    -999.25   85.98640    8.41140   76.48240
 4100.00000  -45.36320    5.04410    5.34110    5.63260    -999.25   91.54500    9.35970   89.88340
 4150.00000  -46.19450    6.14080    6.50680    6.50690    -999.25   90.23310    8.75050  102.05250
 4200.00000  -44.50990    4.72340    5.02430    5.17650    -999.25   94.89470    9.29840  103.70890
 4250.00000  -44.27590    3.89340    4.27300    4.51500    -999.25  101.24390   10.88630  109.44700
 4300.00000  -44.06910    3.76710    4.06750    4.75230    -999.25   97.88080    9.80130  106.77200
 4350.00000  -43.05970    3.19860    3.57880    4.18920    -999.25  100.98700   12.03750   98.24000
 4400.00000  -38.21950    1.89390    2.04080    2.66980    -999.25  115.21390   11.58830  159.86450
 4450.00000  -39.34720    1.81630    1.98990    2.65210    -999.25  104.90670    9.93410  106.92220
 4500.00000  -41.04130    3.08500    3.29130    3.84890    -999.25   89.83270   10.12940   90.23290
 4550.00000  -41.43940    3.57960    3.77230    3.73050    -999.25   99.20100   10.21650  101.04000
 4600.00000  -43.30640    7.43200    7.88450    8.52390    -999.25   81.05980    9.02010   82.21800
