~Version ---------------------------------------------------
VERS.      2.0 : CWLS log ASCII Standard -VERSION 2.0
WRAP.       NO : One line per depth step
CREA. 01/03/18 : LAS Creation Date
~Well ------------------------------------------------------
STRT.FT                              300.0 : START DEPTH
STOP.FT                             8350.0 : STOP DEPTH
STEP.FT                           50.00000 : STEP LENGTH
NULL.                              -999.25 : NULL VALUE
COMP.             HOME OIL COMPANY LIMITED : COMPANY
WELL. HOME FPC ET AL MORSE RIVER 4-31-65-9 : WELL
FLD .                                      : FIELD
LOC .                                      : LOCATION
CTRY.                               CANADA : COUNTRY
SRVC.                         Schlumberger : SERVICE COMPANY
DATE.                          23-Jan-1960 : LOGDATE
PROV.                              Alberta : PROVINCE
UWI .                     100043106509W500 : UNIQUE WELL ID
SLAT.WGS84                        54.66358 : SURFACE LATITUDE
SLON.WGS84                       -115.3583 : SURFACE LONGITUDE
~Curve Information -----------------------------------------
DEPT  .FT     : Depth Curve
CALWS .IN     : CALIPER [MCALED]
CILDED.MMHO   : CONDUCTIVITY FROM RESISTIVITY LOG
CONDWS.MMHO   : CONDUCTIVITY [1000/DRESWS]
DRESWS.OHMM   : DEEP RESISTIVITY [ILDED] IF ILDED<1;1000/CILDED;ELSE ILDED
GRNED .UR/HR  : GAMMA RAY FROM NEUTRON LOG
GRWS  .GAPI   : GAMMA RAY [GRNED] CONVERTED SCALES McCULLOUGH *10.4API
ILDED .OHMM   : INDUCTION LOG DEEP RESISTIVITY
LLED  .OHMM   : LATEROLOG RESISTIVITY FROM LATEROLOG
MCALED.IN     : MICROCALIPER
NEUTED.CU     : NEUTRON FROM NEUTRON LOG [DEPTH ADJ TO ILD]
NEUTWS.CU     : NEUTRON [NEUTED]
SNED  .OHMM   : 16 INCH SHORT NORMAL RESISTIVITY FROM IEL
SPRED .MV     : SPONTANEOUS POTENTIAL FROM RESISTIVITY LOG
SPWS  .MV     : SPONTANEOUS POTENTIAL [BASELINE 0 MV] [SPRED]
SRESWS.OHMM   : SHALLOW RESISTIVITY [SNED]
~Params ----------------------------------------------------
LMF .                     KB : LOG MEASURED FROM
DMF .                     KB : DRILLING MEASURED FROM
EKB .FT                 3359 : KELLY BUSHING
EGL .FT               3345.4 : GROUND LEVEL
DATE.               01/23/60 : RUN DATE
RUN .                      2 : RUN NUMBER
DD  .FT                 8361 : DEPTH DRILLER
DL  .FT                 8359 : DEPTH LOGGER
BLI .FT                 8354 : BOTTOM LOG INTERVAL
TLI .FT                 5178 : TOP LOG INTERVAL
CBD .FT                  847 : CASING BOTTOM DRILLER
CBL .FT                  847 : CASING BOTTOM LOGGER
BSD .FT                 8361 : BIT SIZE AT DEPTH
DFT .                    GEL : DRILLING FLUID TYPE
DFD .                     10 : DRILLING FLUID DENSITY
DFV .                    106 : DRILLING FLUID VISCOSITY
DFPH.                     10 : DRILLING FLUID PH
DFL .                    4.6 : DRILLING FLUID LOSS
RMS .OHMM                2.5 : RESISTIVITY MUD SAMPLE
MST .DEGF                 62 : MUD SAMPLE TEMPERATURE
RMF .OHMM                1.6 : RESISTIVITY MUD FILTRATE SAMPLE
MFST.DEGF                 62 : MUD FILTRATE SAMPLE TEMPERATURE
RMC .OHMM                2.8 : RESISTIVITY MUD CAKE
MCST.DEGF                 62 : MUD CAKE SAMPLE TEMPERATURE
RMB .OHMM                0.9 : RESISTIVITY MUD AT BHT
TCS .HRS                   2 : TIME CIRCULATED STOPPED
LUN .                   2786 : LOGGING UNIT NUMBER
ENGI.             ARMBRUSTER : RECORDING ENGINEER
WITN.                  SZABO : WITNESSED BY
CLNT.                A2DTECH : CLIENT CODE
ORIG.            2" 5" PRINT : ORIGIN OF DATA
UWI .       100043106509W500 : UNIQUE WELL ID
DICO. A2D Technologies, Inc. : DIGITIZING COMPANY
~Other -----------------------------------------------------
IEL-LL-GRN-MICRO LOG RUN
~ASCII -----------------------------------------------------
# ...
 7200.00000   15.44370  269.11770  195.11720    5.12550    4.96000   51.58350    5.12550    -999.25   15.44370  202.02170  202.02170    3.64970  -94.90940  -22.81250    3.64970
 7250.00000   12.66780  270.64290  199.38590    5.01540    5.16490   53.71500    5.01540    -999.25   12.66780  261.16760  261.16760    3.84280  -93.08290  -21.84940    3.84280
 7300.00000   10.03240  168.56220  138.85420    7.20180    5.92160   61.58460    7.20180    -999.25   10.03240  427.24650  427.24650    6.64620  -88.91790  -18.55220    6.64620
 7350.00000    8.86150   93.06250   80.13210   12.47940    3.80270   39.54810   12.47940    -999.25    8.86150  637.17380  637.17380   11.56900  -82.37910  -12.88120   11.56900
 7400.00000    8.94050  127.25700   98.87190   10.11410    3.93850   40.96040   10.11410    -999.25    8.94050  549.37950  549.37950    9.65330  -81.42290  -12.79280    9.65330
 7450.00000    9.89360  156.16940  127.92410    7.81740    4.78660   49.78010    7.81740    -999.25    9.89360  404.03490  404.03490    7.02290  -88.54070  -20.78270    7.02290
 7500.00000   12.10400  236.64380  177.45910    5.63510    5.65570   58.81930    5.63510    -999.25   12.10400  279.47790  279.47790    4.30230  -97.73110  -30.83660    4.30230
 7550.00000    9.86300  143.65110  117.29520    8.52550    4.16010   43.26500    8.52550    -999.25    9.86300  408.16450  408.16450    8.23530  -76.23220  -10.20550    8.23530
 7600.00000    8.98750   44.61670   37.63840   26.56860    2.81950   29.32280   26.56860    -999.25    8.98750  934.04690  934.04690   33.99350  -74.01600   -8.85710   33.99350
 7650.00000    9.21630  123.98050  108.73350    9.19680    3.37140   35.06260    9.19680    -999.25    9.21630  526.37350  526.37350    9.99030  -74.24970   -9.95860    9.99030
 7700.00000    8.96320   48.28970   43.42710   23.02940    2.65170   27.57770   23.02940    -999.25    8.96320  674.46290  674.46290   24.31990  -74.90960  -11.49070   24.31990
 7750.00000    8.98060   51.83090   45.50610   21.97510    6.20910   64.57460   21.97510    -999.25    8.98060  409.03610  409.03610   28.29830  -73.22730  -10.67180   28.29830
 7800.00000   11.99630  220.16330  220.16330    4.54210    4.84650   50.40360    4.56950    6.66870   11.99630  220.62290  220.62290    3.31720  -83.06690  -21.37920    3.31720
 7850.00000   10.18400  121.08970   97.88470   10.21610    5.23260   54.41900   10.21610   10.96160   10.18400  280.94610  280.94610   11.24350  -76.27050  -15.45060   11.24350
 7900.00000    9.14640   81.59750   75.83860   13.18590    3.61460   37.59180   13.18590   19.69210    9.14640  523.71120  523.71120   14.68570  -79.17510  -19.22300   14.68570
 7950.00000    8.83810   15.84810   12.97910   77.41200    1.64660   17.12460   77.41200  228.99710    8.83810  952.57540  952.57540   56.79900  -75.15280  -16.07280   56.79900
 8000.00000    8.78400   29.84790   29.14250   34.31420    2.32970   24.22890   34.31420   45.11240    8.78400  773.60480  773.60480   36.41720  -68.17630   -9.95980   36.41720
 8050.00000    8.69710   20.98920   19.89520   50.26340    1.61610   16.80740   50.26340  288.90640    8.69710  853.74530  853.74530   45.95540  -67.25950   -9.91080   45.95540
 8100.00000    8.74990   86.60370   72.20740   13.84900    3.50860   36.48940   13.84900   14.40470    8.74990  562.54280  562.54280   10.47320  -59.18630   -2.70540   10.47320
 8150.00000    8.72960   20.74790   19.42450   51.48130    2.44980   25.47840   51.48130   60.45390    8.72960  686.48410  686.48410   45.67540  -63.20820   -7.49960   45.67540
 8200.00000    8.70400   11.68800   10.55080   94.87750    1.97840   20.57480   94.87750  156.71810    8.70400  846.69930  846.69930   65.87920  -64.12600   -8.41740   65.87920
 8250.00000    7.95970   30.68600   27.52910   36.32520    1.07130   11.14150   36.32520  142.71100    7.95970  882.14020  882.14020   72.18750 -197.85540 -142.14680   72.18750
 8300.00000    8.40250    7.34520    7.94430  125.87600    0.97950   10.18680  125.87600  265.19360    8.40250 1214.10100 1214.10100  148.49260 -169.73810 -114.02950  148.49260
 8350.00000    8.68990    2.69540    3.59940  277.82340    -999.25    -999.25  277.82340 2903.82570    8.68990    -999.25    -999.25  146.18960 -142.52210  -86.81350  146.18960
