~Version ---------------------------------------------------
VERS.      2.0 : CWLS log ASCII Standard -VERSION 2.0
WRAP.       NO : One line per depth step
CREA. 08/31/17 : LAS Creation Date
~Well ------------------------------------------------------
STRT.FT                        1000.0 : START DEPTH
STOP.FT                       11500.0 : STOP DEPTH
STEP.FT                      50.00000 : STEP LENGTH
NULL.                         -999.25 : NULL VALUE
COMP.       ATLANTIC REFINING COMPANY : COMPANY
WELL. ATLANTIC ANTE CREEK 10-29-64-23 : WELL
FLD .                                 : FIELD
LOC .                                 : LOCATION
CTRY.                          CANADA : COUNTRY
SRVC.                    Schlumberger : SERVICE COMPANY
DATE.                     16-Jul-1964 : LOGDATE
PROV.                         Alberta : PROVINCE
UWI .                100102906423W500 : UNIQUE WELL ID
SLAT.WGS84                    54.5688 : SURFACE LATITUDE
SLON.WGS84                   -117.438 : SURFACE LONGITUDE
~Curve Information -----------------------------------------
DEPT  .FT    : Depth Curve
CALSED.IN    : CALIPER FROM BCS LOG
CALWS .IN    : CALIPER [CALSED]
CILDED.MMHO  : DEEP INDUCTION CONDUCTIVITY LOG FROM IEL LOG
CONDWS.MMHO  : CONDUCTIVITY [CILDED]
DRESWS.OHMM  : DEEP RESISTIVITY [1000/CONDWS IF ILDED <= 4, ILDED]
DT1ED .US/F  : ACOUSTIC TRANSIT TIME SLOWNESS, DELTA T FROM BCS LOG
DTED  .US/F  : ACOUSTIC TRANSIT TIME SLOWNESS, DELTA T FROM BCS LOG
DTWS  .US/F  : COMPRESSIONAL SONIC [DTED]
GRSED .GAPI  : GAMMA RAY FROM BCS LOG
GRWS  .GAPI  : GAMMA RAY [GRSED]
ILDED .OHMM  : DEEP INDUCTION FROM IEL LOG
SNED  .OHMM  : SHORT NORMAL FROM IEL LOG
SPRED .MV    : SPONTANEOUS POTENTIAL FROM IEL LOG
SPWS  .MV    : SPONTANEOUS POTENTIAL [BASELINE 0 MV, SPRED]
SRESWS.OHMM  : SHALLOW RESISTIVITY [SNED]
~Params ----------------------------------------------------
PD  .                     GL : PERMANENT DATUM
LMF .                     KB : LOG MEASURED FROM
EKB .FT               2850.5 : KELLY BUSHING
DATE.               07/16/64 : RUN DATE
RUN .                      1 : RUN NUMBER
DD  .FT                11510 : DEPTH DRILLER
DL  .FT                11517 : DEPTH LOGGER
BLI .FT                11516 : BOTTOM LOG INTERVAL
TLI .FT                 1173 : TOP LOG INTERVAL
CBD .FT                 1175 : CASING BOTTOM DRILLER
CBL .FT                 1173 : CASING BOTTOM LOGGER
BS  .IN                7.875 : BIT SIZE
BSD .FT                11510 : BIT SIZE AT DEPTH
DFT .                    GEL : DRILLING FLUID TYPE
DFD .                    9.4 : DRILLING FLUID DENSITY
DFV .                    110 : DRILLING FLUID VISCOSITY
DFPH.                      9 : DRILLING FLUID PH
DFL .                    8.7 : DRILLING FLUID LOSS
RMS .OHMM               3.06 : RESISTIVITY MUD SAMPLE
MST .DEGF                 62 : MUD SAMPLE TEMPERATURE
RMF .OHMM               2.13 : RESISTIVITY MUD FILTRATE SAMPLE
MFST.DEGF                 62 : MUD FILTRATE SAMPLE TEMPERATURE
RMC .OHMM               2.09 : RESISTIVITY MUD CAKE
MCST.DEGF                 62 : MUD CAKE SAMPLE TEMPERATURE
RMB .OHMM               0.99 : RESISTIVITY MUD AT BHT
TCS .HRS                   3 : TIME CIRCULATED STOPPED
LUN .                   3532 : LOGGING UNIT NUMBER
ENGI.               CROCKETT : RECORDING ENGINEER
WITN.                 RUSSIN : WITNESSED BY
CLNT.                A2DTECH : CLIENT CODE
ORIG.            2" 5" PRINT : ORIGIN OF DATA
UWI .       100102906423W500 : UNIQUE WELL ID
DICO. A2D Technologies, Inc. : DIGITIZING COMPANY
~Other -----------------------------------------------------
~ASCII -----------------------------------------------------
 1000.00000    -999.25    -999.25    -999.25    -999.25    -999.25    -999.25    -999.25    -999.25   54.12150   54.12150    -999.25    -999.25    -999.25    -999.25    -999.25
 1050.00000    -999.25    -999.25    -999.25    -999.25    -999.25    -999.25    -999.25    -999.25   43.73890   43.73890    -999.25    -999.25    -999.25    -999.25    -999.25
 1100.00000    -999.25    -999.25    -999.25    -999.25    -999.25    -999.25    -999.25    -999.25   56.86660   56.86660    -999.25    -999.25    -999.25    -999.25    -999.25
 1150.00000    -999.25    -999.25    -999.25    -999.25    -999.25    -999.25    -999.25    -999.25   61.29990   61.29990    -999.25    -999.25    -999.25    -999.25    -999.25
 1200.00000   11.71200   11.71200  313.19810  313.19490    3.19290    -999.25  142.49260  142.49260   63.19570   63.19570    3.37760    4.01830  -77.04130   -4.22870    4.01830
 1250.00000    9.99390    9.99390  225.63740  201.80410    4.95530    -999.25  120.44240  120.44240   62.74860   62.74860    4.95530    5.19100  -76.78320   -2.91440    5.19100
 1300.00000   10.59610   10.59610  243.68100  234.67570    4.26120    -999.25  131.12170  131.12170   71.14710   71.14710    4.26120    3.79020  -78.47060   -4.88400    3.79020
 1350.00000   11.81120   11.81120  263.72600  263.72700    3.79180    -999.25  155.84700  155.84700   65.08730   65.08730    3.54940    3.79190  -76.73390   -3.43130    3.79190
 1400.00000   10.84040   10.84040  206.23990  188.87520    5.29450    -999.25  128.05170  128.05170   72.90840   72.90840    5.29450    4.91470  -78.84740   -5.82700    4.91470
 1450.00000   10.55170   10.55170  207.78320  189.92630    5.26520    -999.25  136.11630  136.11630   74.95970   74.95970    5.26520    4.89340  -76.61230   -3.87590    4.89340
 1500.00000    9.09810    9.09810  249.15580  220.40510    4.53710    -999.25   98.18980   98.18980   64.11010   64.11010    4.53710    4.63510  -78.50500   -6.05080    4.63510
 1550.00000   10.06760   10.06760  230.11620  220.87240    4.52750    -999.25  135.67370  135.67370   78.00110   78.00110    4.52750    4.91410  -76.52660   -4.35460    4.91410
 1600.00000   13.95510   13.95510  276.87360  276.87030    3.61180    -999.25  135.63350  135.63350   73.72960   73.72960    3.42670    3.91230  -77.70620   -5.81820    3.91230
 1650.00000    9.01010    9.01010  112.49460   98.21930   10.18130    -999.25  124.97190  124.97190   51.98790   51.98790   10.18130    9.35980  -77.34610   -5.74030    9.35980
 1700.00000    9.46910    9.46910  221.73840  208.94710    4.78590    -999.25  109.59500  109.59500   65.23420   65.23420    4.78590    4.30100  -76.49580   -5.17400    4.30100
 1750.00000   10.85590   10.85590  133.55980  132.10210    7.56990    -999.25   84.70950   84.70950   66.50950   66.50950    7.56990    9.07110  -76.52130   -5.48170    9.07110
 1800.00000    9.51720    9.51720  295.39100  295.39480    3.38530    -999.25  125.87220  125.87220   78.55830   78.55830    3.87210    3.86150  -73.66350   -2.90610    3.86150
 1850.00000   11.12930   11.12930  282.30930  282.31040    3.54220    -999.25  112.18110  112.18110   74.37800   74.37800    3.77410    3.26420  -74.39970   -3.92630    3.26420
 1900.00000    9.70120    9.70120  315.59440  315.59680    3.16860    -999.25  119.19260  119.19260   89.94420   89.94420    3.38310    3.98360  -72.93770   -2.74650    3.98360
 1950.00000    9.12960    9.12960   96.54240   96.08730   10.40720    -999.25   98.64770   98.64770   60.92970   60.92970   10.40720    8.92290  -75.97690   -6.06970    8.92290
 2000.00000    9.79670    9.79670  216.39740  207.86130    4.81090    -999.25  109.39000  109.39000   73.28810   73.28810    4.81090    4.15170  -73.45090   -3.82590    4.15170
 2050.00000    9.14120    9.14120  234.10500  217.45280    4.59870    -999.25  106.94990  106.94990   87.99020   87.99020    4.59870    3.94710  -73.17430   -3.83140    3.94710
 2100.00000    9.20540    9.20540  134.57910  134.77820    7.41960    -999.25  104.00840  104.00840   77.33230   77.33230    7.41960    8.30160  -73.70110   -4.64230    8.30160
 2150.00000    9.25770    9.25770  261.57980  261.58150    3.82290    -999.25   99.87670   99.87670   75.46630   75.46630    3.84840    3.26370  -72.54240   -3.76570    3.26370
 2200.00000    9.04020    9.04020  199.43140  209.26190    4.77870    -999.25   93.76920   93.76920   71.86830   71.86830    4.77870    4.69850  -71.39370   -2.90110    4.69850
 2250.00000    9.76950    9.76950  194.66920  184.72000    5.41360    -999.25  115.58920  115.58920   78.13880   78.13880    5.41360    4.83860  -70.48890   -2.27840    4.83860
 2300.00000    9.28430    9.28430  268.53530  233.49760    4.28270    -999.25  104.34990  104.34990   77.18190   77.18190    4.28270    4.18820  -70.37250   -2.44420    4.18820
 2350.00000    8.62640    8.62640  336.40780  336.40580    2.97260    -999.25   91.53860   91.53860   59.81780   59.81780    3.00400    3.55540  -69.36390   -1.71960    3.55540
 2400.00000    9.97920    9.97920  232.08740  201.10610    4.97250    -999.25  101.74240  101.74240   65.72520   65.72520    4.97250    4.51850  -72.28340   -4.92130    4.51850
 2450.00000   12.97040   12.97040  403.43300  403.43730    2.47870    -999.25  113.15050  113.15050   67.87950   67.87950    2.89950    2.57000  -70.62850   -3.55040    2.57000
 2500.00000    8.28440    8.28440  123.48540  117.38880    8.51870    -999.25   92.82350   92.82350   68.70500   68.70500    8.51870    8.11350  -72.62450   -5.82860    8.11350
 2550.00000    8.39360    8.39360   69.93040   71.12320   14.06010    -999.25   95.73740   95.73740   53.63080   53.63080   14.06010    8.59120  -73.14750   -6.63380    8.59120
 2600.00000   10.71770   10.71770  191.43470  191.05480    5.23410    -999.25  107.04000  107.04000   63.61060   63.61060    5.23410    4.74650  -69.59780   -3.36810    4.74650
 2650.00000   10.33710   10.33710  216.54100  216.65190    4.61570    -999.25  107.16730  107.16730   62.46450   62.46450    4.61570    4.60610  -68.47890   -2.53140    4.60610
 2700.00000   11.44270   11.44270  222.48660  229.36830    4.35980    -999.25  126.01930  126.01930   55.73530   55.73530    4.35980    4.08140  -68.46710   -2.80360    4.08140
 2750.00000    9.27400    9.27400  199.50350  215.68920    4.63630    -999.25   89.77190   89.77190   61.54700   61.54700    4.63630    5.13940  -68.22580   -2.84450    5.13940
 2800.00000    9.61660    9.61660  257.51170  239.54390    4.17460    -999.25   90.59080   90.59080   63.32860   63.32860    4.17460    3.64000  -67.28840   -2.18930    3.64000
 2850.00000    8.71850    8.71850  101.97920  102.94950    9.71350    -999.25   89.92260   89.92260   53.57940   53.57940    9.71350    8.47200  -68.05550   -3.24040    8.47200
 2900.00000    8.68690    8.68690   83.29940   83.52130   11.97300    -999.25   88.07670   88.07670   44.09290   44.09290   11.97300   10.97920  -68.19640   -3.66350   10.97920
 2950.00000   11.73910   11.73910  247.64530  243.11380    4.11330    -999.25  137.00050  137.00050   59.17190   59.17190    4.11330    4.24460  -67.05340   -2.80450    4.24460
 3000.00000   12.26190   12.26190  205.25010  198.76370    5.03110    -999.25  103.04800  103.04800   59.48350   59.48350    5.03110    5.35310  -65.46670   -1.50000    5.35310
 3050.00000   10.55870   10.55870  207.93910  213.57030    4.68230    -999.25   96.30340   96.30340   63.29970   63.29970    4.68230    5.03620  -66.11580   -2.43120    5.03620
 3100.00000   11.31110   11.31110  209.41490  198.71630    5.03230    -999.25   93.26920   93.26920   57.56440   57.56440    5.03230    4.98350  -65.94780   -2.28370    4.98350
 3150.00000   11.07410   11.07410  221.79720  212.58500    4.70400    -999.25  130.65700  130.65700   53.46000   53.46000    4.70400    4.93160  -64.83170   -1.16760    4.93160
 3200.00000    8.19160    8.19160   28.90960   28.43410   35.16910    -999.25   84.74960   84.74960   36.57400   36.57400   35.16910   34.25070  -84.92370  -21.25960   34.25070
 3250.00000    9.68030    9.68030  190.98690  190.34570    5.25360    -999.25   93.39780   93.39780   57.10930   57.10930    5.25360    5.93570  -65.90330   -2.23920    5.93570
