~Version ---------------------------------------------------
VERS.      2.0 : CWLS log ASCII Standard -VERSION 2.0
WRAP.       NO : One line per depth step
CREA. 09/25/14 : LAS Creation Date
~Well ------------------------------------------------------
STRT.FT                    750.0 : START DEPTH
STOP.FT                   6850.0 : STOP DEPTH
STEP.FT                 50.00000 : STEP LENGTH
NULL.                    -999.25 : NULL VALUE
COMP.       SHELL CANADA LIMITED : COMPANY
WELL. SHELL WESTLOCK 10-33-61-27 : WELL
FLD .                            : FIELD
LOC .                            : LOCATION
CTRY.                     CANADA : COUNTRY
SRVC.               Schlumberger : SERVICE COMPANY
DATE.                01-Feb-1966 : LOGDATE
PROV.                    Alberta : PROVINCE
UWI .           100103306127W400 : UNIQUE WELL ID
SLAT.WGS84              54.32129 : SURFACE LATITUDE
SLON.WGS84             -113.9838 : SURFACE LONGITUDE
~Curve Information -----------------------------------------
DEPT .FT    : DEPTH FEET
CALD .IN    : CALIPER FROM DENSITY LOG
CILD .MMHO  : CONDUCTIVITY FROM IEL LOG
DRHO .G/C3  : DENSITY CORRECTION FROM DENSITY LOG
DT   .US/F  : DELTA TIME FROM SONIC LOG
GRD  .GAPI  : GAMMA RAY FROM DENSITY LOG
GRS  .GAPI  : GAMMA RAY FROM SONIC LOG
ILD  .OHMM  : DEEP INDUCTION LOG RESISTIVITY FROM DIL LOG (ILD SPL. TO ILD_2 @ 6068'-6572')
ILD_1.OHMM  : DEEP INDUCTION LOG RESISTIVITY FROM IEL LOG
ILM  .OHMM  : MEDIUM INDUCTION LOG RESISTIVITY FROM DIL LOG (ILM SPL. TO ILM_2 @ 6068'-6576')
LL8  .OHMM  : 8 INCH LATEROLOG RESISTIVITY FROM DIL LOG (LL8 SPL. TO LL8_2 @ 6068'-6506.5')
RHOB .G/C3  : BULK DENSITY FROM DENSITY LOG
SN   .OHMM  : 16 INCH SHORT NORMAL RESISTIVITY FROM IEL LOG
SPR  .MV    : SPONTANEOUS POTENTIAL FROM DIL LOG (SPR SPL. TO SPR_2 @ 6068'-6577')
SPR_1.MV    : SPONTANEOUS POTENTIAL FROM IEL LOG
~Params ----------------------------------------------------
PD  .                     GL : PERMANENT DATUM
EPD .FT               2008.9 : ELEVATION PERMANENT DATUM
LMF .                     KB : LOG MEASURED FROM
DAPD.FT                 13.8 : FEET ABOVE PERMANENT DATUM
EKB .FT               2022.7 : KELLY BUSHING
EGL .FT               2008.9 : GROUND LEVEL
DATE.               02/01/66 : RUN DATE
RUN .                      2 : RUN NUMBER
DD  .FT                 6850 : DEPTH DRILLER
DL  .FT                 6850 : DEPTH LOGGER
BLI .FT                 6846 : BOTTOM LOG INTERVAL
TLI .FT                 2900 : TOP LOG INTERVAL
CBD .FT                  724 : CASING BOTTOM DRILLER
CBL .FT                  724 : CASING BOTTOM LOGGER
BS  .IN                7.875 : BIT SIZE
BSD .FT                 6850 : BIT SIZE AT DEPTH
DFT .                    GEL : DRILLING FLUID TYPE
DFD .                    9.9 : DRILLING FLUID DENSITY
DFV .                     80 : DRILLING FLUID VISCOSITY
DFPH.                     11 : DRILLING FLUID PH
DFL .                    6.2 : DRILLING FLUID LOSS
RMS .OHMM               0.15 : RESISTIVITY MUD SAMPLE
MST .DEGF                 62 : MUD SAMPLE TEMPERATURE
RMF .OHMM               0.07 : RESISTIVITY MUD FILTRATE SAMPLE
MFST.DEGF                122 : MUD FILTRATE SAMPLE TEMPERATURE
RMC .OHMM               0.18 : RESISTIVITY MUD CAKE
MCST.DEGF                 68 : MUD CAKE SAMPLE TEMPERATURE
RMB .OHMM               0.09 : RESISTIVITY MUD AT BHT
TCS .HRS                   2 : TIME CIRCULATED STOPPED
LUN .                   2547 : LOGGING UNIT NUMBER
LUL .                     SL : LOGGING UNIT LOCATION
ENGI.                  CRAIN : RECORDING ENGINEER
WITN.                PHERSON : WITNESSED BY
CLNT.                A2DTECH : CLIENT CODE
ORIG.            2" 5" PRINT : ORIGIN OF DATA
UWI .       100103306127W400 : UNIQUE WELL ID
DICO. A2D Technologies, Inc. : DIGITIZING COMPANY
~Other -----------------------------------------------------
~ASCII -----------------------------------------------------
  750.00000    9.11920  196.36470    0.02010  107.69550   55.44000   52.13720    5.25070    5.02000    4.62800    7.04220    2.40950    6.22420  -41.01340  -64.38290
  800.00000   11.86340  258.21170    0.06260  127.16210   60.28920   49.91300    3.61950    3.87290    3.73660    4.33840    2.28740    4.34980  -42.04910  -64.06160
  850.00000   12.63740  256.53530    0.19280  128.30580   58.93570   52.72140    3.46830    3.94460    3.62840    4.48630    2.11200    3.62800  -27.25740  -52.40940
  900.00000   12.47340  193.01110    0.15850  122.76730   74.91750   64.56590    4.79590    5.17980    4.76650    5.77450    1.90400    4.59550  -13.14370  -38.82880
  950.00000   12.43860  165.23530    0.14810  121.28640   78.32790   76.31410    5.71150    6.05590    5.46240    6.92860    1.72200    5.57720   -9.98570  -32.78960
 1000.00000   12.39070  271.60250    0.14580  130.42160   92.61940   81.51070    3.62100    3.67500    3.51800    4.86890    1.88000    4.16710  -13.85680  -38.70130
 1050.00000   12.42570  176.40970    0.10430  119.20930   83.72030   84.82720    5.43890    5.68190    5.06990    6.26580    1.66860    5.30130  -11.92030  -36.52620
 1100.00000   12.40740  195.41430    0.18350  122.29460   98.71090   91.14580    4.84640    5.05220    4.61060    6.48330    1.96860    5.22130  -12.90930  -37.75230
 1150.00000   12.41720  208.92370    0.17370  132.96870  101.74030   96.52590    4.54180    4.78740    4.41270    5.80780    2.12610    5.18510  -13.70240  -38.80530
 1200.00000   12.42590  150.66270    0.15750  122.50420  112.06900   94.56510    5.80360    6.90870    4.97990    8.71170    2.04360    6.90260   -9.95410  -36.31440
 1250.00000   12.33450  176.36250    0.15740  123.04430  111.30120   98.89430    5.23120    5.52860    4.70290    6.76760    2.17910    5.74280  -13.85020  -40.64890
 1300.00000   12.41750  216.50690    0.19880  139.95700  109.13940  106.04260    4.34850    4.61550    4.23910    5.91320    2.03200    5.09690  -14.59690  -41.25550
 1350.00000   12.42040  199.64670    0.20410  139.43340  108.24740  101.46880    4.75550    4.91890    4.48540    5.97050    2.05490    5.04520  -14.81920  -41.72110
 1400.00000   12.40130  147.88270    0.10110   96.32340   81.17140   72.82010    6.27620    6.70340    5.88780    7.68970    1.71990    6.23960  -12.70480  -38.41210
 1450.00000   12.38700  167.91490    0.17150  118.02510  100.74920   94.09560    5.47350    5.94740    5.21470    6.88920    2.09740    5.73990  -16.75750  -42.24510
 1500.00000   12.35340  184.83130    0.16920  115.63080   96.58870   87.69960    5.07430    5.57620    4.77390    6.49850    2.07010    5.31100  -15.57570  -42.71740
 1550.00000   12.36480  127.06940    0.01750   93.25020   86.02210   71.37980    7.15020    7.87160    6.61660    9.37290    2.25470    6.79190  -15.71440  -41.04000
 1600.00000   10.82460  189.08790    0.12480  112.53760  110.03430   96.22420    4.88890    5.28420    4.77310    6.15770    2.29770    5.45900  -16.37730  -43.13390
 1650.00000   10.71720  211.01980    0.16860  113.72920  102.33020   92.65560    4.42450    4.73820    4.28300    5.49070    2.15010    5.10000  -16.05870  -40.81210
 1700.00000   11.99270  190.97200    0.16510  116.87850   98.03620   84.91540    4.97290    5.23580    4.76320    7.25490    2.03730    5.91050  -12.43180  -40.77500
 1750.00000   11.66750  187.70310    0.21030  114.25250   99.49380   94.36940    5.26120    5.32610    5.28940    7.14310    2.21070    6.36420  -22.48780  -47.69160
 1800.00000    9.08850  191.18480    0.07100  117.75980  126.81760  113.41480    5.26570    5.21290    4.53610    8.82380    2.29260    6.60320  -24.15230  -49.22300
 1850.00000   12.59480  172.36710    0.20680  102.42480   83.67960   79.28590    5.27510    5.79950    5.39490    7.06020    2.07420    5.98650  -10.67340  -38.36790
 1900.00000   12.63090  203.90050    0.14040  105.19010   92.40480   77.35840    4.58330    4.90790    4.47550    6.91740    1.97900    5.27020  -11.85150  -40.34760
 1950.00000   11.60790  178.81480    0.11050  105.15290  107.65820   93.84570    5.18450    5.48210    4.97010    7.93140    2.32520    5.62860  -12.28800  -41.71890
 2000.00000   12.59860  193.23650    0.11050  107.18240  105.39650  102.65440    4.77790    5.17500    4.65740    7.70490    2.36260    5.44650  -15.08310  -43.84270
 2050.00000   12.97510  554.62250    0.15080  132.90420  117.22430  102.79750    1.52170    2.08210    1.53200    3.55280    1.85510    2.66520  -14.93650  -42.17390
 2100.00000   12.92940  347.28740    0.15650  116.23130   85.96350   83.96810    2.73250    2.87940    2.63170    3.83410    2.08930    3.20900  -13.69880  -40.65920
 2150.00000   12.95550  369.92360    0.16480  108.60480   84.85550   74.53420    2.54220    2.70230    2.63270    3.92290    2.10450    3.10030  -13.57010  -41.42710
 2200.00000   12.21210  337.86020    0.17990  114.23090   91.11400   79.93360    2.76780    2.95300    2.67040    3.88710    2.23460    3.38470  -14.60810  -42.44960
 2250.00000   11.57320  232.20790    0.23310  104.96050  115.31530  104.70190    4.01620    4.48490    4.13640    5.49410    2.30490    4.88230  -21.27500  -49.66370
 2300.00000   11.69380  665.97750    0.02610  144.80480   73.09040   72.04260    1.44760    1.71770    1.50160    2.19320    2.10860    1.95780   -9.92970  -40.13090
 2350.00000    7.83500  618.38310    0.02270  104.57270   54.25720   48.60160    1.49360    1.92900    1.95120    4.95810    2.27070    3.89370  -32.65300  -63.94880
 2400.00000   10.77910  502.38490    0.14580  116.44640   70.70830   58.61660    2.19310    2.21830    2.10820    4.28580    1.95590    3.13290   -7.98820  -44.99290
 2450.00000    8.49760  170.50300    0.00890   97.12470   49.36420   49.40720    6.47890    5.97360    5.13390    7.89830    2.30940    6.66050  -20.57230  -55.68710
 2500.00000    8.94870  223.74810    0.01360   94.41940   76.43660   68.73640    4.31000    4.67470    4.21990    5.70040    2.40250    5.54990  -18.67600  -54.05150
 2550.00000    8.07980  462.14100   -0.00200  102.31980   64.31290   55.46760    1.99920    2.30620    2.57820    5.87050    2.24600    5.86480  -28.70900  -63.38460
 2600.00000    8.14130  393.36230    0.03230  100.69080   58.72470   55.58440    2.32930    2.71840    2.87240    5.63280    2.26470    4.97120  -26.73000  -60.56680
 2650.00000    8.02590  333.57660    0.02130   96.53380   67.37130   58.62700    2.64520    3.37260    3.08060    5.02930    2.32540    5.50740  -24.84410  -58.97430
 2700.00000    8.40350  230.09870    0.00750   92.03430   76.89070   78.76920    4.22760    4.74220    4.34130    5.93260    2.44970    5.43050  -21.09070  -54.05440
 2750.00000    8.44990  220.77330   -0.00270   90.72520   75.73250   72.47470    4.52250    4.75590    4.64820    7.58550    2.46190    5.96280  -21.68630  -56.09460
 2800.00000    7.70810  277.39450    0.05210   86.45550   53.15250   51.90230    3.34850    3.76890    5.21860   19.56550    2.43130   12.26030  -28.74230  -63.78430
 2850.00000    9.82360  279.03330    0.19640   97.52470   70.46780   67.98460    3.41340    3.74590    3.27200    5.98380    2.18970    4.21650   -6.62390  -45.44730
 2900.00000    8.25860   63.26000    0.00780   64.20070   41.34130   40.78410   17.03400   15.74600   13.61190   31.93710    2.65050   14.06950  -16.60560  -53.96020
 2950.00000    8.03440  184.73420    0.00360   82.13130   58.46260   59.96730    4.68470    5.60030    5.94380   12.55770    2.46320    9.73210  -22.83920  -61.44560
 3000.00000    8.21850  190.95310   -0.00410   84.85280   71.05450   74.78770    4.45960    5.61470    5.73170    6.98450    2.43520    7.78640  -18.91520  -57.29410
 3050.00000    7.56490 1382.20470    0.01580   89.57380   20.31560   22.11320    1.04790    1.00230    1.49610    3.54780    2.24450    1.79480  -33.75560  -71.50260
 3100.00000    7.71020 1731.14180    0.00500   95.75280   19.37100   18.64200    0.62370    0.88480    0.72450    1.84980    2.26060    1.31720  -32.01510  -70.91770
 3150.00000    7.60100  400.30050    0.00380   89.72190   46.02870   50.94300    2.50760    2.70350    3.46350    6.81200    2.30450    5.55630   -3.05650  -62.47420
