~Version ---------------------------------------------------
VERS.      2.0 : CWLS log ASCII Standard -VERSION 2.0
WRAP.       NO : One line per depth step
CREA. 03/07/13 : LAS Creation Date
~Well ------------------------------------------------------
STRT.FT                       1100.0 : START DEPTH
STOP.FT                      10650.0 : STOP DEPTH
STEP.FT                     50.00000 : STEP LENGTH
NULL.                        -999.25 : NULL VALUE
COMP.           PETROFINA CANADA LTD : COMPANY
WELL. FINA AMOCO HB PASSCK 10-6-61-1 : WELL
FLD .                             WC : FIELD
LOC .                                : LOCATION
CTRY.                         CANADA : COUNTRY
SRVC.                   Schlumberger : SERVICE COMPANY
DATE.                    16-Nov-1976 : LOGDATE
PROV.                        Alberta : PROVINCE
UWI .               100100606117W500 : UNIQUE WELL ID
SLAT.WGS84                  54.24964 : SURFACE LATITUDE
SLON.WGS84                 -116.5333 : SURFACE LONGITUDE
~Curve Information -----------------------------------------
DEPT   .FT    : DEPTH FEET
CALD   .IN    : CALIPER FROM DENSITY LOG
CALS   .IN    : CALIPER FROM SONIC LOG
CILD   .MMHO  : CONDUCTIVITY FROM RESISTIVITY LOG
DCOR   .G/C3  : DENSITY CORRECTION FROM DENSITY LOG
DPHI_LS.DEC   : DENSITY POROSITY LIME [M=2.71, F=1.0] FROM DENSITY LOG
DPHI_SS.DEC   : DENSITY POROSITY SAND [M=2.65, F=1.0] FROM DENSITY LOG
DT     .US/F  : DELTA TIME FROM SONIC LOG
GRD    .GAPI  : GAMMA RAY FROM DENSITY LOG
GRS    .GAPI  : GAMMA RAY FROM SONIC LOG
ILD    .OHMM  : DEEP INDUCTION RESISTIVITY FROM RESISTIVITY LOG
ILM    .OHMM  : MEDIUM INDUCTION RESISTIVITY FROM RESISTIVITY LOG
LL8    .OHMM  : 8 INCH LATEROLOG RESISTIVITY FROM RESISTIVITY LOG
NPHI_LS.DEC   : NEUTRON POROSITY LIME FROM DENSITY LOG
NPHI_SS.DEC   : NEUTRON POROSITY SAND FROM DENSITY LOG
RHOB   .G/C3  : BULK DENSITY FROM DENSITY LOG
SPR    .MV    : SPONTANEOUS POTENTIAL FROM RESISTIVITY LOG
~Params ----------------------------------------------------
PD  .                     GL : PERMANENT DATUM
EPD .FT                 3080 : ELEVATION PERMANENT DATUM
LMF .                     KB : LOG MEASURED FROM
DAPD.FT                   16 : FEET ABOVE PERMANENT DATUM
EKB .FT                 3096 : KELLY BUSHING
EGL .FT                 3080 : GROUND LEVEL
DATE.               11/16/76 : RUN DATE
RUN .                      2 : RUN NUMBER
DD  .FT                10680 : DEPTH DRILLER
DL  .FT                10679 : DEPTH LOGGER
BLI .FT                10673 : BOTTOM LOG INTERVAL
TLI .FT                 7468 : TOP LOG INTERVAL
CBD .FT                 1102 : CASING BOTTOM DRILLER
CBL .FT                 1102 : CASING BOTTOM LOGGER
BS  .IN                 8.75 : BIT SIZE
BSD .FT                10680 : BIT SIZE AT DEPTH
DFT .                    GEL : DRILLING FLUID TYPE
DFD .                    9.2 : DRILLING FLUID DENSITY
DFV .                     94 : DRILLING FLUID VISCOSITY
DFPH.                     10 : DRILLING FLUID PH
DFL .                    8.2 : DRILLING FLUID LOSS
MSS .               FLOWLINE : MUD SAMPLE SOURCE
RMS .OHMM               1.57 : RESISTIVITY MUD SAMPLE
MST .DEGF                 65 : MUD SAMPLE TEMPERATURE
RMF .OHMM               1.76 : RESISTIVITY MUD FILTRATE SAMPLE
MFST.DEGF                 68 : MUD FILTRATE SAMPLE TEMPERATURE
TCS .HRS                 2.5 : TIME CIRCULATED STOPPED
LUN .                   7800 : LOGGING UNIT NUMBER
LUL .                    EDM : LOGGING UNIT LOCATION
ENGI.     ROBELLI LEDUG BIGG : RECORDING ENGINEER
WITN.                CHARLES : WITNESSED BY
CLNT.                A2DTECH : CLIENT CODE
ORIG.            2" 5" PRINT : ORIGIN OF DATA
UWI .       100100606117W500 : UNIQUE WELL ID
DICO. A2D Technologies, Inc. : DIGITIZING COMPANY
~Other -----------------------------------------------------
~ASCII -----------------------------------------------------
# ...
 5400.00000   10.67560    9.80330    -999.25    0.18300    -999.25    0.03050   81.45450  108.66770  118.85480    7.95150    7.56910    9.32140    -999.25    0.28990    2.60690  -27.06480
 5450.00000   10.45780   10.09040    -999.25    0.08020    -999.25    0.05080   83.24420  107.55180  114.10290    7.10630    6.70120    8.56640    -999.25    0.31300    2.60380  -25.16730
 5500.00000   11.44180   11.67540    -999.25    0.12090    -999.25    0.01440   88.65230  102.34680  112.05980    5.02040    4.79280    6.40780    -999.25    0.34570    2.60950  -24.47540
 5550.00000   11.33350   10.17980    -999.25    0.11880    -999.25    0.06830   97.91480  125.24010  135.94350    4.09190    3.96380    5.47790    -999.25    0.35640    2.56470  -21.95410
 5600.00000   12.80260   11.15750    -999.25    0.22280    -999.25    0.16050   92.80610   96.34010  109.16010    3.34670    3.19630    4.01910    -999.25    0.38650    2.39080  -19.39170
 5650.00000   11.43710   10.24910    -999.25    0.22700    -999.25    0.13070   85.34350   95.30800   98.51190    4.71500    4.56270    6.27220    -999.25    0.30270    2.57720  -20.07330
 5700.00000   10.58930    9.87710    -999.25    0.10990    -999.25    0.09730   83.25040  107.67870  116.83970    6.43480    6.12700    8.22640    -999.25    0.24810    2.52910  -21.19210
 5750.00000    9.28000    9.10560    -999.25    0.04880    -999.25    0.05760   72.85660   55.35260   59.98400   15.96200   15.43400   19.54180    -999.25    0.16280    2.58320  -42.74130
 5800.00000   10.35940    9.56670    -999.25    0.20030    -999.25    0.04420   73.67380   58.53820   73.62990   15.45780   17.63000   19.16450    -999.25    0.19030    2.55510  -31.03410
 5850.00000    9.98940    9.62330    -999.25    0.02210    -999.25    0.05960   72.48750   58.68370   61.67980   12.23210   12.69900   13.95700    -999.25    0.20950    2.50790  -27.78760
 5900.00000    9.74130    9.63940    -999.25    0.06420    -999.25    0.03640   70.28710   88.80930   89.67480   12.84910   13.24350   15.22560    -999.25    0.25760    2.58690  -26.29240
 5950.00000    9.65790    9.50100    -999.25    0.04040    -999.25    0.02750   72.51850   97.80140   96.14710   11.27140   11.46160   13.94460    -999.25    0.24800    2.59810  -26.19140
 6000.00000   10.29620   10.32710    -999.25    0.02840    -999.25    0.05070   72.17560   63.69550   74.20930   14.47870   12.01330   25.61010    -999.25    0.23390    2.52430  -26.24050
 6050.00000    9.92240    9.68110    -999.25    0.05350    -999.25    0.15010   92.48650   86.09050  108.63030   15.21100   15.74410   20.32560    -999.25    0.32880    2.54490  -23.21620
 6100.00000   11.47210   10.10510    -999.25    0.00110    -999.25    0.10270   74.86660   54.19770   63.11970   10.70350   12.01010   12.20560    -999.25    0.22030    2.41140  -26.02030
 6150.00000    9.79620    9.63630    -999.25    0.04750    -999.25    0.05630   70.66940   65.70730   65.45300   12.58000   12.19330   14.09050    -999.25    0.19050    2.58400  -33.76450
 6200.00000    9.92740    9.63900    -999.25    0.06630    -999.25    0.01070   73.19080   59.59460   64.63690   11.06930   11.56300   14.28210    -999.25    0.20190    2.63220  -32.42150
 6250.00000    9.60170    9.53440    -999.25    0.00200    -999.25    0.04260   72.99340   84.46390   88.90990   14.20530   14.70900   23.11610    -999.25    0.23310    2.60010  -23.79120
 6300.00000   10.35730    9.55600    -999.25    0.04670    -999.25    0.10040   74.44310   58.52980   66.38420    9.74720   10.04330   11.51690    -999.25    0.21880    2.49840  -33.04180
 6350.00000    9.43300    9.38380    -999.25   -0.00000    -999.25    0.03770   72.69330   52.39790   64.60960   10.04300    9.65880   13.16880    -999.25    0.23130    2.57640  -29.03400
 6400.00000    9.48780    9.23450    -999.25    0.04330    -999.25   -0.00620   74.82880   71.41990   89.91520   12.35640   11.55960   13.67470    -999.25    0.24960    2.65460  -20.67570
 6450.00000    9.80580    9.38250    -999.25    0.04390    -999.25   -0.00830   69.03180   78.08110   81.05460   10.61700   11.22320   13.69520    -999.25    0.22890    2.66040  -15.14290
 6500.00000    9.68230    9.27080    -999.25    0.02910    -999.25    0.00060   73.90270   94.16180   99.62740   11.17490   11.54470   15.88950    -999.25    0.23180    2.65150  -15.15390
 6550.00000    9.25190    8.97640    -999.25    0.05510    -999.25    0.08770   70.92030   44.55450   45.16980   14.42490   14.86530   24.42550    -999.25    0.15230    2.54360  -51.60880
 6600.00000    9.55940    9.59620    -999.25    0.01460    -999.25    0.01550   78.77780   91.03400  122.98370   15.22790   16.57780   23.09510    -999.25    0.20140    2.62440  -16.19540
 6650.00000   10.17840    9.60070    -999.25    0.23390    -999.25    0.12860   69.59980   80.59670   67.99080   21.48710   24.28900   45.06330    -999.25    0.19290    2.46620  -18.39660
 6700.00000   11.70340   10.26610    -999.25    0.24620    -999.25    0.12870   90.50470   99.56800  122.68750    5.65910    5.57440    8.05300    -999.25    0.39710    2.43500  -14.93940
 6750.00000   11.20090    9.80510    -999.25    0.18760    -999.25    0.09540   79.10250   92.02140   99.84440    6.47030    6.61560    9.80920    -999.25    0.29610    2.45910   -9.71390
 6800.00000   12.57570   10.40590    -999.25    0.18640    -999.25    0.13060   95.31860   93.05490   99.53990    4.51480    4.71640    6.46040    -999.25    0.40910    2.42740  -43.61720
 6850.00000   10.55880    9.96950    -999.25    0.15140    -999.25    0.07300   96.86190  112.07270  126.51060    9.94380   10.70090   13.22860    -999.25    0.40070    2.45640  -38.59800
 6900.00000    9.15860    8.85390    -999.25    0.09320    0.04350    -999.25   61.82120   40.21190  144.64430  180.83060  212.63400  670.96370    0.12230    -999.25    2.65780  -50.54900
 6950.00000    9.22410    8.91480    -999.25    0.05290    0.06880    -999.25   64.95410   71.48930   75.40410   24.44860   25.63030   33.37470    0.04810    -999.25    2.59440  -72.80300
 7000.00000    9.24420    8.77930    -999.25    0.05200    0.05200    -999.25   65.17390   69.30380   69.77490   22.57550   24.09610   28.67050    0.05680    -999.25    2.61220  -71.34480
 7050.00000    9.25030    9.09170    -999.25    0.01390    0.03400    -999.25   62.72320   79.14860   84.89580   10.68990   11.06140   14.39730    0.08240    -999.25    2.62450  -60.08420
 7100.00000    9.09550    8.93470    -999.25    0.09660   -0.04450    -999.25   53.34340   54.13230   62.44900    4.82220    5.38360   29.22040    0.09580    -999.25    2.75040  -85.50520
 7150.00000    9.26280    8.96970    -999.25    0.06340   -0.01720    -999.25   59.63610   47.79160   52.74730    3.98950    4.15020    6.61380    0.12740    -999.25    2.70600  -73.99410
 7200.00000    8.95410    8.83120    -999.25    0.06610   -0.01140    -999.25   50.84400   33.46170   25.12470   14.11690   11.01670   58.75130    0.05800    -999.25    2.74200  -65.18980
 7250.00000    8.90530    8.83770    -999.25    0.03100   -0.08070    -999.25   50.76910   40.32780   22.57420   28.37420   46.23980  126.76950    0.03280    -999.25    2.76810  -55.88460
 7300.00000    8.87640    8.89610    -999.25    0.01030   -0.15810    -999.25   51.66750    6.31860    8.30640 1528.15830 1577.13570 1637.87350   -0.00800    -999.25    2.97850  -89.76070
 7350.00000    8.81670    8.75810    -999.25    0.01730   -0.00170    -999.25   52.15980   16.15270   15.62270   20.14380   22.04190   47.78410    0.01790    -999.25    2.71520  -99.19080
 7400.00000    8.77440    8.79930    -999.25    0.02110    0.03510    -999.25   51.61870    9.33110   12.27030   21.34630   23.22450   63.95300    0.02400    -999.25    2.65290 -124.63350
 7450.00000    8.66540    8.64820    -999.25    0.09940   -0.04000    -999.25   58.78590   81.39830   69.03010    6.70580    7.03480    9.73120    0.11790    -999.25    2.76760  -84.20290
 7500.00000    9.54230    9.62700    -999.25   -0.01550    0.00880    -999.25   64.48840   70.80760   89.25410   14.98100   14.21300   20.95570    0.15830    -999.25    2.66040  -41.37450
