~Version ---------------------------------------------------
VERS.      2.0 : CWLS log ASCII Standard -VERSION 2.0
WRAP.       NO : One line per depth step
CREA. 11/17/17 : LAS Creation Date
~Well ------------------------------------------------------
STRT.FT                          1000.0 : START DEPTH
STOP.FT                          9050.0 : STOP DEPTH
STEP.FT                        50.00000 : STEP LENGTH
NULL.                           -999.25 : NULL VALUE
COMP.            SINCLAIR CANADA OIL CO : COMPANY
WELL. SINCLAIR ET AL SUNSET 10-34-70-20 : WELL
FLD .                                   : FIELD
LOC .                                   : LOCATION
CTRY.                            CANADA : COUNTRY
SRVC.                           Unknown : SERVICE COMPANY
DATE.                       23-Mar-1965 : LOGDATE
PROV.                           Alberta : PROVINCE
UWI .                  100103407020W500 : UNIQUE WELL ID
SLAT.WGS84                     55.10692 : SURFACE LATITUDE
SLON.WGS84                     -116.959 : SURFACE LONGITUDE
~Curve Information -----------------------------------------
DEPT  .FT    : Depth Curve
CALWS .IN    : CALIPER [MCALED]
CILDED.MMHO  : CONDUCTIVITY FROM RESISTIVITY LOG
CONDWS.MMHO  : CONDUCTIVITY [1000/DRESWS]
DRESWS.OHMM  : DEEP RESISTIVITY [1000/CILDED IF ILDED < 1, ILDED]
DTED  .US/F  : DELTA-TIME FROM SONIC LOG
DTWS  .US/F  : COMPRESSIONAL SONIC [DTED]
GRSED .GAPI  : GAMMA RAY FROM SONIC LOG
GRWS  .GAPI  : GAMMA RAY [GRSED]
ILDED .OHMM  : DEEP INDUCTION 36' 6" RESISTIVITY FROM RESISTIVITY LOG
MCALED.IN    : MICRO CALIPER FROM ML LOG
SNED  .OHMM  : SHORT NORMAL 16" RESISTIVITY FROM RESISTIVITY LOG
SPRED .MV    : SPONTANEOUS POTENTIAL FROM RESISTIVITY LOG
SPWS  .MV    : SPONTANEOUS POTENTIAL [BASELINE 0 MV, SPRED]
SRESWS.OHMM  : SHALLOW RESISTIVITY [SNED]
~Params ----------------------------------------------------
PD  .                     GL : PERMANENT DATUM
EPD .FT                 2305 : ELEVATION PERMANENT DATUM
LMF .                     GL : LOG MEASURED FROM
EGL .FT                 2305 : GROUND LEVEL
DATE.               03/23/65 : RUN DATE
RUN .                      1 : RUN NUMBER
DD  .FT                 9060 : DEPTH DRILLER
DL  .FT                 9069 : DEPTH LOGGER
BLI .FT                 9068 : BOTTOM LOG INTERVAL
TLI .FT                  955 : TOP LOG INTERVAL
CBD .FT                  950 : CASING BOTTOM DRILLER
CBL .FT                  955 : CASING BOTTOM LOGGER
BS  .IN                7.875 : BIT SIZE
BSD .FT                 9060 : BIT SIZE AT DEPTH
DFT .                    GEL : DRILLING FLUID TYPE
DFD .                    9.8 : DRILLING FLUID DENSITY
DFV .                    141 : DRILLING FLUID VISCOSITY
DFPH.                    9.5 : DRILLING FLUID PH
DFL .                      7 : DRILLING FLUID LOSS
RMS .OHMM               2.22 : RESISTIVITY MUD SAMPLE
MST .DEGF                 62 : MUD SAMPLE TEMPERATURE
RMF .OHMM               1.37 : RESISTIVITY MUD FILTRATE SAMPLE
MFST.DEGF                 65 : MUD FILTRATE SAMPLE TEMPERATURE
RMC .OHMM               1.93 : RESISTIVITY MUD CAKE
RMB .OHMM              0.834 : RESISTIVITY MUD AT BHT
TCS .HRS                   4 : TIME CIRCULATED STOPPED
LUN .                   1576 : LOGGING UNIT NUMBER
LUL .                    WCT : LOGGING UNIT LOCATION
ENGI.              DEMETRICK : RECORDING ENGINEER
WITN.               SHERRIFF : WITNESSED BY
CLNT.                A2DTECH : CLIENT CODE
ORIG.            2" 5" PRINT : ORIGIN OF DATA
UWI .       100103407020W500 : UNIQUE WELL ID
DICO. A2D Technologies, Inc. : DIGITIZING COMPANY
~Other -----------------------------------------------------
IE-BCS-ML LOG RUN
ALL RESISTIVITY DATA FROM SMALL SECTION @ TOP-2696'
~ASCII -----------------------------------------------------
 1000.00000    -999.25  222.14470  225.69800    4.43070  172.07760  172.07760   66.74330   66.74330    4.43070    -999.25    5.04920  -33.26780   -1.92870    5.04920
 1050.00000    -999.25  282.03350  284.05860    3.52040  157.43880  157.43880   48.40950   48.40950    3.52040    -999.25    4.26560  -32.75520   -1.00440    4.26560
 1100.00000    -999.25  167.32610  167.85850    5.95740  117.92060  117.92060   54.30120   54.30120    5.95740    -999.25    5.00690  -34.28640   -2.12110    5.00690
 1150.00000    -999.25  237.69560  239.42920    4.17660  132.97710  132.97710   60.77850   60.77850    4.17660    -999.25    5.13770  -36.27100   -3.69390    5.13770
 1200.00000    -999.25  161.26350  161.23830    6.20200  104.80490  104.80490   60.56180   60.56180    6.20200    -999.25    5.53560  -37.92870   -4.99150    5.53560
 1250.00000    -999.25  253.45810  270.27760    3.69990  138.00700  138.00700   59.16010   59.16010    3.69990    -999.25    4.25960  -35.77090   -2.47630    4.25960
 1300.00000    -999.25  242.97720  241.63340    4.13850  154.36720  154.36720   59.56300   59.56300    4.13850    -999.25    5.14020  -35.71170   -2.05980    5.14020
 1350.00000    -999.25  161.00440  160.99690    6.21130  147.02400  147.02400   64.59810   64.59810    6.21130    -999.25    5.78420  -38.28240   -4.73060    5.78420
 1400.00000    -999.25  144.57070  144.54000    6.91850  122.60150  122.60150   67.37670   67.37670    6.91850    -999.25    6.15610  -38.58830   -5.43900    6.15610
 1450.00000    -999.25  166.46360  169.09890    5.91370  129.16430  129.16430   82.36060   82.36060    5.91370    -999.25    6.47420  -38.16820   -5.42400    6.47420
 1500.00000    -999.25  276.28960  264.99890    3.77360  142.82340  142.82340  122.69550  122.69550    3.77360    -999.25    5.39250  -35.54780   -3.20600    5.39250
 1550.00000    -999.25  133.10840  142.66150    7.00960  139.52110  139.52110  157.81570  157.81570    7.00960    -999.25    8.29170  -34.07010   -2.13080    8.29170
 1600.00000    -999.25  166.75460  174.72440    5.72330  154.94180  154.94180   85.31790   85.31790    5.72330    -999.25    6.28290  -39.92630   -7.81250    6.28290
 1650.00000    -999.25  162.26700  170.17800    5.87620  122.46140  122.46140   96.31940   96.31940    5.87620    -999.25    6.57650  -40.59600   -7.94730    6.57650
 1700.00000    -999.25  137.18740  137.16480    7.29050  119.38440  119.38440   74.75480   74.75480    7.29050    -999.25    6.64240  -41.84620   -8.65910    6.64240
 1750.00000    -999.25  119.47200  119.41440    8.37420  106.63520  106.63520   93.46480   93.46480    8.37420    -999.25    7.81210  -42.20310   -8.48120    7.81210
 1800.00000    -999.25  142.52550  131.30420    7.61590  112.58000  112.58000   89.66550   89.66550    7.61590    -999.25    7.07340  -42.97330   -8.71650    7.07340
 1850.00000    -999.25  140.89120  140.93040    7.09570  162.23190  162.23190   63.19640   63.19640    7.09570    -999.25    6.61770  -41.37790   -6.58270    6.61770
 1900.00000    -999.25  133.69830  132.03760    7.57360  178.01860  178.01860   68.06910   68.06910    7.57360    -999.25    6.89580  -43.05850   -7.72840    6.89580
 1950.00000    -999.25  159.01210  158.98760    6.28980  145.23460  145.23460   73.03250   73.03250    6.28980    -999.25    5.72350  -41.98570   -6.11720    5.72350
 2000.00000    -999.25  140.40260  140.57180    7.11380  136.31210  136.31210   78.39280   78.39280    7.11380    -999.25    6.55020  -42.36630   -5.96290    6.55020
 2050.00000    -999.25  176.99520  164.66060    6.07310  162.19600  162.19600   74.06940   74.06940    6.07310    -999.25    5.56830  -42.78830   -5.85000    5.56830
 2100.00000    -999.25  193.81340  193.94880    5.15600  139.94810  139.94810   94.38050   94.38050    5.15600    -999.25    5.71610  -40.53870   -3.06200    5.71610
 2150.00000    -999.25  165.29950  170.23590    5.87420  126.17220  126.17220   84.82390   84.82390    5.87420    -999.25    7.00620  -40.43050   -2.41890    7.00620
 2200.00000    -999.25  168.20220  168.18880    5.94570  118.59060  118.59060   83.06120   83.06120    5.94570    -999.25    7.08310  -40.48580   -1.93580    7.08310
 2250.00000    -999.25  150.35470  156.99330    6.36970  125.62730  125.62730  127.11860  127.11860    6.36970    -999.25    8.32310  -40.76860   -1.72500    8.32310
 2300.00000    -999.25  157.97790  138.26290    7.23260  139.31720  139.31720   77.86660   77.86660    7.23260    -999.25    6.32160  -43.49450   -4.46450    6.32160
 2350.00000    -999.25  165.07910  174.16440    5.74170  126.25560  126.25560   58.56670   58.56670    5.74170    -999.25    6.29080  -43.69510   -4.94980    6.29080
 2400.00000    -999.25  116.41870  120.81670    8.27700  100.31500  100.31500   69.21640   69.21640    8.27700    -999.25   13.81190  -78.65190  -40.18950   13.81190
 2450.00000    -999.25  210.34150  210.35800    4.75380  125.90070  125.90070   71.45550   71.45550    4.75380    -999.25    5.61650  -42.48550   -4.30780    5.61650
 2500.00000    -999.25  256.34360  256.21320    3.90300  107.81320  107.81320   85.49180   85.49180    3.90300    -999.25    4.49830  -40.94570   -3.05080    4.49830
 2550.00000    -999.25  232.79320  232.77470    4.29600   98.96530   98.96530   72.55890   72.55890    4.29600    -999.25    4.85800  -40.86220   -3.25020    4.85800
 2600.00000    -999.25  219.36870  219.03410    4.56550  114.91230  114.91230   75.24990   75.24990    4.56550    -999.25    5.18650  -48.25150  -10.92420    5.18650
 2650.00000    -999.25  281.77050  294.67230    3.39360  104.64770  104.64770   85.15950   85.15950    3.39360    -999.25    4.67630  -41.38960   -4.34510    4.67630
 2700.00000   14.06850  220.43800  263.01950    3.80200  100.25870  100.25870   78.82240   78.82240    3.80200   14.06850    5.17610  -43.41040   -6.65060    5.17610
 2750.00000   13.82380  226.25420  254.80950    3.92450  104.43990  104.43990   89.08530   89.08530    3.92450   13.82380    5.05920  -43.38720   -6.91030    5.05920
 2800.00000   12.37500  477.51850  683.43360    1.46320  130.08580  130.08580  107.50820  107.50820    1.46320   12.37500    2.97610  -37.39940   -1.18150    2.97610
 2850.00000   13.27750  444.04210  622.04530    1.60760  133.82970  133.82970   92.74450   92.74450    1.60760   13.27750    2.60900  -38.87470   -2.49340    2.60900
 2900.00000   14.39030  354.07110  445.37480    2.24530  120.65890  120.65890   69.64480   69.64480    2.24530   14.39030    3.30890  -39.83940   -3.18770    3.30890
 2950.00000   13.61650  319.96740  376.74720    2.65430  110.38080  110.38080   82.08700   82.08700    2.65430   13.61650    3.51500  -41.68030   -4.75650    3.51500
 3000.00000   15.58790  370.40990  432.09610    2.31430  120.74150  120.74150   74.57350   74.57350    2.31430   15.58790    3.22590  -46.65530   -9.46110    3.22590
 3050.00000    7.95800  189.97880  207.18090    4.82670   86.50460   86.50460   72.44360   72.44360    4.82670    7.95800    9.12720  -89.72410  -52.25960    9.12720
 3100.00000   11.69800  287.66090  325.72230    3.07010   86.67000   86.67000   73.35680   73.35680    3.07010   11.69800    4.40030  -52.52170  -14.78500    4.40030
 3150.00000   11.87890  531.23840  763.35880    1.31000  123.73880  123.73880   72.36970   72.36970    1.31000   11.87890    2.50180  -44.35530   -6.34830    2.50180
 3200.00000    9.87200  280.36800  318.34970    3.14120  130.35430  130.35430   59.25750   59.25750    3.14120    9.87200    5.13450  -51.60110  -13.32190    5.13450
 3250.00000    9.31100  278.36800  319.15230    3.13330   81.62400   81.62400   44.08980   44.08980    3.13330    9.31100    9.07670  -71.72130  -33.17180    9.07670
 3300.00000    8.08940  395.28610  493.02370    2.02830   97.02430   97.02430   42.58520   42.58520    2.02830    8.08940   11.86110 -124.75290  -85.93300   11.86110
 3350.00000    9.52280  245.94100  280.65450    3.56310  103.65960  103.65960   60.03700   60.03700    3.56310    9.52280    6.07030  -78.04760  -38.95560    6.07030
 3400.00000   10.91630  292.15740  320.39990    3.12110  102.40630  102.40630   69.47510   69.47510    3.12110   10.91630    4.09630  -44.77280   -5.41040    4.09630
