~Version ---------------------------------------------------
VERS.      2.0 : CWLS log ASCII Standard -VERSION 2.0
WRAP.       NO : One line per depth step
CREA. 10/15/14 : LAS Creation Date
~Well ------------------------------------------------------
STRT.M                             300.0 : START DEPTH
STOP.M                            2700.0 : STOP DEPTH
STEP.M                          50.00000 : STEP LENGTH
NULL.                            -999.25 : NULL VALUE
COMP.            PETROMARK MINERALS LTD. : COMPANY
WELL. PETROMK ET AL MORSE RIVER 2-2-65-8 : WELL
FLD .                                    : FIELD
LOC .                                    : LOCATION
CTRY.                             CANADA : COUNTRY
SRVC.                       Schlumberger : SERVICE COMPANY
DATE.                        29-Sep-1978 : LOGDATE
PROV.                            Alberta : PROVINCE
UWI .                   100020206508W500 : UNIQUE WELL ID
SLAT.WGS84                      54.59157 : SURFACE LATITUDE
SLON.WGS84                     -115.0921 : SURFACE LONGITUDE
~Curve Information -----------------------------------------
DEPT    .M      : DEPTH.M
CALDED  .MM     : CALIPER FROM DENSITY LOG [ADJ.TO RESISTIVITY LOG]
CALSED  .MM     : CALIPER FROM SONIC LOG [ADJ.TO RESISTIVITY LOG]
CALWS   .MM     : CALIPER [CALDED]
CONDWS  .MMHO   : CONDUCTIVITY [1000/DRESWS]
CORRED  .KG/M3  : DENSITY CORRECTION FROM DENSITY LOG [ADJ.TO RESISTIVITY LOG]
DCORWS  .KG/M3  : DENSITY CORRECTION [CORRED]
DENWS   .KG/M3  : FORMATION BULK DENSITY [RHOBED]
DPHILSED.V/V    : DENSITY POROSITY LIMESTONE [M=2710, F=1000] FROM DENSITY LOG [ADJ.TO RESISTIVITY LOG]
DPHISSED.V/V    : DENSITY POROSITY SANDSTONE [M=2650, F=1000] FROM DENSITY LOG [ADJ.TO RESISTIVITY LOG]
DPOLSWS .V/V    : DENSITY POROSITY LIMESTONE [CALC. FROM DENWS, M=2710, F=1000]
DRESWS  .OHMM   : DEEP RESISTIVITY [ILDED]
DTED    .US/M   : DELTA-T FROM SONIC LOG [ADJ.TO RESISTIVITY LOG]
DTWS    .US/M   : COMPRESSIONAL SONIC [DTED]
GRDED   .GAPI   : GAMMA RAY FROM DENSITY LOG [ADJ.TO RESISTIVITY LOG]
GRSED   .GAPI   : GAMMA RAY FROM SONIC LOG [ADJ.TO RESISTIVITY LOG]
GRWS    .GAPI   : GAMMA RAY [GRSED]
ILDED   .OHMM   : DEEP INDUCTION FROM RESISTIVITY LOG
ILMED   .OHMM   : MEDIUM INDUCTION FROM RESISTIVITY LOG
MRESWS  .OHMM   : MEDIUM RESISTIVITY [ILMED]
NPHILSED.V/V    : NEUTRON POROSITY LIMESTONE FROM DENSITY LOG [ADJ.TO RESISTIVITY LOG]
NPHISSED.V/V    : NEUTRON POROSITY SANDSTONE FROM DENSITY LOG [ADJ.TO RESISTIVITY LOG]
NPOLSWS .V/V    : NEUTRON POROSITY LIMESTONE [NPHISSED MATRIX (SLB) CONVERSION FOR LIMESTONE, SPL.TO NPHILSED @ 1102.6M]
RHOBED  .KG/M3  : BULK DENSITY FROM DENSITY LOG [ADJ.TO RESISTIVITY LOG]
SFLED   .OHMM   : SPHERICALLY FOCUSED FROM RESISTIVITY LOG
SPRED   .MV     : SPONTANEOUS POTENTIAL FROM RESISTIVITY LOG
SPWS    .MV     : SPONTANEOUS POTENTIAL [BASELINE 0 MV, SPRED]
SRESWS  .OHMM   : SHALLOW RESISTIVITY [SFLED]
~Params ----------------------------------------------------
PD  .                     GL : PERMANENT DATUM
EPD .M                 859.9 : ELEVATION PERMANENT DATUM
LMF .                     KB : LOG MEASURED FROM
DAPD.M                   3.6 : FEET ABOVE PERMANENT DATUM
DMF .                     KB : DRILLING MEASURED FROM
EKB .M                 863.5 : KELLY BUSHING
EGL .M                 859.9 : GROUND LEVEL
DATE.             09/29/1978 : RUN DATE
RUN .                      1 : RUN NUMBER
DD  .M                  2712 : DEPTH DRILLER
DL  .M                  2710 : DEPTH LOGGER
BLI .M                  2709 : BOTTOM LOG INTERVAL
TLI .M                   285 : TOP LOG INTERVAL
CBD .M                   285 : CASING BOTTOM DRILLER
CBL .M                   285 : CASING BOTTOM LOGGER
BS  .MM                215.9 : BIT SIZE
BSD .M                  2712 : BIT SIZE AT DEPTH
DFT .               GEL CHEM : DRILLING FLUID TYPE
DFD .                   1130 : DRILLING FLUID DENSITY
DFV .                    120 : DRILLING FLUID VISCOSITY
DFPH.                     10 : DRILLING FLUID PH
DFL .                    8.6 : DRILLING FLUID LOSS
MSS .               FLOWLINE : MUD SAMPLE SOURCE
RMS .OHMM               1.48 : RESISTIVITY MUD SAMPLE
MST .DEGC                 26 : MUD SAMPLE TEMPERATURE
RMF .OHMM                1.3 : RESISTIVITY MUD FILTRATE SAMPLE
MFST.DEGC                 21 : MUD FILTRATE SAMPLE TEMPERATURE
TCS .HRS                   3 : TIME CIRCULATED STOPPED
ENGI.               BERNISKY : RECORDING ENGINEER
CLNT.                A2DTECH : CLIENT CODE
ORIG.  6.6" 16.6"/100M PRINT : ORIGIN OF DATA
UWI .       100020206508W500 : UNIQUE WELL ID
DICO. A2D Technologies, Inc. : DIGITIZING COMPANY
~Other -----------------------------------------------------
~ASCII -----------------------------------------------------
# ...
 1600.00000  227.74230  228.94930  227.74230   20.35660   27.82950   27.82950 2731.09250   -0.01390    -999.25   -0.01230   49.12410  162.10360  162.10360   14.68660   18.96150   18.96150   49.12410   83.41160   83.41160    0.01710    -999.25    0.01710 2731.09250  117.87450 -203.90390  -85.00350  117.87450
 1650.00000  212.67340  198.28160  212.67340  183.73570  124.04920  124.04920 2633.06230    0.04260    -999.25    0.04500    5.44260  189.18930  189.18930   11.29610   14.46890   14.46890    5.44260    8.52970    8.52970    0.10330    -999.25    0.10330 2633.06230   44.00540 -249.84560 -132.61130   44.00540
 1700.00000  263.41530  226.42740  263.41530  381.59200  117.58900  117.58900 2554.40580    0.09480    -999.25    0.09100    2.62060  223.32190  223.32190   79.51510   88.75390   88.75390    2.62060    2.81450    2.81450    0.18730    -999.25    0.18730 2554.40580    4.04210 -161.49020  -45.92200    4.04210
 1750.00000  230.69270  232.09690  230.69270  117.50190   41.94700   41.94700 2754.27660   -0.03100    -999.25   -0.02590    8.51050  179.88010  179.88010   34.47180   44.40150   44.40150    8.51050    8.83810    8.83810    0.12600    -999.25    0.12600 2754.27660   12.15770 -163.30820  -49.40610   12.15770
 1800.00000  259.41300  257.16420  259.41300  241.62180   33.85750   33.85750 2624.96240    0.04680    -999.25    0.04970    4.13870  255.38770  255.38770   96.24620  113.03660  113.03660    4.13870    4.29890    4.29890    0.24400    -999.25    0.24400 2624.96240    5.02400 -115.63980   -3.40380    5.02400
 1850.00000  229.70650  228.30580  229.70650  134.27690  114.70890  114.70890 2603.75370    0.04710    -999.25    0.06210    7.44730  224.05290  224.05290   63.16050   70.77980   70.77980    7.44730    9.29520    9.29520    0.17920    -999.25    0.17920 2603.75370    8.21480 -116.65440   -4.08600    8.21480
 1900.00000  320.09360  292.77570  320.09360  309.38680  125.34130  125.34130 2382.17410    0.19470    -999.25    0.19170    3.23220  283.77640  283.77640   99.19410  111.85700  111.85700    3.23220    3.36520    3.36520    0.36190    -999.25    0.36190 2382.17410    3.77370 -116.20940   -3.64230    3.77370
 1950.00000  396.88360  266.60150  396.88360  280.81210  111.21650  111.21650 2558.65260    0.08690    -999.25    0.08850    3.56110  262.20360  262.20360   90.09210  102.15330  102.15330    3.56110    3.70920    3.70920    0.28210    -999.25    0.28210 2558.65260    4.66410 -110.78540   -4.54910    4.66410
 2000.00000  232.29380  231.96990  232.29380  122.60160  100.45680  100.45680 2724.44290   -0.00270    -999.25   -0.00840    8.15650  220.36060  220.36060   66.40310   70.24430   70.24430    8.15650    8.56160    8.56160    0.11760    -999.25    0.11760 2724.44290   12.41100 -103.14280   -3.92660   12.41100
 2050.00000  227.77060  218.82310  227.77060   36.88090    9.23170    9.23170 2668.11040    0.02370    -999.25    0.02450   27.11430  197.71530  197.71530   50.96430   54.79450   54.79450   27.11430   27.79590   27.79590    0.09120    -999.25    0.09120 2668.11040   36.07490 -101.85810   -3.65020   36.07490
 2100.00000  226.63830  227.13540  226.63830  101.55480   29.94820   29.94820 2732.48830   -0.02150    -999.25   -0.01320    9.84690  205.36470  205.36470   55.53340   60.08420   60.08420    9.84690   10.65170   10.65170    0.12880    -999.25    0.12880 2732.48830   13.29020 -106.08200   -8.88240   13.29020
 2150.00000  228.44140  218.79710  228.44140   72.23970   42.94720   42.94720 2700.83330    0.00600    -999.25    0.00540   13.84280  219.99320  219.99320   61.47350   72.01860   72.01860   13.84280   15.77760   15.77760    0.12610    -999.25    0.12610 2700.83330   18.91340  -98.38070   -2.18940   18.91340
 2200.00000  227.08410  225.27350  227.08410   30.07810   10.07280   10.07280 2701.59570   -0.00080    -999.25    0.00490   33.24680  170.23340  170.23340   26.92580   30.19230   30.19230   33.24680   45.55730   45.55730    0.02350    -999.25    0.02350 2701.59570   59.63370 -103.82500   -7.63770   59.63370
 2250.00000  226.51010  218.94920  226.51010  102.62090   52.87270   52.87270 2762.09690   -0.02430    -999.25   -0.03050    9.74460  211.13200  211.13200   56.82890   63.76520   63.76520    9.74460   10.43990   10.43990    0.13250    -999.25    0.13250 2762.09690   12.99510  -99.66480   -3.47750   12.99510
 2300.00000  224.06770  223.30460  224.06770    4.40460   38.80260   38.80260 2755.33760   -0.03810    -999.25   -0.02650  227.03760  165.05870  165.05870   19.44960   27.47220   27.47220  227.03760  400.69310  400.69310    0.00860    -999.25    0.00860 2755.33760  773.23310 -107.37030   -6.15640  773.23310
 2350.00000  225.87090  220.22110  225.87090  185.98770   78.49860   78.49860 2766.46360   -0.03860   -0.00720   -0.03300    5.37670  208.97600  208.97600   70.80350   79.97080   79.97080    5.37670    5.90120    5.90120    0.17520    0.21140    0.17520 2766.46360    9.13600 -132.38620  -32.48040    9.13600
 2400.00000  227.99590  219.24500  227.99590  106.58590   64.71790   64.71790 2760.58130   -0.03610    0.00040   -0.02960    9.38210  191.55550  191.55550  108.68990  117.70950  117.70950    9.38210   10.09170   10.09170    0.10400    0.14000    0.10400 2760.58130   11.61750 -110.49950  -15.84580   11.61750
 2450.00000  208.20530  189.58960  208.20530 3419.97260  182.59990  182.59990 2404.03760    0.18510    0.15300    0.17890    0.29240  263.20510  263.20510   53.76800   66.24510   66.24510    0.29240    0.46810    0.46810    0.19380    0.24520    0.19380 2404.03760    1.75900 -217.88760 -112.13100    1.75900
 2500.00000  228.06750  225.19170  228.06750  175.64810   40.25730   40.25730 2642.39870    0.03440    0.01660    0.03950    5.69320  191.12020  191.12020  126.19980  141.63170  141.63170    5.69320    8.64700    8.64700    0.08050    0.13960    0.08050 2642.39870   19.75660 -151.92090  -48.47670   19.75660
 2550.00000  243.31930  233.62310  243.31930  250.62030  211.24040  211.24040 2577.24050    0.07840    0.07520    0.07760    3.99010  260.26570  260.26570  170.20330  187.51030  187.51030    3.99010    4.53290    4.53290    0.26050    0.33390    0.26050 2577.24050    6.19040 -115.05630  -19.18720    6.19040
 2600.00000  257.52380  236.81270  257.52380  129.59240  233.15380  233.15380 2610.52170    0.10800    0.10440    0.05820    7.71650  247.28500  247.28500  157.16760  177.38820  177.38820    7.71650    8.57400    8.57400    0.28640    0.33730    0.28640 2610.52170   11.53630 -111.14060  -14.48190   11.53630
 2650.00000  224.06270  221.70820  224.06270  100.73940   80.98850   80.98850 2699.79660    0.00540   -0.00820    0.00600    9.92660  227.40300  227.40300  170.22580  189.37480  189.37480    9.92660   10.79190   10.79190    0.20670    0.26110    0.20670 2699.79660   14.62540 -101.70850   -3.18390   14.62540
 2700.00000  218.25990  216.87380  218.25990  353.28200  159.59730  159.59730 2662.94120    0.02140    0.02780    0.02750    2.83060  207.87340  207.87340   90.57670   79.38600   79.38600    2.83060    3.36790    3.36790    0.14630    0.17510    0.14630 2662.94120    3.51780 -162.74940  -36.61410    3.51780
