~Version ---------------------------------------------------
VERS. 2.0 : CWLS log ASCII Standard -VERSION 2.0
WRAP.  NO : ONE LINE PER DEPTH STEP
~Well ------------------------------------------------------
STRT.F                                   347.3 : START DEPTH
STOP.F                                  9458.8 : STOP DEPTH
STEP.F                                 0.50000 : STEP LENGTH
NULL.                                  -999.25 : NULL VALUE
COMP. THE BRITISH AMERICAN OIL COMPANY LIMITED : COMPANY
WELL.              B.A. GOOSE RIVER 4-32-66-18 : WELL
FLD .                                          : FIELD
LOC .                                          : LOCATION
CTRY.                                   CANADA : COUNTRY
SRVC.                             Schlumberger : SERVICE COMPANY
DATE.                              02-Dec-1964 : LOGDATE
PROV.                                  Alberta : PROVINCE
UWI .                         100043206618W500 : UNIQUE WELL ID
SLAT.WGS84                            54.75185 : SURFACE LATITUDE
SLON.WGS84                           -116.6939 : SURFACE LONGITUDE
~Curve Information -----------------------------------------
DEPT.F    0   1   0  0 : 1 MEASURED DEPTH
GRN .GAPI 35 310 01 00 : GAMMA RAY FROM GRN LOG
NEUT.NAPI 35 330 01 00 : NEUTRON
GR  .GAPI 30 310 00 00 : GAMMA RAY
CILD.MMHO 05 110 46 00 : INDUCTION DEEP CONDUCTIVITY
ILD .OHMM 05 120 46 00 : INDUCTION DEEP RESISTIVITY
SN  .OHMM 05 040 16 00 : SHORT NORMAL RESISTIVITY
SPR .MV   05 010 01 00 : SPONTANEOUS POTENTIAL FROM RESISTIVITY LOG
GRS .GAPI 60 310 01 00 : GAMMA RAY FROM SONIC LOG
DT  .US/F 60 500 00 00 : DELTA-T (INTERVAL TRANSIT TIME)
CALS.IN   60 280 50 00 : CALIPER FROM SONIC LOG
DT_1.US/F 60 500 31 00 : DELTA-T (INTERVAL TRANSIT TIME)
~Params ----------------------------------------------------
PD  .                     GL : PERMANENT DATUM
EPD .FT                 2485 : ELEVATION PERMANENT DATUM
LMF .                     KB : LOG MEASURED FROM
DAPD.FT                   15 : FEET ABOVE PERMANENT DATUM
EKB .FT                 2500 : KELLY BUSHING
EGL .FT                 2485 : GROUND LEVEL
DATE.               12/02/64 : RUN DATE
RUN .                      1 : RUN NUMBER
DD  .FT                 9461 : DEPTH DRILLER
DL  .FT                 9460 : DEPTH LOGGER
BLI .FT                 9459 : BOTTOM LOG INTERVAL
TLI .FT                  781 : TOP LOG INTERVAL
CBD .FT                  784 : CASING BOTTOM DRILLER
CBL .FT                  781 : CASING BOTTOM LOGGER
BS  .IN                7.625 : BIT SIZE
BSD .FT                 9461 : BIT SIZE AT DEPTH
DFT .               GEL CHEM : DRILLING FLUID TYPE
DFD .                    9.8 : DRILLING FLUID DENSITY
DFV .                     95 : DRILLING FLUID VISCOSITY
DFPH.                    9.5 : DRILLING FLUID PH
DFL .                    7.4 : DRILLING FLUID LOSS
RMS .OHMM               2.38 : RESISTIVITY MUD SAMPLE
MST .DEGF                 64 : MUD SAMPLE TEMPERATURE
RMF .OHMM                2.1 : RESISTIVITY MUD FILTRATE SAMPLE
MFST.DEGF                 66 : MUD FILTRATE SAMPLE TEMPERATURE
RMC .OHMM               2.32 : RESISTIVITY MUD CAKE
MCST.DEGF                 66 : MUD CAKE SAMPLE TEMPERATURE
RMB .OHMM               0.84 : RESISTIVITY MUD AT BHT
TCS .HRS                   6 : TIME CIRCULATED STOPPED
LUN .                   3534 : LOGGING UNIT NUMBER
LUL .                    V V : LOGGING UNIT LOCATION
ENGI.               CHENOSKY : RECORDING ENGINEER
WITN.                  WEISS : WITNESSED BY
CLNT.                A2DTECH : CLIENT CODE
ORIG.            2" 5" PRINT : ORIGIN OF DATA
UWI .       100043206618W500 : UNIQUE WELL ID
DICO. A2D Technologies, Inc. : DIGITIZING COMPANY
~Other -----------------------------------------------------
~ASCII -----------------------------------------------------
# ...
 2512.80000    -999.25    -999.25    -999.25  176.98530    5.10910    5.51920  -45.69010   81.96320  113.22380   12.34930    -999.25
 2513.30000    -999.25    -999.25    -999.25  174.71020    5.14670    5.55660  -45.84150   78.23140  112.08190   13.55540    -999.25
 2513.80000    -999.25    -999.25    -999.25  172.37690    5.28320    5.60530  -45.69290   78.06840  115.02710   14.16500    -999.25
 2514.30000    -999.25    -999.25    -999.25  169.11090    5.51440    5.67170  -45.86610   77.45900  115.69230   14.19330    -999.25
 2514.80000    -999.25    -999.25    -999.25  165.28980    5.74560    5.73800  -46.07820   80.20160  112.72870   14.05680    -999.25
 2515.30000    -999.25    -999.25    -999.25  160.95070    5.97690    5.80370  -46.14380   85.45770  114.52340   13.77460    -999.25
 2515.80000    -999.25    -999.25    -999.25  157.18450    6.13770    5.76630  -46.43530   82.76050  117.29120   13.97130    -999.25
 2516.30000    -999.25    -999.25    -999.25  155.68600    6.13770    5.72860  -46.74380   75.38660  120.01430   13.74510    -999.25
 2516.80000    -999.25    -999.25    -999.25  156.27620    6.04400    5.64240  -46.93630   72.43420  120.37240   13.69570    -999.25
 2517.30000    -999.25    -999.25    -999.25  159.09070    5.93970    5.55620  -46.94730   72.08800  115.60450   14.21090    -999.25
 2517.80000    -999.25    -999.25    -999.25  162.74300    5.83550    5.47000  -46.85590   72.89030  110.05060   14.96370    -999.25
 2518.30000    -999.25    -999.25    -999.25  166.23940    5.73120    5.38380  -46.82120   72.47040  105.86490   14.85660    -999.25
 2518.80000    -999.25    -999.25    -999.25  168.78990    5.62700    5.29760  -46.82120   73.84610  106.10980   14.54470    -999.25
 2519.30000    -999.25    -999.25    -999.25  169.98430    5.54390    5.21140  -46.82120   73.56630  108.15420   14.69330    -999.25
 2519.80000    -999.25    -999.25    -999.25  170.29820    5.57440    5.13210  -46.82570   71.39530  109.84230   14.22910    -999.25
 2520.30000    -999.25    -999.25    -999.25  169.75740    5.60480    5.15460  -46.95790   72.06420  114.63710   14.90260    -999.25
 2520.80000    -999.25    -999.25    -999.25  167.31380    5.73490    5.17720  -47.17780   73.63380  118.35350   14.32050    -999.25
 2521.30000    -999.25    -999.25    -999.25  164.03880    5.88730    5.19980  -47.37860   75.63350  123.02350   14.54620    -999.25
 2521.80000    -999.25    -999.25    -999.25  161.11290    6.03980    5.26330  -47.56530   75.69670  124.29350   14.31480    -999.25
 2522.30000    -999.25    -999.25    -999.25  156.54820    6.19230    5.33890  -47.51920   73.42440  113.78640   14.63770    -999.25
 2522.80000    -999.25    -999.25    -999.25  154.18950    6.29920    5.41450  -47.41110   70.85080  113.81170   14.87090    -999.25
 2523.30000    -999.25    -999.25    -999.25  152.44010    6.32980    5.49010  -47.54940   66.24830  110.10850   14.92190    -999.25
 2523.80000    -999.25    -999.25    -999.25  151.47180    6.36050    5.56570  -47.58710   68.63030  106.32400   14.21020    -999.25
 2524.30000    -999.25    -999.25    -999.25  151.46850    6.37390    5.64140  -47.40010   69.39620  112.05280   14.02530    -999.25
 2524.80000    -999.25    -999.25    -999.25  151.51720    6.38550    5.71700  -47.20320   68.30260  113.11820   14.40780    -999.25
 2525.30000    -999.25    -999.25    -999.25  151.19220    6.39710    5.73910  -47.08640   68.88900  109.37170   14.25680    -999.25
 2525.80000    -999.25    -999.25    -999.25  150.67720    6.40870    5.67370  -47.21350   73.66370  105.32890   14.05250    -999.25
 2526.30000    -999.25    -999.25    -999.25  150.24500    6.42030    5.63850  -47.36570   75.95830  103.18680   14.16060    -999.25
 2526.80000    -999.25    -999.25    -999.25  149.39280    6.43200    5.63860  -47.45460   78.69210  101.12980   14.21530    -999.25
 2527.30000    -999.25    -999.25    -999.25  148.87970    6.52490    5.68820  -47.41740   81.51240  100.09700   14.02970    -999.25
 2527.80000    -999.25    -999.25    -999.25  148.14800    6.58300    5.68370  -47.56570   76.71380  100.41540   14.15500    -999.25
 2528.30000    -999.25    -999.25    -999.25  147.86800    6.56930    5.71210  -47.63690   73.34130  100.87720   14.14710    -999.25
 2528.80000    -999.25    -999.25    -999.25  147.17910    6.53340    5.72810  -47.55130   72.20380  100.13430   14.59670    -999.25
 2529.30000    -999.25    -999.25    -999.25  146.95550    6.52140    5.76040  -47.46490   71.71810   99.30100   14.72120    -999.25
 2529.80000    -999.25    -999.25    -999.25  147.60320    6.46990    5.72140  -47.32570   72.28800   98.51510   14.80860    -999.25
 2530.30000    -999.25    -999.25    -999.25  150.01160    6.38410    5.69660  -47.19070   68.73150  102.51870   15.01490    -999.25
 2530.80000    -999.25    -999.25    -999.25  151.84140    6.27840    5.69200  -47.16000   65.70750  106.52080   15.02350    -999.25
 2531.30000    -999.25    -999.25    -999.25  154.06330    6.17260    5.65790  -47.43160   64.65750  109.38530   15.02220    -999.25
 2531.80000    -999.25    -999.25    -999.25  155.47940    6.06690    5.61580  -47.24280   69.18280  107.20110   15.01760    -999.25
 2532.30000    -999.25    -999.25    -999.25  156.80760    5.96110    5.57360  -47.29500   72.90630  111.59180   15.01370    -999.25
 2532.80000    -999.25    -999.25    -999.25  159.15330    5.85540    5.53140  -47.39890   69.50820  115.17120   14.83150    -999.25
 2533.30000    -999.25    -999.25    -999.25  161.85590    5.85360    5.48930  -47.20430   64.92990  117.54070   14.99880    -999.25
 2533.80000    -999.25    -999.25    -999.25  163.09430    5.86210    5.44710  -47.17040   65.41330  115.66390   15.00840    -999.25
 2534.30000    -999.25    -999.25    -999.25  163.18190    5.87070    5.40490  -47.11710   70.58900  115.17340   15.01800    -999.25
 2534.80000    -999.25    -999.25    -999.25  161.99940    5.87920    5.36280  -46.99000   74.73630  136.13010   14.89410    -999.25
 2535.30000    -999.25    -999.25    -999.25  160.55320    5.88770    5.32060  -46.87810   71.39610  130.09040   14.44510    -999.25
 2535.80000    -999.25    -999.25    -999.25  159.73550    5.89620    5.29510  -47.04890   69.85430  140.07530   14.51000    -999.25
 2536.30000    -999.25    -999.25    -999.25  159.63370    5.90480    5.29210  -47.05190   70.87390  103.74360   14.73340    -999.25
 2536.80000    -999.25    -999.25    -999.25  159.70510    5.91330    5.28920  -47.01690   73.60660  101.91350   14.99220    -999.25
 2537.30000    -999.25    -999.25    -999.25  159.65350    5.92180    5.28620  -47.23730   73.34530  102.51890   14.79140    -999.25
 2537.80000    -999.25    -999.25    -999.25  158.51310    5.93030    5.28320  -47.16370   72.05040  111.36020   14.28720    -999.25
 2538.30000    -999.25    -999.25    -999.25  158.18330    5.91470    5.28030  -47.14940   70.65540  120.25050   14.47780    -999.25
 2538.80000    -999.25    -999.25    -999.25  159.96370    5.83680    5.27730  -47.14760   71.41930  122.05710   14.90930    -999.25
 2539.30000    -999.25    -999.25    -999.25  163.05460    5.75900    5.27440  -47.19810   70.53090  123.97710   14.96150    -999.25
 2539.80000    -999.25    -999.25    -999.25  167.32630    5.68110    5.27140  -47.06310   66.76730  125.89700   14.73070    -999.25
 2540.30000    -999.25    -999.25    -999.25  171.08130    5.60330    5.26840  -47.16920   66.70070  140.00490   14.81400    -999.25
 2540.80000    -999.25    -999.25    -999.25  172.42150    5.52550    5.26550  -47.21960   67.35470  133.01080   15.02020    -999.25
 2541.30000    -999.25    -999.25    -999.25  172.32640    5.44760    5.26250  -47.06900   65.32270  105.04280   15.02010    -999.25
 2541.80000    -999.25    -999.25    -999.25  170.02690    5.45510    5.25960  -47.06130   66.91230  110.42420   15.02000    -999.25
 2542.30000    -999.25    -999.25    -999.25  166.38050    5.48110    5.25660  -47.05350   72.01940  117.54410   14.89000    -999.25
 2542.80000    -999.25    -999.25    -999.25  163.11200    5.50710    5.25810  -47.04570   73.03130  109.59870   14.94600    -999.25
