~Version ---------------------------------------------------
VERS. 2.0 : CWLS log ASCII Standard -VERSION 2.0
WRAP.  NO : ONE LINE PER DEPTH STEP
~Well ------------------------------------------------------
STRT.M                     400.0 : START DEPTH
STOP.M                    2450.0 : STOP DEPTH
STEP.M                  50.00000 : STEP LENGTH
NULL.                    -999.25 : NULL VALUE
COMP.       TALISMAN ENERGY INC. : COMPANY
WELL. KACEE ET AL PIPE 6-29-46-1 : WELL
FLD .                            : FIELD
LOC .                            : LOCATION
CTRY.                     CANADA : COUNTRY
SRVC.                    Unknown : SERVICE COMPANY
DATE.                09-Oct-1984 : LOGDATE
PROV.                    Alberta : PROVINCE
UWI .           100062904601W500 : UNIQUE WELL ID
SLAT.WGS84              52.99543 : SURFACE LATITUDE
SLON.WGS84             -114.1098 : SURFACE LONGITUDE
~Curve Information -----------------------------------------
DEPT    .M      : DEPTH METERS
BITED   .MM     : BIT SIZE FROM LOG HEADER
CALDED  .MM     : CALIPER FROM DENSITY LOG
CALSED  .MM     : CALIPER FROM SONIC LOG
CALWS   .MM     : CALIPER [395 CALDED 2448 CALSED]
CONDWS  .MMHO   : CONDUCTIVITY [1000/DRESWS]
DCORWS  .KG/M3  : DENSITY CORRECTION [DRHOED]
DENWS   .KG/M3  : BULK DENSITY [M=2710 F=1000] [CAL FR DPOLSWS]
DPHILSED.V/V    : DENSITY POROSITY [M=2710 F=1000] FROM DENSITY LOG
DPHISSED.V/V    : DENSITY POROSITY [M=2650 F=1000] FROM DENSITY LOG
DPOLSWS .V/V    : DENSITY POROSITY [M=2710 F=1000] [395 DPOLSCAL [COMPUTED FROM DPHISSED USING POWERLOG MODULE] 1700 DPHILSED]
DRESWS  .OHMM   : DEEP RESISTIVITY [ILDED]
DRHOED  .KG/M3  : DENSITY CORRECTION FROM DENSITY LOG
DTED    .US/M   : DELTA TIME FROM SONIC LOG
DTWS    .US/M   : DELTA TIME [DTED]
GRDED   .GAPI   : GAMMA RAY FROM DENSITY LOG
GRSED   .GAPI   : GAMMA RAY FROM SONIC LOG
GRWS    .GAPI   : GAMMA RAY [384 GRSED 439 GRDED 960 SGRDED]
ILDED   .OHMM   : INDUCTION LOG DEEP RESISTIVITY
ILMED   .OHMM   : INDUCTION LOG MEDIUM RESISTIVITY
LAED    .MM     : LONG AXIS CALIPER FROM DENSITY LOG
MRESWS  .OHMM   : MEDIUM RESISTIVITY [ILMED]
NPHILSED.V/V    : NEUTRON POROSITY LIMESTONE FROM DENSITY LOG
NPHISSED.V/V    : NEUTRON POROSITY SANDSTONE FROM DENSITY LOG
NPOLSWS .V/V    : NEUTRON POROSITY LIMESTONE [387 NPOLSCAL [COMPUTED FROM NPHISSED USING POWERLOG MODULE] 1698 NPHILSED]
PEFED   .B/E    : PHOTOELECTRIC FACTOR FROM DENSITY LOG
PEFWS   .B/E    : PHOTOELECTRIC FACTOR [PEFED]
RHOBED  .KG/M3  : BULK DENSITY FROM DENSITY LOG
SFLUED  .OHMM   : SPHERICALLY FOCUSED LOG RESISTIVITY
SGRDED  .GAPI   : GAMMA RAY FROM DENSITY LOG [DEP ADJ TO GRSED, V. MINOR]
SPRED   .MV     : SPONTANEOUS POTENTIAL FROM RESISTIVITY LOG [SHIFT IS REMOVED]
SPWS    .MV     : SPONTANEOUS POTENTIAL [BASELINE 0 MV] [SPRED]
SRESWS  .OHMM   : SHALLOW RESISTIVITY [SFLUED]
TENDED  .N      : TENSION FROM DENSITY LOG
TENRED  .N      : TENSION FROM RESISTIVITY LOG
TENSED  .N      : TENSION FROM SONIC LOG
~Params ----------------------------------------------------
PD  .                         GL : PERMANENT DATUM
EPD .M                    880.31 : ELEVATION PERMANENT DATUM
LMF .                         KB : LOG MEASURED FROM
DAPD.M                       4.5 : FEET ABOVE PERMANENT DATUM
DMF .                         KB : DRILLING MEASURED FROM
EKB .M                    884.81 : KELLY BUSHING
EGL .M                    880.31 : GROUND LEVEL
DATE.                   10/09/84 : RUN DATE
RUN .                          2 : RUN NUMBER
DD  .M                      2459 : DEPTH DRILLER
DL  .M                      2460 : DEPTH LOGGER
BLI .M                      2458 : BOTTOM LOG INTERVAL
TLI .M                       750 : TOP LOG INTERVAL
CS  .MM                      244 : CASING SIZE
CBD .M                       395 : CASING BOTTOM DRILLER
CBL .M                       395 : CASING BOTTOM LOGGER
BS  .MM                      222 : BIT SIZE
BSD .M                      2459 : BIT SIZE AT DEPTH
DFT .                   GEL CHEM : DRILLING FLUID TYPE
DFD .                       1095 : DRILLING FLUID DENSITY
DFV .                         85 : DRILLING FLUID VISCOSITY
DFPH.                       10.5 : DRILLING FLUID PH
DFL .                         11 : DRILLING FLUID LOSS
MSS .                   FLOWLINE : MUD SAMPLE SOURCE
RMS .OHMM                   0.94 : RESISTIVITY MUD SAMPLE
MST .DEGF                   21.1 : MUD SAMPLE TEMPERATURE
RMF .OHMM                    0.7 : RESISTIVITY MUD FILTRATE SAMPLE
MFST.DEGF                   24.4 : MUD FILTRATE SAMPLE TEMPERATURE
RMC .OHMM                 0.358/ : RESISTIVITY MUD CAKE
MCST.DEGF                   68.3 : MUD CAKE SAMPLE TEMPERATURE
MFSS.                       MEAS : MUD FILTRATE SAMPLE SOURCE
RMB .OHMM                  0.446 : RESISTIVITY MUD AT BHT
TCS .HRS                     700 : TIME CIRCULATED STOPPED
TLAB.HRS                    1315 : TIME LOGGER AT BOTTOM
LUN .                       8211 : LOGGING UNIT NUMBER
LUL .                        EDM : LOGGING UNIT LOCATION
ENGI.                      PENNY : RECORDING ENGINEER
WITN.                     HESTER : WITNESSED BY
CLNT.                    A2DTECH : CLIENT CODE
ORIG. 6.5"/100M 16.5"/100M PRINT : ORIGIN OF DATA
UWI .           100062904601W500 : UNIQUE WELL ID
DICO.     A2D Technologies, Inc. : DIGITIZING COMPANY
~Other -----------------------------------------------------
~ASCII -----------------------------------------------------
# ...
 1450.00000  222.00000  279.21010  245.94480  279.21010  130.59950  224.32010 2409.59500    -999.25    0.14570    0.17570    7.65700  224.32010  328.98640  328.98640    -999.25  169.78470  165.80510    7.65700    7.89420  203.12570    7.89420    -999.25    0.38530    0.34220    2.83360    2.83360 2410.28740   10.09680  165.80510  -35.34770   -6.78710   10.09680    -999.25    -999.25    -999.25
 1500.00000  222.00000  275.63510  298.78950  275.63510  311.41980   95.67650 2215.72000    -999.25    0.26320    0.28910    3.21110   95.67650  308.03220  308.03220    -999.25   98.24080   83.21820    3.21110    2.98030  381.71070    2.98030    -999.25    0.45420    0.41250    2.14750    2.14750 2204.28760    3.34590   83.21820  -31.95580   -5.37230    3.34590    -999.25    -999.25    -999.25
 1550.00000  222.00000  331.69900  239.67750  331.69900  669.20970   83.70660 2282.38000    -999.25    0.22280    0.25010    1.49430   83.70660  426.75700  426.75700    -999.25   92.48840   87.30100    1.49430    1.32050  338.64700    1.32050    -999.25    0.48600    0.44430    2.57080    2.57080 2284.67310    1.66460   87.30100  -30.35540   -4.52810    1.66460    -999.25    -999.25    -999.25
 1600.00000  222.00000  281.79460  295.33640  281.79460   78.44490   -8.44400 2251.03000    -999.25    0.24180    0.26840   12.74780   -8.44400  279.20900  279.20900    -999.25   87.18240   73.25370   12.74780   10.61260  297.31090   10.61260    -999.25    0.40810    0.36540    3.01290    3.01290 2204.37010   13.60660   73.25370  -36.50900   -7.15020   13.60660    -999.25    -999.25    -999.25
 1650.00000  222.00000  313.53380  322.33500  313.53380   65.03560   14.15540 1788.70000    -999.25    0.52200    0.53880   15.37620   14.15540  299.99350  299.99350    -999.25   63.34510   55.06960   15.37620   10.49670  341.02340   10.49670    -999.25    0.41500    0.37240    1.17990    1.17990 2094.43580   13.76100   55.06960  -64.39370  -30.73500   13.76100    -999.25    -999.25    -999.25
 1700.00000  222.00000  265.46120  269.78070  265.46120   62.93780   -0.86650 2626.24000   -0.01540    0.01440    0.04900   15.88870   -0.86650  235.49820  235.49820    -999.25   62.19730   69.59500   15.88870   14.32790  286.65910   14.32790    0.18550    0.25380    0.18550    2.95730    2.95730 2758.40260   21.00290   69.59500  -40.43290   -6.03060   21.00290    -999.25    -999.25    -999.25
 1750.00000  222.00000  236.84880  241.59240  236.84880   15.06650  -10.66530 2697.00400    0.00760   -0.03160    0.00760   66.37260  -10.66530  178.43750  178.43750    -999.25   24.91700   24.25990   66.37260   61.61550  245.08820   61.61550    0.01860    0.05020    0.01860    4.77950    4.77950 2695.57130   75.90020   24.25990  -60.97300  -26.91350   75.90020    -999.25    -999.25    -999.25
 1800.00000  222.00000  240.71510  236.01550  240.71510    5.49360   -8.18860 2708.80300    0.00070    -999.25    0.00070  182.03000   -8.18860  174.53570  174.53570    -999.25   33.59570   31.37760  182.03000  245.13110  205.22180  245.13110    0.01740    -999.25    0.01740    4.88530    4.88530 2704.22680  197.89550   31.37760  -59.23510  -25.51850  197.89550    -999.25    -999.25    -999.25
 1850.00000  222.00000  243.60000  232.32750  243.60000   16.55840   14.16030 2655.45100    0.03190    -999.25    0.03190   60.39230   14.16030  169.59110  169.59110    -999.25   17.03700   14.33290   60.39230   76.10050  209.64440   76.10050    0.13930    -999.25    0.13930    3.26390    3.26390 2654.49270   87.51710   14.33290 -101.89400  -70.43500   87.51710    -999.25    -999.25    -999.25
 1900.00000  222.00000  238.68840  234.12650  238.68840    1.66750   -8.15560 2820.80800   -0.06480    -999.25   -0.06480  599.68520   -8.15560  161.20510  161.20510    -999.25   33.03460   35.76170  599.68520  199.94660  218.24030  199.94660    0.04590    -999.25    0.04590    3.25310    3.25310 2822.84890  288.99240   35.76170 -109.87260  -82.57070  288.99240    -999.25    -999.25    -999.25
 1950.00000  222.00000  274.88360  245.31360  274.88360    0.53580   63.99060 2690.67700    0.01130    -999.25    0.01130 1866.35780   63.99060  152.30750  152.30750    -999.25   14.15180   12.31480 1866.35780 1764.46880  203.28030 1764.46880    0.09310    -999.25    0.09310    3.75020    3.75020 2645.80830 1949.61760   12.31480 -155.77800 -132.63320 1949.61760    -999.25    -999.25    -999.25
 2000.00000  222.00000  235.44490  233.35700  235.44490    0.50000   -7.71170 2890.06300   -0.10530    -999.25   -0.10530 2000.00000   -7.71170  157.13850  157.13850    -999.25   12.73680   12.23690 2000.00000 2000.00000  219.86380 2000.00000    0.01250    -999.25    0.01250    4.60670    4.60670 2907.42750 1933.88790   12.23690 -106.78070  -87.79310 1933.88790    -999.25    -999.25    -999.25
 2050.00000  222.00000  255.31070  252.88610  255.31070  103.06410   -6.87120 2714.27500   -0.00250    -999.25   -0.00250    9.70270   -6.87120  193.38440  193.38440    -999.25   83.24030   78.22850    9.70270   11.43140  262.10800   11.43140    0.14820    -999.25    0.14820    2.84420    2.84420 2706.39230   12.26540   78.22850  -32.80180  -17.97130   12.26540    -999.25    -999.25    -999.25
 2100.00000  222.00000  255.99870  242.38460  255.99870    3.50940  -35.24390 2813.96800   -0.06080    -999.25   -0.06080  284.95060  -35.24390  152.25980  152.25980    -999.25   22.64590   23.12850  284.95060  529.72830  212.15800  529.72830    0.06110    -999.25    0.06110    3.32410    3.32410 2787.30590  517.69010   23.12850 -117.78690 -107.11350  517.69010    -999.25    -999.25    -999.25
 2150.00000  222.00000  314.17130  276.69080  314.17130  100.14720  247.12690 2682.64000    0.01600    -999.25    0.01600    9.98530  247.12690  230.97550  230.97550    -999.25   87.60200  104.85920    9.98530   14.90450  306.02170   14.90450    0.21350    -999.25    0.21350    3.13920    3.13920 2672.44410   16.42450  104.85920  -35.15390  -27.97750   16.42450    -999.25    -999.25    -999.25
 2200.00000  222.00000  242.53710  241.79880  242.53710  101.96380  -18.65700 2686.40200    0.01380    -999.25    0.01380    9.80740  -18.65700  226.48840  226.48840    -999.25   99.01720   95.46700    9.80740   10.27970  244.13560   10.27970    0.21350    -999.25    0.21350    4.47090    4.47090 2681.99830   12.20660   95.46700  -16.59300   -9.82260   12.20660    -999.25    -999.25    -999.25
 2250.00000  222.00000  238.97970  239.63330  238.97970  100.10910  -12.00990 2715.98500   -0.00350    -999.25   -0.00350    9.98910  -12.00990  221.54300  221.54300    -999.25   96.82820   89.59460    9.98910   11.06370  226.11320   11.06370    0.18500    -999.25    0.18500    4.07500    4.07500 2716.02780   13.18400   89.59460  -19.69480  -13.41090   13.18400    -999.25    -999.25    -999.25
 2300.00000  222.00000  239.21040  235.22160  239.21040  119.69740    3.18860 2689.82200    0.01180    -999.25    0.01180    8.35440    3.18860  227.08250  227.08250    -999.25   80.91970   84.10480    8.35440    9.55780  225.82410    9.55780    0.21330    -999.25    0.21330    4.75440    4.75440 2686.51900   10.70190   84.10480  -12.06980   -6.29270   10.70190 14717.41210    -999.25    -999.25
 2350.00000  222.00000  225.87980  230.04280  225.87980   64.42430    7.05450 2702.47600    0.00440    -999.25    0.00440   15.52210    7.05450  225.78870  225.78870    -999.25  105.27950  105.08110   15.52210   16.07350  230.61500   16.07350    0.21810    -999.25    0.21810    3.92880    3.92880 2695.55350   20.62340  105.08110  -10.30750   -5.54080   20.62340 14628.31640    -999.25    -999.25
 2400.00000  222.00000  221.13540  219.58560  221.13540    0.50000  -14.41980 2672.55100    0.02190    -999.25    0.02190 2000.00000  -14.41980  175.39570  175.39570    -999.25   35.73030   36.11240 2000.00000 2000.00000  228.07800 2000.00000    0.03870    -999.25    0.03870    4.63610    4.63610 2671.76050 1989.01090   36.11240 -103.30370  -99.89730 1989.01090 14739.66700    -999.25    -999.25
 2450.00000  222.00000    -999.25  214.84110  214.84110    4.18080   -0.51050 2693.75500    0.00950    -999.25    0.00950  239.18860   -0.51050    -999.25    -999.25    -999.25    -999.25    -999.25  239.18860  788.99580    -999.25  788.99580    0.02740    -999.25    0.02740    5.09660    5.09660 2693.05810  354.08360    -999.25  -28.12760  -25.91550  354.08360 14947.97070 14154.76950 13870.09180
