~Version ---------------------------------------------------
VERS.      2.0 : CWLS log ASCII Standard -VERSION 2.0
WRAP.       NO : One line per depth step
CREA. 08/31/17 : LAS Creation Date
~Well ------------------------------------------------------
STRT.FT                             1100.0 : START DEPTH
STOP.FT                            11500.0 : STOP DEPTH
STEP.FT                           50.00000 : STEP LENGTH
NULL.                              -999.25 : NULL VALUE
COMP.              MURPHY OIL COMPANY LTD. : COMPANY
WELL. MURPHY ASHLAND WOLF CREEK 11-5-53-15 : WELL
FLD .                                      : FIELD
LOC .                                      : LOCATION
CTRY.                               CANADA : COUNTRY
SRVC.               Schlumberger of Canada : SERVICE COMPANY
DATE.                          08-Dec-1976 : LOGDATE
PROV.                              Alberta : PROVINCE
UWI .                     100110505315W500 : UNIQUE WELL ID
SLAT.WGS84                        53.55101 : SURFACE LATITUDE
SLON.WGS84                        -116.179 : SURFACE LONGITUDE
~Curve Information -----------------------------------------
DEPT    .FT    : Depth Curve
CALDED  .IN    : CALIPER FROM CNL-FDC LOG [ADJ. TO GRSED]
CALSED  .IN    : CALIPER FROM SONIC LOG
CALWS   .IN    : CALIPER [CALDED]
CILDED  .MMHO  : DEEP INDUCTION CONDUCTIVITY FROM RESISTIVITY LOG
CONDWS  .MMHO  : CONDUCTIVITY [1000/DRESWS]
DCORWS  .G/C3  : DENSITY CORRECTION [DRHOED]
DENWS   .G/C3  : FORMATION BULK DENSITY [RHOBED]
DPHILSED.V/V   : DENSITY POROSITY LIME [M=2.71, F=1.00] FROM CNL-FDC LOG [ADJ. TO GRSED]
DPHISSED.V/V   : DENSITY POROSITY SAND [M=2.65, F=1.00] FROM CNL-FDC LOG [ADJ. TO GRSED]
DPOLSWS .V/V   : DENSITY POROSITY LIME [CALCULATED FROM DENWS, M=2.71, F=1.00]
DRESWS  .OHMM  : DEEP RESISTIVITY [ILDED]
DRHOED  .G/C3  : BULK DENSITY CORRECTION FROM DENSITY LOG [ADJ. TO DPHISSED/DPHILSED/GRSED]
DTED    .US/F  : DELTA-T (INTERVAL TRANSIT TIME) FROM SONIC LOG
DTWS    .US/F  : COMPRESSIONAL SONIC [DTED]
GRDED   .GAPI  : GAMMA RAY FROM DENSITY LOG [ADJ. TO GRSED]
GRSED   .GAPI  : GAMMA RAY FROM SONIC LOG
GRWS    .GAPI  : GAMMA RAY [GRSED]
ILDED   .OHMM  : DEEP INDUCTION FROM RESISTIVITY LOG
ILMED   .OHMM  : MEDIUM INDUCTION FROM RESISTIVITY LOG
LL8ED   .OHMM  : LATEROLOG 8 FROM RESISTIVITY LOG
MRESWS  .OHMM  : MEDIUM RESISTIVITY [ILMED]
NPHILSED.V/V   : NEUTRON POROSITY LIME FROM CNL-FDC LOG [ADJ. TO GRSED]
NPHISSED.V/V   : NEUTRON POROSITY SAND FROM CNL-FDC LOG [ADJ. TO GRSED]
NPOLSWS .V/V   : NEUTRON POROSITY LIME [NPHISSED MATRIX CONVERTED TO LIMESTONE & SPL. TO NPHILSED @ 8000']
RHOBED  .G/C3  : BULK DENSITY FROM DENSITY LOG [ADJ. TO DPHISSED/DPHILSED/GRSED]
SPRED   .MV    : SPONTANEOUS POTENTIAL FROM RESISTIVITY LOG
SPWS    .MV    : SPONTANEOUS POTENTIAL [BASELINE 0 MV, SPRED]
SRESWS  .OHMM  : SHALLOW RESISTIVITY [LL8ED]
~Params ----------------------------------------------------
PD  .                     GL : PERMANENT DATUM
EPD .FT               2966.3 : ELEVATION PERMANENT DATUM
LMF .                     KB : LOG MEASURED FROM
DAPD.FT                 15.4 : FEET ABOVE PERMANENT DATUM
EKB .FT               2981.7 : KELLY BUSHING
EGL .FT               2966.3 : GROUND LEVEL
DATE.               12/08/76 : RUN DATE
RUN .                      1 : RUN NUMBER
DD  .FT                11560 : DEPTH DRILLER
DL  .FT                11554 : DEPTH LOGGER
BLI .FT                11548 : BOTTOM LOG INTERVAL
TLI .FT                 1160 : TOP LOG INTERVAL
CBD .FT                 1160 : CASING BOTTOM DRILLER
CBL .FT                 1160 : CASING BOTTOM LOGGER
BS  .IN                 8.75 : BIT SIZE
BSD .FT                11560 : BIT SIZE AT DEPTH
DFT .               GEL CHEM : DRILLING FLUID TYPE
DFD .                    9.1 : DRILLING FLUID DENSITY
DFV .                    290 : DRILLING FLUID VISCOSITY
DFPH.                     11 : DRILLING FLUID PH
DFL .                    5.8 : DRILLING FLUID LOSS
MSS .               FLOWLINE : MUD SAMPLE SOURCE
RMS .OHMM               1.67 : RESISTIVITY MUD SAMPLE
MST .DEGF                 37 : MUD SAMPLE TEMPERATURE
RMF .OHMM                1.3 : RESISTIVITY MUD FILTRATE SAMPLE
MFST.DEGF                 55 : MUD FILTRATE SAMPLE TEMPERATURE
TCS .HRS                 2.5 : TIME CIRCULATED STOPPED
LUN .                   7730 : LOGGING UNIT NUMBER
LUL .                    EDM : LOGGING UNIT LOCATION
ENGI.        MCDONALD KARAKI : RECORDING ENGINEER
WITN.            ABEL WORKUM : WITNESSED BY
CLNT.                A2DTECH : CLIENT CODE
ORIG.            2" 5" PRINT : ORIGIN OF DATA
UWI .       100110505315W500 : UNIQUE WELL ID
DICO. A2D Technologies, Inc. : DIGITIZING COMPANY
~Other -----------------------------------------------------
~ASCII -----------------------------------------------------
 1100.00000    -999.25    -999.25    -999.25    -999.25    -999.25    -999.25    -999.25    -999.25    -999.25    -999.25    -999.25    -999.25    -999.25    -999.25    -999.25   64.11090   64.11090    -999.25    -999.25    -999.25    -999.25    -999.25    -999.25    -999.25    -999.25    -999.25    -999.25    -999.25
 1150.00000    -999.25    -999.25    -999.25    -999.25    -999.25    -999.25    -999.25    -999.25    -999.25    -999.25    -999.25    -999.25    -999.25    -999.25   36.19150   37.10240   37.10240    -999.25    -999.25    -999.25    -999.25    -999.25    -999.25    -999.25    -999.25    -999.25    -999.25    -999.25
 1200.00000    9.09880    8.90230    9.09880   68.63110   68.47300    0.03680    2.35690    -999.25    -999.25    0.20650   14.60430    0.03680   93.34740   93.34740   53.23130   63.80690   63.80690   14.60430    -999.25   13.55060    -999.25    -999.25    -999.25    -999.25    2.35690  -47.57240   -4.78060   13.55060
 1250.00000    9.55570    8.94230    9.55570   71.73160   58.35500    0.06630    1.50230    -999.25    -999.25    0.70630   17.13650    0.06630  130.94310  130.94310   43.03380   42.87620   42.87620   17.13650    -999.25   29.08130    -999.25    -999.25    -999.25    -999.25    1.50230  -40.60840   -4.39710   29.08130
 1300.00000   12.02120    9.18730   12.02120  152.74440  150.86610    0.17390    1.81360    -999.25    -999.25    0.52430    6.62910    0.17390   98.32880   98.32880   82.62270   93.92810   93.92810    6.62910    -999.25    5.74180    -999.25    -999.25    -999.25    -999.25    1.81360  -47.30640   -8.18460    5.74180
 1350.00000   12.05540    9.20180   12.05540  169.01500  182.56500    0.11530    2.12560    -999.25    -999.25    0.34180    5.47750    0.11530   96.71800   96.71800   57.72360   65.14420   65.14420    5.47750    -999.25    6.29650    -999.25    -999.25    -999.25    -999.25    2.12560  -48.73310  -11.59970    6.29650
 1400.00000   12.24060    9.20090   12.24060  101.70610  101.45270    0.18530    2.22770    -999.25    -999.25    0.28200    9.85890    0.18530   88.90780   88.90780   75.81740   80.16790   80.16790    9.85890    -999.25    9.01150    -999.25    -999.25    -999.25    -999.25    2.22770  -41.98240   -7.53160    9.01150
 1450.00000   12.62000    9.25580   12.62000  155.85920  156.05250    0.16590    1.82870    -999.25    -999.25    0.51540    6.40810    0.16590   98.10160   98.10160   80.30940   96.44620   96.44620    6.40810    -999.25    6.11690    -999.25    -999.25    -999.25    -999.25    1.82870  -34.34700   -4.09260    6.11690
 1500.00000   13.16190    9.11450   13.16190  147.77270  147.74540    0.06330    1.51310    -999.25    -999.25    0.69990    6.76840    0.06330  104.01160  104.01160  101.89520  115.69790  115.69790    6.76840    -999.25    6.07360    -999.25    -999.25    -999.25    -999.25    1.51310  -45.55870  -10.41990    6.07360
 1550.00000   12.03610    9.06100   12.03610  128.26060  128.23500    0.19820    1.99320    -999.25    -999.25    0.41920    7.79840    0.19820   90.60790   90.60790   75.90530   88.59360   88.59360    7.79840    -999.25    7.42410    -999.25    -999.25    -999.25    -999.25    1.99320  -37.28480   -3.45880    7.42410
 1600.00000   12.38470    8.94030   12.38470  122.94600  123.00270    0.22980    2.15360    -999.25    -999.25    0.32540    8.12990    0.22980   85.82530   85.82530   78.36460   85.28610   85.28610    8.12990    -999.25    6.94680    -999.25    -999.25    -999.25    -999.25    2.15360  -38.92890   -4.58180    6.94680
 1650.00000    9.00830    8.81430    9.00830   82.30460   82.21840    0.08760    2.32870    -999.25    -999.25    0.22300   12.16780    0.08760   84.03040   84.03040   65.19810   65.92880   65.92880   12.16780    -999.25   11.50940    -999.25    -999.25    -999.25    -999.25    2.32870  -41.94720   -8.34480   11.50940
 1700.00000    9.25010    8.79670    9.25010   50.07210   50.62980    0.08960    2.40670    -999.25    -999.25    0.17740   19.75120    0.08960   87.67750   87.67750   56.39460   57.52110   57.52110   19.75120    -999.25   16.00760    -999.25    -999.25    -999.25    -999.25    2.40670  -43.95580  -13.26610   16.00760
 1750.00000   15.01460    9.15180   15.01460  219.42310  219.38000    0.12040    1.67060    -999.25    -999.25    0.60780    4.55830    0.12040  120.40320  120.40320   86.62760   97.85500   97.85500    4.55830    -999.25    4.26990    -999.25    -999.25    -999.25    -999.25    1.67060  -32.55330   -1.92960    4.26990
 1800.00000   15.00000   11.23910   15.00000  347.47840  347.47270    0.10980    1.54760    -999.25    -999.25    0.67970    2.87810    0.10980  177.76690  177.76690   57.99850   65.09110   65.09110    2.87810    -999.25    2.59900    -999.25    -999.25    -999.25    -999.25    1.54760  -31.82530   -3.03940    2.59900
 1850.00000   11.29830    9.45820   11.29830  176.25410  176.28910    0.18860    2.04850    -999.25    -999.25    0.38680    5.67250    0.18860   91.17820   91.17820   87.73680  102.75280  102.75280    5.67250    -999.25    5.47430    -999.25    -999.25    -999.25    -999.25    2.04850  -35.48300   -4.84610    5.47430
 1900.00000   14.81600    9.72480   14.81600  267.14990  274.58490    0.09820    1.56710    -999.25    -999.25    0.66840    3.64260    0.09820  117.39090  117.39090   90.04720  107.76970  107.76970    3.64260    -999.25    5.77190    -999.25    -999.25    -999.25    -999.25    1.56710  -36.24190   -8.15950    5.77190
 1950.00000   11.91490    9.62740   11.91490  153.26300  153.29660    0.17880    1.90720    -999.25    -999.25    0.46950    6.52330    0.17880   87.62280   87.62280   78.88580   95.07140   95.07140    6.52330    -999.25    6.91870    -999.25    -999.25    -999.25    -999.25    1.90720  -37.62460  -13.19870    6.91870
 2000.00000   13.97080    9.55720   13.97080  307.37160  307.58820    0.07750    1.51830    -999.25    -999.25    0.69690    3.25110    0.07750  108.42260  108.42260   78.94190   92.87330   92.87330    3.25110    -999.25    3.51450    -999.25    -999.25    -999.25    -999.25    1.51830  -25.74390   -3.82020    3.51450
 2050.00000   12.69730    9.59730   12.69730  186.73890  186.80160    0.09600    1.58770    -999.25    -999.25    0.65630    5.35600    0.09600   97.53920   97.53920   71.19980   82.04890   82.04890    5.35600    -999.25    5.28100    -999.25    -999.25    -999.25    -999.25    1.58770   -3.78020   -2.78000    5.28100
 2100.00000    9.54490    9.35740    9.54490  121.22430  121.17830    0.03640    2.47430    -999.25    -999.25    0.13780    8.25230    0.03640   82.79150   82.79150   89.33630  100.14870  100.14870    8.25230    -999.25    7.49990    -999.25    -999.25    -999.25    -999.25    2.47430   -4.80810   -3.12130    7.49990
 2150.00000   10.57970    9.38220   10.57970   90.07110   91.20770    0.02740    2.35750    -999.25    -999.25    0.20610   10.96620    0.02740   88.73690   88.73690   64.00880   67.62900   67.62900   10.96620    -999.25    9.94190    -999.25    -999.25    -999.25    -999.25    2.35750   -8.39180   -3.84750    9.94190
 2200.00000   10.38440    9.31920   10.38440  119.37240  119.41870    0.06920    2.42570    -999.25    -999.25    0.16630    8.37390    0.06920   85.32420   85.32420   78.05890   82.02630   82.02630    8.37390    -999.25    7.59690    -999.25    -999.25    -999.25    -999.25    2.42570   -8.77470   -3.45080    7.59690
 2250.00000   10.55270    9.44820   10.55270  113.15040  113.14910    0.04760    2.45160    -999.25    -999.25    0.15110    8.83790    0.04760   81.55130   81.55130   72.82100   88.03240   88.03240    8.83790    -999.25    8.04300    -999.25    -999.25    -999.25    -999.25    2.45160   -7.09520   -7.00180    8.04300
 2300.00000   10.73350    9.50170   10.73350  141.43730  141.39340    0.05220    2.45620    -999.25    -999.25    0.14840    7.08420    0.05220   90.51510   90.51510   95.76720  100.79010  100.79010    7.08420    -999.25    7.80870    -999.25    -999.25    -999.25    -999.25    2.45620   -1.15650   -4.75010    7.80870
