~Version ---------------------------------------------------
VERS.      2.0 : CWLS log ASCII Standard -VERSION 2.0
WRAP.       NO : One line per depth step
CREA. 08/22/14 : LAS Creation Date
~Well ------------------------------------------------------
STRT.FT                 1143.82546 : START DEPTH
STOP.FT                11159.82546 : STOP DEPTH
STEP.FT                    0.50000 : STEP LENGTH
NULL.                      -999.25 : NULL VALUE
COMP.            TRIAD OIL CO. LTD : COMPANY
WELL. TRIAD PAN AM ANTE 2-27-66-25 : WELL
FLD .                              : FIELD
LOC .                              : LOCATION
CTRY.                       CANADA : COUNTRY
SRVC.                   Lane Wells : SERVICE COMPANY
DATE.                  15-Aug-1967 : LOGDATE
PROV.                      Alberta : PROVINCE
UWI .             100022706625W500 : UNIQUE WELL ID
SLAT.WGS84                54.73614 : SURFACE LATITUDE
SLON.WGS84                 -117.69 : SURFACE LONGITUDE
~Curve Information -----------------------------------------
DEPT.FT    : DEPTH FEET
CALS.IN    : CALIPER FROM SONIC LOG
DT  .US/F  : DELTA TIME FROM SONIC LOG
GRS .GAPI  : GAMMA RAY FROM SONIC LOG
ILD .OHMM  : INDUCTION LOG DEEP RESISTIVITY
SN  .OHMM  : 16 INCH SHORT NORMAL RESISTIVITY FROM IEL
SPR .MV    : SPONTANEOUS POTENTIAL FROM RESISTIVITY LOG
~Params ----------------------------------------------------
PD  .                     GL : PERMANENT DATUM
EPD .FT               2399.7 : ELEVATION PERMANENT DATUM
LMF .                     KB : LOG MEASURED FROM
DAPD.FT                   15 : FEET ABOVE PERMANENT DATUM
DMF .                     KB : DRILLING MEASURED FROM
EKB .FT               2414.7 : KELLY BUSHING
EGL .FT               2399.7 : GROUND LEVEL
DATE.               08/15/67 : RUN DATE
RUN .                      1 : RUN NUMBER
DD  .FT                11172 : DEPTH DRILLER
DL  .FT                11160 : DEPTH LOGGER
BLI .FT                11156 : BOTTOM LOG INTERVAL
TLI .FT                 1144 : TOP LOG INTERVAL
CS  .IN                9.625 : CASING SIZE
CBD .FT                 1145 : CASING BOTTOM DRILLER
CBL .FT                 1144 : CASING BOTTOM LOGGER
BS  .IN                7.625 : BIT SIZE
BSD .FT                11172 : BIT SIZE AT DEPTH
DFT .                MUD GEL : DRILLING FLUID TYPE
DFD .                    9.9 : DRILLING FLUID DENSITY
DFV .                     89 : DRILLING FLUID VISCOSITY
DFPH.                      9 : DRILLING FLUID PH
DFL .                    7.2 : DRILLING FLUID LOSS
MSS .                   CIRC : MUD SAMPLE SOURCE
RMS .OHMM                3.0 : RESISTIVITY MUD SAMPLE
MST .DEGF                 86 : MUD SAMPLE TEMPERATURE
RMF .OHMM                2.4 : RESISTIVITY MUD FILTRATE SAMPLE
MFST.DEGF                 86 : MUD FILTRATE SAMPLE TEMPERATURE
RMC .OHMM                3.2 : RESISTIVITY MUD CAKE
MCST.DEGF                 86 : MUD CAKE SAMPLE TEMPERATURE
MFSS.                   MEAS : MUD FILTRATE SAMPLE SOURCE
MCSS.                   MEAS : MUD CAKE SAMPLE SOURCE
RMB .OHMM                1.2 : RESISTIVITY MUD AT BHT
TCS .HRS                   6 : TIME CIRCULATED STOPPED
LUN .                   1256 : LOGGING UNIT NUMBER
LUL .                    EDM : LOGGING UNIT LOCATION
ENGI.      KOWALCHUK DOMSTAD : RECORDING ENGINEER
WITN.            DANIELEWICZ : WITNESSED BY
CLNT.                A2DTECH : CLIENT CODE
ORIG.            2" 5" PRINT : ORIGIN OF DATA
UWI .       100022706625W500 : UNIQUE WELL ID
DICO. A2D Technologies, Inc. : DIGITIZING COMPANY
~Other -----------------------------------------------------
~ASCII -----------------------------------------------------
 1143.82546    -999.25  125.73000    -999.25    -999.25    -999.25    -999.25
 1144.32546    -999.25  125.35000    -999.25    -999.25    -999.25    -999.25
 1144.82546    -999.25  124.96000   60.10800    -999.25    -999.25    -999.25
 1145.32546    -999.25  124.57000   60.10800    -999.25    -999.25    -999.25
 1145.82546    -999.25  124.18000   60.10800    -999.25    -999.25    -999.25
 1146.32546    -999.25  123.79000   62.17200    5.09770    6.03800  -74.81850
 1146.82546    -999.25  118.35000   64.23600    4.98600    6.08200  -74.36800
 1147.32546    -999.25  115.91000   66.30000    4.94200    6.01700  -74.33330
 1147.82546    -999.25  112.05000   68.36400    4.82700    5.84800  -75.12200
 1148.32546    -999.25  105.70000   69.99600    4.77470    5.77160  -75.58350
 1148.82546    -999.25  104.78000   62.58000    4.65000    5.58900  -76.69000
 1149.32546    -999.25  104.77000   59.08800    4.60050    5.51670  -77.13010
 1149.82546    -999.25  105.84000   58.06800    4.47300    5.33000  -77.78700
 1150.32546    -999.25  140.08000   57.04800    4.42680    5.29270  -77.83270
 1150.82546    -999.25  159.96000   56.02800    4.37660    5.42060  -77.94430
 1151.32546    -999.25  161.08000   55.32000    4.42830    5.54670  -78.00040
 1151.82546    -999.25  161.58000   54.99600    4.57000    5.79870  -78.10600
 1152.32546    -999.25  128.84000   54.67200    4.64130    5.92470  -77.89420
 1152.82546    -999.25  125.92000   54.28800    4.78360    6.17670  -77.20570
 1153.32546    -999.25  124.47000   55.66800    4.85450    6.30270  -76.84780
 1153.82546    -999.25  123.67000   57.36000    4.99620    6.55680  -76.12800
 1154.32546    -999.25  122.96000   59.05200    5.06710    6.68680  -76.02190
 1154.82546    -999.25  121.79000   60.91200    5.20600    6.72950  -76.49070
 1155.32546    -999.25  120.70000   62.89200    5.24000    6.65800  -76.87470
 1155.82546    -999.25  119.64000   66.96000    5.25790    6.51630  -77.59070
 1156.32546    -999.25  116.21000   67.26000    5.26840    6.44740  -77.76380
 1156.82546    -999.25  113.49000   67.56000    5.28940    6.47690  -77.81160
 1157.32546    -999.25  110.32000   67.95600    5.31000    6.82700  -77.86900
 1157.82546    -999.25  104.35000   67.68000    5.32110    6.99780  -77.89490
 1158.32546    -999.25  104.17000   67.26000    5.40200    7.38200  -77.95400
 1158.82546    -999.25  104.19000   66.84000    5.56530    7.54530  -77.97860
 1159.32546    -999.25  105.05000   66.42000    5.95200    7.94000  -78.03900
 1159.82546    -999.25  106.09000   65.85600    6.10150    8.03910  -78.06170
 1160.32546    -999.25  113.21520   63.02400    6.45590    7.81500  -78.11120
 1160.82546    -999.25  115.06420   60.30000    6.63880    7.59040  -78.28730
 1161.32546    -999.25  114.45830   63.32400    6.68370    7.14590  -78.75950
 1161.82546    -999.25  112.96780   66.22800    6.50900    6.92360  -79.00800
 1162.32546    -999.25  109.87750   69.40800    6.08740    6.83690  -79.50460
 1162.82546    -999.25  109.19530   67.33580    5.87560    6.96640  -79.75310
 1163.32546    -999.25  111.18520   65.40660    5.45250    6.94740  -80.24970
 1163.82546    -999.25  111.35500   64.52860    5.24120    6.77570  -80.49770
 1164.32546    -999.25  109.62500   64.34920    4.82090    6.37970  -80.87830
 1164.82546    -999.25  113.67240   65.01690    4.66940    6.18050  -80.95260
 1165.32546    -999.25  125.13710   65.25130    4.61600    5.77940  -81.00920
 1165.82546    -999.25  127.13150   64.72270    4.66220    5.67140  -81.03770
 1166.32546    -999.25  129.33120   63.52750    4.75270    5.63830  -81.09480
 1166.82546    -999.25  131.37540   62.92700    4.79530    5.63230  -81.12330
 1167.32546    -999.25  135.46390   61.72920    4.78110    5.56290  -81.18040
 1167.82546    -999.25  139.68300   60.74700    4.66300    5.44400  -81.24000
 1168.32546    -999.25  139.54850   61.40040    4.60960    5.39060  -81.26520
 1168.82546    -999.25  141.85000   62.74400    4.48900    5.27000  -81.20800
 1169.32546    -999.25  150.29970   63.23820    4.43830    5.21930  -81.01100
 1169.82546    -999.25  157.05000   64.52400    4.34000    5.14300  -80.53700
 1170.32546    -999.25  147.54820   64.98980    4.37530    5.18270  -80.35290
 1170.82546    -999.25  139.93100   66.16770    4.46360    5.27630  -79.91550
 1171.32546    -999.25  134.36720   66.62030    4.50940    5.32190  -79.69800
 1171.82546    -999.25  126.06990   66.35870    4.60120    5.41320  -79.32680
 1172.32546    -999.25  124.46680   65.76360    4.64720    5.45870  -79.23370
 1172.82546    -999.25  123.45000   64.71220    4.72700    5.51560  -79.09690
 1173.32546    -999.25  124.12500   65.65020    4.64440    5.46250  -79.02580
 1173.82546    -999.25  126.09840   68.79590    4.36460    5.29610  -79.16900
 1174.32546    -999.25  126.45000   68.99730    4.22090    5.21340  -79.44640
 1174.82546    -999.25  126.81870   67.76690    3.93420    5.04810  -80.11660
 1175.32546    -999.25  132.02840   67.05600    3.79120    4.96540  -80.45330
 1175.82546    -999.25  139.85000   65.68270    3.50440    4.80000  -81.12650
 1176.32546    -999.25  142.07450   65.07140    3.36320    4.71740  -81.46320
 1176.82546    -999.25  150.09210   65.38370    3.11330    4.55270  -82.13840
 1177.32546    -999.25  154.08150   66.00510    3.09110    4.49980  -82.47890
 1177.82546    -999.25  161.94390   65.21040    3.20370    4.58240  -82.72420
 1178.32546    -999.25  154.25000   62.79800    3.56700    4.80300  -82.38100
 1178.82546    -999.25  151.59680   62.16740    3.84100    4.90090  -82.20550
 1179.32546    -999.25  145.71900   66.58200    4.42200    5.12700  -81.80800
 1179.82546    -999.25  143.28740   68.98400    4.65810    5.27490  -81.64500
 1180.32546    -999.25  134.06300   73.22500    5.23600    5.96200  -81.25300
 1180.82546    -999.25  128.84510   72.25140    5.45870    6.26640  -81.10160
 1181.32546    -999.25  127.95600   69.64800    5.99330    7.00600  -80.73940
 1181.82546    -999.25  130.43650   68.33930    6.16170    7.17390  -80.55720
 1182.32546    -999.25  135.33440   65.69110    6.24280    7.35070  -80.19240
 1182.82546    -999.25  135.24990   64.60440    6.23750    7.40250  -80.22270
 1183.32546    -999.25  130.24930   67.06720    6.23700    7.43380  -80.47340
 1183.82546    -999.25  126.76510   68.96050    6.23700    7.53470  -80.61230
 1184.32546    -999.25  119.79680   68.29800    6.29060    7.94900  -80.88890
 1184.82546    -999.25  116.31270   68.77160    6.40460    8.19980  -81.02720
 1185.32546    -999.25  109.34440   69.34710    7.06420    8.70250  -81.30330
 1185.82546    -999.25  107.39340   68.28370    7.76360    8.95500  -81.44150
 1186.32546    -999.25  107.35520   65.97850    8.81230    9.32510  -81.77470
 1186.82546    -999.25  108.10880   64.80930    8.87330    9.41900  -82.02600
 1187.32546    -999.25  109.51990   62.19590    8.65290    9.12150  -82.62770
 1187.82546    -999.25  109.46420   61.70790    8.32750    8.75570  -82.92790
 1188.32546    -999.25  107.47240   62.78950    7.24530    8.00880  -83.52830
 1188.82546    -999.25  104.92200   63.78000    6.06800    7.04300  -84.15000
 1189.32546    -999.25  104.94510   63.10710    5.54190    6.58870  -84.42400
 1189.82546    -999.25  106.06500   61.63500    4.35800    5.56400  -84.71000
 1190.32546    -999.25  104.54770   61.11940    4.10110    5.25220  -84.41610
 1190.82546    -999.25  104.65500   59.73500    3.97100    4.98300  -83.70200
 1191.32546    -999.25  106.98660   59.23930    3.98300    4.95300  -83.42900
 1191.82546    -999.25  112.75490   58.18330    4.01530    4.88250  -82.77200
 1192.32546    -999.25  115.32290   58.95160    4.03240    4.86470  -82.44220
 1192.82546    -999.25  129.50750   62.07120    4.16650    4.94350  -81.80780
 1193.32546    -999.25  138.24430   63.63610    4.26880    5.01320  -81.76800
 1193.82546    -999.25  153.03580   66.56470    4.47660    5.15230  -81.89970
 1194.32546    -999.25  162.23750   68.28220    4.58080    5.22190  -81.96940
 1194.82546    -999.25  168.37520   69.44400    4.78870    5.36170  -82.06670
