~Version ---------------------------------------------------
VERS.      2.0 : CWLS log ASCII Standard -VERSION 2.0
WRAP.       NO : One line per depth step
CREA. 11/13/17 : LAS Creation Date
~Well ------------------------------------------------------
STRT.FT                            1100.0 : START DEPTH
STOP.FT                           11000.0 : STOP DEPTH
STEP.FT                          50.00000 : STEP LENGTH
NULL.                             -999.25 : NULL VALUE
COMP.        PAN AMERICAN PETROLEUM CORP. : COMPANY
WELL. PAN AM A-1 ASPLUND CREEK 4-22-66-23 : WELL
FLD .                                     : FIELD
LOC .                                     : LOCATION
CTRY.                              CANADA : COUNTRY
SRVC.              Schlumberger of Canada : SERVICE COMPANY
DATE.                         29-Mar-1964 : LOGDATE
PROV.                             Alberta : PROVINCE
UWI .                    100042206623W500 : UNIQUE WELL ID
SLAT.WGS84                       54.72149 : SURFACE LATITUDE
SLON.WGS84                      -117.4003 : SURFACE LONGITUDE
~Curve Information -----------------------------------------
DEPT  .FT    : Depth Curve
CALSED.IN    : CALIPER FROM SONIC LOG
CALWS .IN    : CALIPER [CALSED]
CILDED.MMHO  : CONDUCTIVITY FROM RESISTIVITY LOG
CONDWS.MMHO  : CONDUCTIVITY [1000/DRESWS]
DRESWS.OHMM  : DEEP RESISTIVITY [ILDED] IF ILDED<2;1000/CILDED;ELSE ILDED
DTED  .US/F  : DELTA TIME FROM SONIC LOG
DTWS  .US/F  : DELTA TIME [DTED]
GRSED .GAPI  : GAMMA RAY FROM SONIC LOG
GRWS  .GAPI  : GAMMA RAY [GRSED]
ILDED .OHMM  : INDUCTION LOG DEEP RESISTIVITY
SNED  .OHMM  : 16 INCH SHORT NORMAL RESISTIVITY FROM RESISTIVITY LOG
SPRED .MV    : SPONTANEOUS POTENTIAL FROM RESISTIVITY LOG
SPWS  .MV    : SPONTANEOUS POTENTIAL [BASELINE 0 MV] [SPRED]
SRESWS.OHMM  : SHALLOW RESISTIVITY [SNED]
~Params ----------------------------------------------------
PD  .                     GL : PERMANENT DATUM
EPD .FT               2726.1 : ELEVATION PERMANENT DATUM
LMF .                     KB : LOG MEASURED FROM
DAPD.FT                 13.1 : FEET ABOVE PERMANENT DATUM
EKB .FT               2739.2 : KELLY BUSHING
EGL .FT               2726.1 : GROUND LEVEL
DATE.               03/29/64 : RUN DATE
RUN .                      1 : RUN NUMBER
DD  .FT                11007 : DEPTH DRILLER
DL  .FT                11012 : DEPTH LOGGER
BLI .FT                11011 : BOTTOM LOG INTERVAL
TLI .FT                 1140 : TOP LOG INTERVAL
CBD .FT                 1138 : CASING BOTTOM DRILLER
CBL .FT                 1139 : CASING BOTTOM LOGGER
BS  .IN                 8.75 : BIT SIZE
BSD .FT                11007 : BIT SIZE AT DEPTH
DFT .               GEL CHEM : DRILLING FLUID TYPE
DFD .                    9.2 : DRILLING FLUID DENSITY
DFV .                     75 : DRILLING FLUID VISCOSITY
DFPH.                    8.5 : DRILLING FLUID PH
DFL .                   13.4 : DRILLING FLUID LOSS
RMS .OHMM               4.61 : RESISTIVITY MUD SAMPLE
MST .DEGF                 60 : MUD SAMPLE TEMPERATURE
RMF .OHMM                  4 : RESISTIVITY MUD FILTRATE SAMPLE
MFST.DEGF                 66 : MUD FILTRATE SAMPLE TEMPERATURE
RMC .OHMM               3.83 : RESISTIVITY MUD CAKE
MCST.DEGF                 64 : MUD CAKE SAMPLE TEMPERATURE
RMB .OHMM               1.61 : RESISTIVITY MUD AT BHT
TCS .HRS                   5 : TIME CIRCULATED STOPPED
LUN .                   3534 : LOGGING UNIT NUMBER
LUL .                    WCT : LOGGING UNIT LOCATION
ENGI.                 HAMTON : RECORDING ENGINEER
WITN.               FONTEYNE : WITNESSED BY
CLNT.                A2DTECH : CLIENT CODE
ORIG.            2" 5" PRINT : ORIGIN OF DATA
UWI .       100042206623W500 : UNIQUE WELL ID
DICO. A2D Technologies, Inc. : DIGITIZING COMPANY
~Other -----------------------------------------------------
~ASCII -----------------------------------------------------
# ...
 8450.00000    9.65970    9.65970    8.87560    3.38520  295.40720   52.05430   52.05430   13.18840   13.18840  295.40720  434.49460 -113.04790  -90.99510  434.49460
 8500.00000    9.83160    9.83160    8.26600    3.55830  281.03540   50.49960   50.49960   12.95440   12.95440  281.03540  249.19060 -171.42550 -148.98020  249.19060
 8550.00000    9.94250    9.94250    7.73070    3.19110  313.37590   50.27180   50.27180   15.57930   15.57930  313.37590  336.49480 -148.48650 -125.64860  336.49480
 8600.00000    9.68720    9.68720    8.68430    3.39570  294.49060   49.99050   49.99050   12.24740   12.24740  294.49060  293.15780 -165.67290 -142.43990  293.15780
 8650.00000    9.75300    9.75300   11.26050    3.46890  288.27990   49.81390   49.81390   13.17320   13.17320  288.27990  275.38110 -139.97470 -116.34920  275.38110
 8700.00000    9.76600    9.76600    7.62700    2.25130  444.19570   48.65900   48.65900   12.36240   12.36240  444.19570  477.53400 -141.76530 -117.74470  477.53400
 8750.00000    9.72970    9.72970   13.86240    9.41100  106.25850   50.82770   50.82770    6.94820    6.94820  106.25850  153.74930 -144.37160 -119.95840  153.74930
 8800.00000    9.65610    9.65610   10.27180    6.00310  166.58170   50.35590   50.35590    9.76780    9.76780  166.58170  175.41650 -144.45480 -119.64910  175.41650
 8850.00000    9.79010    9.79010    8.07750    2.55240  391.78540   49.21250   49.21250   14.14120   14.14120  391.78540  357.51860 -161.59670 -136.39580  357.51860
 8900.00000    9.76170    9.76170   10.03520    5.29150  188.98110   50.07790   50.07790   13.94300   13.94300  188.98110  196.15690 -161.24830 -135.65490  196.15690
 8950.00000    9.69430    9.69430    8.55980    4.75480  210.31180   49.28330   49.28330   10.56660   10.56660  210.31180  277.68190 -169.93590 -143.94740  277.68190
 9000.00000    9.72910    9.72910    8.92720    3.04620  328.28140   49.20160   49.20160   11.51030   11.51030  328.28140  260.03410 -184.65800 -158.27690  260.03410
 9050.00000   10.01320   10.01320    8.44160    2.85290  350.52520   50.24940   50.24940   14.49270   14.49270  350.52520  358.90670 -196.12620 -169.35260  358.90670
 9100.00000    9.64840    9.64840    7.87490    3.50000  285.71450   49.38380   49.38380   10.13070   10.13070  285.71450  272.07400 -192.85180 -165.68310  272.07400
 9150.00000    9.94610    9.94610   12.71630    8.64360  115.69210   50.46700   50.46700   10.63350   10.63350  115.69210  106.48870 -197.29270 -169.73140  106.48870
 9200.00000    8.65390    8.65390   43.10510   39.28640   25.45410   51.20830   51.20830   18.59510   18.59510   25.45410   61.98710 -184.03310 -156.07670   61.98710
 9250.00000    9.33370    9.33370    7.85320    2.26890  440.73830   50.22140   50.22140   26.32940   26.32940  440.73830  413.44940 -126.34370  -97.99480  413.44940
 9300.00000    9.91210    9.91210  146.73370  135.34000    7.38880   60.44800   60.44800   35.05320   35.05320    7.38880   15.71910 -113.77890  -85.03740   15.71910
 9350.00000   10.00570   10.00570    9.56020    4.65370  214.88250   51.82780   51.82780   21.14880   21.14880  214.88250  188.76130  -73.95800  -44.82140  188.76130
 9400.00000   10.18110   10.18110    9.24690    4.24990  235.29780   51.34260   51.34260   25.16430   25.16430  235.29780  210.15200 -103.36830  -73.83920  210.15200
 9450.00000   10.67000   10.67000    8.24730    2.99000  334.44650   53.79230   53.79230   18.47090   18.47090  334.44650  284.56630 -130.88160 -100.95730  284.56630
 9500.00000    9.62910    9.62910   12.45580    7.24830  137.96370   52.99890   52.99890   38.57350   38.57350  137.96370  160.13310 -117.76450  -87.44770  160.13310
 9550.00000    9.76160    9.76160   12.54950    7.50660  133.21570   51.76380   51.76380   26.53090   26.53090  133.21570  162.19970 -110.59670  -79.88740  162.19970
 9600.00000   10.19840   10.19840   10.45110    5.50770  181.56380   52.12290   52.12290   27.68310   27.68310  181.56380  195.49180  -87.60900  -56.50450  195.49180
 9650.00000   10.64480   10.64480   19.12930   14.73350   67.87240   49.63910   49.63910   34.12840   34.12840   67.87240   83.36120  -63.14420  -31.64720   83.36120
 9700.00000    9.58780    9.58780   14.56660    9.60800  104.07940   53.03880   53.03880   35.50220   35.50220  104.07940  129.09650  -57.91010  -26.01800  129.09650
 9750.00000    9.39160    9.39160   16.36340   12.19410   82.00700   53.43780   53.43780   32.81250   32.81250   82.00700  135.40600  -36.22950   -3.94480  135.40600
 9800.00000   10.24180   10.24180   29.73720   25.68210   38.93760   55.38080   55.38080   31.35300   31.35300   38.93760   59.35380  -41.72120   -9.39080   59.35380
 9850.00000   12.91890   12.91890  121.40070  119.37020    8.37730   72.26320   72.26320   48.18090   48.18090    8.37730   17.21200  -57.41600  -25.40750   17.21200
 9900.00000   14.76730   14.76730  248.03680  217.34880    4.60090   80.13550   80.13550   54.42800   54.42800    4.60090    6.30780  -66.85500  -35.16630    6.30780
 9950.00000   14.37600   14.37600  169.98870  163.87800    6.10210   80.99020   80.99020   67.03220   67.03220    6.10210   10.06100 -103.86720  -72.50040   10.06100
 10000.00000   13.03090   13.03090  229.32330  201.94270    4.95190   71.09060   71.09060   45.11440   45.11440    4.95190    6.51340  -88.80930  -57.76220    6.51340
 10050.00000   11.51100   11.51100  284.11870  237.27040    4.21460   77.11880   77.11880   53.79060   53.79060    4.21460    6.37870 -102.33190  -71.60460    6.37870
 10100.00000   11.46750   11.46750  145.45080  137.64810    7.26490   64.35290   64.35290   50.18530   50.18530    7.26490   10.42750  -70.66860  -40.26320   10.42750
 10150.00000   11.68560   11.68560  154.44890  147.06960    6.79950   65.39110   65.39110   48.08690   48.08690    6.79950   10.37970  -69.36310  -39.27750   10.37970
 10200.00000   12.59890   12.59890  188.58880  175.61730    5.69420   72.18070   72.18070   65.84880   65.84880    5.69420    8.01890  -73.23030  -43.46660    8.01890
 10250.00000   12.18680   12.18680  200.55510  190.91990    5.23780   71.15520   71.15520   60.08390   60.08390    5.23780    7.65090  -67.41670  -37.97280    7.65090
 10300.00000   11.57730   11.57730  186.47900  180.45660    5.54150   70.19100   70.19100   64.04630   64.04630    5.54150    9.68560  -58.79550  -29.67140    9.68560
 10350.00000   11.86410   11.86410  220.52820  200.69040    4.98280   73.21950   73.21950   65.04560   65.04560    4.98280    7.16700  -75.54930  -46.74710    7.16700
 10400.00000   14.05540   14.05540  320.32910  264.22870    3.78460   74.11560   74.11560   55.93280   55.93280    3.78460    4.84330  -89.15620  -60.67370    4.84330
 10450.00000   11.87610   11.87610  249.45170  225.94790    4.42580   85.13920   85.13920   58.12450   58.12450    4.42580    6.78500  -82.44030  -54.27970    6.78500
 10500.00000   10.41960   10.41960  166.27200  154.45690    6.47430   77.27340   77.27340   76.58150   76.58150    6.47430    9.90470  -61.96630  -34.12550    9.90470
 10550.00000   10.28780   10.28780   46.86270   43.86750   22.79590   58.80580   58.80580   30.76170   30.76170   22.79590   36.63300  -56.44770  -28.92670   36.63300
 10600.00000   12.35630   12.35630   90.79350   79.86200   12.52160   79.85570   79.85570   89.79880   89.79880   12.52160   19.34430  -51.45210  -24.25300   19.34430
 10650.00000   12.23540   12.23540   72.12770   62.32200   16.04570   58.77700   58.77700   51.74120   51.74120   16.04570   20.37850  -57.80700  -30.92770   20.37850
 10700.00000   11.04310   11.04310  120.00990  111.62210    8.95880   66.31760   66.31760   46.25730   46.25730    8.95880   13.84500  -45.31690  -18.75950   13.84500
 10750.00000   10.17010   10.17010   42.08270   38.94430   25.67770   56.34490   56.34490   31.80590   31.80590   25.67770   42.13190  -38.00290  -11.76530   42.13190
 10800.00000    9.98320    9.98320   56.07370   56.50000   17.69910   60.09430   60.09430   45.93210   45.93210   17.69910   29.56520  -30.09720   -4.17930   29.56520
 10850.00000    9.60620    9.60620   27.37540   23.57590   42.41620   54.05970   54.05970   36.13320   36.13320   42.41620   61.50230  -40.21120  -14.43640   61.50230
