~Version ---------------------------------------------------
VERS.      2.0 : CWLS log ASCII Standard -VERSION 2.0
WRAP.       NO : One line per depth step
CREA. 08/31/17 : LAS Creation Date
~Well ------------------------------------------------------
STRT.FT                            1150.0 : START DEPTH
STOP.FT                           11550.0 : STOP DEPTH
STEP.FT                          50.00000 : STEP LENGTH
NULL.                             -999.25 : NULL VALUE
COMP.    AMOCO CANADA PETROLEUM CO., LTD. : COMPANY
WELL. AMOCO HB FINA SOUTH FORK 10-8-59-19 : WELL
FLD .                                     : FIELD
LOC .                                     : LOCATION
CTRY.                              CANADA : COUNTRY
SRVC.                        Schlumberger : SERVICE COMPANY
DATE.                         10-Oct-1977 : LOGDATE
PROV.                             Alberta : PROVINCE
UWI .                    100100805919W500 : UNIQUE WELL ID
SLAT.WGS84                       54.08913 : SURFACE LATITUDE
SLON.WGS84                      -116.8085 : SURFACE LONGITUDE
~Curve Information -----------------------------------------
DEPT    .FT    : Depth Curve
CALDED  .IN    : CALIPER FROM CNT-CFD LOG [ADJ. TO ILDED]
CALSED  .IN    : CALIPER FROM BCS LOG [ADJ. TO ILDED]
CALWS   .IN    : CALIPER [CALDED]
CONDWS  .MMHO  : CONDUCTIVITY [1000/DRESWS]
DCORED  .G/C3  : DENSITY CORRECTION FROM CNT-CFD LOG [ADJ. TO ILDED]
DCORWS  .G/C3  : DENSITY CORRECTION [DCORED]
DENWS   .G/C3  : FORMATION BULK DENSITY [RHOBED]
DPHILSED.V/V   : DENSITY POROSITY LIMESTONE [M=2.71,F=1.0] FROM CNT-CFD LOG [ADJ. TO ILDED]
DPHISSED.V/V   : DENSITY POROSITY SANDSTONE [M=2.65,F=1.0] FROM CNT-CFD LOG [ADJ. TO ILDED]
DPOLSWS .V/V   : DENSITY POROSITY LIMESTONE [CALCULATED FROM DENWS, M=2.71, F=1.0]
DRESWS  .OHMM  : DEEP RESISTIVITY [ILDED]
DTED    .US/F  : DELTA-T (INTERVAL TRANSIT TIME) FROM BCS LOG [ADJ. TO ILDED]
DTWS    .US/F  : COMPRESSIONAL  SONIC [DTED]
GRDED   .GAPI  : GAMMA RAY FROM CNT-CFD LOG [ADJ. TO ILDED]
GRSED   .GAPI  : GAMMA RAY FROM BCS LOG [ADJ. TO ILDED]
GRWS    .GAPI  : GAMMA RAY [GRSED]
ILDED   .OHMM  : DEEP INDUCTION FROM DILL LOG
ILMED   .OHMM  : MEDIUM INDUCTION FROM DILL LOG
LL8ED   .OHMM  : LATEROLOG 8 FROM DILL LOG
MRESWS  .OHMM  : MEDIUM RESISTIVITY [ILMED]
NPHILSED.V/V   : NEUTRON POROSITY LIMESTONE FROM CNT-CFD LOG [ADJ. TO ILDED]
NPHISSED.V/V   : NEUTRON POROSITY SANDSTONE FROM CNT-CFD LOG [ADJ. TO ILDED]
NPOLSWS .V/V   : NEUTRON POROSITY LIMESTONE [NPHISSED CONVERTED TO LIMESTONE MATRIX, SPL. TO NPHILSED @7662.5']
RHOBED  .G/C3  : BULK DENSITY FROM CNT-CFD LOG [ADJ. TO ILDED]
SPRED   .MV    : SPONTANEOUS POTENTIAL FROM DILL LOG
SPWS    .MV    : SPONTANEOUS POTENTIAL [BASELINE 0 MV, SPRED]
SRESWS  .OHMM  : SHALLOW RESISTIVITY [LL8ED]
~Params ----------------------------------------------------
PD  .                     GL : PERMANENT DATUM
EPD .FT                 2976 : ELEVATION PERMANENT DATUM
LMF .                     KB : LOG MEASURED FROM
DAPD.FT                 20.7 : FEET ABOVE PERMANENT DATUM
EKB .FT               2996.7 : KELLY BUSHING
EGL .FT                 2976 : GROUND LEVEL
DATE.               10/10/77 : RUN DATE
RUN .                      1 : RUN NUMBER
DD  .FT                11577 : DEPTH DRILLER
DL  .FT                11569 : DEPTH LOGGER
BLI .FT                11563 : BOTTOM LOG INTERVAL
TLI .FT                 1534 : TOP LOG INTERVAL
CBD .FT                 1535 : CASING BOTTOM DRILLER
CBL .FT                 1534 : CASING BOTTOM LOGGER
BS  .IN                 8.75 : BIT SIZE
BSD .FT                11577 : BIT SIZE AT DEPTH
DFT .                    GEL : DRILLING FLUID TYPE
DFD .                      9 : DRILLING FLUID DENSITY
DFV .                     80 : DRILLING FLUID VISCOSITY
DFPH.                    8.5 : DRILLING FLUID PH
DFL .                    8.8 : DRILLING FLUID LOSS
MSS .               FLOWLINE : MUD SAMPLE SOURCE
RMS .OHMM               2.24 : RESISTIVITY MUD SAMPLE
MST .DEGF                 54 : MUD SAMPLE TEMPERATURE
RMF .OHMM               1.98 : RESISTIVITY MUD FILTRATE SAMPLE
MFST.DEGF                 64 : MUD FILTRATE SAMPLE TEMPERATURE
TCS .HRS                   3 : TIME CIRCULATED STOPPED
LUN .                   7772 : LOGGING UNIT NUMBER
LUL .                    EDM : LOGGING UNIT LOCATION
ENGI.         BERNISKY TRACY : RECORDING ENGINEER
WITN.                 NEWELL : WITNESSED BY
CLNT.                A2DTECH : CLIENT CODE
ORIG.            2" 5" PRINT : ORIGIN OF DATA
UWI .       100100805919W500 : UNIQUE WELL ID
DICO. A2D Technologies, Inc. : DIGITIZING COMPANY
~Other -----------------------------------------------------
~ASCII -----------------------------------------------------
# ...
 5050.00000   10.72290    9.31770   10.72290  141.47070    0.26470    0.26470    2.25830    -999.25    0.24730    0.26420    7.06860   85.03440   85.03440  124.95460  135.73120  135.73120    7.06860    7.37020    8.16020    7.37020    -999.25    0.34790    0.30420    2.25830 -434.11130   -8.13750    8.16020
 5100.00000   10.07200    9.18390   10.07200  124.30340    0.25390    0.25390    2.23470    -999.25    0.26210    0.27800    8.04500   80.37110   80.37110  114.29350  123.94680  123.94680    8.04500    8.66850    9.33120    8.66850    -999.25    0.35030    0.30660    2.23470 -434.41420   -9.10420    9.33120
 5150.00000   10.17040    8.99700   10.17040  104.28620    0.26450    0.26450    2.27390    -999.25    0.23010    0.25500    9.58900   79.18780   79.18780  118.71220  117.48900  117.48900    9.58900   10.01750   10.58470   10.01750    -999.25    0.32150    0.27760    2.27390 -449.78520  -24.20790   10.58470
 5200.00000    9.81510    8.93120    9.81510   62.31370    0.25000    0.25000    2.52480    -999.25    0.08160    0.10830   16.04960   73.00930   73.00930   98.21470  102.73460  102.73460   16.04960   16.90380   19.08780   16.90380    -999.25    0.22520    0.18150    2.52480 -444.72060  -18.87430   19.08780
 5250.00000   10.04090    9.20450   10.04090   87.11560    0.26490    0.26490    2.32340    -999.25    0.21060    0.22610   11.47900   75.63150   75.63150  110.66110  119.92910  119.92910   11.47900   12.03360   13.85210   12.03360    -999.25    0.31290    0.26900    2.32340 -442.44980  -16.33620   13.85210
 5300.00000   10.27410    9.10330   10.27410   79.01830    0.25000    0.25000    2.36700    -999.25    0.18500    0.20060   12.65530   76.90640   76.90640  110.76340  116.40110  116.40110   12.65530   13.18760   15.15170   13.18760    -999.25    0.27140    0.22740    2.36700 -443.08310  -16.70220   15.15170
 5350.00000   11.21740    9.43360   11.21740   97.29580    0.26360    0.26360    2.12580    -999.25    0.32490    0.34170   10.27810   77.93600   77.93600  110.70870  118.01770  118.01770   10.27810   10.86840   11.02970   10.86840    -999.25    0.31680    0.27290    2.12580 -447.21730  -20.56740   11.02970
 5400.00000   10.44270    9.07670   10.44270  110.69910    0.25000    0.25000    2.32440    -999.25    0.20640    0.22550    9.03350   81.08610   81.08610  117.27660  124.69160  124.69160    9.03350    9.78290   10.82620    9.78290    -999.25    0.34140    0.29770    2.32440 -450.59450  -23.67730   10.82620
 5450.00000   10.34810    9.19610   10.34810  108.74010    0.25000    0.25000    2.24580    -999.25    0.24770    0.27150    9.19640   81.16750   81.16750  124.12080  123.60260  123.60260    9.19640    9.83690   11.18050    9.83690    -999.25    0.32730    0.28350    2.24580 -453.35090  -26.16470   11.18050
 5500.00000   10.09450    8.95650   10.09450   96.66510    0.25000    0.25000    2.32080    -999.25    0.20720    0.22760   10.34500   81.86450   81.86450  122.38850  126.58440  126.58440   10.34500   10.99550   13.55980   10.99550    -999.25    0.33790    0.29410    2.32080 -452.87380  -25.42030   13.55980
 5550.00000   10.34800    9.23680   10.34800  106.52800    0.25000    0.25000    2.22950    -999.25    0.26160    0.28100    9.38720   85.48210   85.48210  129.32300  130.05960  130.05960    9.38720    9.93890   11.74010    9.93890    -999.25    0.34670    0.30300    2.22950 -444.61990  -16.89910   11.74010
 5600.00000    9.90380    8.89800    9.90380   75.39510    0.25000    0.25000    2.41100    -999.25    0.15470    0.17490   13.26360   84.54800   84.54800  132.58150  142.13760  142.13760   13.26360   13.95620   17.74310   13.95620    -999.25    0.32850    0.28470    2.41100 -440.47540  -12.48560   17.74310
 5650.00000    8.74770    9.03730    8.74770   87.55570   -0.00320   -0.00320    2.57000    -999.25    0.04590    0.08190   11.42130   83.92050   83.92050  126.40570  120.30960  120.30960   11.42130   11.89560   14.75820   11.89560    -999.25    0.35820    0.31470    2.57000 -440.00000  -11.74290   14.75820
 5700.00000    8.85930    8.70430    8.85930   49.81610    0.01420    0.01420    2.59810    -999.25    0.03950    0.06550   20.07430   83.47110   83.47110  139.88520  140.94440  140.94440   20.07430   22.37660   35.39190   22.37660    -999.25    0.36110    0.31760    2.59810 -436.80730   -8.28120   35.39190
 5750.00000    9.03750    8.81440    9.03750   71.27230    0.04370    0.04370    2.62010    -999.25    0.01810    0.05260   14.03070   87.56880   87.56880  146.23600  140.22040  140.22040   14.03070   14.80280   19.90080   14.80280    -999.25    0.37410    0.33080    2.62010 -442.42680  -13.63340   19.90080
 5800.00000    9.17840    8.61950    9.17840   25.70650    0.01890    0.01890    2.59020    -999.25    0.03830    0.07010   38.90060   80.25600   80.25600  130.04910  130.00000  130.00000   38.90060   30.61830   58.28760   30.61830    -999.25    0.33190    0.28810    2.59020 -440.04950  -10.98890   58.28760
 5850.00000   10.82700    9.49500   10.82700  114.42110    0.26560    0.26560    2.33410    -999.25    0.19960    0.21990    8.73970   86.77740   86.77740  128.73520  127.22290  127.22290    8.73970    9.33250   11.18830    9.33250    -999.25    0.36960    0.32620    2.33410 -439.01380   -9.93910   11.18830
 5900.00000    9.55150    8.98230    9.55150   62.36710    0.25620    0.25620    2.35830    -999.25    0.18350    0.20570   16.03410   99.80160   99.80160  165.36880  160.29870  160.29870   16.03410   16.83400   24.85540   16.83400    -999.25    0.40780    0.36510    2.35830 -443.45470  -14.38000   24.85540
 5950.00000   10.57740    9.18310   10.57740  125.63290    0.26450    0.26450    2.26620    -999.25    0.24080    0.25960    7.95970   79.25200   79.25200  107.70930  103.34750  103.34750    7.95970    8.29070    9.50520    8.29070    -999.25    0.29610    0.25210    2.26620 -443.04570  -13.97100    9.50520
 6000.00000   10.95160    9.55480   10.95160  127.30740    0.26660    0.26660    2.35980    -999.25    0.18540    0.20480    7.85500   84.30440   84.30440  125.03140  111.14940  111.14940    7.85500    8.26950   10.05560    8.26950    -999.25    0.33620    0.29240    2.35980 -449.53450  -20.45980   10.05560
 6050.00000    9.29580    8.66560    9.29580  101.05400    0.26500    0.26500    2.43100    -999.25    0.14760    0.16320    9.89570   76.75980   76.75980  118.35460  114.05810  114.05810    9.89570   10.40910   12.19910   10.40910    -999.25    0.29110    0.24710    2.43100 -448.69680  -19.62210   12.19910
 6100.00000    9.31900    9.00740    9.31900   96.43690    0.03790    0.03790    2.63530    -999.25    0.01160    0.04370   10.36970   74.26170   74.26170  108.98170  108.19590  108.19590   10.36970   11.18670   12.38230   11.18670    -999.25    0.24510    0.20120    2.63530 -450.83680  -21.76210   12.38230
 6150.00000    9.84190    9.33960    9.84190  115.29500    0.07650    0.07650    2.60130    -999.25    0.03580    0.06360    8.67340   77.89390   77.89390  118.81910  115.90620  115.90620    8.67340    9.07510   10.52530    9.07510    -999.25    0.31650    0.27260    2.60130 -452.17910  -23.10440   10.52530
 6200.00000   11.23290   10.41760   11.23290  147.65840    0.12870    0.12870    2.52880    -999.25    0.07980    0.10590    6.77260   81.89630   81.89630  119.97800  122.07030  122.07030    6.77260    7.06190    8.43370    7.06190    -999.25    0.35480    0.31130    2.52880 -459.70060  -30.62590    8.43370
 6250.00000   11.47650    9.53200   11.47650  136.28990    0.12940    0.12940    2.43560    -999.25    0.13900    0.16050    7.33730   89.02020   89.02020  153.88010  143.58710  143.58710    7.33730    7.93080    9.79340    7.93080    -999.25    0.38810    0.34500    2.43560 -450.85140  -21.77670    9.79340
 6300.00000   12.85030    9.85450   12.85030  160.74070    0.13810    0.13810    2.45910    -999.25    0.12360    0.14670    6.22120   89.99630   89.99630  136.34930  129.59230  129.59230    6.22120    6.57290    8.32550    6.57290    -999.25    0.33970    0.29600    2.45910 -446.69910  -17.62440    8.32550
