~Version ---------------------------------------------------
VERS.      2.0 : CWLS log ASCII Standard -VERSION 2.0
WRAP.       NO : One line per depth step
CREA. 12/18/17 : LAS Creation Date
~Well ------------------------------------------------------
STRT.FT                               950.0 : START DEPTH
STOP.FT                              9500.0 : STOP DEPTH
STEP.FT                            50.00000 : STEP LENGTH
NULL.                               -999.25 : NULL VALUE
COMP.                 TEXACO CANADA LIMITED : COMPANY
WELL. TEXACO AMERADA SNIPE LAKE 14-29-69-19 : WELL
FLD .                                       : FIELD
LOC .                                       : LOCATION
CTRY.                                CANADA : COUNTRY
SRVC.                Schlumberger of Canada : SERVICE COMPANY
DATE.                           13-Mar-1960 : LOGDATE
PROV.                               Alberta : PROVINCE
UWI .                      100142906919W500 : UNIQUE WELL ID
SLAT.WGS84                         55.00866 : SURFACE LATITUDE
SLON.WGS84                        -116.8632 : SURFACE LONGITUDE
~Curve Information -----------------------------------------
DEPT   .FT     : Depth Curve
CALWS  .IN     : CALIPER [MCALED]
CILDED .MMHO   : CONDUCTIVITY FROM RESISTIVITY LOG
CONDWS .MMHO   : CONDUCTIVITY [1000/DRESWS]
DRESWS .OHMM   : DEEP RESISTIVITY [1000/CILDED IF ILDED<1, ILDED]
DTED   .US/F   : DELTA-T FROM SONIC LOG
DTWS   .US/F   : COMPRESSIONAL SONIC [DTED]
GRED   .GAPI   : GAMMA RAY FROM GR-CCL LOG
GRN1ED .GAPI   : GAMMA RAY FROM GR-CCL-N LOG
GRNED  .UR/HR  : GAMMA RAY FROM GRN LOG [ADJ TO RESISTIVITY LOG]
GRWS   .GAPI   : GAMMA RAY [GRED SPL. TO GRN1ED @ 4242' @ 8497' TO GRNED*10.4]
ILDED  .OHMM   : DEEP INDUCTION RESISTIVITY FROM RESISTIVITY LOG
MCALED .IN     : MICRO CALIPER FROM ML LOG [ADJ TO RESISTIVITY LOG]
NEUT1ED.NAPI   : NEUTRON FROM GR-CCL-N LOG
NEUTED .NAPI   : NEUTRON FROM GRN LOG [ADJ TO RESISTIVITY LOG]
NEUTWS .NAPI   : NEUTRON [NEUT1ED SPL. TO NEUTED @ 4954']
SNED   .OHMM   : SHORT NORMAL RESISTIVITY FROM RESISTIVITY LOG
SPRED  .MV     : SPONTANEOUS POTENTIAL FROM RESISTIVITY LOG
SPWS   .MV     : SPONTANEOUS POTENTIAL [BASELINE 0MV, SPRED]
SRESWS .OHMM   : SHALLOW RESISTIVITY [SNED]
~Params ----------------------------------------------------
LMF .                     KB : LOG MEASURED FROM
DMF .                     KB : DRILLING MEASURED FROM
EKB .FT                 2397 : KELLY BUSHING
DATE.               03/13/60 : RUN DATE
RUN .                      1 : RUN NUMBER
DD  .FT                 9513 : DEPTH DRILLER
DL  .FT                 9508 : DEPTH LOGGER
BLI .FT                 9503 : BOTTOM LOG INTERVAL
TLI .FT                  945 : TOP LOG INTERVAL
CBD .FT                  948 : CASING BOTTOM DRILLER
CBL .FT                  945 : CASING BOTTOM LOGGER
BS  .IN                    9 : BIT SIZE
BSD .FT                 9513 : BIT SIZE AT DEPTH
DFT .                    GEL : DRILLING FLUID TYPE
DFD .                   10.6 : DRILLING FLUID DENSITY
DFV .                    110 : DRILLING FLUID VISCOSITY
DFPH.                   10.5 : DRILLING FLUID PH
DFL .                    5.2 : DRILLING FLUID LOSS
RMS .OHMM                  3 : RESISTIVITY MUD SAMPLE
MST .DEGF                 60 : MUD SAMPLE TEMPERATURE
RMF .OHMM                1.3 : RESISTIVITY MUD FILTRATE SAMPLE
MFST.DEGF                 70 : MUD FILTRATE SAMPLE TEMPERATURE
RMC .OHMM                3.1 : RESISTIVITY MUD CAKE
MCST.DEGF                 70 : MUD CAKE SAMPLE TEMPERATURE
RMB .OHMM               0.95 : RESISTIVITY MUD AT BHT
TCS .HRS                   4 : TIME CIRCULATED STOPPED
LUN .                   2742 : LOGGING UNIT NUMBER
LUL .                     VV : LOGGING UNIT LOCATION
ENGI.                    GAU : RECORDING ENGINEER
WITN.                  IRVIN : WITNESSED BY
CLNT.                A2DTECH : CLIENT CODE
ORIG.            2" 5" PRINT : ORIGIN OF DATA
UWI .       100142906919W500 : UNIQUE WELL ID
DICO. A2D Technologies, Inc. : DIGITIZING COMPANY
~Other -----------------------------------------------------
GR-CCL-N-GRN-IEL-ML-SONIC LOG
~ASCII -----------------------------------------------------
# ...
 8350.00000   11.38950  143.18800  135.21920    7.39540   69.93330   69.93330    -999.25    -999.25    -999.25    -999.25    7.39540   11.38950    -999.25    -999.25    -999.25   10.62980 -105.93360  -27.70210   10.62980
 8400.00000   12.96330  161.01590  150.33300    6.65190   70.14520   70.14520    -999.25    -999.25    -999.25    -999.25    6.65190   12.96330    -999.25    -999.25    -999.25    9.82210  -81.96730   -5.14610    9.82210
 8450.00000   12.60500  162.57650  157.18820    6.36180   70.19100   70.19100    -999.25    -999.25    -999.25    -999.25    6.36180   12.60500    -999.25    -999.25    -999.25    9.43570  -87.44620  -12.35110    9.43570
 8500.00000   10.83590  139.12020  133.13810    7.51100   67.82060   67.82060    -999.25    -999.25    7.33560   76.29020    7.51100   10.83590    -999.25  516.51640  516.51640   10.34260 -101.79370  -29.83440   10.34260
 8550.00000   14.32880  214.41300  210.55290    4.74940   72.44610   72.44610    -999.25    -999.25    7.90310   82.19280    4.74940   14.32880    -999.25  410.41150  410.41150    6.88170 -108.60540  -39.78180    6.88170
 8600.00000   10.25210   82.37970   54.54350   18.33400   80.54030   80.54030    -999.25    -999.25   13.08280  136.06110   18.33400   10.25210    -999.25  571.72200  571.72200   26.71730  -95.54110  -29.87400   26.71730
 8650.00000   10.21370   65.33500   52.18550   19.16240   74.59400   74.59400    -999.25    -999.25    6.54970   68.11690   19.16240   10.21370    -999.25  772.85510  772.85510   22.01980  -92.74970  -30.21840   22.01980
 8700.00000   10.30830   36.38290   22.17240   45.10110   84.75090   84.75090    -999.25    -999.25   10.06990  104.72700   45.10110   10.30830    -999.25  598.94730  598.94730   44.35560  -94.03360  -34.65870   44.35560
 8750.00000   10.84130   14.70530    2.80010  357.12390   51.55240   51.55240    -999.25    -999.25    5.85200   60.86080  357.12390   10.84130    -999.25 1582.63430 1582.63430  157.96300 -123.72920  -67.49010  157.96300
 8800.00000   13.08410   29.76570   15.92120   62.80950   53.92640   53.92640    -999.25    -999.25    6.09290   63.36620   62.80950   13.08410    -999.25  736.59360  736.59360   44.75030 -103.79140  -50.68810   44.75030
 8850.00000   10.64670   21.49900    8.01240  124.80620   52.10670   52.10670    -999.25    -999.25    4.42530   46.02310  124.80620   10.64670    -999.25 1836.88040 1836.88040   79.81470 -169.63670 -119.68980   79.81470
 8900.00000   10.13310   26.16370   12.79280   78.16890   52.49310   52.49310    -999.25    -999.25    3.48710   36.26580   78.16890   10.13310    -999.25 1618.66130 1618.66130   66.82730 -167.99850 -121.18740   66.82730
 8950.00000    9.66010   20.49690    7.08380  141.16740   52.40070   52.40070    -999.25    -999.25    4.81690   50.09580  141.16740    9.66010    -999.25 1561.58050 1561.58050   90.47450 -132.33210  -88.67740   90.47450
 9000.00000    9.90430   19.42070    5.03070  198.77820   53.52770   53.52770    -999.25    -999.25    5.64350   58.69240  198.77820    9.90430    -999.25 1492.70250 1492.70250  135.60010  -96.21060  -55.69170  135.60010
 9050.00000    9.35640   24.96830   12.71980   78.61750   52.02260   52.02260    -999.25    -999.25    -999.25    -999.25   78.61750    9.35640    -999.25    -999.25    -999.25   72.52300 -126.46480  -89.08170   72.52300
 9100.00000    8.24600 1045.22950 1083.42360    0.92300   72.37700   72.37700    -999.25    -999.25    -999.25    -999.25    0.92300    8.24600    -999.25    -999.25    -999.25    8.46700 -182.41470 -148.18800    8.46700
 9150.00000    9.16780  168.32450  163.80550    6.10480   74.11100   74.11100    -999.25    -999.25    -999.25    -999.25    6.10480    9.16780    -999.25    -999.25    -999.25    9.81320  -36.66300   -5.57210    9.81320
 9200.00000    8.31830  392.70880  437.31140    2.28670   69.26560   69.26560    -999.25    -999.25    -999.25    -999.25    2.28670    8.31830    -999.25    -999.25    -999.25   12.42440 -132.52550  -90.78650   12.42440
 9250.00000    9.21180   90.05830   84.77090   11.79650   59.39050   59.39050    -999.25    -999.25    -999.25    -999.25   11.79650    9.21180    -999.25    -999.25    -999.25   16.12330 -110.78260  -58.37490   16.12330
 9300.00000    8.75910  924.43380  859.62350    1.16330   65.91940   65.91940    -999.25    -999.25    -999.25    -999.25    1.16330    8.75910    -999.25    -999.25    -999.25    6.53300 -223.09470 -160.01830    6.53300
 9350.00000    8.23660 1998.18270 3443.52620    0.29040   80.62110   80.62110    -999.25    -999.25    -999.25    -999.25    0.29040    8.23660    -999.25    -999.25    -999.25    1.07410 -224.75300 -150.93770    1.07410
 9400.00000    8.25260 1229.44080 1465.41620    0.68240   72.73540   72.73540    -999.25    -999.25    -999.25    -999.25    0.68240    8.25260    -999.25    -999.25    -999.25    3.71240 -223.69740 -139.21340    3.71240
 9450.00000    8.13870 1321.26180 1540.35740    0.64920   72.36420   72.36420    -999.25    -999.25    -999.25    -999.25    0.64920    8.13870    -999.25    -999.25    -999.25    3.56500 -225.20060 -129.97770    3.56500
 9500.00000    8.53100  659.59970  810.17580    1.23430   69.78620   69.78620    -999.25    -999.25    -999.25    -999.25    1.23430    8.53100    -999.25    -999.25    -999.25    3.48640 -176.65910  -77.99690    3.48640
