~Version ---------------------------------------------------
VERS. 2.0 : CWLS log ASCII Standard -VERSION 2.0
WRAP.  NO : ONE LINE PER DEPTH STEP
~Well ------------------------------------------------------
STRT.F                             1200.0 : START DEPTH
STOP.F                            11400.0 : STOP DEPTH
STEP.F                           50.00000 : STEP LENGTH
NULL.                             -999.25 : NULL VALUE
COMP.       AMOCO CANADA PETROLEUM CO LTD : COMPANY
WELL. AMOCO MOBIL L-2 WAHIGAN 10-16-64-23 : WELL
FLD .                                     : FIELD
LOC .                                     : LOCATION
CTRY.                              CANADA : COUNTRY
SRVC.                             Unknown : SERVICE COMPANY
DATE.                         06-Feb-1976 : LOGDATE
PROV.                             Alberta : PROVINCE
UWI .                    100101606423W500 : UNIQUE WELL ID
SLAT.WGS84                       54.53986 : SURFACE LATITUDE
SLON.WGS84                      -117.4124 : SURFACE LONGITUDE
~Curve Information -----------------------------------------
DEPT   .F    0   1   0  0 : 1 MEASURED DEPTH
GRS    .GAPI 60 310 01 00 : GAMMA RAY FROM SONIC LOG
AC     .US/F 60 500 41 00 : ACOUSTIC
CALS   .IN   60 280 50 00 : CALIPER FROM SONIC LOG
SPR    .MV   07 010 01 00 : SPONTANEOUS POTENTIAL FROM RESISTIVITY LOG
ILM    .OHMM 07 120 44 00 : INDUCTION MEDIUM RESISTIVITY
SFL    .OHMM 07 220 06 00 : SPHERICALLY FOCUSED LOG
ILD    .OHMM 07 120 46 00 : INDUCTION DEEP RESISTIVITY
GRD    .GAPI 45 310 01 00 : GAMMA RAY FROM DENSITY LOG
CORR   .G/C3 45 356 01 00 : DENSITY CORRECTION
RHOB   .G/C3 45 350 01 00 : BULK DENSITY
CALD   .IN   45 280 60 00 : CALIPER FROM DENSITY LOG
NPHI_SS.DEC  42 890 03 00 : NEUTRON POROSITY SANDSTONE
DPHI_SS.DEC  45 890 12 00 : DENSITY POROSITY SANDSTONE
NPHI_LS.DEC  42 890 01 00 : NEUTRON POROSITY LIMESTONE
DPHI_LS.DEC  45 890 10 00 : DENSITY POROSITY LIMESTONE
~Params ----------------------------------------------------
PD  .                     GL : PERMANENT DATUM
EPD .FT               2628.5 : ELEVATION PERMANENT DATUM
LMF .                     KB : LOG MEASURED FROM
DAPD.FT                 13.5 : FEET ABOVE PERMANENT DATUM
DMF .                     KB : DRILLING MEASURED FROM
EKB .FT                 2642 : KELLY BUSHING
EGL .FT               2628.5 : GROUND LEVEL
DATE.               02/06/76 : RUN DATE
RUN .                      1 : RUN NUMBER
DD  .FT                11378 : DEPTH DRILLER
DL  .FT                11410 : DEPTH LOGGER
BLI .FT                11408 : BOTTOM LOG INTERVAL
TLI .FT                 1219 : TOP LOG INTERVAL
CS  .IN                9.625 : CASING SIZE
CBD .FT                 1208 : CASING BOTTOM DRILLER
CBL .FT                 1219 : CASING BOTTOM LOGGER
BS  .IN                 8.75 : BIT SIZE
BSD .FT                11378 : BIT SIZE AT DEPTH
DFT .           MUD GEL CHEM : DRILLING FLUID TYPE
DFD .                    9.3 : DRILLING FLUID DENSITY
DFV .                    135 : DRILLING FLUID VISCOSITY
DFPH.                     10 : DRILLING FLUID PH
DFL .                    8.1 : DRILLING FLUID LOSS
MSS .                   CIRC : MUD SAMPLE SOURCE
RMS .OHMM                3.5 : RESISTIVITY MUD SAMPLE
MST .DEGF                 67 : MUD SAMPLE TEMPERATURE
RMF .OHMM                3.5 : RESISTIVITY MUD FILTRATE SAMPLE
MFST.DEGF                 62 : MUD FILTRATE SAMPLE TEMPERATURE
RMC .OHMM                2.8 : RESISTIVITY MUD CAKE
MCST.DEGF                 67 : MUD CAKE SAMPLE TEMPERATURE
MFSS.                   MEAS : MUD FILTRATE SAMPLE SOURCE
MCSS.                   MEAS : MUD CAKE SAMPLE SOURCE
RMB .OHMM               1.21 : RESISTIVITY MUD AT BHT
TCS .HRS                   7 : TIME CIRCULATED STOPPED
LUN .                   6155 : LOGGING UNIT NUMBER
LUL .                    EDM : LOGGING UNIT LOCATION
ENGI.                    GAU : RECORDING ENGINEER
WITN.                  KAREL : WITNESSED BY
CLNT.                A2DTECH : CLIENT CODE
ORIG.            2" 5" PRINT : ORIGIN OF DATA
UWI .       100101606423W500 : UNIQUE WELL ID
DICO. A2D Technologies, Inc. : DIGITIZING COMPANY
~Other -----------------------------------------------------
~ASCII -----------------------------------------------------
# ...
 5800.00000   82.20390   77.76140   10.26120  -34.94690   18.64570   26.43440   15.49280  127.66340    0.11950    2.59320   11.44250    0.32340    0.06180    -999.25    -999.25
 5850.00000   62.62150  114.68930   10.91840  -46.17660   20.07300   28.13320   17.34580  124.96500    0.09040    1.93040   13.10680    0.35190    0.50770    -999.25    -999.25
 5900.00000   64.32640   70.01170   10.51490  -14.00110   11.78950   18.95130   10.67530  104.05090    0.06500    2.59490   11.45530    0.25810    0.03180    -999.25    -999.25
 5950.00000   68.49690   76.43740   10.46660  -20.48270   28.38800   40.01910   22.54400   89.97050    0.09860    2.59960   11.18570    0.32070    0.07950    -999.25    -999.25
 6000.00000   73.04980   74.40020   10.19350  -16.97720   15.03850   27.24760   12.67250  118.36930    0.22630    2.21280   10.67470    0.33560    0.12830    -999.25    -999.25
 6050.00000   75.94800   75.06450   10.84310  -32.43220   11.28700   16.38580    9.99340   87.22450    0.11750    2.31380   11.66000    0.49870    0.11810    -999.25    -999.25
 6100.00000   44.76320   72.78130   10.18850  -55.58330   17.72930   25.08570   16.69690   76.12800    0.17420    2.61980   11.02770    0.29900    0.02990    -999.25    -999.25
 6150.00000   60.93770   68.29160   10.34510  -93.54390   14.67570   23.46920    9.69110   89.39860    0.07900    2.50330   10.87940    0.29170    0.06420    -999.25    -999.25
 6200.00000   69.76900   69.67120   10.14180  -72.16450   13.40660   16.74230   11.97320   85.26550    0.08930    2.65740   10.82220    0.25780    0.03850    -999.25    -999.25
 6250.00000   91.63490   68.24920   10.01520  -45.72160   15.56910   20.65050   13.52850  120.96730    0.08450    2.64770   10.87380    0.27850    0.00170    -999.25    -999.25
 6300.00000   81.01670   73.79490   10.32230  -40.89080   14.25940   22.28600   12.66460  128.60090    0.29200    2.68600   10.97230    0.33050    0.00030    -999.25    -999.25
 6350.00000   66.27650   68.62180   10.11750  -47.21260    8.31910   11.11110    7.67650   93.11830    0.08680    2.59410   11.23090    0.23950    0.02600    -999.25    -999.25
 6400.00000   62.07770   61.23450    9.80800  -39.43820   22.31460   39.18100   20.00450  105.18840    0.08890    2.64960   10.11550    0.20870    0.00020    -999.25    -999.25
 6450.00000   86.81880   68.53700   10.07320  -38.91320   33.14680   67.24530   27.54330  141.71970    0.15540    2.61280   10.33810    0.28490    0.01230    -999.25    -999.25
 6500.00000   94.45160   68.35630    9.57380  -51.10280   24.96230   32.31240   20.18310  103.34330    0.14630    2.71940    9.99760    0.18220   -0.00030    -999.25    -999.25
 6550.00000  101.31870   77.82010   10.43120  -51.39220   27.50700   37.49600   24.94760  140.29070    0.18850    1.85230   11.75800    0.30570    0.20320    -999.25    -999.25
 6600.00000   45.20060   71.87680    8.94890 -116.54910   24.47360   41.96310   16.27060   61.84300    0.15110    2.49540    9.25690    0.19350    0.10840    -999.25    -999.25
 6650.00000   98.44830   74.36760   10.57150  -36.07460   10.92720   16.16160   10.47510  152.47530    0.19600    2.04890   12.04230    0.27950    0.16350    -999.25    -999.25
 6700.00000   47.15920   74.16590    9.90400  -74.43290   13.68230   20.04180   11.70630   68.61880    0.24490    2.57250   10.48810    0.20130    0.04190    -999.25    -999.25
 6750.00000   33.84140   74.45870    8.52310  -95.24660   26.29620   42.25080   16.18930   55.95490    0.11730    2.44570    8.91750    0.20360    0.13480    -999.25    -999.25
 6800.00000   37.12490   73.60290    8.58260 -116.14630   11.79930   27.26130    6.90360   61.65640    0.07750    2.43900    9.21890    0.18630    0.15040    -999.25    -999.25
 6850.00000   90.49140   88.84830   11.69920  -42.43320    3.14440    5.05840    3.02150  138.13170    0.14420    2.01260   11.29470    0.50370    0.32150    0.30930    0.29290
 6900.00000  137.07960   78.34950    9.43900  -43.97980 1517.32280 1664.92810 1245.03330  295.60620    0.13640    2.38190    9.90780    -999.25    -999.25    0.25960    0.14220
 6950.00000   88.97830   65.02290    9.29220  -89.20610   99.28630 1473.11690   43.34080  116.28390    0.03780    2.58770    9.74470    -999.25    -999.25    0.13760    0.06010
 7000.00000   80.26460   64.65850    9.52300  -57.82160   24.46810   31.41960   21.80220  130.28900    0.04880    2.59310   10.16010    -999.25    -999.25    0.08650    0.06750
 7050.00000   93.95000   60.80320    9.57440  -45.19820   31.62600   42.50390   27.41520  138.65540    0.02330    2.59930   10.15090    -999.25    -999.25    0.06970    0.06140
 7100.00000   86.15960   61.94960    9.49900  -62.28210   22.08750   27.26650   20.03850  119.62280    0.04220    2.63290   10.20230    -999.25    -999.25    0.06460    0.04930
 7150.00000   84.83650   60.57160    9.18230  -59.81770   50.41290   64.36930   46.37100  128.85870    0.02500    2.63760    9.94530    -999.25    -999.25    0.07020    0.03750
 7200.00000   94.27590   59.84250    9.34480  -46.09400   47.56230   65.17220   43.91210  120.03470    0.02500    2.66070   10.11960    -999.25    -999.25    0.10520    0.02500
 7250.00000   97.70820   63.11950    9.50620  -16.78440   21.29610   32.71500   18.60730  149.32690    0.03770    2.66900   10.06910    -999.25    -999.25    0.08910    0.02630
 7300.00000   26.58200   69.87310    8.72240 -152.97800   37.00210   70.86360   25.02680   45.15080    0.09380    2.52610    9.50400    -999.25    -999.25    0.05190    0.10240
 7350.00000   36.15160   69.31360    8.48450 -199.91460    2.32940   42.66320    1.01040   62.16550    0.10330    2.40340    9.14230    -999.25    -999.25    0.18670    0.18700
 7400.00000   57.70750   54.12260    9.31790  -69.99640   38.35050   47.89860   35.85380   72.55330    0.03810    2.68090    9.72980    -999.25    -999.25    0.12800    0.02180
 7450.00000   42.48660   50.59770    8.79900 -198.98190   38.47540  248.30140   17.49100   58.17400    0.07530    2.57170    9.63070    -999.25    -999.25    0.09540    0.06810
 7500.00000   29.50460   47.39250    8.98800 -153.04790 2665.39140 2304.75050 1508.37630   50.98520    0.00480    2.74260    9.69790    -999.25    -999.25    0.04530   -0.02060
 7550.00000   34.37930   49.84590    9.00270 -186.80280 1070.39870 1505.33870  445.52850   53.87920    0.00990    2.81490    9.64310    -999.25    -999.25    0.01260   -0.04370
 7600.00000   35.38120   53.36710    9.22360 -169.51900   21.72590  113.94030   20.40210   57.09560    0.02580    2.64470   10.27730    -999.25    -999.25    0.03350    0.04250
 7650.00000   31.70150   52.80690    8.65210 -190.69920   34.86870  148.36640   21.92560   47.30190    0.16400    2.71080    9.49820    -999.25    -999.25    0.06800   -0.01130
 7700.00000   27.12450   53.15600    9.39900  -86.95190   18.32510   65.78980   16.23580   57.44350    0.13780    2.63180    9.76470    -999.25    -999.25    0.03760    0.05420
 7750.00000   32.52580   51.07020    8.72880  -98.00340  211.80580  490.81570  202.52400   57.88660    0.02120    2.66120    9.83240    -999.25    -999.25   -0.01830    0.03230
 7800.00000   25.05460   51.99010    9.53260  -42.02650   29.34380   41.12950   27.57810   52.09790    0.23150    2.52880   11.00480    -999.25    -999.25   -0.02620    0.06760
 7850.00000   50.89380   58.16740    9.34040  -22.78000   60.84170  363.11930   41.55370   74.12980    0.18940    2.44720   10.17100    -999.25    -999.25    0.11460    0.04040
 7900.00000   55.25260   55.24940    9.14260 -173.74380    7.45210   81.51810    4.09850   65.45530    0.02810    2.67090    9.22260    -999.25    -999.25    0.04530    0.01980
 7950.00000   43.01800   52.71070    9.27080  -70.81850    9.13220   40.53290    7.25330   46.02790    0.00590    2.67120    9.34960    -999.25    -999.25    0.02520    0.00750
 8000.00000   34.94880   58.93980    9.75630  -86.80450    3.88720   26.90370    2.67580   34.89400    0.03340    2.84980    9.61160    -999.25    -999.25   -0.01910   -0.06650
 8050.00000   38.51040   51.10250    9.48420  -78.43580 1328.26670 2322.52490 1495.49650   41.46900    0.09140    2.66020    9.09280    -999.25    -999.25   -0.00620    0.03470
