~Version ---------------------------------------------------
VERS.      2.0 : CWLS log ASCII Standard -VERSION 2.0
WRAP.       NO : One line per depth step
CREA. 08/01/17 : LAS Creation Date
~Well ------------------------------------------------------
STRT.FT                       650.0 : START DEPTH
STOP.FT                      8750.0 : STOP DEPTH
STEP.FT                    50.00000 : STEP LENGTH
NULL.                       -999.25 : NULL VALUE
COMP.   WHITEHALL CANADIAN OILS LTD : COMPANY
WELL. W.H. ET AL KEYSTONE 6-15-48-3 : WELL
FLD .                               : FIELD
LOC .                               : LOCATION
CTRY.                        CANADA : COUNTRY
SRVC.                  Schlumberger : SERVICE COMPANY
DATE.                   14-Sep-1959 : LOGDATE
PROV.                       Alberta : PROVINCE
UWI .              100061504803W500 : UNIQUE WELL ID
SLAT.WGS84                 53.13961 : SURFACE LATITUDE
SLON.WGS84                -114.3572 : SURFACE LONGITUDE
~Curve Information -----------------------------------------
DEPT   .FT     : Depth Curve
CALWS  .IN     : CALIPER [MCALED]
CILDED .MMHO   : INDUCTION DEEP CONDUCTIVITY FROM IEL
CONDWS .MMHO   : CONDUCTIVITY [1000/DRESWS]
DENED  .G/C3   : COMPENSATED BULK DENSITY FROM DENSITY LOG
DENWS  .G/C3   : BULK DENSITY [DENED]
DPOLSWS.V/V    : DENSITY POROSITY ASSUMED LIMESTONE [CALCULATED FROM DENWS M=2.71 F=1.00]
DRESWS .OHMM   : DEEP RESISTIVITY [ILDED]
GRNED  .UR/HR  : GAMMA RAY FROM GRN LOG [DEPTH ADJ. TO SPRED]
GRWS   .GAPI   : GAMMA RAY [GRNED*10.4]
ILDED  .OHMM   : INDUCTION DEEP RESISTIVITY FROM IEL
MCALED .IN     : MLT (MICROLOG)
NEUTED .CPS    : NEUTRON FROM GRN LOG [DEPTH ADJ. TO SPRED]
NEUTWS .CPS    : NEUTRON [NEUTED]
SNED   .OHMM   : 16" SHORT NORMAL RESISTIVITY FROM IEL
SPRED  .MV     : SPONTANEOUS POTENTIAL FROM IEL
SPWS   .MV     : SPONTANEOUS POTENTIAL [BASELINE 0 MV] [SPRED]
SRESWS .OHMM   : SHALLOW RESISTIVITY [SNED]
~Params ----------------------------------------------------
LMF .                     KB : LOG MEASURED FROM
DMF .                     KB : DRILLING MEASURED FROM
EKB .FT                 2828 : KELLY BUSHING
EGL .FT                 2815 : GROUND LEVEL
DATE.               09/14/59 : RUN DATE
RUN .                      2 : RUN NUMBER
DD  .FT                 8775 : DEPTH DRILLER
DL  .FT                 8774 : DEPTH LOGGER
BLI .FT                 8768 : BOTTOM LOG INTERVAL
TLI .FT                 5711 : TOP LOG INTERVAL
CBD .FT                 5711 : CASING BOTTOM DRILLER
CBL .FT                 5711 : CASING BOTTOM LOGGER
BS  .IN                6.125 : BIT SIZE
BSD .FT                 8775 : BIT SIZE AT DEPTH
DFT .               GYP BASE : DRILLING FLUID TYPE
DFD .                     11 : DRILLING FLUID DENSITY
DFV .                    110 : DRILLING FLUID VISCOSITY
DFPH.                      8 : DRILLING FLUID PH
DFL .                      8 : DRILLING FLUID LOSS
RMS .OHMM                1.6 : RESISTIVITY MUD SAMPLE
MST .DEGF                 60 : MUD SAMPLE TEMPERATURE
RMF .OHMM                1.0 : RESISTIVITY MUD FILTRATE SAMPLE
MFST.DEGF                 64 : MUD FILTRATE SAMPLE TEMPERATURE
RMC .OHMM                1.9 : RESISTIVITY MUD CAKE
MCST.DEGF                 64 : MUD CAKE SAMPLE TEMPERATURE
RMB .OHMM               0.68 : RESISTIVITY MUD AT BHT
TCS .HRS                   2 : TIME CIRCULATED STOPPED
LUN .                    157 : LOGGING UNIT NUMBER
LUL .                    TDV : LOGGING UNIT LOCATION
ENGI.                 GORITZ : RECORDING ENGINEER
WITN.               FRANKLIN : WITNESSED BY
CLNT.                A2DTECH : CLIENT CODE
ORIG.            2" 5" PRINT : ORIGIN OF DATA
UWI .       100061504803W500 : UNIQUE WELL ID
DICO. A2D Technologies, Inc. : DIGITIZING COMPANY
~Other -----------------------------------------------------
~ASCII -----------------------------------------------------
# ...
 2700.00000   11.72630  184.81140  182.88220    2.15560    2.15560    0.32420    5.46800    -999.25    -999.25    5.46800   11.72630    -999.25    -999.25    7.36690  -43.00590   -3.09790    7.36690
 2750.00000   12.60010  136.13570  131.80610    2.43900    2.43900    0.15850    7.58690    -999.25    -999.25    7.58690   12.60010    -999.25    -999.25   10.62240  -45.26290   -5.53890   10.62240
 2800.00000   12.30130  145.81640  158.79320    2.30730    2.30730    0.23550    6.29750    -999.25    -999.25    6.29750   12.30130    -999.25    -999.25    8.13770  -44.16910   -4.62920    8.13770
 2850.00000   12.28820  158.69950  172.23270    2.13750    2.13750    0.33480    5.80610    -999.25    -999.25    5.80610   12.28820    -999.25    -999.25    8.24610  -44.10010   -4.74420    8.24610
 2900.00000   11.37580  143.10440  154.30430    1.98120    1.98120    0.42620    6.48070    -999.25    -999.25    6.48070   11.37580    -999.25    -999.25    8.50670  -42.72890   -3.55710    8.50670
 2950.00000   10.69900  180.65810  193.84730    1.92230    1.92230    0.46060    5.15870    -999.25    -999.25    5.15870   10.69900    -999.25    -999.25    9.07230  -43.45630   -4.46860    9.07230
 3000.00000   10.66400  161.01410  178.32940    1.97060    1.97060    0.43240    5.60760    -999.25    -999.25    5.60760   10.66400    -999.25    -999.25    7.73160  -42.71430   -3.91060    7.73160
 3050.00000   11.22140  131.63520  136.11550    1.94160    1.94160    0.44940    7.34670    -999.25    -999.25    7.34670   11.22140    -999.25    -999.25    9.89970  -43.01010   -4.39050    9.89970
 3100.00000   10.72490  118.28800  123.08600    2.11660    2.11660    0.34700    8.12440    4.00350   41.63640    8.12440   10.72490  199.98790  199.98790   11.92140  -42.80300   -4.36740   11.92140
 3150.00000    9.67140  145.33760  146.68780    2.15090    2.15090    0.32700    6.81720    3.34270   34.76410    6.81720    9.67140  276.02550  276.02550   10.10670  -43.57830   -5.32680   10.10670
 3200.00000   10.54200  204.78060  216.30980    2.10070    2.10070    0.35630    4.62300    -999.25    -999.25    4.62300   10.54200  399.12360  399.12360    7.13140  -42.09920   -4.03180    7.13140
 3250.00000   11.22970  143.43380  156.33550    2.09510    2.09510    0.35960    6.39650    -999.25    -999.25    6.39650   11.22970    -999.25    -999.25    8.96790  -42.04660   -4.16320    8.96790
 3300.00000   11.39990  182.35230  195.22860    1.88490    1.88490    0.48250    5.12220    -999.25    -999.25    5.12220   11.39990    -999.25    -999.25    7.36510  -41.54930   -3.85000    7.36510
 3350.00000   10.08060  147.26590  147.92680    1.87260    1.87260    0.48970    6.76010    -999.25    -999.25    6.76010   10.08060    -999.25    -999.25    9.12430  -44.60160   -7.08640    9.12430
 3400.00000   10.09700  138.70790  138.26860    1.96100    1.96100    0.43800    7.23230    -999.25    -999.25    7.23230   10.09700    -999.25    -999.25    9.67470  -44.32770   -6.99650    9.67470
 3450.00000   11.99580  115.81800  116.22100    1.87970    1.87970    0.48560    8.60430    -999.25    -999.25    8.60430   11.99580    -999.25    -999.25   10.98340  -44.57090   -7.42380   10.98340
 3500.00000   11.24230  136.26730  135.91570    1.93600    1.93600    0.45260    7.35750    -999.25    -999.25    7.35750   11.24230    -999.25    -999.25   10.03680  -43.14170   -6.17860   10.03680
 3550.00000   10.55390  140.66420  141.15720    2.12070    2.12070    0.34460    7.08430    -999.25    -999.25    7.08430   10.55390    -999.25    -999.25    9.74970  -43.36160   -6.58260    9.74970
 3600.00000   11.06780  139.26600  141.82790    2.33630    2.33630    0.21850    7.05080    -999.25    -999.25    7.05080   11.06780    -999.25    -999.25   10.26820  -41.41980   -4.82490   10.26820
 3650.00000   10.08040  107.32900  106.22590    1.78870    1.78870    0.53880    9.41390    -999.25    -999.25    9.41390   10.08040    -999.25    -999.25   13.77410  -39.02440   -2.61350   13.77410
 3700.00000    9.59250   87.58620   84.37820    1.88820    1.88820    0.48060   11.85140    -999.25    -999.25   11.85140    9.59250    -999.25    -999.25   18.36350  -38.42090   -2.19410   18.36350
 3750.00000   10.58990  121.53110  122.58810    2.61270    2.61270    0.05690    8.15740    -999.25    -999.25    8.15740   10.58990    -999.25    -999.25   12.16850  -40.03010   -3.98730   12.16850
 3800.00000   10.65020  120.85750  120.31960    2.05430    2.05430    0.38350    8.31120    -999.25    -999.25    8.31120   10.65020    -999.25    -999.25   11.68240  -39.26060   -3.40190   11.68240
 3850.00000   11.28570  151.58620  148.04290    1.94650    1.94650    0.44650    6.75480    -999.25    -999.25    6.75480   11.28570    -999.25    -999.25    9.43340  -41.24340   -5.56880    9.43340
 3900.00000   11.26500  111.96030  110.27060    1.96460    1.96460    0.43590    9.06860    -999.25    -999.25    9.06860   11.26500    -999.25    -999.25   12.05240  -39.94800   -4.45740   12.05240
 3950.00000   10.62060  108.22920  110.50330    1.79100    1.79100    0.53740    9.04950    -999.25    -999.25    9.04950   10.62060    -999.25    -999.25   12.23510  -38.31200   -3.00550   12.23510
 4000.00000   10.92070  136.96460  145.18850    1.81390    1.81390    0.52400    6.88760    -999.25    -999.25    6.88760   10.92070    -999.25    -999.25    9.73880  -41.86010   -6.73760    9.73880
 4050.00000   10.97330  112.22560  112.03980    2.21100    2.21100    0.29180    8.92540    -999.25    -999.25    8.92540   10.97330    -999.25    -999.25   12.23270  -41.46900   -6.53060   12.23270
 4100.00000   10.52690  138.59350  147.39260    2.34990    2.34990    0.21060    6.78460    -999.25    -999.25    6.78460   10.52690    -999.25    -999.25    9.60010  -40.71360   -5.95930    9.60010
 4150.00000    9.68130   48.28060   41.85890    1.98500    1.98500    0.42400   23.88980    4.67500   48.62000   23.88980    9.68130  313.15320  313.15320   32.58450  -38.97430   -4.40400   32.58450
 4200.00000   10.37040   88.84240   85.92840    1.93200    1.93200    0.45500   11.63760    5.62140   58.46260   11.63760   10.37040  250.53270  250.53270   14.05420  -38.30680   -3.92060   14.05420
 4250.00000    9.91750   92.47920   89.86910    2.35440    2.35440    0.20800   11.12730    -999.25    -999.25   11.12730    9.91750  250.88910  250.88910   14.24430  -40.10320   -5.90110   14.24430
 4300.00000   10.09310   99.62610   97.92980    2.16490    2.16490    0.31880   10.21140    -999.25    -999.25   10.21140   10.09310    -999.25    -999.25   13.19980  -42.73480   -8.71670   13.19980
 4350.00000   10.39180  114.92730  117.51430    2.02380    2.02380    0.40130    8.50960    -999.25    -999.25    8.50960   10.39180    -999.25    -999.25   11.58830  -42.41450   -8.58050   11.58830
 4400.00000   11.64050  158.50270  157.92050    2.15690    2.15690    0.32350    6.33230    -999.25    -999.25    6.33230   11.64050    -999.25    -999.25    9.54480  -39.77210   -6.12210    9.54480
 4450.00000    9.65720   80.79190   76.72710    2.35660    2.35660    0.20670   13.03320    -999.25    -999.25   13.03320    9.65720    -999.25    -999.25   19.26320  -38.05690   -4.59100   19.26320
 4500.00000    9.83300   84.17520   80.39040    2.11480    2.11480    0.34810   12.43930    -999.25    -999.25   12.43930    9.83300    -999.25    -999.25   18.39670  -38.12360   -5.04650   18.39670
 4550.00000    9.77030   69.41600   68.17750    2.03320    2.03320    0.39580   14.66760    -999.25    -999.25   14.66760    9.77030    -999.25    -999.25   21.84780  -37.08510   -4.51710   21.84780
 4600.00000    9.88390   64.93110   64.28800    1.89120    1.89120    0.47880   15.55500    -999.25    -999.25   15.55500    9.88390    -999.25    -999.25   23.80430  -35.60920   -3.55040   23.80430
 4650.00000   12.16130  120.78310  119.66880    2.21740    2.21740    0.28810    8.35640    -999.25    -999.25    8.35640   12.16130    -999.25    -999.25   12.92640  -36.39490   -4.84520   12.92640
 4700.00000    9.56190   61.31870   59.47600    1.92920    1.92920    0.45660   16.81350    -999.25    -999.25   16.81350    9.56190    -999.25    -999.25   27.15350  -34.72090   -3.68030   27.15350
