~Version ---------------------------------------------------
VERS.      2.0 : CWLS log ASCII Standard -VERSION 2.0
WRAP.       NO : One line per depth step
CREA. 08/02/17 : LAS Creation Date
~Well ------------------------------------------------------
STRT.FT                  1250.0 : START DEPTH
STOP.FT                 11600.0 : STOP DEPTH
STEP.FT                50.00000 : STEP LENGTH
NULL.                   -999.25 : NULL VALUE
COMP.           SUN OIL COMPANY : COMPANY
WELL. SUN PAN AM TONY 6-5-63-22 : WELL
FLD .                        WC : FIELD
LOC .                           : LOCATION
CTRY.                    CANADA : COUNTRY
SRVC.              Schlumberger : SERVICE COMPANY
DATE.               27-Jan-1962 : LOGDATE
PROV.                   Alberta : PROVINCE
UWI .          100060506322W500 : UNIQUE WELL ID
SLAT.WGS84             54.41969 : SURFACE LATITUDE
SLON.WGS84            -117.2926 : SURFACE LONGITUDE
~Curve Information -----------------------------------------
DEPT  .FT    : Depth Curve
CALSED.IN    : CALIPER FROM SL-GR-CAL LOG
CALWS .IN    : CALIPER [CALSED]
CILDED.MMHO  : DEEP INDUCTION CONDUCTIVITY FROM IEL LOG
CONDWS.MMHO  : CONDUCTIVITY [CILDED]
DRESWS.OHMM  : DEEP RESISTIVITY [CALCULATED FROM 1000/CILDED, IF ILDED<1, ILDED]
DTED  .US/F  : DELTA-T (INTERVAL TRANSIT TIME) FROM SL-GR-CAL LOG
DTWS  .US/F  : COMPRESSIONAL  SONIC [DTED]
GRNED .GAPI  : GAMMA RAY FROM GRN LOG [ADJ. TO GRSED]
GRSED .GAPI  : GAMMA RAY FROM SL-GR-CAL LOG
GRWS  .GAPI  : GAMMA RAY [GRSED, GRWS+14 FOR DEPTH 7054'TO 7101']
ILDED .OHMM  : DEEP INDUCTION FROM IEL LOG
MCALED.IN    : MLT (MICROLOG) CALIPER FROM ML-CAL LOG [ADJ. TO CALSED]
NEUTED.NAPI  : NEUTRON FROM GRN LOG [ADJ. TO GRSED]
NEUTWS.NAPI  : NEUTRON [NEUTED]
SNED  .OHMM  : SHORT NORMAL INDUCTION FROM IEL LOG
SPRED .MV    : SPONTANEOUS POTENTIAL FROM IEL LOG
SPWS  .MV    : SPONTANEOUS POTENTIAL [BASELINE 0 MV, SPRED]
SRESWS.OHMM  : SHALLOW RESISTIVITY [SNED]
~Params ----------------------------------------------------
PD  .                     GL : PERMANENT DATUM
EPD .FT                 2875 : ELEVATION PERMANENT DATUM
LMF .                     KB : LOG MEASURED FROM
DAPD.FT                   15 : FEET ABOVE PERMANENT DATUM
EKB .FT                 2890 : KELLY BUSHING
EGL .FT                 2875 : GROUND LEVEL
DATE.               03/09/62 : RUN DATE
RUN .                      2 : RUN NUMBER
DD  .FT                11625 : DEPTH DRILLER
DL  .FT                11622 : DEPTH LOGGER
BLI .FT                11621 : BOTTOM LOG INTERVAL
TLI .FT                 7100 : TOP LOG INTERVAL
BS  .IN                 8.75 : BIT SIZE
BSD .FT                11625 : BIT SIZE AT DEPTH
DFT .               EMUL GEL : DRILLING FLUID TYPE
DFD .                    9.8 : DRILLING FLUID DENSITY
DFV .                    120 : DRILLING FLUID VISCOSITY
DFPH.                      9 : DRILLING FLUID PH
DFL .                      8 : DRILLING FLUID LOSS
RMS .OHMM               2.62 : RESISTIVITY MUD SAMPLE
MST .DEGF                 88 : MUD SAMPLE TEMPERATURE
RMF .OHMM               2.52 : RESISTIVITY MUD FILTRATE SAMPLE
MFST.DEGF                 72 : MUD FILTRATE SAMPLE TEMPERATURE
RMC .OHMM               2.97 : RESISTIVITY MUD CAKE
MCST.DEGF                 76 : MUD CAKE SAMPLE TEMPERATURE
RMB .OHMM               1.13 : RESISTIVITY MUD AT BHT
TCS .HRS                   5 : TIME CIRCULATED STOPPED
LUN .                   3534 : LOGGING UNIT NUMBER
LUL .                    WCT : LOGGING UNIT LOCATION
ENGI.                   GRAY : RECORDING ENGINEER
WITN.                SANFORD : WITNESSED BY
CLNT.                A2DTECH : CLIENT CODE
ORIG.            2" 5" PRINT : ORIGIN OF DATA
UWI .       100060506322W500 : UNIQUE WELL ID
DICO. A2D Technologies, Inc. : DIGITIZING COMPANY
~Other -----------------------------------------------------
~ASCII -----------------------------------------------------
 1250.00000    9.69040    9.69040    -999.25    -999.25    -999.25    -999.25    -999.25    -999.25   82.05140   82.05140    -999.25    -999.25    -999.25    -999.25    -999.25    -999.25    -999.25    -999.25
 1300.00000    8.95540    8.95540  212.93670  212.93670    4.77040  119.95930  119.95930    -999.25   86.50710   86.50710    4.77040    -999.25    -999.25    -999.25    4.76710 -144.41510   -5.50760    4.76710
 1350.00000    8.89870    8.89870  208.80180  208.80180    5.18950  106.13550  106.13550    -999.25  103.82040  103.82040    5.18950    -999.25    -999.25    -999.25    5.05530 -143.96130   -5.05380    5.05530
 1400.00000    9.40440    9.40440  112.55760  112.55760    8.83830   96.80950   96.80950    -999.25   77.59880   77.59880    8.83830    -999.25    -999.25    -999.25    7.98490 -144.13780   -5.23030    7.98490
 1450.00000   10.22430   10.22430  112.11000  112.11000    8.28400   96.91630   96.91630    -999.25   79.55120   79.55120    8.28400    -999.25    -999.25    -999.25    7.67190 -143.89690   -4.98940    7.67190
 1500.00000    9.57670    9.57670  191.90960  191.90960    5.05160  103.50460  103.50460    -999.25  104.95920  104.95920    5.05160    -999.25    -999.25    -999.25    5.35800 -142.58600   -3.67850    5.35800
 1550.00000    9.43870    9.43870   41.72110   41.72110   25.15870   69.72970   69.72970    -999.25   55.09330   55.09330   25.15870    -999.25    -999.25    -999.25   20.18390 -146.33920   -7.43170   20.18390
 1600.00000    9.71210    9.71210  131.06910  131.06910    7.57830   98.56680   98.56680    -999.25  109.92890  109.92890    7.57830    -999.25    -999.25    -999.25    9.15080 -142.79790   -3.89640    9.15080
 1650.00000    8.76940    8.76940   83.31880   83.31880   11.37600  102.39120  102.39120    -999.25   84.50720   84.50720   11.37600    -999.25    -999.25    -999.25   14.77400 -158.62680  -19.95520   14.77400
 1700.00000    8.73280    8.73280   68.45730   68.45730   14.86320  103.36880  103.36880    -999.25   75.92510   75.92510   14.86320    -999.25    -999.25    -999.25   13.70560 -143.58580   -5.14560   13.70560
 1750.00000   10.72980   10.72980  241.78380  241.78380    4.06900  104.84020  104.84020    -999.25  105.94480  105.94480    4.06900    -999.25    -999.25    -999.25    4.16440 -140.59840   -2.38800    4.16440
 1800.00000    9.22160    9.22160  171.45320  171.45320    5.00590  119.82870  119.82870    -999.25   91.02550   91.02550    5.00590    -999.25    -999.25    -999.25    5.56750 -140.39320   -2.41270    5.56750
 1850.00000   10.26740   10.26740  400.14450  400.14450    2.72060  120.76150  120.76150    -999.25  113.89090  113.89090    2.72060    -999.25    -999.25    -999.25    3.63420 -139.42070   -1.67160    3.63420
 1900.00000   11.45100   11.45100  359.98460  359.98460    3.07670  119.52180  119.52180    -999.25   95.44200   95.44200    3.07670    -999.25    -999.25    -999.25    4.08570 -140.14250   -2.62320    4.08570
 1950.00000    7.91780    7.91780   46.13830   46.13830   21.96960  106.24150  106.24150    -999.25   64.83750   64.83750   21.96960    -999.25    -999.25    -999.25   20.40650 -163.52380  -26.23590   20.40650
 2000.00000    9.63710    9.63710  310.60270  310.60270    3.29680  107.78500  107.78500    -999.25   94.28300   94.28300    3.29680    -999.25    -999.25    -999.25    3.59400 -139.40920   -2.35110    3.59400
 2050.00000    8.54600    8.54600  170.69290  170.69290    6.18810  133.21720  133.21720    -999.25   84.67400   84.67400    6.18810    -999.25    -999.25    -999.25    6.51530 -141.37170   -4.54350    6.51530
 2100.00000   10.64180   10.64180  101.73690  101.73690    9.70300   86.99650   86.99650    -999.25  108.62430  108.62430    9.70300    -999.25    -999.25    -999.25    9.30220 -140.23740   -3.64060    9.30220
 2150.00000    8.93000    8.93000  257.90780  257.90780    3.98610   94.64040   94.64040    -999.25   94.44730   94.44730    3.98610    -999.25    -999.25    -999.25    4.22970 -139.50250   -3.13550    4.22970
 2200.00000    9.29180    9.29180  306.66620  306.66620    3.43880  110.34910  110.34910    -999.25  103.64780  103.64780    3.43880    -999.25    -999.25    -999.25    3.54430 -138.59890   -2.46330    3.54430
 2250.00000    9.54340    9.54340  262.53660  262.53660    3.51060  106.69770  106.69770    -999.25   87.98040   87.98040    3.51060    -999.25    -999.25    -999.25    5.19510 -139.56710   -3.66140    5.19510
 2300.00000    9.60560    9.60560  153.15740  153.15740    6.39730   94.45570   94.45570    -999.25   97.14730   97.14730    6.39730    -999.25    -999.25    -999.25    6.97860 -138.59050   -2.91460    6.97860
 2350.00000    8.99620    8.99620  212.00750  212.00750    4.64430   93.33940   93.33940    -999.25   77.70540   77.70540    4.64430    -999.25    -999.25    -999.25    4.84400 -138.93580   -3.49130    4.84400
 2400.00000   10.24360   10.24360  161.92890  161.92890    6.31460   99.61700   99.61700    -999.25   99.97590   99.97590    6.31460    -999.25    -999.25    -999.25    5.92610 -137.32730   -2.11270    5.92610
 2450.00000    9.46100    9.46100  116.25870  116.25870    8.73050  103.64280  103.64280    -999.25   98.26330   98.26330    8.73050    -999.25    -999.25    -999.25    9.36190 -138.52590   -3.54260    9.36190
 2500.00000    8.99510    8.99510  184.87800  184.87800    5.44100  114.49700  114.49700    -999.25   78.72770   78.72770    5.44100    -999.25    -999.25    -999.25    6.22540 -137.77680   -3.02340    6.22540
 2550.00000   11.31830   11.31830  303.00410  303.00410    3.45700  106.95260  106.95260    -999.25   95.23960   95.23960    3.45700    -999.25    -999.25    -999.25    3.81850 -137.06100   -2.53740    3.81850
 2600.00000    9.82610    9.82610  270.20150  270.20150    3.84320  105.35330  105.35330    -999.25   90.37170   90.37170    3.84320    -999.25    -999.25    -999.25    4.07360 -137.38410   -3.09190    4.07360
 2650.00000    8.27590    8.27590   67.14300   67.14300   15.14760   81.42970   81.42970    -999.25   66.89080   66.89080   15.14760    -999.25    -999.25    -999.25   15.96160 -141.90010   -7.83780   15.96160
 2700.00000   10.20570   10.20570  356.21150  356.21150    2.93600   97.96740   97.96740    -999.25  112.43590  112.43590    2.93600    -999.25    -999.25    -999.25    3.09420 -135.98170   -2.15070    3.09420
 2750.00000    8.63890    8.63890   86.76090   86.76090   12.57460   82.82400   82.82400    -999.25   79.24700   79.24700   12.57460    -999.25    -999.25    -999.25   10.69940 -137.26060   -3.65950   10.69940
 2800.00000    8.72720    8.72720  117.54930  117.54930    9.25610  101.97880  101.97880    -999.25   81.02210   81.02210    9.25610    -999.25    -999.25    -999.25    8.58960 -137.40140   -4.03020    8.58960
 2850.00000    9.23140    9.23140  203.12730  203.12730    4.91060   91.94340   91.94340    -999.25   78.84870   78.84870    4.91060    -999.25    -999.25    -999.25    5.23450 -135.70410   -2.57260    5.23450
 2900.00000   10.87130   10.87130  161.03230  161.03230    6.21720  119.94780  119.94780    -999.25   70.71500   70.71500    6.21720    -999.25    -999.25    -999.25    5.96870 -135.45210   -2.67740    5.96870
 2950.00000    9.61800    9.61800  143.21320  143.21320    6.87530  120.73290  120.73290    -999.25   81.68250   81.68250    6.87530    -999.25    -999.25    -999.25    7.20410 -135.86290   -3.44740    7.20410
 3000.00000    8.98790    8.98790  202.83940  202.83940    4.92880  177.41300  177.41300    -999.25   79.68710   79.68710    4.92880    -999.25    -999.25    -999.25    5.66160 -135.88320   -3.82460    5.66160
 3050.00000    8.78460    8.78460   56.16580   56.16580   19.07020   75.04790   75.04790    -999.25   51.60400   51.60400   19.07020    -999.25    -999.25    -999.25   21.46890 -135.52230   -3.82050   21.46890
 3100.00000    8.81360    8.81360  203.95530  203.95530    4.99700  120.67330  120.67330    -999.25   82.61160   82.61160    4.99700    -999.25    -999.25    -999.25    5.63990 -134.69550   -3.35290    5.63990
 3150.00000    9.50920    9.50920   79.58690   79.58690   12.36640   83.17790   83.17790    -999.25   57.57110   57.57110   12.36640    -999.25    -999.25    -999.25   14.85170 -135.65430   -4.66850   14.85170
