~Version ---------------------------------------------------
VERS.      2.0 : CWLS log ASCII Standard -VERSION 2.0
WRAP.       NO : One line per depth step
CREA. 12/21/17 : LAS Creation Date
~Well ------------------------------------------------------
STRT.FT                         300.0 : START DEPTH
STOP.FT                        9800.0 : STOP DEPTH
STEP.FT                      50.00000 : STEP LENGTH
NULL.                         -999.25 : NULL VALUE
COMP. CHAMPLIN OIL & REFINING COMPANY : COMPANY
WELL.      CHAMPLIN KAYBOB 2-28-64-19 : WELL
FLD .                                 : FIELD
LOC .                                 : LOCATION
CTRY.                          CANADA : COUNTRY
SRVC.          Schlumberger of Canada : SERVICE COMPANY
DATE.                     06-Jul-1960 : LOGDATE
PROV.                         Alberta : PROVINCE
UWI .                100022806419W500 : UNIQUE WELL ID
SLAT.WGS84                   54.56169 : SURFACE LATITUDE
SLON.WGS84                  -116.8075 : SURFACE LONGITUDE
~Curve Information -----------------------------------------
DEPT  .FT    : Depth Curve
CALWS .IN    : CALIPER [MCALED
CILDED.MMHO  : INDUCTION CONDUCTIVITY FROM IEL
CONDWS.MMHO  : CONDUCTIVITY [1000/DRESWS]
DRESWS.OHMM  : DEEP RESISTIVITY [IF ILDED LESS THAN 2, THEN 1000/CILDED. ELSE, ILDED]
GRED  .GAPI  : GAMMA RAY FROM CASED CALIPER LOG [DEPTH SHIFTRED TO RES.]
GRWS  .GAPI  : GAMMA RAY [GRED]
ILDED .OHMM  : INDUCTION LOG RESISTIVITY
MCALED.IN    : MLT (MICROLOG) CALIPER
NEUTED.NAPI  : NEUTRON FROM NEUTRON LOG [SLIGHT DEPTH SHIFT TO SNED]
NEUTWS.NAPI  : NEUTRON [NEUTED]
SNED  .OHMM  : SHORT NORMAL RESISTIVITY FROM IEL
SPRED .MV    : SPONTANEOUS POTENTIAL FROM IEL
SPWS  .MV    : SPONTANEOUS POTENTIAL [SPRED. BASELINE "0" MV]
SRESWS.OHMM  : SHALLOW RESISTIVITY [SNED]
~Params ----------------------------------------------------
LMF .                     KB : LOG MEASURED FROM
DMF .                     KB : DRILLING MEASURED FROM
EKB .FT                 2447 : KELLY BUSHING
EGL .FT                 2432 : GROUND LEVEL
DATE.               07/06/60 : RUN DATE
RUN .                      1 : RUN NUMBER
DD  .FT                 9825 : DEPTH DRILLER
DL  .FT                 9824 : DEPTH LOGGER
BLI .FT                 9818 : BOTTOM LOG INTERVAL
TLI .FT                 1034 : TOP LOG INTERVAL
CBD .FT                 1034 : CASING BOTTOM DRILLER
CBL .FT                 1034 : CASING BOTTOM LOGGER
BS  .IN                7.875 : BIT SIZE
BSD .FT                 9825 : BIT SIZE AT DEPTH
DFT .                    GEL : DRILLING FLUID TYPE
DFD .                   10.4 : DRILLING FLUID DENSITY
DFV .                     90 : DRILLING FLUID VISCOSITY
DFPH.                   10.5 : DRILLING FLUID PH
DFL .                    6.4 : DRILLING FLUID LOSS
MSS .            CIRCULATION : MUD SAMPLE SOURCE
RMS .OHMM                1.5 : RESISTIVITY MUD SAMPLE
MST .DEGF                 90 : MUD SAMPLE TEMPERATURE
RMF .OHMM                0.9 : RESISTIVITY MUD FILTRATE SAMPLE
MFST.DEGF                 88 : MUD FILTRATE SAMPLE TEMPERATURE
RMC .OHMM                2.2 : RESISTIVITY MUD CAKE
MCST.DEGF                 88 : MUD CAKE SAMPLE TEMPERATURE
RMB .OHMM                0.7 : RESISTIVITY MUD AT BHT
TCS .HRS                 2.5 : TIME CIRCULATED STOPPED
LUN .                   1573 : LOGGING UNIT NUMBER
LUL .                     WC : LOGGING UNIT LOCATION
ENGI.                  GOETZ : RECORDING ENGINEER
WITN.                  NAMEE : WITNESSED BY
CLNT.                A2DTECH : CLIENT CODE
ORIG.            2" 5" PRINT : ORIGIN OF DATA
UWI .       100022806419W500 : UNIQUE WELL ID
DICO. A2D Technologies, Inc. : DIGITIZING COMPANY
~Other -----------------------------------------------------
~ASCII -----------------------------------------------------
# ...
 7650.00000    8.24250   12.79920   14.60880   68.45180   14.44310   14.44300   68.45180    8.24250    -999.25    -999.25  107.14830 -132.83720  -98.61680  107.14840
 7700.00000    9.66190    3.49630    6.15550  162.45550   15.62320   15.62320  162.45550    9.66190    -999.25    -999.25  117.80220 -129.91250  -95.83020  117.80220
 7750.00000    9.44890    1.37640    3.23430  309.18510   14.29240   14.29240  309.18510    9.44890    -999.25    -999.25  127.18060 -128.63580  -94.69080  127.18060
 7800.00000    9.10610    1.82920    5.02570  198.97820   14.86190   14.86190  198.97820    9.10610    -999.25    -999.25  158.75030 -125.03040  -91.22210  158.75030
 7850.00000    9.10760    7.18140    6.60200  151.46930   16.85060   16.85060  151.46930    9.10760    -999.25    -999.25  120.99350 -124.17190  -90.50170  120.99350
 7900.00000    8.75310   15.58900   17.43940   57.34140   15.31670   15.31670   57.34140    8.75310    -999.25    -999.25   85.72980 -146.88550 -113.35200   85.72980
 7950.00000    8.53030   18.34450   20.05310   49.86760  112.58480  112.58480   49.86760    8.53030    -999.25    -999.25   98.97300 -175.93420 -142.53870   98.97300
 8000.00000    8.06730   13.02220   13.66510   73.17900  109.58580  109.58580   73.17900    8.06730    -999.25    -999.25  118.34140 -184.95120 -151.69310  118.34140
 8050.00000    8.03400   25.29020   29.60170   33.78180  108.87040  108.87040   33.78180    8.03400    -999.25    -999.25   69.92600 -159.37530 -126.25390   69.92600
 8100.00000    8.37840    7.48880    7.48300  133.63580   42.05510   42.05510  133.63580    8.37840    -999.25    -999.25   90.43710 -169.37890 -136.39560   90.43710
 8150.00000    9.23640   56.36320   62.23570   16.06790   50.29400   50.29400   16.06800    9.23640    -999.25    -999.25   20.94110 -135.90930 -103.06260   20.94100
 8200.00000    8.43480    4.96740    3.90870  255.84220   77.95680   77.95680  255.84220    8.43480    -999.25    -999.25  131.88540 -112.08480  -79.37620  131.88540
 8250.00000    8.97380    2.42650    3.72370  268.55310   60.50250   60.50250  268.55310    8.97380    -999.25    -999.25   97.63720  -78.44180  -45.87060   97.63720
 8300.00000   10.07530   10.32960   10.55060   94.78130   34.73710   34.73710   94.78130   10.07530    -999.25    -999.25   65.15070  -61.87980  -29.44530   65.15070
 8350.00000    8.93190    5.19950    4.86570  205.52030   24.19040   24.19040  205.52030    8.93190    -999.25    -999.25  119.20470  -64.63730  -32.34090  119.20470
 8400.00000    8.41820   13.14370   12.43110   80.44360   33.23090   33.23090   80.44360    8.41820    -999.25    -999.25   56.83360  -52.01210  -19.85230   56.83360
 8450.00000    8.15740   13.90040   13.65460   73.23540   39.05800   39.05800   73.23540    8.15740    -999.25    -999.25   70.06600  -56.41160  -24.38990   70.06600
 8500.00000    8.31710   21.74580   21.19730   47.17580   35.77570   35.77570   47.17580    8.31710    -999.25    -999.25   51.25090  -54.21350  -22.32920   51.25090
 8550.00000    8.30480   16.04020   14.81650   67.49210   42.82230   42.82230   67.49210    8.30480    -999.25    -999.25   57.18280  -46.33910  -14.59150   57.18280
 8600.00000    8.17640   19.75520   20.05710   49.85760   42.64540   42.64540   49.85760    8.17640    -999.25    -999.25   52.66160  -44.15870  -12.54920   52.66160
 8650.00000    9.57770   97.79230  108.04680    9.25530   70.61990   70.62000    9.25530    9.57770    -999.25    -999.25   10.94940  -48.72910  -17.25620   10.94940
 8700.00000   15.15430  235.54690  265.84430    3.76160   53.48360   53.48360    3.76160   15.15430    -999.25    -999.25    5.73210  -49.11420  -17.77940    5.73210
 8750.00000   11.27930  167.83300  183.91820    5.43720   58.77570   58.77570    5.43720   11.27930    -999.25    -999.25    8.51160  -37.42370   -6.22630    8.51160
 8800.00000   15.29830  235.26660  260.74600    3.83520   50.07840   50.07840    3.83520   15.29830    -999.25    -999.25    6.21810  -46.41480  -15.35410    6.21810
 8850.00000   15.29240  222.45590  247.15770    4.04600   54.16240   54.16240    4.04600   15.29240    -999.25    -999.25    6.33260  -50.15240  -19.22970    6.33260
 8900.00000   13.72380  208.56610  225.84830    4.42770   59.70790   59.70790    4.42780   13.72380    -999.25    -999.25    7.98750  -47.65910  -16.87310    7.98750
 8950.00000    8.65430   80.06560   82.12880   12.17600   53.16370   53.16370   12.17600    8.65430    -999.25    -999.25   18.19680  -43.83980  -13.19190   18.19680
 9000.00000    8.77370  100.97300  104.00850    9.61460   66.97700   66.97700    9.61460    8.77370    -999.25    -999.25   15.36140  -42.99970  -12.48920   15.36140
 9050.00000    8.63400   88.45090   91.16560   10.96900   62.75070   62.75070   10.96900    8.63400    -999.25    -999.25   16.75800  -38.58210   -8.20820   16.75800
 9100.00000    8.47660   93.57480   97.16660   10.29160   68.54550   68.54550   10.29160    8.47660    -999.25    -999.25   16.07020  -37.33050   -7.09470   16.07020
 9150.00000    8.97370  120.81810  127.10280    7.86760   78.90370   78.90370    7.86760    8.97370    -999.25    -999.25   13.07580  -38.15060   -8.05160   13.07580
 9200.00000    8.14630  117.47050  121.70340    8.21670   69.83190   69.83190    8.21670    8.14630    -999.25    -999.25   14.05730  -39.50800   -9.54700   14.05730
 9250.00000    8.34180  135.81160  147.69520    6.77070   84.64330   84.64330    6.77070    8.34180  607.08750  607.08750   11.63070  -42.97120  -13.14760   11.63070
 9300.00000    8.24000  114.65340  119.02140    8.40190   95.67260   95.67250    8.40180    8.24000  567.56870  567.56870   16.51350  -47.89360  -18.20670   16.51350
 9350.00000    7.75050    1.58900    2.25170  444.10070   51.13650   51.13650  444.10070    7.75050  910.09390  910.09390  147.08580  -57.59600  -28.04710  147.08580
 9400.00000    7.76340    7.45400    7.79100  128.35310   23.92170   23.92170  128.35310    7.76340 1269.06660 1269.06660  101.31560  -55.65430  -26.24210  101.31570
 9450.00000    7.81400   15.03050   16.18960   61.76790   92.06490   92.06490   61.76790    7.81400  686.45830  686.45830   69.50480  -42.57570  -13.30160   69.50480
 9500.00000    7.77080   25.96990   25.61830   39.03460   46.87250   46.87250   39.03460    7.77080 1125.43540 1125.43540   53.06020  -37.58630   -8.44950   53.06020
 9550.00000    7.82520    5.01500    7.61660  131.29280    -999.25    -999.25  131.29280    7.82520 1304.90360 1304.90360   76.11730  -41.30550  -12.30540   76.11730
 9600.00000    7.85040   32.96730   33.81030   29.57680    -999.25    -999.25   29.57680    7.85040  923.61960  923.61960   38.31670  -37.55460   -8.62940   38.31670
 9650.00000    7.00980   31.38010   32.00890   31.24130    -999.25    -999.25   31.24130    7.00980 1267.65790 1267.65790   58.09840 -178.64440 -149.71920   58.09840
 9700.00000    7.79720    1.67600    3.52440  283.73480    -999.25    -999.25  283.73480    7.79720 1716.66940 1716.66940   95.96550 -182.96420 -154.03900   95.96550
 9750.00000    7.88560   27.22910   25.22110   39.64940    -999.25    -999.25   39.64940    7.88560 1692.27730 1692.27730   57.57510 -165.68320 -136.75800   57.57510
 9800.00000    7.84360    -999.25    2.00280  499.30510    -999.25    -999.25  499.30520    7.84360    -999.25    -999.25  236.53570 -183.89350 -154.96830  236.53560
