~Version ---------------------------------------------------
VERS. 2.0 : CWLS log ASCII Standard -VERSION 2.0
WRAP.  NO : ONE LINE PER DEPTH STEP
~Well ------------------------------------------------------
STRT.M                            300.0 : START DEPTH
STOP.M                           1750.0 : STOP DEPTH
STEP.M                         50.00000 : STEP LENGTH
NULL.                           -999.25 : NULL VALUE
COMP.           PETROMARK MINERALS LTD. : COMPANY
WELL. PETROMARK BLUESKY NIPISI 6-6-81-8 : WELL
FLD .                            NIPISI : FIELD
LOC .                                   : LOCATION
CTRY.                            CANADA : COUNTRY
SRVC.            Schlumberger of Canada : SERVICE COMPANY
DATE.                       15-Nov-1979 : LOGDATE
PROV.                           Alberta : PROVINCE
UWI .                  100060608108W500 : UNIQUE WELL ID
SLAT.WGS84                55.9924125671 : SURFACE LATITUDE
SLON.WGS84              -115.2462844849 : SURFACE LONGITUDE
~Curve Information -----------------------------------------
DEPT  .M     : DEPTH METERS
CALSED.MM    : CALIPER FROM SONIC LOG [DEPTH SHIFTED TO RES.]
CALWS .MM    : CALIPER [CALSED]
CONDWS.MMHO  : CONDUCTIVITY [1000/DRESWS]
DRESWS.OHMM  : DEEP RESISTIVITY [ILDED]
DTED  .US/M  : DELTA TIME FROM SONIC LOG [DEPTH SHIFTED TO RES.]
DTWS  .US/M  : DELTA TIME [DTED]
GRSED .GAPI  : GAMMA RAY FROM SONIC LOG [DEPTH SHIFTED TO RES.]
GRWS  .GAPI  : GAMMA RAY [GRSED]
ILDED .OHMM  : INDUCTION LOG DEEP RESISTIVITY
ILMED .OHMM  : INDUCTION LOG MEDIUM RESISTIVITY
MRESWS.OHMM  : MEDIUM RESISTIVITY [ILMED]
SFLUED.OHMM  : SPHERICALLY FOCUSED LOG RESISTIVITY
SPRED .MV    : SPONTANEOUS POTENTIAL FROM RESISTIVITY LOG
SPWS  .MV    : SPONTANEOUS POTENTIAL [BASELINE 0 MV] [SPRED]
SRESWS.OHMM  : SHALLOW RESISTIVITY [SFLUED]
~Params ----------------------------------------------------
PD  .                         GL : PERMANENT DATUM
EPD .M                    647.76 : ELEVATION PERMANENT DATUM
LMF .                         KB : LOG MEASURED FROM
DAPD.M                       3.9 : FEET ABOVE PERMANENT DATUM
DMF .                         KB : DRILLING MEASURED FROM
EKB .M                    651.66 : KELLY BUSHING
EGL .M                    647.76 : GROUND LEVEL
DATE.                   11/15/79 : RUN DATE
RUN .                          1 : RUN NUMBER
DD  .M                    1785.0 : DEPTH DRILLER
DL  .M                    1782.5 : DEPTH LOGGER
BLI .M                    1780.5 : BOTTOM LOG INTERVAL
TLI .M                       179 : TOP LOG INTERVAL
CS  .MM                      219 : CASING SIZE
CBD .M                       179 : CASING BOTTOM DRILLER
CBL .M                       179 : CASING BOTTOM LOGGER
BS  .MM                      200 : BIT SIZE
BSD .M                      1785 : BIT SIZE AT DEPTH
DFT .                   GEL CHEM : DRILLING FLUID TYPE
DFD .                       1150 : DRILLING FLUID DENSITY
DFV .                       74.0 : DRILLING FLUID VISCOSITY
DFPH.                       10.0 : DRILLING FLUID PH
MSS .                   FLOWLINE : MUD SAMPLE SOURCE
RMS .OHMM                   1.32 : RESISTIVITY MUD SAMPLE
MST .C                        20 : MUD SAMPLE TEMPERATURE
RMF .OHMM                   1.04 : RESISTIVITY MUD FILTRATE SAMPLE
MFST.C                      18.8 : MUD FILTRATE SAMPLE TEMPERATURE
MFSS.                     FILTER : MUD FILTRATE SAMPLE SOURCE
MCSS.                      PRESS : MUD CAKE SAMPLE SOURCE
RMB .OHMM                   0.73 : RESISTIVITY MUD AT BHT
TCS .HRS                     100 : TIME CIRCULATED STOPPED
TLAB.HRS                     715 : TIME LOGGER AT BOTTOM
LUN .                       7767 : LOGGING UNIT NUMBER
LUL .                        EDM : LOGGING UNIT LOCATION
ENGI.                  WESTACOTT : RECORDING ENGINEER
WITN.                DESAULNIERS : WITNESSED BY
CLNT.                    A2DTECH : CLIENT CODE
ORIG. 6.5"/100M 16.5"/100M PRINT : ORIGIN OF DATA
UWI .           100060608108W500 : UNIQUE WELL ID
DICO.     A2D Technologies, Inc. : DIGITIZING COMPANY
~Other -----------------------------------------------------
~ASCII -----------------------------------------------------
  300.00000  333.18330  353.00000  280.96990    3.55910  433.53810  433.53810   93.54880   93.54880    3.55910    3.25170    3.25170    4.03150  -21.03140   -2.84050    4.03150
  350.00000  219.33720  218.76690  125.20190    7.98710  254.72530  254.72530   69.18900   69.18900    7.98710   11.40170   11.40170   24.06440  -38.70440  -20.91250   24.06440
  400.00000  238.92430  236.62380  239.20010    4.18060  405.24780  405.24780   93.71830   93.71830    4.18060    4.35710    4.35710    4.43760  -32.27310  -14.43350    4.43760
  450.00000  279.53870  288.34450  249.78770    4.00340  382.86880  382.86880   89.85110   89.85110    4.00340    4.18860    4.18860    4.32890  -31.48170  -13.59440    4.32890
  500.00000  313.79010  308.95790  222.48430    4.49470  386.79750  386.79750   78.34450   78.34450    4.49470    4.70120    4.70120    4.54050  -32.25350  -14.31840    4.54050
  550.00000  309.34660  305.99310  149.97450    6.66780  308.50560  308.50560   55.59850   55.59850    6.66780    6.36150    6.36150    7.02340  -34.63240  -16.64960    7.02340
  600.00000  289.46060  294.09260  124.12950    8.05610  251.76260  251.76260   37.98800   37.98800    8.05610    7.46040    7.46040    8.68480  -25.59300   -7.56250    8.68480
  650.00000  273.70120  270.32290   61.26930   16.32140  219.85130  219.85130   34.95660   34.95660   16.32140   14.69070   14.69070   18.53620  -22.52080   -4.44260   18.53620
  700.00000  289.46400  288.42680   93.55590   10.68880  228.17460  228.17460   33.62090   33.62090   10.68880   10.37920   10.37920   11.27540  -29.81330  -11.68740   11.27540
  750.00000  277.95310  277.59920  114.55280    8.72960  247.13490  247.13490   36.68270   36.68270    8.72960    8.97530    8.97530   10.00540  -18.98580   -0.86720   10.00540
  800.00000  375.07620  375.16730  387.67200    2.57950  401.42320  401.42320  144.81820  144.81820    2.57950    2.67880    2.67880    3.11180  -25.81580   -2.51310    3.11180
  850.00000  251.38150  251.48010   14.18910   70.47660  176.17020  176.17020   22.83680   22.83680   70.47660   78.18160   78.18160  175.64960  -69.37960  -45.09360  175.64960
  900.00000  218.78430  218.55810   51.07540   19.57890  186.51580  186.51580   15.52060   15.52060   19.57890   38.00470   38.00470  112.10710  -92.62710  -68.09480  112.10710
  950.00000  248.34470  248.88480   32.70410   30.57720  181.91700  181.91700   19.60060   19.60060   30.57720   43.67730   43.67730  118.94210  -93.01660  -68.23810  118.94210
 1000.00000  245.05760  246.08690   12.34290   81.01800  169.17330  169.17330   17.47330   17.47330   81.01800   97.29840   97.29840  186.06480  -83.94720  -58.92240  186.06480
 1050.00000  240.90910  240.59520   21.06700   47.46750  174.26420  174.26420   17.24040   17.24040   47.46750   41.92940   41.92940  134.97220  -69.12700  -43.85600  134.97220
 1100.00000  228.75180  204.79540   44.57400   22.43460  158.53070  158.53070   19.18370   19.18370   22.43460   46.09350   46.09350  189.12070  -84.13920  -58.62190  189.12070
 1150.00000  241.20540  240.31510    7.90650  126.47750  158.02110  158.02110   13.22910   13.22910  126.47750  147.76530  147.76530  383.74740  -83.18430  -57.42070  383.74740
 1200.00000  230.19360  223.46820   54.04790   18.50210  212.77990  212.77990   57.00850   57.00850   18.50210   17.79890   17.79890   20.07510  -26.65110   -0.64130   20.07510
 1250.00000  257.21190  273.95860  181.81490    5.50010  251.90910  251.90910   78.72650   78.72650    5.50010    5.72500    5.72500    6.63630  -32.54710   -6.85440    6.63630
 1300.00000  331.76630  288.87000  328.75270    3.04180  304.54500  304.54500   86.35960   86.35960    3.04180    3.13540    3.13540    3.61940  -51.32220  -25.95110    3.61940
 1350.00000  250.83630  239.22740  126.20690    7.92350  245.61250  245.61250   61.00090   61.00090    7.92350    8.29610    8.29610    9.58960  -27.34080   -2.29130    9.58960
 1400.00000  232.45030  242.69680   97.32740   10.27460  215.45080  215.45080   48.78480   48.78480   10.27460   11.09030   11.09030   13.05520  -26.96270   -2.23480   13.05520
 1450.00000  311.08680  307.96100  384.34930    2.60180  328.11650  328.11650  116.49660  116.49660    2.60180    2.70610    2.70610    3.29790  -48.81950  -24.41320    3.29790
 1500.00000  271.76880  319.64040  232.76390    4.29620  285.22580  285.22580   93.51400   93.51400    4.29620    4.56760    4.56760    5.72450  -45.24170  -21.15710    5.72450
 1550.00000  228.80850  251.57260   57.27150   17.46070  193.07990  193.07990   36.93140   36.93140   17.46070   18.23020   18.23020   30.01590  -28.12080   -4.35780   30.01590
 1600.00000  221.90350  245.80150   28.53880   35.04000  178.85110  178.85110   21.94330   21.94330   35.04000   41.84500   41.84500   51.04480  -48.91180  -25.47040   51.04480
 1650.00000  226.87850  226.09000   24.12340   41.45360  165.65350  165.65350   27.49650   27.49650   41.45360   48.45360   48.45360  110.37070  -75.89990  -51.30450  110.37070
 1700.00000  234.46180  222.13070   39.35460   25.41000  195.97910  195.97910   28.42440   28.42440   25.41000   27.26190   27.26190   39.23380  -34.42890   -8.06890   39.23380
 1750.00000  206.23160  217.93050  592.55750    1.68760  243.15210  243.15210  189.67780  189.67780    1.68760    2.62450    2.62450    4.12620  -81.01070  -52.88600    4.12620
