~Version ---------------------------------------------------
VERS.      2.0 : CWLS log ASCII Standard -VERSION 2.0
WRAP.       NO : One line per depth step
CREA. 08/31/17 : LAS Creation Date
~Well ------------------------------------------------------
STRT.FT                         1000.0 : START DEPTH
STOP.FT                        10100.0 : STOP DEPTH
STEP.FT                       50.00000 : STEP LENGTH
NULL.                          -999.25 : NULL VALUE
COMP.             PETROFINA CANADA LTD : COMPANY
WELL. FINA AMOCO HB PASS CK 6-33-62-17 : WELL
FLD .                                  : FIELD
LOC .                                  : LOCATION
CTRY.                           CANADA : COUNTRY
SRVC.                     Schlumberger : SERVICE COMPANY
DATE.                      14-Feb-1977 : LOGDATE
PROV.                          Alberta : PROVINCE
UWI .                 100063306217W500 : UNIQUE WELL ID
SLAT.WGS84                    54.40414 : SURFACE LATITUDE
SLON.WGS84                   -116.4922 : SURFACE LONGITUDE
~Curve Information -----------------------------------------
DEPT    .FT    : Depth Curve
CALDED  .IN    : CALIPER FROM CNFD LOG
CALSED  .IN    : CALIPER FROM BCS LOG [ADJ.TO GRDED]
CALWS   .IN    : CALIPER [CALSED]
CILDED  .MMHO  : CONDUCTIVITY FROM DIL-LAT LOG
CONDWS  .MMHO  : CONDUCTIVITY [CILDED SPL.TO 1000/ILDED @ 1035.5' TO 1151.5' & 4943' TO 10143']
DCORED  .G/C3  : DENSITY CORRECTION FROM CNFD LOG
DCORWS  .G/C3  : DENSITY CORRECTION [DCORED]
DENWS   .G/C3  : FORMATION BULK DENSITY [RHOBED]
DPHILSED.V/V   : DENSITY POROSITY LIMESTONE [M=2.71, F=1.0] FROM CNFD LOG [ADJ.TO RHOBED]
DPHISSED.V/V   : DENSITY POROSITY SANDSTONE [M=2.65, F=1.0] FROM CNFD LOG [ADJ.TO RHOBED]
DPOLSWS .V/V   : DENSITY POROSITY LIMESTONE [CALCULATED FROM DENWS, M=2.71, F=1.0]
DRESWS  .OHMM  : DEEP RESISTIVITY [1000/CONDWS, IF ILDED <=4 THEN ILDED]
DTED    .US/F  : DELTA-T FROM BCS LOG [ADJ.TO GRDED]
DTWS    .US/F  : COMPRESSIONAL SONIC [DTED]
GRDED   .GAPI  : GAMMA RAY FROM CNFD LOG
GRSED   .GAPI  : GAMMA RAY FROM SONIC LOG [ADJ.TO GRDED]
GRWS    .GAPI  : GAMMA RAY [GRSED]
ILDED   .OHMM  : DEEP INDUCTION FROM DIL-LAT LOG
ILMED   .OHMM  : MEDIUM INDUCTION FROM DIL-LAT LOG
LL8ED   .OHMM  : LATEROLOG 8 FROM DIL-LAT LOG
MRESWS  .OHMM  : MEDIUM RESISTIVITY [ILMED]
NPHILSED.V/V   : NEUTRON POROSITY LIMESTONE FROM CNFD LOG [ADJ.TO RHOBED]
NPHISSED.V/V   : NEUTRON POROSITY SANDSTONE FROM CNFD LOG [ADJ.TO RHOBED]
NPOLSWS .V/V   : NEUTRON POROSITY LIMESTONE [NPHISSED CONVERTED TO LIMESTONE MATRIX & SPL.TO NPHILSED @ 6299.5']
RHOBED  .G/C3  : FORMATION BULK DENSITY FROM CNFD LOG
SPHIED  .V/V   : SONIC POROSITY [DTM=55.6, DTF=189 & DTM=45.5 @ 6250 TO TD] FROM BCS LOG [ADJ.TO GRDED]
SPOWS   .V/V   : SONIC POROSITY [SPHIED]
SPRED   .MV    : SPONTANEOUS POTENTIAL FROM DIL-LAT LOG
SPWS    .MV    : SPONTANEOUS POTENTIAL [BASELINE 0 MV, SPRED]
SRESWS  .OHMM  : SHALLOW RESISTIVITY [LL8ED]
~Params ----------------------------------------------------
PD  .                     GL : PERMANENT DATUM
EPD .FT                 2942 : ELEVATION PERMANENT DATUM
LMF .                     KB : LOG MEASURED FROM
DAPD.FT                13.15 : FEET ABOVE PERMANENT DATUM
DMF .                     KB : DRILLING MEASURED FROM
EKB .FT              2955.15 : KELLY BUSHING
EGL .FT               2942.0 : GROUND LEVEL
DATE.               02/14/77 : RUN DATE
RUN .                      1 : RUN NUMBER
DD  .FT                10160 : DEPTH DRILLER
DL  .FT                10155 : DEPTH LOGGER
BLI .FT                10149 : BOTTOM LOG INTERVAL
TLI .FT                 1027 : TOP LOG INTERVAL
CBD .FT                 1028 : CASING BOTTOM DRILLER
CBL .FT                 1027 : CASING BOTTOM LOGGER
BS  .IN                 8.75 : BIT SIZE
BSD .FT                10160 : BIT SIZE AT DEPTH
DFT .               GEL CHEM : DRILLING FLUID TYPE
DFD .                    9.0 : DRILLING FLUID DENSITY
DFV .                     93 : DRILLING FLUID VISCOSITY
DFPH.                   11.0 : DRILLING FLUID PH
DFL .                    5.6 : DRILLING FLUID LOSS
RMF .OHMM               2.08 : RESISTIVITY MUD FILTRATE SAMPLE
MFST.DEGF                 70 : MUD FILTRATE SAMPLE TEMPERATURE
RMC .OHMM               0.94 : RESISTIVITY MUD CAKE
MCST.DEGF                 70 : MUD CAKE SAMPLE TEMPERATURE
RMB .OHMM               0.85 : RESISTIVITY MUD AT BHT
TCS .HRS                 3.5 : TIME CIRCULATED STOPPED
LUN .                   7803 : LOGGING UNIT NUMBER
LUL .                     DC : LOGGING UNIT LOCATION
ENGI.                   WATT : RECORDING ENGINEER
WITN.                 NELSON : WITNESSED BY
CLNT.                A2DTECH : CLIENT CODE
ORIG.            2" 5" PRINT : ORIGIN OF DATA
UWI .       100063306217W500 : UNIQUE WELL ID
DICO. A2D Technologies, Inc. : DIGITIZING COMPANY
~Other -----------------------------------------------------
~ASCII -----------------------------------------------------
# ...
 7000.00000    9.63030    9.32880    9.32880    -999.25  323.40480    0.02960    0.02960    2.67470    0.02230    -999.25    0.02060    3.09210   58.14640   58.14640   76.31310   71.85730   71.85730    3.09210    3.17420    8.06330    3.17420    0.11910    -999.25    0.11910    2.67470    0.09170    0.09170  -93.69780  -45.17220    8.06330
 7050.00000   10.69630    9.27600    9.27600    -999.25   41.59350    0.18270    0.18270    2.48150    0.11840    -999.25    0.13360   24.04220   52.02810   52.02810   45.69960   40.79530   40.79530   24.04220   29.66300  127.18560   29.66300    0.03240    -999.25    0.03240    2.48150    0.04190    0.04190  -63.90590  -19.86030  127.18560
 7100.00000    9.41760    9.24870    9.24870    -999.25   37.14250    0.02040    0.02040    2.68910    0.01280    -999.25    0.01220   26.92330   55.67350   55.67350   69.32510   65.77600   65.77600   26.92330   28.66690   44.35720   28.66690    0.05360    -999.25    0.05360    2.68910    0.07230    0.07230  -51.95970  -12.39420   44.35720
 7150.00000    9.29640    9.10600    9.10600    -999.25   15.54090    0.02040    0.02040    2.70080    0.00780    -999.25    0.00540   64.34650   53.13550   53.13550   48.70140   48.54270   48.54270   64.34650   67.40020  120.42950   67.40020    0.02190    -999.25    0.02190    2.70080    0.05260    0.05260  -38.54350   -3.45800  120.42950
 7200.00000    9.19610    9.05370    9.05370    -999.25   17.88950    0.01130    0.01130    2.66490    0.02400    -999.25    0.02630   55.89900   53.91320   53.91320   66.39330   68.57650   68.57650   55.89900   58.44270   82.74620   58.44270    0.02300    -999.25    0.02300    2.66490    0.06070    0.06070  -30.79180   -0.20870   82.74620
 7250.00000    9.27580    9.04590    9.04590    -999.25   23.14420    0.01440    0.01440    2.65060    0.03730    -999.25    0.03470   43.20730   55.16220   55.16220   62.38720   59.08930   59.08930   43.20730   44.62890   79.47160   44.62890    0.03140    -999.25    0.03140    2.65060    0.06700    0.06700  -29.22630   -2.75240   79.47160
 7300.00000    9.15650    9.07260    9.07260    -999.25   24.54700    0.04610    0.04610    2.69390    0.01200    -999.25    0.00940   40.73820   56.68990   56.68990   76.59960   63.24910   63.24910   40.73820   42.33690   58.03700   42.33690    0.04130    -999.25    0.04130    2.69390    0.07940    0.07940  -29.77420   -6.02690   58.03700
 7350.00000    9.17010    9.01520    9.01520    -999.25    2.95660    0.03070    0.03070    2.72600   -0.00920    -999.25   -0.00940  338.22810   51.56720   51.56720   47.35700   40.24110   40.24110  338.22810  286.84790  449.96170  286.84790    0.00760    -999.25    0.00760    2.72600    0.04340    0.04340  -55.51520  -29.66940  449.96170
 7400.00000    9.10980    9.02560    9.02560    -999.25    0.66830    0.02170    0.02170    2.70240    0.00390    -999.25    0.00440 1496.44410   52.14220   52.14220   33.26770   33.00590   33.00590 1496.44410 1359.82780 1040.98820 1359.82780    0.01110    -999.25    0.01110    2.70240    0.04770    0.04770  -56.92310  -28.97890 1040.98820
 7450.00000    9.43690    9.11800    9.11800    -999.25   17.52480    0.03210    0.03210    2.72110   -0.00550    -999.25   -0.00650   57.06290   56.82170   56.82170   86.35850   73.90870   73.90870   57.06290   59.31920   74.92980   59.31920    0.04120    -999.25    0.04120    2.72110    0.08040    0.08040  -35.05800   -4.66340   74.92980
 7500.00000    9.36200    9.09930    9.09930    -999.25    5.00520    0.01120    0.01120    2.36880    0.19260    -999.25    0.19950  199.79210   81.64870   81.64870    -999.25    -999.25    -999.25  199.79210  222.96730 1443.88950  222.96730    0.20460    -999.25    0.20460    2.36880    0.25310    0.25310  -53.55800  -20.67760 1443.88950
 7550.00000    9.63290    9.17700    9.17700    -999.25    0.83640    0.01530    0.01530    2.68260    0.02280    -999.25    0.01600 1195.56790   50.26030   50.26030   21.71040   21.13850   21.13850 1195.56790  722.16690  429.34870  722.16690    0.00130    -999.25    0.00130    2.68260    0.03480    0.03480 -120.58780  -88.67260  429.34870
 7600.00000   10.71470    9.30070    9.30070    -999.25    0.66670    0.29970    0.29970    2.67960    0.01800    -999.25    0.01780 1499.96350   49.36250   49.36250   22.87020   23.69440   23.69440 1499.96350  234.34720  397.82870  234.34720   -0.00130    -999.25   -0.00130    2.67960    0.02840    0.02840 -106.06980  -75.11980  397.82870
 7650.00000   11.51280    9.31350    9.31350    -999.25    1.03790    0.27390    0.27390    2.58790    0.07830    -999.25    0.07140  963.46230   50.60690   50.60690   22.61150   19.76460   19.76460  963.46230  394.51550  732.46700  394.51550   -0.00150    -999.25   -0.00150    2.58790    0.03630    0.03630 -130.71700 -100.73220  732.46700
 7700.00000   10.86970    9.25150    9.25150    -999.25    5.90000    0.21520    0.21520    2.70240   -0.00110    -999.25    0.00440  169.49310   50.25940   50.25940   16.46390   17.73020   17.73020  169.49310  110.34210  159.12790  110.34210   -0.00180    -999.25   -0.00180    2.70240    0.03400    0.03400 -125.74960  -96.73480  159.12790
 7750.00000   11.28410    9.19150    9.19150    -999.25    3.82580    0.24070    0.24070    2.65310    0.03220    -999.25    0.03330  261.38070   49.84880   49.84880   18.78150   19.80240   19.80240  261.38070  143.14290  172.30870  143.14290    0.00240    -999.25    0.00240    2.65310    0.03040    0.03040 -115.70520  -87.65090  172.30870
 7800.00000    8.94030    8.97640    8.97640    -999.25   22.69850    0.04040    0.04040    2.57390    0.08440    -999.25    0.07960   44.05570   52.03580   52.03580   11.77350   13.31870   13.31870   44.05570   60.34060  238.45180   60.34060    0.02890    -999.25    0.02890    2.57390    0.04870    0.04870 -147.94550 -120.85640  238.45180
 7850.00000    9.66020    9.17060    9.17060    -999.25   19.02390    0.12210    0.12210    2.63150    0.04290    -999.25    0.04590   52.56550   48.48680   48.48680   13.27240   13.93250   13.93250   52.56550   61.62240  248.88790   61.62240    0.00250    -999.25    0.00250    2.63150    0.02140    0.02140 -167.69080 -141.56690  248.88790
 7900.00000    9.81130    9.28080    9.28080    -999.25   18.64950    0.01290    0.01290    2.66240    0.02200    -999.25    0.02780   53.62080   51.13890   51.13890   13.76250   16.48910   16.48910   53.62080   57.78650  144.60150   57.78650    0.01550    -999.25    0.01550    2.66240    0.04020    0.04020 -117.71360  -92.55490  144.60150
 7950.00000   12.23770    9.39510    9.39510    -999.25    0.65890    0.21570    0.21570    2.63470    0.04810    -999.25    0.04410 1517.69690   50.49600   50.49600   23.77490   21.43920   21.43920 1517.69690  228.37320  806.96340  228.37320    0.00360    -999.25    0.00360    2.63470    0.03570    0.03570  -97.86130  -73.67270  806.96340
 8000.00000   11.64380    9.40820    9.40820    -999.25    0.65010    0.20590    0.20590    2.58090    0.07490    -999.25    0.07550 1538.19870   49.98520   49.98520   21.85680   20.03360   20.03360 1538.19870  439.35840  678.14920  439.35840    0.00020    -999.25    0.00020    2.58090    0.03210    0.03210  -82.98020  -59.75200  678.14920
 8050.00000   10.74260    9.22600    9.22600    -999.25    1.86690    0.25040    0.25040    2.72890   -0.00720    -999.25   -0.01110  535.65860   51.10100   51.10100   15.94200   19.30730   19.30730  535.65860  184.87350  255.45610  184.87350   -0.00220    -999.25   -0.00220    2.72890    0.04100    0.04100  -78.63040  -56.36740  255.45610
 8100.00000    9.97690    9.09010    9.09010    -999.25   43.06430    0.13240    0.13240    2.68620    0.03190    -999.25    0.01390   23.22110   51.09700   51.09700    9.81740   11.65750   11.65750   23.22110   32.62280   89.09820   32.62280    0.02560    -999.25    0.02560    2.68620    0.03950    0.03950 -114.55790  -93.26010   89.09820
 8150.00000    9.99610    9.21590    9.21590    -999.25    8.16410    0.07320    0.07320    2.68930    0.02730    -999.25    0.01210  122.48690   48.61390   48.61390   15.58580   19.50160   19.50160  122.48690   99.30250   99.87640   99.30250    0.00410    -999.25    0.00410    2.68930    0.02220    0.02220  -84.27300  -63.94050   99.87640
