~Version ---------------------------------------------------
VERS.      2.0 : CWLS log ASCII Standard -VERSION 2.0
WRAP.       NO : One line per depth step
CREA. 08/02/17 : LAS Creation Date
~Well ------------------------------------------------------
STRT.FT                    300.0 : START DEPTH
STOP.FT                  10400.0 : STOP DEPTH
STEP.FT                 50.00000 : STEP LENGTH
NULL.                    -999.25 : NULL VALUE
COMP.     PHILLIPS PETROLEUM CO. : COMPANY
WELL. PHILLIPS KAYBOB 7-22-64-19 : WELL
FLD .                     KAYBOB : FIELD
LOC .                            : LOCATION
CTRY.                     CANADA : COUNTRY
SRVC.               Schlumberger : SERVICE COMPANY
DATE.                14-Jun-1957 : LOGDATE
PROV.                    Alberta : PROVINCE
UWI .           100072206419W500 : UNIQUE WELL ID
SLAT.WGS84              54.55064 : SURFACE LATITUDE
SLON.WGS84             -116.7821 : SURFACE LONGITUDE
~Curve Information -----------------------------------------
DEPT  .FT    : Depth Curve
CALED .IN    : CALIPER FROM CALIPER LOG
CALWS .IN    : CALIPER [CALED SPL. TO MCALED @ 9798']
CONDWS.MMHO  : CONDUCTIVITY [1000/DRESWS]
DRESWS.OHMM  : DEEP RESISTIVITY [LNED]
GRED  .CPS   : GAMMA RAY FROM RADIOACTIVITY LOG
GRNED .GAPI  : GAMMA RAY FROM GRN LOG
GRWS  .GAPI  : GAMMA RAY [GRED SPL. TO GRNED @ 196.5']
LNED  .OHMM  : LONG NORMAL RESISTIVITY FROM IEL LOG
LT18ED.OHMM  : LATERAL 18' FROM IEL LOG
MCALED.IN    : MLT (MICROLOG) CALIPER FROM MLL-CAL LOG
MLLED .OHMM  : MICRO FOCUSED LATEROLOG RESISTIVITY FROM MLL LOG
NEUTED.NAPI  : NEUTRON FROM GRN LOG
NEUTWS.NAPI  : NEUTRON [NEUTED]
SNED  .OHMM  : SHORT NORMAL RESISTIVITY FROM IEL LOG
SPRED .MV    : SPONTANEOUS POTENTIAL FROM IEL LOG
SPWS  .MV    : SPONTANEOUS POTENTIAL [BASELINE 0 MV, SPRED]
SRESWS.OHMM  : SHALLOW RESISTIVITY [SNED]
~Params ----------------------------------------------------
LMF .                     KB : LOG MEASURED FROM
DMF .                     KB : DRILLING MEASURED FROM
EKB .FT                 2450 : KELLY BUSHING
EGL .FT               2435.4 : GROUND LEVEL
DATE.               06/14/57 : RUN DATE
RUN .                      2 : RUN NUMBER
DD  .FT                10445 : DEPTH DRILLER
DL  .FT                10449 : DEPTH LOGGER
BLI .FT                10448 : BOTTOM LOG INTERVAL
TLI .FT                 9798 : TOP LOG INTERVAL
CBD .FT                 9803 : CASING BOTTOM DRILLER
CBL .FT                 9798 : CASING BOTTOM LOGGER
BS  .IN                    6 : BIT SIZE
BSD .FT                10445 : BIT SIZE AT DEPTH
DFT .                    GEL : DRILLING FLUID TYPE
DFD .                   10.6 : DRILLING FLUID DENSITY
DFV .                     96 : DRILLING FLUID VISCOSITY
DFPH.                    9.5 : DRILLING FLUID PH
DFL .                    4.2 : DRILLING FLUID LOSS
RMS .OHMM                2.3 : RESISTIVITY MUD SAMPLE
MST .DEGF                 62 : MUD SAMPLE TEMPERATURE
RMF .OHMM                2.3 : RESISTIVITY MUD FILTRATE SAMPLE
MFST.DEGF                 62 : MUD FILTRATE SAMPLE TEMPERATURE
RMC .OHMM               0.64 : RESISTIVITY MUD CAKE
MCST.DEGF                219 : MUD CAKE SAMPLE TEMPERATURE
RMB .OHMM               0.66 : RESISTIVITY MUD AT BHT
TCS .HRS                   2 : TIME CIRCULATED STOPPED
LUN .                   1534 : LOGGING UNIT NUMBER
LUL .                    V V : LOGGING UNIT LOCATION
ENGI.               THOMPSON : RECORDING ENGINEER
WITN.                HANKINS : WITNESSED BY
CLNT.                A2DTECH : CLIENT CODE
ORIG.            2" 5" PRINT : ORIGIN OF DATA
UWI .       100072206419W500 : UNIQUE WELL ID
DICO. A2D Technologies, Inc. : DIGITIZING COMPANY
~Other -----------------------------------------------------
~ASCII -----------------------------------------------------
# ...
 6450.00000    8.69810    8.69810    5.73060  174.50130   24.06280   75.06020   75.06020  174.50130  109.84430    9.41240  344.63340  342.93720  342.93720   78.91400 -115.05010  -88.62960   78.91400
 6500.00000    8.64850    8.64850    4.47630  223.39840   27.91540   39.72710   39.72710  223.39840  603.76430    8.97700  194.80570  349.69520  349.69520   96.34180 -270.22770 -244.96740   96.34180
 6550.00000    8.53700    8.53700    3.33950  299.46200   13.56570   38.80390   38.80390  299.46200  457.78440    9.40510  834.31360  361.83730  361.83730  124.54990 -285.48630 -261.38630  124.54990
 6600.00000    8.99980    8.99980    3.79360  263.60040   40.28190   38.07210   38.07210  263.60040  861.90620    9.79220 1055.12590  435.91120  435.91120  107.63780 -189.61950 -166.68740  107.63780
 6650.00000    8.67260    8.67260  141.78160    7.05310   36.01040   95.06310   95.06310    7.05310    5.48800    9.84470    7.85930  224.41290  224.41290    6.91790 -153.47220 -131.70040    6.91790
 6700.00000    8.43350    8.43350   70.30420   14.22390   29.74490   89.95140   89.95140   14.22390   15.38400   10.03800   10.72070  262.65700  262.65700   15.68690 -131.79420 -111.19030   15.68690
 6750.00000    8.27660    8.27660   16.76940   59.63240   27.93400   58.85050   58.85050   59.63240   24.69250    9.48550   91.54430  347.33210  347.33210   43.14140  -83.15130  -63.70770   43.14140
 6800.00000    8.52520    8.52520   12.99970   77.06320   19.68980   49.04130   49.04130   77.06320   53.33780    9.51120  486.10850  377.19420  377.19420   60.16590  -89.79170  -71.50830   60.16590
 6850.00000    8.43510    8.43510    9.97480  100.25240   22.59810   52.95510   52.95510  100.25240  106.39460    9.56500   42.41120  339.57350  339.57350   55.35840  -19.17980   -2.13710   55.35840
 6900.00000    8.14430    8.14430    9.04730  110.53000   25.41650   61.68030   61.68030  110.53000  219.29570    9.41040  582.47780  368.68440  368.68440   63.66900  -32.63370  -19.51790   63.66900
 6950.00000    8.17040    8.17040   24.73250   40.43270   30.37640   86.88410   86.88410   40.43270   26.21760    9.53040   33.46190  306.47150  306.47150   27.60340  -15.51970   -6.35650   27.60340
 7000.00000    8.32780    8.32780    5.66320  176.57940   24.80200   66.08410   66.08410  176.57940   95.25070    9.36870  158.20250  372.79180  372.79180   87.50610  -37.05690  -27.13160   87.50610
 7050.00000    8.21330    8.21330    3.98620  250.88200   24.58510   65.34820   65.34820  250.88200  492.35200    9.40080  258.67110  386.84980  386.84980   99.09710  -70.01220  -58.40180   99.09710
 7100.00000    8.32630    8.32630    2.63350  379.72200   33.08930   51.24080   51.24080  379.72200  590.72420    9.47390  547.86390  400.57970  400.57970  143.58770  -64.71710  -51.41040  143.58770
 7150.00000    8.48200    8.48200   10.63620   94.01850   30.46700   75.45280   75.45280   94.01850  115.09380    9.70820   69.71510  334.83260  334.83260   50.84570  -71.54090  -56.54910   50.84570
 7200.00000    9.78400    9.78400   12.96760   77.11500   26.13210   80.44410   80.44410   77.11500   58.47380    9.67590   46.47440  316.49740  316.49740   43.38980  -75.31750  -58.62950   43.38980
 7250.00000    8.51630    8.51630    5.51540  181.31090   15.20930  257.45610  257.45610  181.31090   79.68700    9.38000 1133.58750  278.79220  278.79220  118.49070  -77.87420  -59.50100  118.49070
 7300.00000    8.44820    8.44820    1.55840  641.69400   15.88490   37.23140   37.23140  641.69400 1265.99310    9.51350  257.45100  389.17450  389.17450  159.41700 -134.05120 -113.99290  159.41700
 7350.00000    8.55400    8.55400    1.65030  605.94420   19.15870   42.08820   42.08820  605.94420    -999.25    9.75190  337.61050  397.70550  397.70550  157.91340 -133.59400 -111.83940  157.91340
 7400.00000    8.80010    8.80010    1.77210  564.29470   15.59830   38.10010   38.10010  564.29470 1002.63120   10.07980  195.26290  452.11480  452.11480  149.44840 -154.42900 -130.98930  149.44840
 7450.00000    9.34410    9.34410    2.29810  435.14280   13.98180   37.71730   37.71730  435.14280  811.52320   10.48390   98.86960  430.12950  430.12950  130.20230 -197.92780 -172.79190  130.20230
 7500.00000    8.89620    8.89620    1.36520  732.49170   15.88520   44.10940   44.10940  732.49170  952.97830   10.78120   31.91160  434.63740  434.63740  194.93150 -185.78450 -158.96340  194.93150
 7550.00000    9.99850    9.99850    1.05610  946.95290   79.40350   34.29610   34.29610  946.95290 1498.58700   11.42390   43.53710  404.29240  404.29240  184.10120 -204.50220 -175.99600  184.10120
 7600.00000    8.59730    8.59730    4.34730  230.02730   14.77620   40.04710   40.04710  230.02730 1250.20420    9.83980  141.72420  372.29750  372.29750   67.34930 -218.48580 -188.28330   67.34930
 7650.00000    8.52940    8.52940    2.65760  376.28290    8.72860   34.51630   34.51630  376.28290  753.12290    9.80720  362.12380  427.15240  427.15240  108.54750 -195.65080 -163.76320  108.54750
 7700.00000    8.66630    8.66630    2.86930  348.52070   75.33780   38.63310   38.63310  348.52070 1277.43510    9.78980  183.71390  433.36370  433.36370  103.46650 -181.49440 -147.91060  103.46650
 7750.00000    8.98080    8.98080    2.05250  487.22220   16.59910   41.09000   41.09000  487.22220  475.26350   10.29560   26.25420  398.33200  398.33200  147.58770 -148.10150 -112.83250  147.58770
 7800.00000    9.07680    9.07680    1.72390  580.08700   17.14290   39.16280   39.16280  580.08700 1398.89130   10.37500   16.48620  396.86500  396.86500  144.63460 -133.82630  -96.87220  144.63460
 7850.00000    8.30570    8.30570    4.00210  249.86760    6.72220   36.97650   36.97650  249.86760  824.68650    9.91780   86.02890  412.03170  412.03170   92.83160 -186.75610 -148.10570   92.83160
 7900.00000    8.36180    8.36180    3.48300  287.11070    5.65390   34.95200   34.95200  287.11070  707.10480    9.47780  830.18330  380.64410  380.64410  108.86790 -238.23880 -197.90330  108.86790
 7950.00000    8.46420    8.46420    3.26410  306.36650   16.96410   36.65800   36.65800  306.36650  348.45040    9.68060  924.32300  424.29510  424.29510  125.52830 -224.39370 -182.36200  125.52830
 8000.00000    9.30090    9.30090    3.17480  314.98500   20.07840   47.61740   47.61740  314.98500  325.28730    9.73950   34.94180  407.64990  407.64990  118.08350 -144.03740 -100.32050  118.08350
 8050.00000    8.39730    8.39730    6.82590  146.63330   44.62220   39.82360   39.82360  146.63330  242.82380    9.57160  693.29210  329.88040  329.88040   77.67450 -152.39650 -106.99450   77.67450
 8100.00000    8.24860    8.24860   11.07950   90.25710   12.75390   39.52250   39.52250   90.25710  180.76840    8.94580   60.78900  273.98550  273.98550   58.24150 -198.89630 -151.79800   58.24150
 8150.00000    8.46420    8.46420   10.26890   97.38140   29.45560   51.31340   51.31340   97.38140  134.14970    9.58020   66.32910  343.00820  343.00820   63.82130 -111.55660  -62.77320   63.82130
 8200.00000    8.49620    8.49620    1.86240  536.94310   20.62390   51.15660   51.15660  536.94310 1001.25980    9.57730  542.56920  396.31490  396.31490  145.36050  -67.32370  -16.84410  145.36050
 8250.00000    8.72280    8.72280    6.50210  153.79610   27.03030   64.47050   64.47050  153.79610  474.48990    9.73320  126.83340  329.45980  329.45980   69.54590  -56.61140   -4.44660   69.54590
 8300.00000    8.62300    8.62300   10.00330   99.96660   29.16810   62.18680   62.18680   99.96660  187.72190    9.85870   92.86050  289.34440  289.34440   58.44400  -74.56400  -20.71410   58.44400
 8350.00000    8.53010    8.53010    6.22750  160.57840   32.41570   72.52240   72.52240  160.57840  827.98610    9.71790  273.27980  329.42330  329.42330   64.76280  -91.64520  -37.41370   64.76280
 8400.00000    8.54930    8.54930    9.72770  102.79940   24.47060   65.11560   65.11560  102.79940  173.82540    9.62750  103.34620  338.22830  338.22830   59.84450  -75.60470  -21.88390   59.84450
 8450.00000    8.58980    8.58980   14.37930   69.54440   34.82710   84.65820   84.65820   69.54440   59.51230    9.70030   47.87790  282.56410  282.56410   41.73380  -79.96840  -26.76170   41.73380
