~Version ---------------------------------------------------
VERS.      2.0 : CWLS log ASCII Standard -VERSION 2.0
WRAP.       NO : One line per depth step
CREA. 12/11/17 : LAS Creation Date
~Well ------------------------------------------------------
STRT.FT                        300.0 : START DEPTH
STOP.FT                      10150.0 : STOP DEPTH
STEP.FT                     50.00000 : STEP LENGTH
NULL.                        -999.25 : NULL VALUE
COMP.           PETROFINA CANADA LTD : COMPANY
WELL. FINA AMOCO HB PASSCK 7-2-62-17 : WELL
FLD .                                : FIELD
LOC .                                : LOCATION
CTRY.                         CANADA : COUNTRY
SRVC.                   Schlumberger : SERVICE COMPANY
DATE.                    14-Mar-1978 : LOGDATE
PROV.                        Alberta : PROVINCE
UWI .               100070206217W500 : UNIQUE WELL ID
SLAT.WGS84                  54.33347 : SURFACE LATITUDE
SLON.WGS84                 -116.4328 : SURFACE LONGITUDE
~Curve Information -----------------------------------------
DEPT    .FT    : Depth Curve
CALDED  .IN    : CALIPER FROM DENSITY LOG [ADJ. TO RESISTIVITY LOG]
CALSED  .IN    : CALIPER FROM SONIC LOG
CALWS   .IN    : CALIPER [CALDED SPL. TO CALSED FROM 1027'-2457']
CILDED  .MMHO  : CONDUCTIVITY FROM RESISTIVITY LOG
CONDWS  .MMHO  : CONDUCTIVITY [1000/DRESWS]
DCORWS  .G/C3  : DENSITY CORRECTION [DRHOED]
DENWS   .G/C3  : FORMATION BULK DENSITY [CALC. FROM DPOLSWS, M=2.71, F=1.00]
DPHILSED.V/V   : DENSITY POROSITY LIMESTONE [M=2.71, F=1.00] FROM DENSITY LOG [ADJ. TO RESISTIVITY LOG]
DPHISSED.V/V   : DENSITY POROSITY SANDSTONE [M=2.65, F=1.00] FROM DENSITY LOG [ADJ. TO RESISTIVITY LOG]
DPOLSWS .V/V   : DENSITY POROSITY LIMESTONE [DPHISSED CONVERTED TO LIMESTONE MATRIX, M=2.71, F=1.00 SPL.TO DPHILSED @ 6300']
DRESWS  .OHMM  : DEEP RESISTIVITY [ILDED]
DRHOED  .G/C3  : DENSITY CORRECTION FROM DENSITY LOG [ADJ. TO RESISTIVITY LOG]
DTED    .US/F  : DELTA TIME FROM SONIC LOG
DTWS    .US/F  : COMPRESSIONAL SONIC [DTED]
GRDED   .GAPI  : GAMMA RAY FROM DENSITY LOG [ADJ. TO RESISTIVITY LOG]
GRSED   .GAPI  : GAMMA RAY FROM SONIC LOG
GRWS    .GAPI  : GAMM RAY [GRDED SPL. TO GRSED @ 35'] GRWS IN CSG. (+25 GAPI) FROM (994'-1027')
ILDED   .OHMM  : DEEP INDUCTION LOG RESISTIVITY FROM RESISTIVITY LOG
ILMED   .OHMM  : MEDIUM INDUCTION LOG RESISTIVITY FROM RESISTIVITY LOG
LL8ED   .OHMM  : 8 INCH LATEROLOG RESISTIVITY FROM RESISTIVITY LOG
MRESWS  .OHMM  : MEDIUM RESISTIVITY [ILMED]
NPHILSED.V/V   : NEUTRON POROSITY LIMESTONE FROM DENSITY LOG [ADJ. TO RESISTIVITY LOG]
NPHISSED.V/V   : NEUTRON POROSITY SANDSTONE FROM DENSITY LOG [ADJ. TO RESISTIVITY LOG]
NPOLSWS .V/V   : NEUTRON POROSITY LIMESTONE [NPHISSED MATRIX (SLB) CONVERSION FOR LIMESTONE, SPL.TO NPHILSED @ 6300']
RHOBED  .G/C3  : BULK DENSITY FROM DENSITY LOG [ADJ. TO RESISTIVITY LOG]
SPRED   .MV    : SPONTANEOUS POTENTIAL FROM RESISTIVITY LOG
SPWS    .MV    : SPONTANEOUS POTENTIAL [BASELINE 0 MV, SPRED]
SRESWS  .OHMM  : SHALLOW RESISTIVITY [LL8ED]
~Params ----------------------------------------------------
PD  .                     GL : PERMANENT DATUM
EPD .FT               2914.3 : ELEVATION PERMANENT DATUM
LMF .                     KB : LOG MEASURED FROM
DAPD.FT                 17.6 : FEET ABOVE PERMANENT DATUM
EKB .FT               2931.9 : KELLY BUSHING
EGL .FT               2914.3 : GROUND LEVEL
DATE.               03/14/78 : RUN DATE
RUN .                      2 : RUN NUMBER
DD  .FT                10155 : DEPTH DRILLER
DL  .FT                10163 : DEPTH LOGGER
BLI .FT                10157 : BOTTOM LOG INTERVAL
TLI .FT                 1027 : TOP LOG INTERVAL
CBD .FT                 1028 : CASING BOTTOM DRILLER
CBL .FT                 1027 : CASING BOTTOM LOGGER
BS  .IN                 8.75 : BIT SIZE
BSD .FT                10155 : BIT SIZE AT DEPTH
DFT .               GEL CHEM : DRILLING FLUID TYPE
DFD .                    9.3 : DRILLING FLUID DENSITY
DFV .                     90 : DRILLING FLUID VISCOSITY
DFPH.                     11 : DRILLING FLUID PH
DFL .                    9.0 : DRILLING FLUID LOSS
MSS .               FLOWLINE : MUD SAMPLE SOURCE
RMS .OHMM               1.87 : RESISTIVITY MUD SAMPLE
MST .DEGF                 74 : MUD SAMPLE TEMPERATURE
RMF .OHMM               1.52 : RESISTIVITY MUD FILTRATE SAMPLE
MFST.DEGF                 72 : MUD FILTRATE SAMPLE TEMPERATURE
RMB .OHMM               0.62 : RESISTIVITY MUD AT BHT
TCS .HRS                 3.5 : TIME CIRCULATED STOPPED
LUN .                   7730 : LOGGING UNIT NUMBER
LUL .                    EDM : LOGGING UNIT LOCATION
ENGI.               ACKERMAN : RECORDING ENGINEER
WITN.                 DAVIES : WITNESSED BY
CLNT.                A2DTECH : CLIENT CODE
ORIG.            2" 5" PRINT : ORIGIN OF DATA
UWI .       100070206217W500 : UNIQUE WELL ID
DICO. A2D Technologies, Inc. : DIGITIZING COMPANY
~Other -----------------------------------------------------
DIL-CNFD-BHC TOOLS RUN
DIL AND BHC TOOL CURVES FROM 1024' TO 2452' FROM 2" SCALE SECTION
~ASCII -----------------------------------------------------
# ...
 4050.00000   10.18890   10.03720   10.18890    -999.25  137.93670    0.13300    2.42200    -999.25    0.13820    0.16840    7.24970    0.13300   86.86980   86.86980  106.55620  115.54470  115.54470    7.24970    7.59210    7.86570    7.59210    -999.25    0.38460    0.34140    2.42710  -54.48440   -3.30640    7.86570
 4100.00000   10.45690   10.30100   10.45690    -999.25  174.23730    0.16790    2.37720    -999.25    0.16540    0.19460    5.73930    0.16790   87.69740   87.69740  112.65850  132.76630  132.76630    5.73930    6.12200    6.56610    6.12200    -999.25    0.45210    0.41050    2.37940  -54.27830   -3.56360    6.56610
 4150.00000   10.75170    9.65750   10.75170    -999.25  118.15720    0.26080    2.19670    -999.25    0.27470    0.30010    8.46330    0.26080   78.98510   78.98510   97.81590  114.83100  114.83100    8.46330    8.70720    9.50090    8.70720    -999.25    0.33770    0.29390    2.19880  -54.34240   -4.08800    9.50090
 4200.00000   10.77440   10.06440   10.77440    -999.25  121.48930    0.23920    2.28190    -999.25    0.22310    0.25030    8.23250    0.23920   93.51080   93.51080  108.52410  120.89870  120.89870    8.23250    8.44510    9.37910    8.44510    -999.25    0.36670    0.32320    2.32720  -53.70890   -3.91770    9.37910
 4250.00000   10.63690    9.98860   10.63690    -999.25  126.37270    0.19270    2.35890    -999.25    0.17640    0.20530    7.91310    0.19270   78.94960   78.94960  108.99560  118.60130  118.60130    7.91310    8.30740    9.06400    8.30740    -999.25    0.32260    0.27870    2.36720  -53.89840   -4.56750    9.06400
 4300.00000   10.51330    9.98550   10.51330    -999.25  133.96030    0.20950    2.41670    -999.25    0.14140    0.17150    7.46490    0.20950   88.37880   88.37880  112.35320  128.30680  128.30680    7.46490    7.80980    8.31240    7.80980    -999.25    0.35020    0.30660    2.42330  -53.05940   -4.18870    8.31240
 4350.00000   10.51420   10.19290   10.51420    -999.25  160.53940    0.17440    2.43060    -999.25    0.13300    0.16340    6.22900    0.17440   89.66060   89.66060  109.98400  126.08250  126.08250    6.22900    6.54730    7.50050    6.54730    -999.25    0.41350    0.37090    2.42910  -52.58090   -4.17350    7.50050
 4400.00000   11.71340   10.84010   11.71340    -999.25  168.86470    0.23520    2.16060    -999.25    0.29660    0.32130    5.92190    0.23520   89.67940   89.67940  114.43940  136.07150  136.07150    5.92190    6.22800    7.17650    6.22800    -999.25    0.42610    0.38380    2.12770  -51.04510   -3.09790    7.17650
 4450.00000    9.61500    9.93980    9.61500    -999.25  117.33210    0.25000    2.37350    -999.25    0.16760    0.19680    8.52290    0.25000   89.94560   89.94560  127.82300  135.01420  135.01420    8.52290    8.95150   11.58120    8.95150    -999.25    0.38750    0.34430    2.37940  -49.87610   -2.39220   11.58120
 4500.00000   10.27340   10.05820   10.27340    -999.25  130.83530    0.25000    2.28130    -999.25    0.22340    0.25070    7.64320    0.25000   90.53230   90.53230  130.76940  127.74120  127.74120    7.64320    8.02560    9.95190    8.02560    -999.25    0.39220    0.34910    2.28800  -49.39030   -2.36670    9.95190
 4550.00000    9.12380    9.27460    9.12380    -999.25  107.92840    0.25000    2.42860    -999.25    0.13420    0.16460    9.26540    0.25000   93.38080   93.38080  140.16550  155.43110  155.43110    9.26540    9.73150   13.39880    9.73150    -999.25    0.41150    0.36890    2.42780  -48.48010   -1.88530   13.39880
 4600.00000    9.87140    9.39030    9.87140    -999.25  109.17510    0.25110    2.45590    -999.25    0.11770    0.14860    9.15960    0.25110   94.32290   94.32290  137.53150  148.56810  148.56810    9.15960    9.65030   12.85930    9.65030    -999.25    0.39840    0.35550    2.45390  -48.57530   -2.16140   12.85930
 4650.00000   11.44910   10.89560   11.44910    -999.25  176.08420    0.12620    2.42520    -999.25    0.13630    0.16660    5.67910    0.12620   96.26330   96.26330  119.40600  135.83600  135.83600    5.67910    5.96380    7.63460    5.96380    -999.25    0.42080    0.37840    2.42240  -48.71780   -2.48350    7.63460
 4700.00000   10.76120   10.18430   10.76120    -999.25  174.96840    0.19540    2.51400    -999.25    0.08240    0.11460    5.71560    0.19540   83.30980   83.30980  105.15170  108.23170  108.23170    5.71560    6.01310    7.49160    6.01310    -999.25    0.31660    0.27260    2.51240  -50.60720   -4.55380    7.49160
 4750.00000   11.50900   10.24980   11.50900    -999.25  165.49170    0.21100    2.39710    -999.25    0.15330    0.18300    6.04260    0.21100   83.81060   83.81060  113.77840  122.14190  122.14190    6.04260    6.34540    7.90530    6.34540    -999.25    0.31340    0.26950    2.40920  -48.38870   -2.51490    7.90530
 4800.00000   11.07170   10.25270   11.07170    -999.25  190.37830    0.21760    2.36950    -999.25    0.17000    0.19910    5.25270    0.21760   90.08140   90.08140  113.14690  124.03610  124.03610    5.25270    5.53180    6.61940    5.53180    -999.25    0.36490    0.32140    2.38310  -48.62500   -2.93090    6.61940
 4850.00000   11.07040   10.20250   11.07040    -999.25  178.37710    0.24410    2.39920    -999.25    0.15200    0.18180    5.60610    0.24410   85.51050   85.51050  117.23410  127.95120  127.95120    5.60610    5.88740    7.04100    5.88740    -999.25    0.35740    0.31380    2.40740  -48.48230   -3.23050    7.04100
 4900.00000   10.45250    9.93460   10.45250    -999.25  135.79580    0.07420    2.51920    -999.25    0.07930    0.11160    7.36400    0.07420   74.26030   74.26030  119.04120  121.79720  121.79720    7.36400    7.75770    8.66520    7.75770    -999.25    0.30960    0.26570    2.51450  -48.49270   -3.69470    8.66520
 4950.00000   11.03790   10.35230   11.03790    -999.25  157.33540    0.15260    2.57180    -999.25    0.04740    0.08080    6.35600    0.15260   85.54210   85.54210  110.52500  121.51630  121.51630    6.35600    6.87370    7.34640    6.87370    -999.25    0.34900    0.30540    2.57450  -49.29190   -4.95070    7.34640
 5000.00000   11.32440   11.22450   11.32440    -999.25  226.72650    0.13740    2.51820    -999.25    0.07990    0.11220    4.41060    0.13740   87.94910   87.94910  121.92190  126.88210  126.88210    4.41060    4.67150    5.97080    4.67150    -999.25    0.42710    0.38480    2.49170  -46.69610   -2.80870    5.97080
 5050.00000   10.28480   11.20990   10.28480    -999.25  331.98330    0.15620    2.37300    -999.25    0.16790    0.19710    3.01220    0.15620   98.31530   98.31530  148.54800  161.45110  161.45110    3.01220    3.22770    4.44190    3.22770    -999.25    0.45750    0.41600    2.38120  -45.36900   -1.93540    4.44190
 5100.00000   10.97970   10.26520   10.97970    -999.25  357.39810    0.16390    2.34690    -999.25    0.18370    0.21230    2.79800    0.16390  106.83710  106.83710  105.91900  116.53110  116.53110    2.79800    2.60730    3.79560    2.60730    -999.25    0.47620    0.43540    2.35680  -45.23370   -2.25690    3.79560
 5150.00000   10.54610   10.58970   10.54610    -999.25  198.96540    0.22770    2.55250    -999.25    0.05910    0.09210    5.02600    0.22770   86.23380   86.23380   87.67910   95.92360   95.92360    5.02600    5.48590    7.51110    5.48590    -999.25    0.37490    0.33160    2.59660  -45.34900   -2.82600    7.51110
 5200.00000   10.55510   10.79870   10.55510    -999.25  251.31290    0.22770    2.29330    -999.25    0.21620    0.24370    3.98230    0.22770   89.70150   89.70150  112.53840  130.99450  130.99450    3.98230    4.16370    5.08610    4.16370    -999.25    0.39530    0.35240    2.30260  -45.24980   -2.63520    5.08610
 5250.00000    8.87040    8.82550    8.87040    -999.25   85.55560    0.14020    2.55890    -999.25    0.05520    0.08840   11.68830    0.14020   70.09770   70.09770   58.35030   60.93680   60.93680   11.68830   12.50720   15.05930   12.50720    -999.25    0.26810    0.22410    2.56200  -61.54400  -19.01600   15.05930
