~Version ---------------------------------------------------
VERS. 2.0 : CWLS log ASCII Standard -VERSION 2.0
WRAP.  NO : ONE LINE PER DEPTH STEP
~Well ------------------------------------------------------
STRT.M                             300.0 : START DEPTH
STOP.M                            3600.0 : STOP DEPTH
STEP.M                          50.00000 : STEP LENGTH
NULL.                            -999.25 : NULL VALUE
COMP.             EXXONMOBIL CANADA LTD. : COMPANY
WELL. MOBIL ET AL PEMBINA 11-27-49-8 #11 : WELL
FLD .                                    : FIELD
LOC .                                    : LOCATION
CTRY.                             CANADA : COUNTRY
SRVC.                      Dresser Atlas : SERVICE COMPANY
DATE.                        27-May-1980 : LOGDATE
PROV.                            Alberta : PROVINCE
UWI .                   100112704908W500 : UNIQUE WELL ID
SLAT.WGS84                      53.26067 : SURFACE LATITUDE
SLON.WGS84                     -115.0887 : SURFACE LONGITUDE
~Curve Information -----------------------------------------
DEPT   .M                  : 
GRS    .GAPI  60 310 01 00 : GAMMA RAY FROM SONIC LOG
TENS   .N     60 635 00 00 : TENSION FROM SONIC LOG
AC     .MS/M  60 500 00 00 : ACOUSTIC
CALS   .MM    60 280 50 00 : CALIPER FROM SONIC LOG
CALD   .MM    45 280 60 00 : CALIPER FROM DENSITY LOG
CORR   .KG/M3 45 356 01 00 : DENSITY CORRECTION
TEND   .N     45 635 00 00 : TENSION FROM DENSITY LOG
GRD    .GAPI  45 310 01 00 : GAMMA RAY FROM DENSITY LOG
ILD    .OHMM  07 120 46 00 : INDUCTION DEEP RESISTIVITY
ILM    .OHMM  07 120 44 00 : INDUCTION MEDIUM RESISTIVITY
SFL    .OHMM  07 220 06 00 : SPHERICALLY FOCUSED LOG
SPR    .MV    07 010 01 00 : SPONTANEOUS POTENTIAL FROM RESISTIVITY LOG
RHOB   .KG/M3 45 350 01 00 : BULK DENSITY
NPHI_SS.DEC   42 890 03 00 : NEUTRON POROSITY SANDSTONE
DPHI_SS.DEC   45 890 12 00 : DENSITY POROSITY SANDSTONE
NPHI_LS.DEC   42 890 01 00 : NEUTRON POROSITY LIMESTONE
DPHI_LS.DEC   45 890 01 00 : DENSITY POROSITY LIMESTONE
~Params ----------------------------------------------------
PD  .                         GL : PERMANENT DATUM
EPD .FT                    869.6 : ELEVATION PERMANENT DATUM
LMF .                         KB : LOG MEASURED FROM
DAPD.FT                     5.15 : FEET ABOVE PERMANENT DATUM
DMF .                         KB : DRILLING MEASURED FROM
EKB .FT                   874.75 : KELLY BUSHING
EGL .FT                    869.6 : GROUND LEVEL
DATE.                   05/27/80 : RUN DATE
RUN .                          1 : RUN NUMBER
DD  .FT                     3590 : DEPTH DRILLER
DL  .FT                   3590.6 : DEPTH LOGGER
BLI .FT                     3590 : BOTTOM LOG INTERVAL
TLI .FT                      510 : TOP LOG INTERVAL
CS  .IN                      245 : CASING SIZE
CBD .FT                   511.82 : CASING BOTTOM DRILLER
CBL .FT                      510 : CASING BOTTOM LOGGER
BS  .IN                      222 : BIT SIZE
BSD .FT                     3590 : BIT SIZE AT DEPTH
DFT .                  GEL BENEX : DRILLING FLUID TYPE
DFD .                       1200 : DRILLING FLUID DENSITY
DFV .                         82 : DRILLING FLUID VISCOSITY
DFPH.                       10.5 : DRILLING FLUID PH
DFL .                          8 : DRILLING FLUID LOSS
MSS .                       CIRC : MUD SAMPLE SOURCE
RMS .OHMM                    1.5 : RESISTIVITY MUD SAMPLE
MST .DEGF                     26 : MUD SAMPLE TEMPERATURE
RMF .OHMM                    1.3 : RESISTIVITY MUD FILTRATE SAMPLE
MFST.DEGF                     21 : MUD FILTRATE SAMPLE TEMPERATURE
RMC .OHMM                    1.9 : RESISTIVITY MUD CAKE
MCST.DEGF                     21 : MUD CAKE SAMPLE TEMPERATURE
MFSS.                       MEAS : MUD FILTRATE SAMPLE SOURCE
MCSS.                       MEAS : MUD CAKE SAMPLE SOURCE
RMB .OHMM                   0.73 : RESISTIVITY MUD AT BHT
TCS .HRS                      11 : TIME CIRCULATED STOPPED
LUN .                    HL 6214 : LOGGING UNIT NUMBER
LUL .                        EDM : LOGGING UNIT LOCATION
ENGI.                     BRODDY : RECORDING ENGINEER
WITN.              DICKIE LEPAGE : WITNESSED BY
CLNT.                    A2DTECH : CLIENT CODE
ORIG. 6.5"/100M 16.5"/100M PRINT : ORIGIN OF DATA
UWI .           100112704908W500 : UNIQUE WELL ID
DICO.     A2D Technologies, Inc. : DIGITIZING COMPANY
~Other -----------------------------------------------------
~ASCII -----------------------------------------------------
  300.00000    -999.25    -999.25    -999.25    -999.25    -999.25    -999.25    -999.25   40.94950    -999.25    -999.25    -999.25    -999.25    -999.25    0.40880    -999.25    -999.25    -999.25
  350.00000    -999.25    -999.25    -999.25    -999.25    -999.25    -999.25    -999.25   36.58470    -999.25    -999.25    -999.25    -999.25    -999.25    0.36340    -999.25    -999.25    -999.25
  400.00000    -999.25    -999.25    -999.25    -999.25    -999.25    -999.25    -999.25   56.13650    -999.25    -999.25    -999.25    -999.25    -999.25    0.42190    -999.25    -999.25    -999.25
  450.00000    -999.25    -999.25    -999.25    -999.25    -999.25    -999.25    -999.25   61.85280    -999.25    -999.25    -999.25    -999.25    -999.25    0.37400    -999.25    -999.25    -999.25
  500.00000    -999.25    -999.25    -999.25    -999.25    -999.25    -999.25    -999.25   45.26940    -999.25    -999.25    -999.25    -999.25    -999.25    0.37530    -999.25    -999.25    -999.25
  550.00000   69.04170 1003.61230  275.34770  293.95750  290.00870   36.32370 1045.88180   71.73620    8.25100    6.79610    8.91170  -95.26170 2361.80000    0.31710    0.16670    -999.25    -999.25
  600.00000  109.04000 1067.26170  334.74190  295.55450  279.66360   55.15680 1011.63480  102.91500    8.13070    7.21650    6.17090  -97.39070 2224.93990    0.37060    0.25700    -999.25    -999.25
  650.00000   78.63600 1086.08110  248.62080  255.73800  253.24910   47.46750  991.12700   88.13380    7.07810    6.33770    7.92910  -99.80090 2299.80220    0.31140    0.20580    -999.25    -999.25
  700.00000   90.71450 1077.77440  322.53770  262.28320  268.76570   74.63310 1039.01950   82.52510    9.08980    7.69030    8.21190 -100.50390 2364.66800    0.33150    0.17260    -999.25    -999.25
  750.00000   87.05110 1055.46780  302.95220  251.27620  262.97880   34.19160 1066.02640   76.03040    5.07050    4.94270    5.75750 -101.98100 2343.79370    0.31990    0.16280    -999.25    -999.25
  800.00000  121.88680 1085.31350  388.18530  253.33240  260.41010   35.50920 1095.37400   79.82710    6.69340    6.20010    5.54840 -100.20200 2163.64310    0.30250    0.19730    -999.25    -999.25
  850.00000   96.95430 1026.44730  311.00130  249.63290  303.85630   62.41070 1024.75390   71.52600    5.18490    4.77370    5.82400 -101.88650 2068.69560    0.34350    0.37290    -999.25    -999.25
  900.00000   94.88670 1044.25680  288.70810  253.63230  241.36940  101.16280 1093.40040   85.26120    5.95400    5.57890    6.09220 -101.37790 2241.70210    0.34230    0.23710    -999.25    -999.25
  950.00000   64.10970 1066.83690  278.86700  248.48940  267.42160   38.93780 1092.30080   53.24170   24.57060   20.88510   16.34750 -118.20710 2387.63400    0.22230    0.12690    -999.25    -999.25
 1000.00000   76.12550 1126.99410  262.63670  232.51260  277.87090   98.09300 1201.59960   62.18640   11.35820    8.67620    9.31400 -104.71670 2266.44730    0.31140    0.34230    -999.25    -999.25
 1050.00000   76.24790 1073.62210  271.55470  257.72070  276.54860   73.75590 1072.30180   79.80260   12.92610    9.18330   10.14310 -104.64580 2467.13130    0.33990    0.10050    -999.25    -999.25
 1100.00000   78.20950 1019.49410  228.01330  251.81350  277.03850  104.99360 1003.89940   76.42730    6.43660    6.03090    6.73580 -103.39640 2269.32670    0.36750    0.33910    -999.25    -999.25
 1150.00000   75.36910 1042.83010  264.43430  245.37090  269.40010   30.47300 1067.53710   70.17140    5.82570    5.23290    5.99880 -103.41090 2120.47070    0.37870    0.29630    -999.25    -999.25
 1200.00000   99.06110 1094.91600  298.21370  259.52590  308.79230   48.95720 1036.39650   93.02470   13.41370   11.05800   10.88860 -102.91790 2040.30520    0.37350    0.31850    -999.25    -999.25
 1250.00000   94.40500  946.20020  278.12970  274.25820  386.13180  -36.52150  959.08980   79.61240   11.66690    8.73490    9.73710 -106.99790 1968.93630    0.43210    0.49630    -999.25    -999.25
 1300.00000  121.31280 1048.22560  299.01820  294.67090  358.61540   27.68300 1152.58300  102.29240   13.73880   11.29530   12.91170 -105.25520 2004.31930    0.37560    0.33830    -999.25    -999.25
 1350.00000   79.48300 1183.44040  285.78110  397.24810  396.47090  -47.06010  942.51950   91.54700    9.79220    7.80330    9.05320 -108.63400 1849.26660    0.40350    0.48460    -999.25    -999.25
 1400.00000   95.05400 1086.00000  251.80440  276.74500  333.23510   68.37800 1077.93260  111.48930    8.29700    7.88310    9.09030 -105.35560 2290.12210    0.37310    0.40980    -999.25    -999.25
 1450.00000   92.17590  900.99900  272.13270  395.34800  365.82510    5.83870  998.46190   92.94460   13.79940    9.57420   11.56270 -104.99630 2057.62400    0.39500    0.42390    -999.25    -999.25
 1500.00000   97.44170 1037.92970  287.94340  360.81730  395.72500   -2.77570  892.52540  106.29840   12.98570    9.40280   10.18130 -100.49420 2022.18550    0.41500    0.44130    -999.25    -999.25
 1550.00000  101.44850 1050.20900  299.02800  351.72300  385.93840  -10.01540 1247.31450  115.77040   12.13940    8.32310   10.57960 -111.20960 1970.16770    0.41360    0.32870    -999.25    -999.25
 1600.00000  111.62340 1032.18260  294.47810  402.15280  348.57460   20.20640 1022.38180  118.65340   13.79720   12.52560   14.57820 -108.20410 2040.77320    0.37980    0.34690    -999.25    -999.25
 1650.00000  159.04370 1064.27340  312.58970  309.01310  330.35070   30.78740 1077.52250  172.32740   18.43930   15.08610   18.84730 -104.92030 2168.21190    0.37090    0.31800    -999.25    -999.25
 1700.00000  132.07850 1091.09280  316.01080  385.53990  397.52830   60.27720 1098.93550  141.50370   10.75510    9.24750   12.11430 -104.30620 2349.06450    0.40260    0.18580    -999.25    -999.25
 1750.00000   77.68620 1022.82810  311.67220  397.28650  397.81040 -180.25580  891.64360   76.77680    6.21130    4.72320    6.69770 -100.98200 1613.29860    0.45760    0.54980    -999.25    -999.25
 1800.00000   82.19880  958.33200  399.98190  327.01860  277.30320   20.01860 1123.45610   62.62050   18.79300   40.60060   16.73790  -98.05890 2396.15010    0.27310    0.06940    -999.25    -999.25
 1850.00000   71.94280 1417.12400  225.10260  193.55510  266.03670   38.53480 1049.21480   68.81440   15.00870   16.43520   18.87160 -133.25400 2421.34670    0.26410    0.12500    -999.25    -999.25
 1900.00000   98.39070 1085.63180  225.48620  279.80770  285.04740   42.69090 1095.77640   85.42190   31.77220   22.71890   25.52850 -111.96470 2274.26490    0.33160    0.29050    -999.25    -999.25
 1950.00000   45.15610 1150.72270  204.87060  264.65400  267.34330   25.43180 1097.39840   81.14910   26.16200   24.12810   23.84650 -113.63770 2471.63180    0.25410    0.10990    -999.25    -999.25
 2000.00000   70.47050 2283.34330  183.88770  220.18150  224.01490   15.77820 1478.27150   37.11440 1816.76420  631.42850 1879.27530 -159.56460 2538.39790    0.12910    0.05870    -999.25    -999.25
 2050.00000   48.46140 1069.55860  184.42850  227.27920  255.22740   47.15730 1180.40230   35.34040   88.58330   56.63930  106.95230 -154.96230 2532.38400    -999.25    -999.25    0.09980    0.06510
 2100.00000   31.74280 1098.20700  174.34770  241.98880  243.45370    9.80700 1109.17090   37.36720   73.06090   62.83700   77.19060 -125.66260 2590.67770    -999.25    -999.25    0.09130    0.05680
 2150.00000   36.56370 1077.87010  174.01280  234.02010  243.05670   33.44370 1017.04790   34.57180  160.83000  134.82760  171.83910 -117.15380 2610.57930    -999.25    -999.25    0.08140    0.05120
 2200.00000   75.38380 1534.91600  201.97370  242.18080  245.12190   23.01990 1007.17870  141.38330  616.50960  492.01140  925.98710 -120.14780 2496.66330    -999.25    -999.25    0.18470    0.12030
 2250.00000   20.74010 1036.14360  162.41310  240.06520  261.73220   62.69830 1123.88570   26.92070  102.82480   93.91160  118.65600 -133.49020 2657.47310    -999.25    -999.25    0.10360    0.12790
 2300.00000   25.18500 1068.25980  159.37270  236.14200  240.56830   39.88620 1234.68550   17.18370   32.63180   57.50960  367.73850 -234.60820 2458.00460    -999.25    -999.25    0.11550    0.08390
