~Version ---------------------------------------------------
VERS.      2.0 : CWLS log ASCII Standard -VERSION 2.0
WRAP.       NO : One line per depth step
CREA. 12/11/17 : LAS Creation Date
~Well ------------------------------------------------------
STRT.FT                          1000.0 : START DEPTH
STOP.FT                         10450.0 : STOP DEPTH
STEP.FT                        50.00000 : STEP LENGTH
NULL.                           -999.25 : NULL VALUE
COMP.     CANADIAN SUPERIOR OIL COMPANY : COMPANY
WELL. CDN-SUP CEGO FOX CR 10-11SH-62-18 : WELL
FLD .                                   : FIELD
LOC .                                   : LOCATION
CTRY.                            CANADA : COUNTRY
SRVC.                      Schlumberger : SERVICE COMPANY
DATE.                       29-Mar-1977 : LOGDATE
PROV.                           Alberta : PROVINCE
UWI .                  102101106218W500 : UNIQUE WELL ID
SLAT.WGS84                     54.35151 : SURFACE LATITUDE
SLON.WGS84                    -116.5828 : SURFACE LONGITUDE
~Curve Information -----------------------------------------
DEPT    .FT    : Depth Curve
CALDED  .IN    : CALIPER) FROM DENSITY LOG [ADJ. TO RESISTIVITY LOG]
CALSED  .IN    : CALIPER) FROM SONIC LOG [ADJ. TO RESISTIVITY LOG]
CALWS   .IN    : CALIPER [CALDED]
CILDED  .MMHO  : CONDUCTIVITY FROM RESISTIVITY LOG
CONDWS  .MMHO  : CONDUCIVITY [1000/DRESWS]
DCORED  .G/C3  : DENSITY CORRECTION FROM DENSITY LOG [ADJ. TO RESISTIVITY LOG]
DCORWS  .G/C3  : DENSITY CORRECTION [DCORED]
DENWS   .G/C3  : FORMATION BULK DENSITY [RHOBED]
DPOLSWS .V/V   : DENSITY POROSITY LIMESTONE [CALC. FROM DENWS M=2.71, F=1.00]
DPORLSED.V/V   : DENSITY POROSITY LIMESTONE [M=2.71, F=1.00] FROM DENSITY LOG [ADJ. TO RESISTIVITY LOG]
DPORSSED.V/V   : DENSITY POROSITY SANDSTONE [M=2.65, F=1.00] FROM DENSITY LOG [ADJ. TO RESISTIVITY LOG]
DRESWS  .OHMM  : DEEP RESISTIVITY [ILDED]
DTED    .US/F  : DELTA-T FROM SONIC LOG [ADJ. TO RESISTIVITY LOG]
DTWS    .US/F  : COMPRESSIONAL SONIC [DTED]
GRDED   .GAPI  : GAMMA RAY FROM DENSITY LOG [ADJ. TO RESISTIVITY LOG]
GRSED   .GAPI  : GAMMA RAY FROM SONIC LOG [ADJ. TO RESISTIVITY LOG]
GRWS    .GAPI  : GAMMA RAY [GRSED SPL. TO GRDED @ 1070']
ILDED   .OHMM  : DEEP INDUCTION FROM RESISTIVITY LOG
ILMED   .OHMM  : MEDIUM INDUCTION FROM RESISTIVITY LOG
LL8ED   .OHMM  : LATEROLOG-8 FROM RESISTIVITY LOG
MRESWS  .OHMM  : MEDIUM RESISTIVITY [ILMED]
NPOLSWS .V/V   : NEUTRON POROSITY LIMESTONE [NPHISSED MATRIX CONVERSION FOR LIMESTONE, SPL. TO NPHILSED @ 6496']
NPORLSED.V/V   : NEUTRON POROSITY LIMESTONE FROM DENISTY LOG [ADJ. TO RESISTIVITY LOG]
NPORSSED.V/V   : NEUTRON POROSITY SANDSTONE FROM DENSITY LOG [ADJ. TO RESISTIVITY LOG]
RHOBED  .G/C3  : BULK DENSITY FROM DENSITY LOG [ADJ. TO RESISTIVITY LOG]
SPRED   .MV    : SPONTANEOUS POTENTIAL FROM RESISTIVITY LOG
SPWS    .MV    : SPONTANEOUS POTENTIAL [BASELINE 0 MV, SPRED]
SRESWS  .OHMM  : SHALLOW RESISTIVITY [LL8ED]
~Params ----------------------------------------------------
PD  .                     GL : PERMANENT DATUM
EPD .FT                 2963 : ELEVATION PERMANENT DATUM
LMF .                     KB : LOG MEASURED FROM
DAPD.FT                   13 : FEET ABOVE PERMANENT DATUM
EKB .FT                 2976 : KELLY BUSHING
EGL .FT                 2963 : GROUND LEVEL
DATE.               03/29/77 : RUN DATE
RUN .                      1 : RUN NUMBER
DD  .FT                10475 : DEPTH DRILLER
DL  .FT                10478 : DEPTH LOGGER
BLI .FT                10472 : BOTTOM LOG INTERVAL
TLI .FT                 1071 : TOP LOG INTERVAL
CBD .FT                 1070 : CASING BOTTOM DRILLER
CBL .FT                 1071 : CASING BOTTOM LOGGER
BS  .IN                 8.75 : BIT SIZE
BSD .FT                10475 : BIT SIZE AT DEPTH
DFT .               GEL CHEM : DRILLING FLUID TYPE
DFD .                    9.2 : DRILLING FLUID DENSITY
DFV .                     81 : DRILLING FLUID VISCOSITY
DFPH.                    9.5 : DRILLING FLUID PH
DFL .                      8 : DRILLING FLUID LOSS
MSS .             CIRCULATED : MUD SAMPLE SOURCE
RMS .OHMM                1.1 : RESISTIVITY MUD SAMPLE
MST .DEGF                 62 : MUD SAMPLE TEMPERATURE
RMF .OHMM               0.76 : RESISTIVITY MUD FILTRATE SAMPLE
MFST.DEGF                 62 : MUD FILTRATE SAMPLE TEMPERATURE
TCS .HRS                   4 : TIME CIRCULATED STOPPED
LUN .                   7690 : LOGGING UNIT NUMBER
LUL .                    EDM : LOGGING UNIT LOCATION
ENGI.                WOROWUK : RECORDING ENGINEER
WITN.                  KELLY : WITNESSED BY
CLNT.                A2DTECH : CLIENT CODE
ORIG.            2" 5" PRINT : ORIGIN OF DATA
UWI .       102101106218W500 : UNIQUE WELL ID
DICO. A2D Technologies, Inc. : DIGITIZING COMPANY
~Other -----------------------------------------------------
DIL-BHC-CNL-FDC LOG RUN
SCH(CNL-NPHI) USED FOR NEUTRON MATRIX CONVERSION
CILD DIG'ED FROM 2" LINEAR LOG
~ASCII -----------------------------------------------------
 1000.00000    -999.25    -999.25    -999.25    -999.25    -999.25    -999.25    -999.25    -999.25    -999.25    -999.25    -999.25    -999.25    -999.25    -999.25    -999.25   30.84020   30.84020    -999.25    -999.25    -999.25    -999.25    -999.25    -999.25    -999.25    -999.25    -999.25    -999.25    -999.25
 1050.00000    -999.25    -999.25    -999.25    -999.25    -999.25    -999.25    -999.25    -999.25    -999.25    -999.25    -999.25    -999.25    -999.25    -999.25   34.76390   29.94060   29.94060    -999.25    -999.25    -999.25    -999.25    0.53820    -999.25    0.57390    -999.25    -999.25    -999.25    -999.25
 1100.00000   10.98310   10.29000   10.98310    -999.25  257.91140    0.18430    0.18430    2.23360    0.27860    -999.25    0.25340    3.87730  116.38420  116.38420   78.42920   59.01890   78.42920    3.87730    4.06170    4.53100    4.06170    0.39860    -999.25    0.44050    2.23360 -138.52390  -10.43190    4.53100
 1150.00000   10.23600   10.33400   10.23600    -999.25  170.31710    0.04890    0.04890    2.24720    0.27060    -999.25    0.24460    5.87140  104.46360  104.46360   62.26630   42.86750   62.26630    5.87140    6.40010    5.45180    6.40010    0.32370    -999.25    0.36710    2.24720 -141.27280   -6.57710    5.45180
 1200.00000   10.47240   10.64650   10.47240    -999.25  142.81630    0.02650    0.02650    2.24680    0.27090    -999.25    0.24540    7.00200  100.76580  100.76580   56.14770   46.95420   56.14770    7.00200    7.14790    6.61150    7.14790    0.37090    -999.25    0.41350    2.24680 -134.15950   -3.29010    6.61150
 1250.00000   11.06950   11.15090   11.06950    -999.25   96.47570    0.06730    0.06730    2.30050    0.23950    -999.25    0.21110   10.36530   83.95100   83.95100   44.59790   37.68680   44.59790   10.36530   11.96840    9.05250   11.96840    0.32370    -999.25    0.36710    2.30050 -133.79260   -4.69250    9.05250
 1300.00000   11.99790   11.21500   11.99790    -999.25  174.67250    0.05620    0.05620    2.29970    0.23990    -999.25    0.21310    5.72500  101.65920  101.65920   63.46240   48.20060   63.46240    5.72500    5.99580    5.52920    5.99580    0.32960    -999.25    0.37290    2.29970 -134.62500   -5.06670    5.52920
 1350.00000   12.31810   10.80410   12.31810    -999.25  113.73590    0.01940    0.01940    2.36870    0.19960    -999.25    0.17080    8.79230   89.82010   89.82010   45.51350   35.68710   45.51350    8.79230    9.35130    9.10570    9.35130    0.26410    -999.25    0.30810    2.36870 -132.79490   -2.77540    9.10570
 1400.00000   12.23320   10.93160   12.23320    -999.25  281.87280    0.01620    0.01620    2.10720    0.35250    -999.25    0.31420    3.54770  113.67580  113.67580   75.23780   66.05170   75.23780    3.54770    3.65920    3.91260    3.65920    0.42260    -999.25    0.46390    2.10720 -135.22910   -3.80830    3.91260
 1450.00000   12.53440   10.97420   12.53440    -999.25  311.88600    0.15720    0.15720    2.21950    0.28680    -999.25    0.25380    3.20630  118.01500  118.01500   71.14110   62.39910   71.14110    3.20630    3.38110    3.53120    3.38110    0.40530    -999.25    0.44710    2.21950 -137.81950   -4.32510    3.53120
 1500.00000   12.44890   11.06650   12.44890    -999.25  242.70670    0.01860    0.01860    2.32880    0.22290    -999.25    0.19700    4.12020  104.01770  104.01770   64.48780   54.49510   64.48780    4.12020    4.39020    4.63270    4.39020    0.32050    -999.25    0.36400    2.32880 -137.23410   -3.37610    4.63270
 1550.00000   11.73780   11.19160   11.73780    -999.25  101.68800    0.07920    0.07920    2.40150    0.18040    -999.25    0.15330    9.83400   89.92600   89.92600   64.04330   54.68950   64.04330    9.83400   11.86660   11.05850   11.86660    0.24890    -999.25    0.29290    2.40150 -137.55090   -3.32930   11.05850
 1600.00000   10.70220   10.36070   10.70220    -999.25  115.11980    0.12370    0.12370    2.33390    0.21990    -999.25    0.19140    8.68660   89.66960   89.66960   51.37730   37.68220   51.37730    8.68660    9.06170    8.09690    9.06170    0.26730    -999.25    0.31120    2.33390 -138.87270   -4.28510    8.09690
 1650.00000   11.60330   10.09670   11.60330    -999.25  251.99070    0.20850    0.20850    2.23840    0.27580    -999.25    0.24760    3.96840  102.29290  102.29290   57.33090   48.49400   57.33090    3.96840    4.08600    4.15140    4.08600    0.33460    -999.25    0.37790    2.23840 -140.33950   -5.38830    4.15140
 1700.00000   10.18300    9.85710   10.18300    -999.25  243.42750    0.14750    0.14750    2.18600    0.30640    -999.25    0.27920    4.10800  101.57620  101.57620   70.99860   52.92810   70.99860    4.10800    4.20860    4.39110    4.20860    0.37080    -999.25    0.41340    2.18600 -139.93770   -4.62050    4.39110
 1750.00000   10.48500   10.11160   10.48500    -999.25  235.69900    0.19980    0.19980    2.25750    0.26460    -999.25    0.23430    4.24270   96.53310   96.53310   63.07790   43.84210   63.07790    4.24270    4.48850    4.40890    4.48850    0.27990    -999.25    0.32380    2.25750 -138.90340   -3.22260    4.40890
 1800.00000   11.77230   10.20240   11.77230    -999.25  314.17890    0.18790    0.18790    2.17800    0.31110    -999.25    0.28330    3.18290  107.89280  107.89280   71.47400   49.89000   71.47400    3.18290    3.32150    3.52690    3.32150    0.36560    -999.25    0.40830    2.17800 -138.77860   -2.73420    3.52690
 1850.00000   11.45080   10.76880   11.45080    -999.25  119.39160    0.02110    0.02110    2.31180    0.23290    -999.25    0.20290    8.37580   92.51470   92.51470   53.21410   40.84460   53.21410    8.37580    8.65570    9.68470    8.65570    0.25340    -999.25    0.29740    2.31180 -139.47180   -3.26850    9.68470
 1900.00000   12.44100   10.53050   12.44100    -999.25  344.82760    0.07180    0.07180    2.23080    0.28030    -999.25    0.24930    2.90000  114.97140  114.97140   75.04420   56.03790   75.04420    2.90000    2.97880    3.24250    2.97880    0.37550    -999.25    0.41800    2.23080 -137.36280   -1.29550    3.24250
 1950.00000   11.59410   10.46910   11.59410    -999.25  406.80170    0.17320    0.17320    1.99830    0.41620    -999.25    0.38680    2.45820  113.02580  113.02580   83.75150   60.46080   83.75150    2.45820    2.61080    2.53890    2.61080    0.39760    -999.25    0.43960    1.99830 -137.36180   -1.43150    2.53890
 2000.00000   10.28750   10.44580   10.28750    -999.25  121.20920    0.04440    0.04440    2.43330    0.16180    -999.25    0.12470    8.25020   85.85720   85.85720   52.65050   41.92580   52.65050    8.25020    8.96290    8.73600    8.96290    0.24920    -999.25    0.29320    2.43330 -139.59460   -3.80040    8.73600
 2050.00000   10.90810   10.78700   10.90810    -999.25  122.51450    0.06760    0.06760    2.41320    0.17360    -999.25    0.14520    8.16230   82.27320   82.27320   58.75760   43.23570   58.75760    8.16230    9.84600   14.37020    9.84600    0.20400    -999.25    0.24790    2.41320 -139.90220   -4.24410   14.37020
 2100.00000   10.73070   10.62060   10.73070    -999.25  273.64270    0.21520    0.21520    1.96970    0.43290    -999.25    0.40690    3.65440  105.74850  105.74850   60.22370   52.14160   60.22370    3.65440    3.86060    3.77570    3.86060    0.38080    -999.25    0.42320    1.96970 -139.23050   -3.70930    3.77570
 2150.00000   10.63860    9.99550   10.63860    -999.25  514.98610    0.13640    0.13640    2.11730    0.34660    -999.25    0.32070    1.94180  110.17090  110.17090   97.66800   69.85180   97.66800    1.94180    2.07960    2.31160    2.07960    0.36120    -999.25    0.40400    2.11730 -139.22430   -3.83920    2.31160
 2200.00000   10.80470    9.99670   10.80470    -999.25  176.66600    0.21140    0.21140    2.34790    0.21170    -999.25    0.18620    5.66040   89.68580   89.68580   74.14100   54.86180   74.14100    5.66040    5.92570    6.73840    5.92570    0.25820    -999.25    0.30220    2.34790 -141.58570   -6.33760    6.73840
