~Version ---------------------------------------------------
VERS.      2.0 : CWLS log ASCII Standard -VERSION 2.0
WRAP.       NO : One line per depth step
CREA. 08/01/17 : LAS Creation Date
~Well ------------------------------------------------------
STRT.FT                1050.0 : START DEPTH
STOP.FT               10150.0 : STOP DEPTH
STEP.FT              50.00000 : STEP LENGTH
NULL.                 -999.25 : NULL VALUE
COMP.  THE ADAPTABLE TOOL CO. : COMPANY
WELL. B.A. TWO FOX 2-21-63-17 : WELL
FLD .                      WC : FIELD
LOC .                         : LOCATION
CTRY.                  CANADA : COUNTRY
SRVC.            Schlumberger : SERVICE COMPANY
DATE.             31-Mar-1960 : LOGDATE
PROV.                 Alberta : PROVINCE
UWI .        100022106317W500 : UNIQUE WELL ID
SLAT.WGS84           54.45975 : SURFACE LATITUDE
SLON.WGS84          -116.5047 : SURFACE LONGITUDE
~Curve Information -----------------------------------------
DEPT  .FT         : Depth Curve
CALWS .IN         : CALIPER [MCALED]
CILDED.MMHO       : CONDUCTIVITY FROM IEL LOG
CONDWS.MMHO       : CONDUCTIVITY [1000/DRESWS]
DRESWS.OHMM       : DEEP RESISTIVITY [1000/CILDED IF ILDED<4, ILDED]
DTED  .US/F       : DELTA-T FROM BCS LOG
DTWS  .US/F       : COMPRESSIONAL SONIC [DTED]
GRSED .UgRa-Eq/T  : GAMMA RAY FROM BCS LOG
GRWS  .GAPI       : GAMMA RAY [GRSED]
ILDED .OHMM       : DEEP INDUCTION FROM IEL LOG
MCALED.IN         : MICRO CALIPER FROM MICRO LOG
SNED  .OHMM       : SHORT NORMAL FROM IEL LOG
SPRED .MV         : SPONTANEOUS POTENTIAL FROM IEL LOG
SPWS  .MV         : SPONTANEOUS POTENTIAL [BASELINE 0 MV, SPRED]
SRESWS.OHMM       : SHALLOW RESISTIVITY [SNED]
~Params ----------------------------------------------------
LMF .                     KB : LOG MEASURED FROM
DMF .                     KB : DRILLING MEASURED FROM
EKB .FT                 3069 : KELLY BUSHING
DATE.               03/31/60 : RUN DATE
RUN .                      2 : RUN NUMBER
DD  .FT                10188 : DEPTH DRILLER
DL  .FT                10189 : DEPTH LOGGER
BLI .FT                10184 : BOTTOM LOG INTERVAL
TLI .FT                 6100 : TOP LOG INTERVAL
CBD .FT                 1060 : CASING BOTTOM DRILLER
BS  .IN                    9 : BIT SIZE
BSD .FT                10188 : BIT SIZE AT DEPTH
DFT .                    GEL : DRILLING FLUID TYPE
DFD .                    9.6 : DRILLING FLUID DENSITY
DFV .                    127 : DRILLING FLUID VISCOSITY
DFPH.                    9.5 : DRILLING FLUID PH
DFL .                    5.9 : DRILLING FLUID LOSS
RMS .OHMM                2.4 : RESISTIVITY MUD SAMPLE
MST .DEGF                 70 : MUD SAMPLE TEMPERATURE
RMF .OHMM                1.1 : RESISTIVITY MUD FILTRATE SAMPLE
MFST.DEGF                 74 : MUD FILTRATE SAMPLE TEMPERATURE
RMC .OHMM               2.19 : RESISTIVITY MUD CAKE
MCST.DEGF                 73 : MUD CAKE SAMPLE TEMPERATURE
RMB .OHMM               0.99 : RESISTIVITY MUD AT BHT
TCS .HRS                 4.5 : TIME CIRCULATED STOPPED
LUN .                  15250 : LOGGING UNIT NUMBER
LUL .                     DC : LOGGING UNIT LOCATION
ENGI.              HAUSEGGER : RECORDING ENGINEER
WITN.                    MAY : WITNESSED BY
CLNT.                A2DTECH : CLIENT CODE
ORIG.            2" 5" PRINT : ORIGIN OF DATA
UWI .       100022106317W500 : UNIQUE WELL ID
DICO. A2D Technologies, Inc. : DIGITIZING COMPANY
~Other -----------------------------------------------------
~ASCII -----------------------------------------------------
# ...
 3500.00000   10.76480   98.53870  124.61370    8.02480  102.67410  102.67410    9.26960  152.94840    8.02480   10.76480   12.30930  -73.54610   -4.22780   12.30930
 3550.00000   10.33130   92.25870  118.07350    8.46930   89.56890   89.56890    6.26210  103.32470    8.46930   10.33130   12.50760  -71.79880   -2.00550   12.50760
 3600.00000   11.07280  116.32060  148.60830    6.72910  101.65680  101.65680    6.78480  111.94920    6.72910   11.07280    9.91880  -76.26600   -5.99450    9.91880
 3650.00000   10.29110  130.39610  170.64560    5.86010   98.45860   98.45860    6.98880  115.31520    5.86010   10.29110    8.12290  -77.26180   -6.51520    8.12290
 3700.00000   12.59980  116.38160  153.77050    6.50320   98.14420   98.14420    6.30320  104.00280    6.50320   12.59980    8.89330  -76.36780   -5.14310    8.89330
 3750.00000   11.54880  128.81560  173.02830    5.77940   93.52340   93.52340    6.22900  102.77850    5.77940   11.54880    8.67270  -76.88000   -5.18020    8.67270
 3800.00000   11.50490  100.33720  129.57400    7.71760   93.01330   93.01330    6.79760  112.16040    7.71760   11.50490   11.14540  -74.84080   -2.66600   11.14540
 3850.00000   10.40560  126.37730  163.46280    6.11760   96.23900   96.23900    7.40170  122.12720    6.11760   10.40560    8.47380  -76.06430   -3.41130    8.47380
 3900.00000   10.86010  129.93320  164.23330    6.08890   90.02070   90.02070    6.61610  109.16570    6.08890   10.86010    8.52210  -76.07130   -2.94320    8.52210
 3950.00000   10.66860   93.14290  121.70040    8.21690   89.08770   89.08770    6.60910  109.05020    8.21690   10.66860   10.87980  -76.44120   -2.83490   10.87980
 4000.00000   13.47660  128.46410  171.10690    5.84430   97.35040   97.35040    7.32600  120.87900    5.84430   13.47660    8.49980  -76.15000   -2.06870    8.49980
 4050.00000   14.34260   95.00030  122.14930    8.18670   88.02550   88.02550    6.55690  108.18890    8.18670   14.34260   10.78220  -77.92800   -3.55360   10.78220
 4100.00000   13.51000   98.91920  123.60180    8.09050   90.20100   90.20100    5.60330   92.45440    8.09050   13.51000   10.61790  -77.69500   -3.66100   10.61790
 4150.00000   11.49250  108.14600  145.82570    6.85750   82.64420   82.64420    7.07450  116.72920    6.85750   11.49250    9.84430  -81.63650   -7.94070    9.84430
 4200.00000   12.19180   93.00420  119.52140    8.36670   87.88110   87.88110    6.37020  105.10910    8.36670   12.19180   11.52620  -80.34150   -6.98610   11.52620
 4250.00000   12.71910  127.96950  168.54030    5.93330   95.76180   95.76180    6.85560  113.11740    5.93330   12.71910    9.08060  -78.18310   -5.16590    9.08060
 4300.00000   11.53950  137.78090  180.11850    5.55190   99.29700   99.29700    7.04220  116.19630    5.55190   11.53950    8.35180  -77.35530   -4.67630    8.35180
 4350.00000   10.64970  106.69360  139.57120    7.16480   96.23780   96.23780    7.32310  120.83120    7.16480   10.64970   11.33770  -77.85400   -5.51540   11.33770
 4400.00000   10.93470  100.96990  127.89200    7.81910   97.30790   97.30790    7.08110  116.83820    7.81910   10.93470   12.34120  -79.06780   -7.06740   12.34120
 4450.00000    9.74610   99.93940  130.24230    7.67800   98.52840   98.52840    8.37100  138.12230    7.67800    9.74610   12.94900  -78.12610   -6.46620   12.94900
 4500.00000    9.27140   86.39280  111.87680    8.93840   91.64600   91.64600    8.31330  137.16950    8.93840    9.27140   15.69780  -76.25190   -4.93020   15.69780
 4550.00000   10.92760  131.27440  173.95240    5.74870   99.42560   99.42560    6.58850  108.71030    5.74870   10.92760    9.74840  -76.99350   -6.01000    9.74840
 4600.00000   11.77050  166.59950  223.63860    4.47150   98.92880   98.92880    6.56930  108.39350    4.47150   11.77050    7.05610  -77.80540   -7.17250    7.05610
 4650.00000   10.89720  143.05480  187.73700    5.32660   88.35630   88.35630    6.36000  104.94000    5.32660   10.89720    8.31940  -75.07370   -4.79940    8.31940
 4700.00000   10.63280  108.28590  138.07200    7.24260   88.76040   88.76040    6.93010  114.34670    7.24260   10.63280   10.30200  -78.87650   -8.96320   10.30200
 4750.00000   11.35220  154.49200  213.69800    4.67950   92.25190   92.25190    6.66100  109.90650    4.67950   11.35220    7.53070  -77.42260   -7.86790    7.53070
 4800.00000    9.23280   73.28530   92.85910   10.76900   77.38880   77.38880    5.40630   89.20390   10.76900    9.23280   17.02210  -87.84370  -18.64760   17.02210
 4850.00000   10.26390  153.24660  200.20020    4.99500   93.63490   93.63490    7.11820  117.44950    4.99500   10.26390    7.94230  -75.53690   -6.70170    7.94230
 4900.00000   14.73660  200.97710  200.97710    4.97570   92.99430   92.99430    6.31420  104.18430    3.67510   14.73660    6.60400  -74.56000   -6.08340    6.60400
 4950.00000   11.91770  151.82060  197.23870    5.07000   92.28290   92.28290    7.28440  120.19260    5.07000   11.91770    8.12790  -74.34010   -6.22450    8.12790
 5000.00000    9.33730  220.47100  220.47100    4.53570   99.71400   99.71400   14.91570  246.10910    3.23570    9.33730    5.33310  -72.66150   -4.90450    5.33310
 5050.00000   14.75450  355.59450  355.59450    2.81220  111.95000  111.95000    6.95620  114.77730    2.04230   14.75450    3.78440  -74.45980   -7.06140    3.78440
 5100.00000   12.07540  208.11280  208.11280    4.80510   94.37480   94.37480    6.49810  107.21950    3.78770   12.07540    5.65310  -73.58560   -6.54810    5.65310
 5150.00000   10.88750  181.23230  223.39380    4.47640   95.14390   95.14390    7.01270  115.70950    4.47640   10.88750    7.21940  -73.69060   -7.01170    7.21940
 5200.00000    9.45880   70.05990   90.65610   11.03070   76.76560   76.76560    5.52480   91.15840   11.03070    9.45880   17.36960  -73.86960   -7.55170   17.36960
 5250.00000   13.90990  610.88450  610.88450    1.63700  141.71850  141.71850    6.26320  103.34280    1.28400   13.90990    2.43840  -72.77990   -6.82060    2.43840
 5300.00000   10.23860   80.71420   75.31200   13.27810  111.89290  111.89290    5.51920   91.06680   13.27810   10.23860   28.55390  -71.91830   -6.31760   28.55390
 5350.00000    9.58970   83.02390  105.25100    9.50110   73.46810   73.46810    4.97060   82.01490    9.50110    9.58970   16.70260  -69.85550   -4.77130   16.70260
 5400.00000   11.27590   82.93420  100.14220    9.98580   93.39880   93.39880    4.41250   72.80620    9.98580   11.27590   17.32220  -82.57840  -18.33520   17.32220
 5450.00000   10.84710  102.20430  125.90810    7.94230   81.70340   81.70340    5.87470   96.93170    7.94230   10.84710   15.66590  -71.43520   -8.03850   15.66590
 5500.00000   10.03630  101.60450  126.06840    7.93220   74.84530   74.84530    5.04780   83.28870    7.93220   10.03630   12.58660  -68.18020   -5.62450   12.58660
 5550.00000   11.37760   70.45220   93.93990   10.64510   66.92410   66.92410    3.32120   54.79980   10.64510   11.37760   14.47640  -71.58640   -9.87170   14.47640
 5600.00000   11.04740   71.12000   92.96620   10.75660   99.83110   99.83110    4.98920   82.32180   10.75660   11.04740   21.88180  -71.55900  -10.69090   21.88180
 5650.00000   11.07310   86.32530  105.34190    9.49290   68.30860   68.30860    4.82420   79.59930    9.49290   11.07310   29.31500 -105.99700  -45.96990   29.31500
 5700.00000   11.71150  126.79170  163.20140    6.12740   75.63030   75.63030    4.67690   77.16970    6.12740   11.71150   11.97140  -83.26240  -24.08180   11.97140
 5750.00000   14.11390   54.44350   69.29570   14.43090  131.82480  131.82480    1.98440   32.74260   14.43090   14.11390   30.22570  -68.54270  -10.20320   30.22570
 5800.00000   11.79670  161.68480  204.41960    4.89190   78.62540   78.62540    3.76770   62.16710    4.89190   11.79670   10.90610  -94.46120  -39.10410   10.90610
 5850.00000   10.84490  105.10510  137.43440    7.27620   75.82610   75.82610    5.08310   83.87030    7.27620   10.84490   12.15640  -62.28670  -10.89660   12.15640
 5900.00000   12.48020  196.02640  196.02640    5.10140   86.77400   86.77400    5.77570   95.29900    3.53210   12.48020    6.72870  -59.95000  -12.50100    6.72870
