~Version ---------------------------------------------------
VERS.      2.0 : CWLS log ASCII Standard -VERSION 2.0
WRAP.       NO : One line per depth step
CREA. 12/18/17 : LAS Creation Date
~Well ------------------------------------------------------
STRT.FT                  700.0 : START DEPTH
STOP.FT                 8200.0 : STOP DEPTH
STEP.FT               50.00000 : STEP LENGTH
NULL.                  -999.25 : NULL VALUE
COMP.         HOME OIL COMPANY : COMPANY
WELL. HOME BARRHEAD 10-35-59-3 : WELL
FLD .                          : FIELD
LOC .                          : LOCATION
CTRY.                   CANADA : COUNTRY
SRVC.             Schlumberger : SERVICE COMPANY
DATE.              05-Dec-1964 : LOGDATE
PROV.                  Alberta : PROVINCE
UWI .         100103505903W500 : UNIQUE WELL ID
SLAT.WGS84            54.14663 : SURFACE LATITUDE
SLON.WGS84           -114.3356 : SURFACE LONGITUDE
~Curve Information -----------------------------------------
DEPT  .FT    : Depth Curve
ASNED .OHMM  : AMPLIFIED SHORT NORMAL RESISTIVITY 16" FROM RESISTIVITY LOG
CALWS .IN    : CALIPER [MCALED]
CILDED.MMHO  : DEEP INDUCTION CONDUCTIVITY FROM RESISTIVITY LOG
CONDWS.MMHO  : CONDUCTIVITY [1000/DRESWS]
DRESWS.MMHO  : DEEP RESISTIVITY [1000/CILDED, IF ILDED<3, ILDED]
DT1ED .US/F  : DELTA TIME [SPAN 1'] FROM SONIC LOG
DTED  .US/F  : DELTA TIME [SPAN 3'] FROM SONIC LOG
DTWS  .US/F  : COMPRESSIONAL SONIC [DTED]
GRSED .GAPI  : GAMMA RAY FROM SONIC LOG
GRWS  .GAPI  : GAMMA RAY [GRSED]
ILDED .OHMM  : DEEP INDUCTION RESISTIVITY FROM RESISTIVITY LOG
MCALED.IN    : MICROCALIPER FROM MICROLOG
NEUTED.NAPI  : NEUTRON FROM NEUTRON LOG
NEUTWS.NAPI  : NEUTRON [NEUTED]
SPRED .MV    : SPONTANEOUS  POTENTIAL FROM RESISTIVITY LOG
SPWS  .MV    : SPONTANEOUS POTENTIAL [BASELINE 0 MV, SPRED]
SRESWS.OHMM  : SHALLOW RESISTIVITY [ASNED]
~Params ----------------------------------------------------
PD  .                     GL : PERMANENT DATUM
EPD .FT               2176.5 : ELEVATION PERMANENT DATUM
LMF .                     KB : LOG MEASURED FROM
DAPD.FT                 13.3 : FEET ABOVE PERMANENT DATUM
EKB .FT               2189.8 : KELLY BUSHING
EGL .FT               2176.5 : GROUND LEVEL
DATE.               12/05/64 : RUN DATE
RUN .                      2 : RUN NUMBER
DD  .FT                 8248 : DEPTH DRILLER
DL  .FT                 8245 : DEPTH LOGGER
BLI .FT                 8244 : BOTTOM LOG INTERVAL
TLI .FT                 3500 : TOP LOG INTERVAL
CBD .FT                  840 : CASING BOTTOM DRILLER
BS  .IN                7.875 : BIT SIZE
BSD .FT                 8248 : BIT SIZE AT DEPTH
DFT .                    GEL : DRILLING FLUID TYPE
DFD .                   10.4 : DRILLING FLUID DENSITY
DFV .                    107 : DRILLING FLUID VISCOSITY
DFPH.                      9 : DRILLING FLUID PH
DFL .                    7.6 : DRILLING FLUID LOSS
RMS .OHMM               0.79 : RESISTIVITY MUD SAMPLE
MST .DEGF                 58 : MUD SAMPLE TEMPERATURE
RMF .OHMM               0.47 : RESISTIVITY MUD FILTRATE SAMPLE
MFST.DEGF                 66 : MUD FILTRATE SAMPLE TEMPERATURE
RMC .OHMM               1.04 : RESISTIVITY MUD CAKE
MCST.DEGF                 64 : MUD CAKE SAMPLE TEMPERATURE
RMB .OHMM               0.32 : RESISTIVITY MUD AT BHT
TCS .HRS                   2 : TIME CIRCULATED STOPPED
LUN .                   3705 : LOGGING UNIT NUMBER
ENGI.                   SWAN : RECORDING ENGINEER
WITN.           DAWSON GROVE : WITNESSED BY
CLNT.                A2DTECH : CLIENT CODE
ORIG.            2" 5" PRINT : ORIGIN OF DATA
UWI .       100103505903W500 : UNIQUE WELL ID
DICO. A2D Technologies, Inc. : DIGITIZING COMPANY
~Other -----------------------------------------------------
IEL-BHC-NEUTRON-ML LOG RUN
ALL RESISTIVITY CURVES VERIFIED FROM 2" SCALE SECTION FROM TOP TO 3826'
~ASCII -----------------------------------------------------
# ...
 6850.00000    6.69010    7.45110  198.02110  299.51780    3.33870    -999.25   62.46280   62.46280   98.00830   98.00830    3.33870    7.45110    -999.25    -999.25  -20.56610  -20.21910    6.69010
 6900.00000    9.35160    8.18820  143.14830  199.38190    5.01550    -999.25   59.14700   59.14700  105.68660  105.68660    5.01550    8.18820    -999.25    -999.25  -20.09220  -21.52360    9.35160
 6950.00000   63.24560    7.78210   18.46440   24.77920   40.35650    -999.25   53.63400   53.63400   52.06900   52.06900   40.35650    7.78210    -999.25    -999.25   -6.05720   -9.27870   63.24560
 7000.00000   10.54390    7.69640  209.59830  209.59830    4.77100    -999.25   58.41300   58.41300  100.64210  100.64210    2.96150    7.69640    -999.25    -999.25  -28.66620  -31.42580   10.54390
 7050.00000   11.77270    7.71860   92.40550  107.44720    9.30690    -999.25   55.47740   55.47740   75.27170   75.27170    9.30690    7.71860    -999.25    -999.25  -47.19120  -48.45500   11.77270
 7100.00000    8.80400    7.61430  144.31250  200.37670    4.99060    -999.25   60.21150   60.21150   94.94470   94.94470    4.99060    7.61430    -999.25    -999.25  -34.39760  -34.15580    8.80400
 7150.00000   12.87860    7.72940  114.43590  145.08100    6.89270    -999.25   56.05330   56.05330   61.82120   61.82120    6.89270    7.72940    -999.25    -999.25  -35.83150  -34.09390   12.87860
 7200.00000   28.50020    7.72490   29.63920   43.08340   23.21080    -999.25   53.53750   53.53750   38.96420   38.96420   23.21080    7.72490    -999.25    -999.25  -29.21690  -25.97370   28.50020
 7250.00000    9.76900    7.74850  136.61690  160.47760    6.23140    -999.25   56.25150   56.25150   55.92090   55.92090    6.23140    7.74850    -999.25    -999.25  -34.96380  -30.22480    9.76900
 7300.00000   14.99080    7.62360   98.43220  128.02290    7.81110    -999.25   55.50350   55.50350   96.18890   96.18890    7.81110    7.62360    -999.25    -999.25  -38.11480  -31.35380   14.99080
 7350.00000    7.85670    7.64520  307.82580  307.82580    3.24860    -999.25   67.21680   67.21680  144.14830  144.14830    1.72210    7.64520    -999.25    -999.25  -48.23310  -38.21630    7.85670
 7400.00000    5.40400    8.23180  284.66060  284.66060    3.51300    -999.25   60.07380   60.07380  136.79980  136.79980    2.03820    8.23180    -999.25    -999.25  -51.03810  -37.78680    5.40400
 7450.00000    5.09460    8.13000  323.03240  323.03240    3.09570    -999.25   70.72400   70.72400  138.14450  138.14450    1.54290    8.13000    -999.25    -999.25  -50.56030  -34.05320    5.09460
 7500.00000    4.16030    7.78030  386.11820  386.11820    2.58990    -999.25   68.79030   68.79030  137.25070  137.25070    1.22090    7.78030    -999.25    -999.25  -56.56070  -36.81910    4.16030
 7550.00000    3.81150    9.23790  322.91920  322.91920    3.09670    -999.25   77.35640   77.35640  135.70770  135.70770    1.56590    9.23790    -999.25    -999.25  -36.52620  -13.55010    3.81150
 7600.00000    9.85120    8.40180  124.05650  148.73430    6.72340    -999.25   57.55600   57.55600   89.44860   89.44860    6.72340    8.40180    -999.25    -999.25  -42.67070  -19.21630    9.85120
 7650.00000    3.52640    9.83630  323.76790  323.76790    3.08860    -999.25   75.34730   75.34730  116.85730  116.85730    1.50920    9.83630    -999.25    -999.25  -38.37600  -18.49630    3.52640
 7700.00000   15.10510    8.25040   52.90430   67.74750   14.76070    -999.25   64.99000   64.99000   58.26270   58.26270   14.76070    8.25040    -999.25    -999.25  -19.52400   -3.24260   15.10510
 7750.00000    7.65570    9.94000  133.20790  181.29740    5.51580    -999.25   67.69030   67.69030   90.02910   90.02910    5.51580    9.94000    -999.25    -999.25  -26.80680  -14.10020    7.65570
 7800.00000    6.12710    9.67320  145.30100  218.48850    4.57690    -999.25   72.70210   72.70210  102.99080  102.99080    4.57690    9.67320    -999.25    -999.25  -23.32480  -14.19300    6.12710
 7850.00000    6.57420    7.83980  138.99610  195.89410    5.10480    -999.25   66.92350   66.92350  103.30120  103.30120    5.10480    7.83980    -999.25    -999.25  -11.84470   -6.31120    6.57420
 7900.00000   12.83160    7.92120   75.77160   99.37200   10.06320    -999.25   63.13650   63.13650  123.96920  123.96920   10.06320    7.92120    -999.25    -999.25  -19.15280  -16.55340   12.83160
 7950.00000   13.44940    7.75360   96.19570  118.76060    8.42030    -999.25   60.97670   60.97670  155.84070  155.84070    8.42030    7.75360    -999.25    -999.25  -19.06500  -19.08360   13.44940
 8000.00000   11.72580    9.04680  104.26660  125.93030    7.94090    -999.25   63.58880   63.58880  107.19090  107.19090    7.94090    9.04680    -999.25    -999.25  -18.22190  -20.84140   11.72580
 8050.00000   16.21290    8.65510   81.59110   99.62640   10.03750    -999.25   64.33460   64.33460  138.35870  138.35870   10.03750    8.65510    -999.25    -999.25   -2.57540   -7.79580   16.21290
 8100.00000    5.77490    8.37900  342.46430  342.46430    2.92000    -999.25   68.20830   68.20830  164.89230  164.89230    1.70310    8.37900    -999.25    -999.25  -28.18470  -34.91090    5.77490
 8150.00000    4.81800    8.37260  323.03260  323.03260    3.09570    -999.25   65.23130   65.23130  131.23390  131.23390    1.78740    8.37260    -999.25    -999.25  -32.71670  -39.44290    4.81800
 8200.00000    6.72360    7.40970  695.83920  695.83920    1.43710    -999.25   61.65500   61.65500   30.06160   30.06160    0.33820    7.40970    -999.25    -999.25  -87.79240  -94.51860    6.72360
