~Version ---------------------------------------------------
VERS.      2.0 : CWLS log ASCII Standard -VERSION 2.0
WRAP.       NO : One line per depth step
CREA. 12/15/17 : LAS Creation Date
~Well ------------------------------------------------------
STRT.FT                          950.0 : START DEPTH
STOP.FT                         9600.0 : STOP DEPTH
STEP.FT                       50.00000 : STEP LENGTH
NULL.                          -999.25 : NULL VALUE
COMP.             QUASAR PETROLEUM LTD : COMPANY
WELL. QUASAR SIEBENS SUNSET 1-29-69-18 : WELL
FLD .                                  : FIELD
LOC .                                  : LOCATION
CTRY.                           CANADA : COUNTRY
SRVC.                     Schlumberger : SERVICE COMPANY
DATE.                      27-Dec-1974 : LOGDATE
PROV.                          Alberta : PROVINCE
UWI .                 100012906918W500 : UNIQUE WELL ID
SLAT.WGS84                    54.99883 : SURFACE LATITUDE
SLON.WGS84                   -116.6996 : SURFACE LONGITUDE
~Curve Information -----------------------------------------
DEPT  .FT    : Depth Curve
CALSED.IN    : CALIPER FROM SONIC LOG
CALWS .IN    : CALIPER [CALSED]
CILDED.MMHO  : CONDUCTIVITY FROM RESISTIVITY LOG
CONDWS.MMHO  : CONDUCTIVITY [1000/DRESWS]
DRESWS.OHMM  : DEEP RESISTIVITY [1000/CILDED IF ILDED <=5, ILDED & SPL. TO ILDED @ 3490']
DTED  .US/F  : DELTA-T FROM SONIC LOG
DTWS  .US/F  : COMPRESSIONAL SONIC [DTED]
GRSED .GAPI  : GAMMA RAY FROM SONIC LOG
GRWS  .GAPI  : GAMMA RAY [GRSED]
ILDED .OHMM  : DEEP INDUCTION RESISTIVITY FROM RESISTIVITY LOG
ILMED .OHMM  : MEDIUM INDUCTION RESISTIVITY FROM RESISTIVITY LOG
LL8ED .OHMM  : LATEROLOG 8 RESISTIVITY FROM RESISTIVITY LOG
MRESWS.OHMM  : MEDIUM RESISTIVITY [ILMED]
SPRED .MV    : SPONTANEOUS POTENTIAL FROM RESISTIVITY LOG SHIFTED
SPWS  .MV    : SPONTANEOUS POTENTIAL [BASELINE 0 MV, SPRED]
SRESWS.OHMM  : SHALLOW RESISTIVITY [LL8ED]
~Params ----------------------------------------------------
PD  .                     GL : PERMANENT DATUM
EPD .FT               3066.1 : ELEVATION PERMANENT DATUM
LMF .                     KB : LOG MEASURED FROM
DAPD.FT                 14.8 : FEET ABOVE PERMANENT DATUM
EKB .FT               3080.9 : KELLY BUSHING
EGL .FT               3066.1 : GROUND LEVEL
DATE.               12/27/74 : RUN DATE
RUN .                      1 : RUN NUMBER
DD  .FT                 9631 : DEPTH DRILLER
DL  .FT                 9629 : DEPTH LOGGER
BLI .FT                 9623 : BOTTOM LOG INTERVAL
TLI .FT                  968 : TOP LOG INTERVAL
CBD .FT                  966 : CASING BOTTOM DRILLER
CBL .FT                  968 : CASING BOTTOM LOGGER
BS  .IN                7.875 : BIT SIZE
BSD .FT                 9631 : BIT SIZE AT DEPTH
DFT .                    GEL : DRILLING FLUID TYPE
DFD .                    9.1 : DRILLING FLUID DENSITY
DFV .                     75 : DRILLING FLUID VISCOSITY
DFPH.                    9.6 : DRILLING FLUID PH
DFL .                      9 : DRILLING FLUID LOSS
MSS .               FLOWLINE : MUD SAMPLE SOURCE
RMS .OHMM                  2 : RESISTIVITY MUD SAMPLE
MST .DEGF                 62 : MUD SAMPLE TEMPERATURE
RMF .OHMM               1.86 : RESISTIVITY MUD FILTRATE SAMPLE
MFST.DEGF                 70 : MUD FILTRATE SAMPLE TEMPERATURE
MCST.DEGF                 67 : MUD CAKE SAMPLE TEMPERATURE
RMB .OHMM               2.21 : RESISTIVITY MUD AT BHT
TCS .HRS                 3.5 : TIME CIRCULATED STOPPED
LUN .                   7691 : LOGGING UNIT NUMBER
LUL .                    EDM : LOGGING UNIT LOCATION
ENGI.             LAVERDIERE : RECORDING ENGINEER
WITN.          WETTER SAYERS : WITNESSED BY
CLNT.                A2DTECH : CLIENT CODE
ORIG.            2" 5" PRINT : ORIGIN OF DATA
UWI .       100012906918W500 : UNIQUE WELL ID
DICO. A2D Technologies, Inc. : DIGITIZING COMPANY
~Other -----------------------------------------------------
DIL-BHC TOOLS RUN
ALL DIL-BHC TOOL CURVES FROM TOP TO 3490' FROM 2" SCALE SECTION
SP AFFECTED BY TELLURIC CURRENTS
LOG NOT TAPED
~ASCII -----------------------------------------------------
# ...
 5250.00000    8.51670    8.51670    -999.25   66.33900   15.07410   90.22900   90.22900  124.19970  124.19970   15.07410   18.35820   48.91360   18.35820  -45.16000  -41.63780   48.91360
 5300.00000    8.08300    8.08300    -999.25    7.63780  130.92720   76.01980   76.01980  137.39780  137.39780  130.92720  161.07570  396.12290  161.07570  -48.10000  -50.42130  396.12290
 5350.00000    8.68690    8.68690    -999.25  302.52610    3.30550   74.86340   74.86340   91.75600   91.75600    3.30550    4.44080   10.52180    4.44080  -10.99000  -19.19330   10.52180
 5400.00000    8.36290    8.36290    -999.25  365.56390    2.73550   75.06560   75.06560   96.53790   96.53790    2.73550    4.04230   14.74450    4.04230    5.20000   -8.84690   14.74450
 5450.00000    8.01710    8.01710    -999.25  333.31110    3.00020   77.65690   77.65690   29.08100   29.08100    3.00020    4.93670   17.28590    4.93670  -46.78000  -70.75380   17.28590
 5500.00000    7.86780    7.86780    -999.25  123.87120    8.07290   65.00860   65.00860   20.92160   20.92160    8.07290   14.59590   38.71060   14.59590  -62.44000  -96.84560   38.71060
 5550.00000    7.99440    7.99440    -999.25  147.01770    6.80190   57.79900   57.79900   27.99960   27.99960    6.80190   10.61280   63.36220   10.61280  -35.60000  -80.43740   63.36220
 5600.00000    7.84740    7.84740    -999.25  142.14030    7.03530   57.64590   57.64590   22.77100   22.77100    7.03530   12.05440   47.09810   12.05440  -37.60000  -92.93790   47.09810
 5650.00000    8.23470    8.23470    -999.25  321.63650    3.10910   63.68800   63.68800   58.01660   58.01660    3.10910    4.16320   17.72680    4.16320   19.78000  -45.98970   17.72680
 5700.00000    7.87170    7.87170    -999.25  156.46760    6.39110   62.37420   62.37420   28.93110   28.93110    6.39110    7.15180   29.95560    7.15180  -14.04000  -90.31020   29.95560
 5750.00000    8.33700    8.33700    -999.25   53.72420   18.61360   58.97780   58.97780   60.92660   60.92660   18.61360   20.29690   34.72400   20.29690   81.40000   -5.30200   34.72400
 5800.00000    8.72210    8.72210    -999.25   64.47160   15.51070   56.02380   56.02380   58.00060   58.00060   15.51070   21.05860  147.44500   21.05860   91.70000    0.19320  147.44500
 5850.00000    8.37490    8.37490    -999.25  142.15650    7.03450   57.81670   57.81670   52.54720   52.54720    7.03450    7.44460   33.83920    7.44460   60.31000  -28.84760   33.83920
 5900.00000    8.32990    8.32990    -999.25   71.93990   13.90050   54.20060   54.20060   19.91030   19.91030   13.90050   27.05390  293.10950   27.05390   42.18000  -44.64360  293.10950
 5950.00000    8.29130    8.29130    -999.25   91.32340   10.95010   54.98460   54.98460   33.77900   33.77900   10.95010   23.82200   69.05470   23.82200   41.41000  -43.06440   69.05470
 6000.00000    9.56560    9.56560    -999.25  132.36440    7.55490   73.05340   73.05340   91.24090   91.24090    7.55490    7.66000   15.24160    7.66000   74.64000   -7.50050   15.24160
 6050.00000    8.16610    8.16610    -999.25  201.08180    4.97310   62.05800   62.05800   17.38820   17.38820    4.97310    8.73840   72.88360    8.73840  -48.10000 -127.90650   72.88360
 6100.00000    8.50990    8.50990    -999.25   93.10290   10.74080   54.64730   54.64730   19.04320   19.04320   10.74080   17.75950  140.20780   17.75950  -22.97000 -100.42730  140.20780
 6150.00000    8.14800    8.14800    -999.25   87.13080   11.47700   56.89980   56.89980   15.61910   15.61910   11.47700   20.37180  185.28060   20.37180  -72.36000 -147.48330  185.28060
 6200.00000    8.23380    8.23380    -999.25   58.73680   17.02510   55.28090   55.28090   15.35240   15.35240   17.02510   25.24590  154.11070   25.24590  -79.43000 -152.20410  154.11070
 6250.00000    8.89050    8.89050    -999.25  494.51090    2.02220   70.90510   70.90510   57.50940   57.50940    2.02220    2.16490    3.37160    2.16490  -46.60000 -117.04020    3.37160
 6300.00000    8.75120    8.75120    -999.25  334.32520    2.99110   67.97460   67.97460   73.22470   73.22470    2.99110    3.01880   10.08860    3.01880  -43.00000 -111.10620   10.08860
 6350.00000    8.40870    8.40870    -999.25  415.93880    2.40420   69.60110   69.60110   34.71340   34.71340    2.40420    2.69160    5.91490    2.69160  -71.02000 -136.77700    5.91490
 6400.00000    8.19670    8.19670    -999.25   32.10480   31.14800   54.18650   54.18650   20.12520   20.12520   31.14800   31.46520  100.23740   31.46520  -44.16000 -107.58310  100.23740
 6450.00000    8.36100    8.36100    -999.25   25.52520   39.17690   54.15670   54.15670   17.57410   17.57410   39.17690   44.28290  191.63410   44.28290  -14.24000  -75.31380  191.63410
 6500.00000    8.15390    8.15390    -999.25   28.22080   35.43480   48.07690   48.07690   27.79210   27.79210   35.43480   39.97880   57.20450   39.97880   -4.88000  -63.61990   57.20450
 6550.00000    8.06560    8.06560    -999.25   37.13390   26.92960   56.17340   56.17340   32.90110   32.90110   26.92960   27.10380   36.26020   27.10380  -15.84000  -72.24590   36.26020
 6600.00000    7.99320    7.99320    -999.25   29.34740   34.07460   55.15620   55.15620   26.45600   26.45600   34.07460   34.45320   50.72710   34.45320  -39.76000  -93.81670   50.72710
 6650.00000    8.02980    8.02980    -999.25   48.81690   20.48470   57.41980   57.41980   39.02340   39.02340   20.48470   21.17530   37.55170   21.17530  -10.08000  -61.80280   37.55170
 6700.00000    8.05730    8.05730    -999.25   17.61700   56.76340   53.12820   53.12820   23.39720   23.39720   56.76340   65.18010   94.59090   65.18010    3.58000  -45.79350   94.59090
 6750.00000    8.32180    8.32180    -999.25   93.18970   10.73080   65.75110   65.75110   67.68600   67.68600   10.73080   10.94030   15.56790   10.94030   42.38000   -4.65960   15.56790
 6800.00000    8.09580    8.09580    -999.25   58.52880   17.08560   59.53680   59.53680   47.10480   47.10480   17.08560   17.11710   39.10480   17.11710   40.86000   -5.65260   39.10480
 6850.00000    8.14270    8.14270    -999.25   60.27800   16.58980   62.31600   62.31600   55.18890   55.18890   16.58980   17.40330   29.46180   17.40330   42.66000   -4.38320   29.46180
 6900.00000    8.81710    8.81710    -999.25  131.15100    7.62480   63.55160   63.55160   81.21690   81.21690    7.62480    8.15510   10.83000    8.15510   24.24000  -23.33040   10.83000
 6950.00000    8.23210    8.23210    -999.25   13.70690   72.95620   52.47680   52.47680   29.89010   29.89010   72.95620   82.81330   94.48860   82.81330   39.86000   -8.24100   94.48860
 7000.00000    8.14720    8.14720    -999.25   28.79850   34.72400   54.92020   54.92020   16.99590   16.99590   34.72400   39.39400  227.52540   39.39400  -23.96000  -72.58810  227.52540
 7050.00000    8.17540    8.17540    -999.25    4.18570  238.90760   49.14900   49.14900   19.36310   19.36310  238.90760  299.93690  704.41710  299.93690   23.18000  -25.97530  704.41710
 7100.00000    8.28000    8.28000    -999.25   15.39430   64.95890   52.43610   52.43610   12.46760   12.46760   64.95890   80.19640  351.59720   80.19640  -63.64000 -113.32590  351.59720
 7150.00000    8.15190    8.15190    -999.25    7.16090  139.64650   50.14340   50.14340   14.18190   14.18190  139.64650  137.09760  240.45290  137.09760  -39.46000  -89.67300  240.45290
 7200.00000    8.34360    8.34360    -999.25    4.15640  240.59250   48.69340   48.69340   14.65640   14.65640  240.59250  495.47810 1429.88000  495.47810  -66.75000 -117.49360 1429.88000
 7250.00000    7.99180    7.99180    -999.25   34.24280   29.20320   53.15430   53.15430   13.03960   13.03960   29.20320   45.64890  286.96570   45.64890 -120.18000 -171.45080  286.96570
 7300.00000    7.65740    7.65740    -999.25   55.79170   17.92380   54.91450   54.91450   13.05230   13.05230   17.92380   31.81490  177.10460   31.81490 -111.24000 -163.03790  177.10460
 7350.00000    8.28110    8.28110    -999.25   12.65810   79.00050   50.37240   50.37240   12.38770   12.38770   79.00050   76.95540  177.58300   76.95540  -55.36000 -107.68850  177.58300
