~Version ---------------------------------------------------
VERS.      2.0 : CWLS log ASCII Standard -VERSION 2.0
WRAP.       NO : One line per depth step
CREA. 11/16/17 : LAS Creation Date
~Well ------------------------------------------------------
STRT.FT                          800.0 : START DEPTH
STOP.FT                        13150.0 : STOP DEPTH
STEP.FT                       50.00000 : STEP LENGTH
NULL.                          -999.25 : NULL VALUE
COMP. SOCONY MOBIL OIL OF CANADA, LTD. : COMPANY
WELL.     MOBIL CHEDDERVILLE 4-22-37-7 : WELL
FLD .                                  : FIELD
LOC .                                  : LOCATION
CTRY.                           CANADA : COUNTRY
SRVC.                     Schlumberger : SERVICE COMPANY
DATE.                      02-Jun-1964 : LOGDATE
PROV.                          Alberta : PROVINCE
UWI .                 100042203707W500 : UNIQUE WELL ID
SLAT.WGS84                    52.18951 : SURFACE LATITUDE
SLON.WGS84                   -114.9248 : SURFACE LONGITUDE
~Curve Information -----------------------------------------
DEPT  .FT    : Depth Curve
CALDED.IN    : CALIPER FROM FDL LOG [ADJ. TO RESISTIVITY LOG]
CALSED.IN    : CALIPER FROM SONIC LOG [ADJ. TO RESISTIVITY LOG]
CALWS .IN    : CALIPER [CALDED]
CILDED.MMHO  : CONDUCTIVITY FROM IEL LOG
CONDWS.MMHO  : CONDUCTIVITY [1000/DRESWS]
DRESWS.OHMM  : DEEP RESISTIVITY [1000/CILDED IF ILDED < 1, ILDED]
DT1ED .US/F  : DELTA TIME (1' SPACING) FROM SONIC LOG [ADJ. TO RESISTIVITY]
DTED  .US/F  : DELTA TIME (3' SPACING) FROM SONIC LOG [ADJ. TO RESISTIVITY]
DTWS  .US/F  : COMPRESSIONAL SONIC [DTED]
FDENED.CPS   : FORMATION DENSITY FROM FDL LOG [ADJ. TO RESISTIVITY]
GRDED .GAPI  : GAMMA RAY  FROM FDL LOG [ADJ. TO RESISTIVITY]
GRSED .GAPI  : GAMMA RAY FROM SONIC LOG [ADJ. TO RESISTIVITY]
GRWS  .GAPI  : GAMMA RAY [GRSED]
ILDED .OHMM  : INDUCTION DEEP RESISTIVITY FROM IEL LOG
SNED  .OHMM  : SHORT NORMAL RESISTIVITY FROM IEL LOG
SPRED .MV    : SPONTANEOUS POTENTIAL FROM IEL LOG
SPWS  .MV    : SPONTANEOUS POTENTIAL [BASELINE 0 MV, SPRED]
SRESWS.OHMM  : SHALLOW RESISTIVITY [SNED]
~Params ----------------------------------------------------
PD  .                     GL : PERMANENT DATUM
EPD .FT                 3420 : ELEVATION PERMANENT DATUM
LMF .                     KB : LOG MEASURED FROM
DAPD.FT                   15 : FEET ABOVE PERMANENT DATUM
EKB .FT                 3435 : KELLY BUSHING
EGL .FT                 3420 : GROUND LEVEL
DATE.               06/02/64 : RUN DATE
RUN .                      2 : RUN NUMBER
DD  .FT                13163 : DEPTH DRILLER
DL  .FT                13169 : DEPTH LOGGER
BLI .FT                13168 : BOTTOM LOG INTERVAL
TLI .FT                 9963 : TOP LOG INTERVAL
CBD .FT                 1290 : CASING BOTTOM DRILLER
CBL .FT                 1290 : CASING BOTTOM LOGGER
BS  .IN                    9 : BIT SIZE
BSD .FT                13163 : BIT SIZE AT DEPTH
DFT .              LIME BASE : DRILLING FLUID TYPE
DFD .                    9.2 : DRILLING FLUID DENSITY
DFV .                    165 : DRILLING FLUID VISCOSITY
DFPH.                     13 : DRILLING FLUID PH
DFL .                      5 : DRILLING FLUID LOSS
RMF .OHMM               0.44 : RESISTIVITY MUD FILTRATE SAMPLE
MFST.DEGF                 82 : MUD FILTRATE SAMPLE TEMPERATURE
RMC .OHMM               0.97 : RESISTIVITY MUD CAKE
MCST.DEGF                 80 : MUD CAKE SAMPLE TEMPERATURE
RMB .OHMM               0.29 : RESISTIVITY MUD AT BHT
TCS .HRS                   2 : TIME CIRCULATED STOPPED
LUN .                   1576 : LOGGING UNIT NUMBER
LUL .                     DV : LOGGING UNIT LOCATION
ENGI.               WILLIAMS : RECORDING ENGINEER
WITN.               LONGMORE : WITNESSED BY
CLNT.                A2DTECH : CLIENT CODE
ORIG.            2" 5" PRINT : ORIGIN OF DATA
UWI .       100042203707W500 : UNIQUE WELL ID
DICO. A2D Technologies, Inc. : DIGITIZING COMPANY
~Other -----------------------------------------------------
~ASCII -----------------------------------------------------
  800.00000    -999.25    -999.25    -999.25    -999.25    -999.25    -999.25    -999.25    -999.25    -999.25    -999.25    -999.25   51.11500   51.11500    -999.25    -999.25    -999.25    -999.25    -999.25
  850.00000    -999.25    -999.25    -999.25    -999.25    -999.25    -999.25    -999.25    -999.25    -999.25    -999.25    -999.25   41.70750   41.70750    -999.25    -999.25    -999.25    -999.25    -999.25
  900.00000    -999.25    -999.25    -999.25    -999.25    -999.25    -999.25    -999.25    -999.25    -999.25    -999.25    -999.25   44.65740   44.65740    -999.25    -999.25    -999.25    -999.25    -999.25
  950.00000    -999.25    -999.25    -999.25    -999.25    -999.25    -999.25    -999.25    -999.25    -999.25    -999.25    -999.25   39.75050   39.75050    -999.25    -999.25    -999.25    -999.25    -999.25
 1000.00000    -999.25    -999.25    -999.25    -999.25    -999.25    -999.25    -999.25    -999.25    -999.25    -999.25    -999.25   38.78800   38.78800    -999.25    -999.25    -999.25    -999.25    -999.25
 1050.00000    -999.25    -999.25    -999.25    -999.25    -999.25    -999.25    -999.25    -999.25    -999.25    -999.25    -999.25   47.30720   47.30720    -999.25    -999.25    -999.25    -999.25    -999.25
 1100.00000    -999.25    -999.25    -999.25    -999.25    -999.25    -999.25    -999.25    -999.25    -999.25    -999.25    -999.25   49.51230   49.51230    -999.25    -999.25    -999.25    -999.25    -999.25
 1150.00000    -999.25    -999.25    -999.25    -999.25    -999.25    -999.25    -999.25    -999.25    -999.25    -999.25    -999.25   62.14880   62.14880    -999.25    -999.25    -999.25    -999.25    -999.25
 1200.00000    -999.25    -999.25    -999.25    -999.25    -999.25    -999.25    -999.25    -999.25    -999.25    -999.25    -999.25   57.70060   57.70060    -999.25    -999.25    -999.25    -999.25    -999.25
 1250.00000    -999.25    -999.25    -999.25    -999.25    -999.25    -999.25    -999.25    -999.25    -999.25    -999.25    -999.25   35.60660   35.60660    -999.25    -999.25    -999.25    -999.25    -999.25
 1300.00000   13.98140   13.20680   13.20680   69.02510   62.82350   15.91760    -999.25   81.01010   81.01010  519.45420    -999.25   48.47250   48.47250   15.91760   25.20130  -66.15380   -1.61180   25.20130
 1350.00000   14.57990   11.40590   11.40590   64.34000   59.47460   16.81390    -999.25   86.31050   86.31050 1552.11840    -999.25   83.40250   83.40250   16.81390   15.16540  -73.05890   -2.51740   15.16540
 1400.00000   14.59170   13.25890   13.25890   94.82220   82.44770   12.12890    -999.25   76.92390   76.92390 2000.00000    -999.25   91.00750   91.00750   12.12890   11.44220  -72.44540   -1.61150   11.44220
 1450.00000   14.47290   13.49670   13.49670   40.14700   38.70090   25.83920    -999.25   80.68880   80.68880  596.12080    -999.25   50.45160   50.45160   25.83920   22.99080  -76.68980   -6.30830   22.99080
 1500.00000   14.25420   13.11990   13.11990   40.62080   39.32580   25.42860    -999.25   80.02510   80.02510  689.16610    -999.25   51.94970   51.94970   25.42860   23.29850  -73.82970   -3.90060   23.29850
 1550.00000   13.65790   13.63350   13.63350  125.70210  120.86780    8.27350    -999.25  109.28080  109.28080 2000.00000    -999.25   65.25910   65.25910    8.27350    9.76540  -71.36560   -1.89300    9.76540
 1600.00000   13.18940   12.44580   12.44580   34.09690   31.38470   31.86270    -999.25   69.44470   69.44470  505.67350    -999.25   42.91710   42.91710   31.86270   26.65020  -72.57610   -3.60710   26.65020
 1650.00000   13.62610   14.74710   14.74710   70.83620   69.89050   14.30810    -999.25   92.16750   92.16750  553.97280    -999.25   64.20410   64.20410   14.30810   11.73760  -70.70000   -2.23460   11.73760
 1700.00000   14.62310   13.13530   13.13530   58.81110   55.50310   18.01700    -999.25   77.96170   77.96170  441.00870    -999.25   55.32690   55.32690   18.01700   17.61790  -70.03580   -1.47490   17.61790
 1750.00000   14.56310   13.66860   13.66860   73.32800   73.48240   13.60870    -999.25   97.44660   97.44660  511.69650    -999.25   47.97730   47.97730   13.60870   14.46800  -72.84980   -3.97190   14.46800
 1800.00000   14.62250   13.48120   13.48120   45.34290   42.02230   23.79690    -999.25   92.56400   92.56400  405.54660    -999.25   51.07690   51.07690   23.79690   18.81040  -70.89220   -1.69730   18.81040
 1850.00000   14.61680   14.64790   14.64790   73.32460   69.66840   14.35370    -999.25  107.73160  107.73160  506.71750    -999.25   85.88840   85.88840   14.35370   15.26650  -71.45530   -1.46590   15.26650
 1900.00000   14.62320   13.77380   13.77380   42.00150   42.44630   23.55920    -999.25   83.23920   83.23920  371.53980    -999.25   56.76910   56.76910   23.55920   24.82480  -73.26270   -2.44280   24.82480
 1950.00000   14.61810   13.63150   13.63150   79.43700   74.05210   13.50400    -999.25   82.52970   82.52970  407.31510    -999.25   64.01110   64.01110   13.50400   12.81650  -73.25030   -1.67450   12.81650
 2000.00000   14.53440   10.50910   10.50910   35.22440   34.44720   29.02990    -999.25   88.51260   88.51260  718.17080    -999.25   61.14580   61.14580   29.02990   33.56630  -89.70940  -18.42290   33.56630
 2050.00000   14.23450   13.86970   13.86970   33.12370   31.60210   31.64350    -999.25   89.75590   89.75590 1412.72300    -999.25   49.17200   49.17200   31.64350   26.79060  -80.65670   -9.67790   26.79060
 2100.00000   14.60480   12.55750   12.55750   43.16440   40.89650   24.45200    -999.25   82.00120   82.00120 1105.35580    -999.25   48.24170   48.24170   24.45200   16.80970  -75.36330   -4.76730   16.80970
 2150.00000   11.02000   11.60290   11.60290   42.69790   38.02440   26.29890    -999.25   82.29800   82.29800 1149.95280    -999.25   48.77710   48.77710   26.29890   21.96600  -81.10330  -11.23210   21.96600
 2200.00000   12.63830   11.90190   11.90190   35.83710   34.34140   29.11940    -999.25   76.79080   76.79080 1085.00210    -999.25   54.19770   54.19770   29.11940   33.32950  -82.25960  -13.11320   33.32950
 2250.00000   13.17240   12.76720   12.76720  126.83230  113.23620    8.83110    -999.25  117.08940  117.08940 2000.00000    -999.25   60.80940   60.80940    8.83110   14.30640  -70.13590   -2.12870   14.30640
 2300.00000   13.29980   14.13940   14.13940   92.08260   89.52550   11.17000    -999.25  117.55530  117.55530 2000.00000    -999.25   68.74170   68.74170   11.17000   12.38310  -69.12330   -1.52920   12.38310
 2350.00000   14.55650   13.02570   13.02570  113.02930  114.57770    8.72770    -999.25   80.42920   80.42920 2000.00000    -999.25   98.03860   98.03860    8.72770   13.12790  -69.10790   -1.60570   13.12790
 2400.00000   14.53500   12.65850   12.65850  103.99490   97.34920   10.27230    -999.25   83.79200   83.79200 2000.00000    -999.25   72.20480   72.20480   10.27230   14.33490  -68.12650   -0.91250   14.33490
 2450.00000   14.53160   13.20970   13.20970   82.59100   78.54350   12.73180    -999.25   91.60110   91.60110 2000.00000    -999.25   69.26250   69.26250   12.73180   18.07400  -67.09580   -0.82300   18.07400
 2500.00000   14.24930   13.35140   13.35140  129.64820  109.96020    9.09420    -999.25  111.65530  111.65530 2000.00000    -999.25   92.06790   92.06790    9.09420   10.36160  -67.74180   -2.27450   10.36160
 2550.00000   14.18150   11.32540   11.32540   30.83020   28.33090   35.29710    -999.25   78.57200   78.57200 2000.00000    -999.25   52.92370   52.92370   35.29710   33.16970 -106.18300  -40.59720   33.16970
 2600.00000   13.95490   13.98400   13.98400  114.57420  101.74600    9.82840    -999.25  112.52150  112.52150 2000.00000    -999.25   84.28330   84.28330    9.82840   10.57560  -67.31930   -1.12160   10.57560
 2650.00000   12.88510   12.61700   12.61700   95.46540   78.67940   12.70980    -999.25   78.62520   78.62520 1355.71170    -999.25   69.69140   69.69140   12.70980   14.32570  -68.29220   -1.93470   14.32570
 2700.00000   13.68770   12.13070   12.13070   81.45000   75.76390   13.19890    -999.25   78.57450   78.57450 2000.00000    -999.25   66.77470   66.77470   13.19890   12.16210  -69.96290   -3.44560   12.16210
