~Version ---------------------------------------------------
VERS.      2.0 : CWLS log ASCII Standard -VERSION 2.0
WRAP.       NO : One line per depth step
CREA. 10/15/14 : LAS Creation Date
~Well ------------------------------------------------------
STRT.M                             300.0 : START DEPTH
STOP.M                            2700.0 : STOP DEPTH
STEP.M                          50.00000 : STEP LENGTH
NULL.                            -999.25 : NULL VALUE
COMP.            PETROMARK MINERALS LTD. : COMPANY
WELL. PETROMK ET AL MORSE RIVER 2-2-65-8 : WELL
FLD .                                    : FIELD
LOC .                                    : LOCATION
CTRY.                             CANADA : COUNTRY
SRVC.                       Schlumberger : SERVICE COMPANY
DATE.                        29-Sep-1978 : LOGDATE
PROV.                            Alberta : PROVINCE
UWI .                   100020206508W500 : UNIQUE WELL ID
SLAT.WGS84                      54.59157 : SURFACE LATITUDE
SLON.WGS84                     -115.0921 : SURFACE LONGITUDE
~Curve Information -----------------------------------------
DEPT    .M      : DEPTH.M
CALDED  .MM     : CALIPER FROM DENSITY LOG [ADJ.TO RESISTIVITY LOG]
CALSED  .MM     : CALIPER FROM SONIC LOG [ADJ.TO RESISTIVITY LOG]
CALWS   .MM     : CALIPER [CALDED]
CONDWS  .MMHO   : CONDUCTIVITY [1000/DRESWS]
CORRED  .KG/M3  : DENSITY CORRECTION FROM DENSITY LOG [ADJ.TO RESISTIVITY LOG]
DCORWS  .KG/M3  : DENSITY CORRECTION [CORRED]
DENWS   .KG/M3  : FORMATION BULK DENSITY [RHOBED]
DPHILSED.V/V    : DENSITY POROSITY LIMESTONE [M=2710, F=1000] FROM DENSITY LOG [ADJ.TO RESISTIVITY LOG]
DPHISSED.V/V    : DENSITY POROSITY SANDSTONE [M=2650, F=1000] FROM DENSITY LOG [ADJ.TO RESISTIVITY LOG]
DPOLSWS .V/V    : DENSITY POROSITY LIMESTONE [CALC. FROM DENWS, M=2710, F=1000]
DRESWS  .OHMM   : DEEP RESISTIVITY [ILDED]
DTED    .US/M   : DELTA-T FROM SONIC LOG [ADJ.TO RESISTIVITY LOG]
DTWS    .US/M   : COMPRESSIONAL SONIC [DTED]
GRDED   .GAPI   : GAMMA RAY FROM DENSITY LOG [ADJ.TO RESISTIVITY LOG]
GRSED   .GAPI   : GAMMA RAY FROM SONIC LOG [ADJ.TO RESISTIVITY LOG]
GRWS    .GAPI   : GAMMA RAY [GRSED]
ILDED   .OHMM   : DEEP INDUCTION FROM RESISTIVITY LOG
ILMED   .OHMM   : MEDIUM INDUCTION FROM RESISTIVITY LOG
MRESWS  .OHMM   : MEDIUM RESISTIVITY [ILMED]
NPHILSED.V/V    : NEUTRON POROSITY LIMESTONE FROM DENSITY LOG [ADJ.TO RESISTIVITY LOG]
NPHISSED.V/V    : NEUTRON POROSITY SANDSTONE FROM DENSITY LOG [ADJ.TO RESISTIVITY LOG]
NPOLSWS .V/V    : NEUTRON POROSITY LIMESTONE [NPHISSED MATRIX (SLB) CONVERSION FOR LIMESTONE, SPL.TO NPHILSED @ 1102.6M]
RHOBED  .KG/M3  : BULK DENSITY FROM DENSITY LOG [ADJ.TO RESISTIVITY LOG]
SFLED   .OHMM   : SPHERICALLY FOCUSED FROM RESISTIVITY LOG
SPRED   .MV     : SPONTANEOUS POTENTIAL FROM RESISTIVITY LOG
SPWS    .MV     : SPONTANEOUS POTENTIAL [BASELINE 0 MV, SPRED]
SRESWS  .OHMM   : SHALLOW RESISTIVITY [SFLED]
~Params ----------------------------------------------------
PD  .                     GL : PERMANENT DATUM
EPD .M                 859.9 : ELEVATION PERMANENT DATUM
LMF .                     KB : LOG MEASURED FROM
DAPD.M                   3.6 : FEET ABOVE PERMANENT DATUM
DMF .                     KB : DRILLING MEASURED FROM
EKB .M                 863.5 : KELLY BUSHING
EGL .M                 859.9 : GROUND LEVEL
DATE.             09/29/1978 : RUN DATE
RUN .                      1 : RUN NUMBER
DD  .M                  2712 : DEPTH DRILLER
DL  .M                  2710 : DEPTH LOGGER
BLI .M                  2709 : BOTTOM LOG INTERVAL
TLI .M                   285 : TOP LOG INTERVAL
CBD .M                   285 : CASING BOTTOM DRILLER
CBL .M                   285 : CASING BOTTOM LOGGER
BS  .MM                215.9 : BIT SIZE
BSD .M                  2712 : BIT SIZE AT DEPTH
DFT .               GEL CHEM : DRILLING FLUID TYPE
DFD .                   1130 : DRILLING FLUID DENSITY
DFV .                    120 : DRILLING FLUID VISCOSITY
DFPH.                     10 : DRILLING FLUID PH
DFL .                    8.6 : DRILLING FLUID LOSS
MSS .               FLOWLINE : MUD SAMPLE SOURCE
RMS .OHMM               1.48 : RESISTIVITY MUD SAMPLE
MST .DEGC                 26 : MUD SAMPLE TEMPERATURE
RMF .OHMM                1.3 : RESISTIVITY MUD FILTRATE SAMPLE
MFST.DEGC                 21 : MUD FILTRATE SAMPLE TEMPERATURE
TCS .HRS                   3 : TIME CIRCULATED STOPPED
ENGI.               BERNISKY : RECORDING ENGINEER
CLNT.                A2DTECH : CLIENT CODE
ORIG.  6.6" 16.6"/100M PRINT : ORIGIN OF DATA
UWI .       100020206508W500 : UNIQUE WELL ID
DICO. A2D Technologies, Inc. : DIGITIZING COMPANY
~Other -----------------------------------------------------
~ASCII -----------------------------------------------------
  300.00000  250.85390  247.50110  250.85390  209.04760   60.96760   60.96760 2315.12670    -999.25    0.21520    0.23090    4.78360  380.29140  380.29140   68.01730   76.01230   76.01230    4.78360    4.44400    4.44400    -999.25    0.45670    0.41520 2315.12670    3.65280 -147.45980   -1.75760    3.65280
  350.00000  296.18930  252.73380  296.18930  202.07330   99.35260   99.35260 2342.22170    -999.25    0.18990    0.21510    4.94870  347.56270  347.56270   63.20530   70.93500   70.93500    4.94870    4.07970    4.07970    -999.25    0.39640    0.35350 2342.22170    4.31150 -143.87270   -2.14250    4.31150
  400.00000  232.54760  233.31570  232.54760  178.16740   31.45240   31.45240 2304.03150    -999.25    0.21510    0.23740    5.61270  366.56750  366.56750   54.97190   72.21840   72.21840    5.61270    4.97720    4.97720    -999.25    0.43600    0.39390 2304.03150    5.05910 -145.92490   -4.23240    5.05910
  450.00000  218.03750  217.85090  218.03750  109.63590   78.03800   78.03800 2377.52910    -999.25    0.17310    0.19440    9.12110  297.00370  297.00370   60.16120   70.45500   70.45500    9.12110    8.13180    8.13180    -999.25    0.36400    0.32050 2377.52910    8.69250 -148.53050   -5.43620    8.69250
  500.00000  232.41610  218.50340  232.41610  116.92620  148.38190  148.38190 2238.51860    -999.25    0.25810    0.27570    8.55240  366.46700  366.46700   46.62060   57.62430   57.62430    8.55240    8.39810    8.39810    -999.25    0.40560    0.36280 2238.51860    8.14810 -163.75340  -20.00870    8.14810
  550.00000  257.06330  235.86170  257.06330   71.68610   54.06840   54.06840 2605.54830    -999.25    0.02700    0.06110   13.94970  214.32620  214.32620   41.45110   42.89900   42.89900   13.94970   17.68150   17.68150    -999.25    0.13610    0.09370 2605.54830   24.09570 -151.03070   -6.89670   24.09570
  600.00000  378.83930  227.00680  378.83930  209.84600  113.69460  113.69460 2385.18950    -999.25    0.16850    0.18990    4.76540  355.93260  355.93260   89.88820   98.68200   98.68200    4.76540    4.27840    4.27840    -999.25    0.41140    0.36880 2385.18950    4.85510 -148.12440   -3.60110    4.85510
  650.00000  326.67500  214.38620  326.67500  208.92970   48.33000   48.33000 2290.54760    -999.25    0.22380    0.24530    4.78630  381.98650  381.98650  106.55960  122.08870  122.08870    4.78630    4.14950    4.14950    -999.25    0.46260    0.42130 2290.54760    4.95100 -155.34900  -10.71130    4.95100
  700.00000  293.70680  237.86340  293.70680  171.52360   93.15450   93.15450 2283.58810    -999.25    0.23210    0.24940    5.83010  331.63810  331.63810   97.59440  104.21290  104.21290    5.83010    5.36320    5.36320    -999.25    0.41620    0.37370 2283.58810    6.64740 -153.66900   -3.27690    6.64740
  750.00000  261.25400  253.10590  261.25400  161.30590   92.82810   92.82810 2427.82570    -999.25    0.13960    0.16500    6.19940  317.41510  317.41510  102.52210  112.11550  112.11550    6.19940    5.66370    5.66370    -999.25    0.38880    0.34570 2427.82570    6.38010 -154.02290   -4.75170    6.38010
  800.00000  290.30510  268.83840  290.30510  146.65340   73.17300   73.17300 2445.79170    -999.25    0.13190    0.15450    6.81880  295.47320  295.47320  104.03340  118.84500  118.84500    6.81880    6.02030    6.02030    -999.25    0.32460    0.28070 2445.79170    6.60180 -154.17560   -4.68990    6.60180
  850.00000  258.59060  219.40390  258.59060  185.99460  125.80160  125.80160 2286.75630    -999.25    0.22880    0.24750    5.37650  351.34030  351.34030  113.22570  136.35250  136.35250    5.37650    4.98640    4.98640    -999.25    0.43230    0.39010 2286.75630    6.20360 -146.60210   -2.92540    6.20360
  900.00000  271.25750  241.80850  271.25750  214.48640  223.78000  223.78000 2224.16280    -999.25    0.25520    0.28410    4.66230  315.68830  315.68830   95.19270  110.43240  110.43240    4.66230    4.24360    4.24360    -999.25    0.39420    0.35120 2224.16280    4.50410 -146.36960   -5.25270    4.50410
  950.00000  278.28380  254.39080  278.28380  189.88660  121.73440  121.73440 2350.41630    -999.25    0.18830    0.21030    5.26630  304.76540  304.76540  104.54310  120.87340  120.87340    5.26630    4.89640    4.89640    -999.25    0.39840    0.35550 2350.41630    5.77610 -146.08020   -7.39480    5.77610
 1000.00000  238.92350  226.45080  238.92350  530.84190  229.18130  229.18130 2262.14330    -999.25    0.23690    0.26190    1.88380  367.47930  367.47930   92.82010  108.35350  108.35350    1.88380    1.71200    1.71200    -999.25    0.44010    0.39810 2262.14330    2.25150 -137.61680   -1.28910    2.25150
 1050.00000  263.17200  248.27240  263.17200  218.47420   80.16050   80.16050 2498.80100    -999.25    0.09460    0.12350    4.57720  313.91020  313.91020  156.63320  180.78340  180.78340    4.57720    4.30580    4.30580    -999.25    0.36530    0.32180 2498.80100    5.69040 -138.67050   -3.16800    5.69040
 1100.00000  271.62340  254.96740  271.62340  225.92230  231.21930  231.21930 2260.75850    0.26470    0.23500    0.26270    4.42630  321.17820  321.17820   62.36440   75.73670   75.73670    4.42630    4.98930    4.98930    0.30720    0.34400    0.30030 2260.75850    8.44950 -158.46890  -22.54300    8.44950
 1150.00000  216.24580  207.68130  216.24580  273.62030  134.82420  134.82420 2480.37960    0.13620    -999.25    0.13430    3.65470  259.73040  259.73040   57.46850   58.13140   58.13140    3.65470    5.47590    5.47590    0.25920    -999.25    0.25920 2480.37960   14.42390 -209.87400  -72.73990   14.42390
 1200.00000  269.98700  257.91820  269.98700  210.43330   92.79650   92.79650 2563.44870    0.08450    -999.25    0.08570    4.75210  283.57350  283.57350   94.82610  111.64600  111.64600    4.75210    5.12290    5.12290    0.29980    -999.25    0.29980 2563.44870    5.67280 -139.98350   -3.62750    5.67280
 1250.00000  286.76900  276.57960  286.76900  126.47020  102.50390  102.50390 2518.54690    0.11430    -999.25    0.11200    7.90700  255.91180  255.91180   75.32830   87.84930   87.84930    7.90700    8.80000    8.80000    0.24850    -999.25    0.24850 2518.54690   10.03350 -141.44530   -6.89990   10.03350
 1300.00000  251.71650  258.95040  251.71650   31.51440   38.25000   38.25000 2655.23660    0.03760    -999.25    0.03200   31.73150  183.65940  183.65940   12.82280   16.26400   16.26400   31.73150   37.02780   37.02780    0.08370    -999.25    0.08370 2655.23660   91.19310 -215.67880  -81.67660   91.19310
 1350.00000  250.79030  239.42620  250.79030  125.59190   46.71610   46.71610 2656.42460    0.03210    -999.25    0.03130    7.96230  220.32230  220.32230   66.19740   78.89510   78.89510    7.96230    8.37940    8.37940    0.12640    -999.25    0.12640 2656.42460    9.13280 -152.40360  -19.97450    9.13280
 1400.00000  248.73840  241.12450  248.73840  110.16980   13.48150   13.48150 2654.42330    0.03910    -999.25    0.03250    9.07690  199.56820  199.56820   63.85300   61.61020   61.61020    9.07690   11.14500   11.14500   -0.00200    -999.25   -0.00200 2654.42330   13.66760 -154.34480  -26.11850   13.66760
 1450.00000  222.90310  210.26080  222.90310  103.92960   88.84390   88.84390 2645.92040    0.03840    -999.25    0.03750    9.62190  172.91490  172.91490    8.78360   16.28770   16.28770    9.62190   12.71080   12.71080    0.04460    -999.25    0.04460 2645.92040   62.15210 -291.59960 -167.70080   62.15210
 1500.00000  228.17680  225.61800  228.17680   44.10550  197.59410  197.59410 2752.45630   -0.02870    -999.25   -0.02480   22.67290  168.54750  168.54750    9.63720   11.58040   11.58040   22.67290   28.50300   28.50300    0.02610    -999.25    0.02610 2752.45630   90.50750 -308.80560 -186.57290   90.50750
 1550.00000  208.56650  197.03240  208.56650   40.35900  192.71770  192.71770 2660.44630    0.02050    -999.25    0.02900   24.77760  175.78200  175.78200   12.71130   17.22990   17.22990   24.77760   53.34270   53.34270    0.06620    -999.25    0.06620 2660.44630  176.45930 -247.70010 -127.13360  176.45930
