~Version ---------------------------------------------------
VERS.      2.0 : CWLS log ASCII Standard -VERSION 2.0
WRAP.       NO : One line per depth step
CREA. 07/13/13 : LAS Creation Date
~Well ------------------------------------------------------
STRT.M                           300.0 : START DEPTH
STOP.M                          4000.0 : STOP DEPTH
STEP.M                        50.00000 : STEP LENGTH
NULL.                          -999.25 : NULL VALUE
COMP. CHEVRON CANADA RESOURCES LIMITED : COMPANY
WELL.    CHEVRON SHELL KARR 13-20-65-2 : WELL
FLD .                                  : FIELD
LOC .                                  : LOCATION
CTRY.                           CANADA : COUNTRY
SRVC.                     Schlumberger : SERVICE COMPANY
DATE.                      28-Jul-1996 : LOGDATE
PROV.                          Alberta : PROVINCE
UWI .                 100132006502W600 : UNIQUE WELL ID
SLAT.WGS84                    54.64389 : SURFACE LATITUDE
SLON.WGS84                   -118.2702 : SURFACE LONGITUDE
~Curve Information -----------------------------------------
DEPT    .M      : DEPTH METER
AHT10ED .OHMM   : 10 INCH RESISTIVITY TWO FOOT RESOLUTION FROM PEX-AIT-RXO LOG
AHT20ED .OHMM   : 20 INCH RESISTIVITY TWO FOOT RESOLUTION FROM PEX-AIT-RXO LOG
AHT30ED .OHMM   : 30 INCH RESISTIVITY TWO FOOT RESOLUTION FROM PEX-AIT-RXO LOG
AHT60ED .OHMM   : 60 INCH RESISTIVITY TWO FOOT RESOLUTION FROM PEX-AIT-RXO LOG
AHT90ED .OHMM   : 90 INCH RESISTIVITY TWO FOOT RESOLUTION FROM PEX-AIT-RXO LOG
AHTRTED .OHMM   : ARRAY INDUCTION TWO FOOT RT FROM PEX-AIT-RXO LOG
AHTRXED .OHMM   : ARRAY INDUCTION TWO FOOT RXO FROM PEX-AIT-RXO LOG
CAL2ED  .MM     : CALIPER 2 FROM CN-LDT LOG
CALDED  .MM     : CALIPER FROM CN-LDT LOG
CALWS   .MM     : CALIPER [CALSED SPL.TO CALDED @ 3909.3M]
CONDWS  .MMHO   : CONDUCTIVITY [1000/DRESWS]
DCORWS  .KG/M3  : DENSITY CORRECTION [HDRAED SPL.TO DRHOED @ 3909.7M]
DENWS   .KG/M3  : FORMATION BULK DENSITY [CALC FROM DPOLSWS, M=2710, F=1000]
DPHILSED.V/V    : DENSITY POROSITY LIMESTONE [M=2710, F=1000] FROM CN-LDT LOG
DPHZLSED.V/V    : DENSITY POROSITY LIMESTONE [M=2710, F=1000] FROM CND LOG
DPHZSSED.V/V    : DENSITY POROSITY SANDSTONE [M=2650, F=1000] FROM CND LOG
DPOLSWS .V/V    : DENSITY POROSITY LIMESTONE [DPHZSSED CONVERTED TO LS MATRIX,M=2710 F=1000 SPL.TO DPHZLSED @ 2678.9M & DPHILSED @ 3909.6M]
DRESWS  .OHMM   : DEEP RESISTIVITY [AHT90ED SPL.TO IDPHED @ 3913.9M]
DRHOED  .KG/M3  : DENSITY CORRECTION FROM CN-LDT LOG
DT1RRED .US/M   : DELTA TIME SHEAR LOWER DIPOLE RECEIVER [FROM REPEAT] FROM DIPOLE SONIC LOG
DT2ED   .US/M   : DELTA TIME SHEAR UPPER DIPOLE FROM DIPOLE SONIC LOG
DT2RED  .US/M   : DELTA TIME SHEAR RA-UPPER DIPOLE RECEIVER DIPOLE SONIC LOG
DT4PED  .US/M   : DELTA TIME COMP - P & S FROM DIPOLE SONIC LOG
DT4SED  .US/M   : DELTA TIME SHEAR WAVE P&S MODE FROM DIPOLE SONIC LOG
DTED    .US/M   : DELTA TIME FROM SONIC LOG
DTSWS   .US/M   : SHEAR SONIC [DT4SED]
DTWS    .US/M   : COMPRESSIONAL SONIC [DTED SPL.TO DT4PED @ 3909.3M]
GRDED   .GAPI   : GAMMA RAY FROM CND LOG
GRSED   .GAPI   : GAMMA RAY FROM SONIC LOG
GRWS    .GAPI   : GAMMA RAY [GRDED]
HCALSED .MM     : HRCC CALIPER CALIBRATED FROM SONIC LOG
HDED    .MM     : HOLE DIAMETER FROM SONIC LOG
HDRAED  .KG/M3  : DENSITY CORRECTION FROM CND LOG
IDPHED  .OHMM   : DEEP INDUCTION PHASOR FROM PI LOG
IMPHED  .OHMM   : MEDIUM INDUCTION PHASORFROM PI LOG
MRESWS  .OHMM   : MEDIUM RESISTIVITY [AHT30ED SPL.TO IMPHED @ 3913.9M]
NPOLSWS .V/V    : NEUTRON POROSITY LIMESTONE [NPORSSED MATRIX (SLB) CONVERSION FOR LIMESTONE, SPL.TO NPORLSED @ 2675.1M]
NPORLSED.V/V    : NEUTRON POROSITY LIMESTONE FROM CND LOG
NPORSSED.V/V    : NEUTRON POROSITY SANDSTONE FROM CND LOG
PEFED   .B/E    : PHOTOELECTRIC FACTOR FROM CN-LDT LOG
PEFWS   .B/E    : PHOTOELECTRIC FACTOR [PEFZED SPL.TO PEFED @ 3909.7M]
PEFZED  .B/E    : PHOTOELECTRIC FACTOR FROM CND LOG
RHOBED  .KG/M3  : BULK DENSITY FROM CN-LDT LOG
RHOZED  .KG/M3  : FORMATION DENSITY FROM CND LOG
RXOZED  .OHMM   : STANDARD RESOLUTION INVADED ZONE RESISTIVITY FROM PEX-AIT-RXO LOG
SPRED   .MV     : SPONTANEOUS POTENTIAL FROM PEX-AIT-RXO LOG
SPWS    .MV     : SPONTANEOUS POTENTIAL [BASELINE 0 MV, SPRED]
SRESWS  .OHMM   : SHALLOW RESISTIVITY [AHT10ED]
TENDED  .N      : TENSION FROM CND LOG
TENSED  .N      : TENSION FROM SONIC LOG
~Params ----------------------------------------------------
PD  .                                   GL : PERMANENT DATUM
EPD .M                               850.4 : ELEVATION PERMANENT DATUM
LMF .                                   KB : LOG MEASURED FROM
DAPD.M                                 6.8 : FEET ABOVE PERMANENT DATUM
DMF .                                   KB : DRILLING MEASURED FROM
EKB .M                                 857 : KELLY BUSHING
EGL .M                               850.4 : GROUND LEVEL
DATE.                             07/28/96 : RUN DATE
RUN .                                    1 : RUN NUMBER
DD  .M                                4006 : DEPTH DRILLER
DL  .M                                4002 : DEPTH LOGGER
BLI .M                              4000.2 : BOTTOM LOG INTERVAL
TLI .M                              3909.3 : TOP LOG INTERVAL
CS  .MM                              177.8 : CASING SIZE
CBD .M                                3918 : CASING BOTTOM DRILLER
CBL .M                              3909.3 : CASING BOTTOM LOGGER
BS  .MM                                152 : BIT SIZE
BSD .M                                4006 : BIT SIZE AT DEPTH
DFT .                               ENVERT : DRILLING FLUID TYPE
DFD .                                 1610 : DRILLING FLUID DENSITY
TCS .HRS                               930 : TIME CIRCULATED STOPPED
TLAB.HRS                              1700 : TIME LOGGER AT BOTTOM
LUN .                                 2028 : LOGGING UNIT NUMBER
LUL .                        GRANDE PRAIRE : LOGGING UNIT LOCATION
ENGI.                              BAILLIE : RECORDING ENGINEER
WITN.                              LILLICO : WITNESSED BY
CLNT.                              A2DTECH : CLIENT CODE
ORIG. 6.5"/100 M 16.5"/100M 33"/100M PRINT : ORIGIN OF DATA
UWI .                     100132006502W600 : UNIQUE WELL ID
DICO.               A2D Technologies, Inc. : DIGITIZING COMPANY
~Other -----------------------------------------------------
PEX-AIT-RXO-PI-CNL-LDT-DSI-BCS LOG RUN IN COMBO
RHOZED,RHOBED DIG IN SMALL SCALE
~ASCII -----------------------------------------------------
# ...
 3300.00000   44.87150  115.86260  154.51800  346.79110  310.51670  266.70350   37.17090    -999.25    -999.25  217.32070    3.22040   -8.10810 2702.81800    -999.25    0.00420    -999.25    0.00420  310.51670    -999.25    -999.25    -999.25    -999.25    -999.25    -999.25  160.78010    -999.25  160.78010   15.90130   15.77570   15.77570  217.32070  372.77360   -8.10810    -999.25    -999.25  154.51800    0.00370    0.00370    -999.25    -999.25    5.22070    5.22070    -999.25 2702.57860  361.38590 -183.20080 -217.78440   44.87150 19989.36520 20047.56250
 3350.00000  108.05890  147.13020  183.55010 1245.76150 1136.76260 1344.30580   80.25290    -999.25    -999.25  217.42120    0.87970   -7.06290 2711.19700    -999.25   -0.00070    -999.25   -0.00070 1136.76260    -999.25    -999.25    -999.25    -999.25    -999.25    -999.25  158.73950    -999.25  158.73950   16.04730   14.52710   14.52710  217.42120  392.23120   -7.06290    -999.25    -999.25  183.55010    0.00750    0.00750    -999.25    -999.25    5.04970    5.04970    -999.25 2711.20410  497.82700 -213.66310 -254.35430  108.05890 20354.31250 20437.80470
 3400.00000   95.82500  155.38010  180.95700  361.92640  423.88030  389.41670   90.60800    -999.25    -999.25  218.14430    2.35920    2.14080 2700.93700    -999.25    0.00530    -999.25    0.00530  423.88030    -999.25    -999.25    -999.25    -999.25    -999.25    -999.25  165.76270    -999.25  165.76270   14.61610   14.46410   14.46410  218.14430  401.17070    2.14080    -999.25    -999.25  180.95700    0.00750    0.00750    -999.25    -999.25    5.19090    5.19090    -999.25 2701.54390  233.19320 -219.79810 -266.59680   95.82500 20007.22270 19978.16990
 3450.00000   54.14930  118.72730  141.13810  272.75920  187.42700  191.12900   42.10230    -999.25    -999.25  215.99650    5.33540    2.54070 2708.63200    -999.25    0.00080    -999.25    0.00080  187.42700    -999.25    -999.25    -999.25    -999.25    -999.25    -999.25  161.06020    -999.25  161.06020   14.68350   14.30380   14.30380  215.99650  317.99110    2.54070    -999.25    -999.25  141.13810    0.00820    0.00820    -999.25    -999.25    5.26040    5.26040    -999.25 2702.55440  270.26770 -206.96870 -259.87500   54.14930 20184.39060 20093.02730
 3500.00000   18.30320   36.07970   74.91640   97.42230   92.37150   91.20310   13.02200    -999.25    -999.25  216.66720   10.82580    6.05740 2688.79600    -999.25    0.01240    -999.25    0.01240   92.37150    -999.25    -999.25    -999.25    -999.25    -999.25    -999.25  165.81510    -999.25  165.81510   15.33500   15.21950   15.21950  216.66720  290.89510    6.05740    -999.25    -999.25   74.91640    0.01520    0.01520    -999.25    -999.25    5.21810    5.21810    -999.25 2687.01900   78.18830 -127.02450 -186.03830   18.30320 20667.47850 20580.92380
 3550.00000  625.03440  669.54010  723.34650 1445.33610 1105.22290 1417.54300  533.79740    -999.25    -999.25  230.50800    0.90480   94.11140 2893.99600    -999.25   -0.10760    -999.25   -0.10760 1105.22290    -999.25    -999.25    -999.25    -999.25    -999.25    -999.25  165.05820    -999.25  165.05820   14.91310   15.43100   15.43100  230.50800  232.34880   94.11140    -999.25    -999.25  723.34650    0.00560    0.00560    -999.25    -999.25    4.94860    4.94860    -999.25 2894.08060  721.25520 -340.11970 -405.24110  625.03440 20875.27150 20796.18360
 3600.00000    5.81760   18.42020   21.94910   96.20930   78.48760   91.50410    3.94090    -999.25    -999.25  207.08900   12.74090   10.60400 2683.49500    -999.25    0.01550    -999.25    0.01550   78.48760    -999.25    -999.25    -999.25    -999.25    -999.25    -999.25  156.86430    -999.25  156.86430   25.71070   25.56930   25.56930  207.08900  408.79990   10.60400    -999.25    -999.25   21.94910    0.09050    0.09050    -999.25    -999.25    3.36170    3.36170    -999.25 2677.74710   22.89310 -149.00740 -220.23630    5.81760 21204.27150 21185.63090
 3650.00000   22.68120   18.22430   17.61010   15.90170   14.83790   28.17570   15.69470    -999.25    -999.25  216.08160   67.39500   -8.11170 2725.04800    -999.25   -0.00880    -999.25   -0.00880   14.83790    -999.25    -999.25    -999.25    -999.25    -999.25    -999.25  201.73720    -999.25  201.73720   43.96600   43.40300   43.40300  216.08160  259.80260   -8.11170    -999.25    -999.25   17.61010    0.11720    0.11720    -999.25    -999.25    4.83070    4.83070    -999.25 2722.46680   24.80890   32.90290  -44.43360   22.68120 21446.21090 21326.19340
 3700.00000    1.90550    2.29120    2.34960    2.17710    2.15580    2.38780    2.16720    -999.25    -999.25  273.04100  463.86490  111.71880 2607.57100    -999.25    0.05990    -999.25    0.05990    2.15580    -999.25    -999.25    -999.25    -999.25    -999.25    -999.25  269.63920    -999.25  269.63920   86.77240   86.66460   86.66460  273.04100  401.13100  111.71880    -999.25    -999.25    2.34960    0.28460    0.28460    -999.25    -999.25    4.24140    4.24140    -999.25 2598.54960    2.81910   54.12440  -27.72900    1.90550 20996.69340 20883.32620
 3750.00000    2.03980    2.64730    2.59960    2.54580    2.37190    2.39260    1.56850    -999.25    -999.25  229.68450  421.60290  117.53100 2625.52600    -999.25    0.04940    -999.25    0.04940    2.37190    -999.25    -999.25    -999.25    -999.25    -999.25    -999.25  274.22550    -999.25  274.22550   97.79240   97.57910   97.57910  229.68450  333.46800  117.53100    -999.25    -999.25    2.59960    0.29340    0.29340    -999.25    -999.25    4.65460    4.65460    -999.25 2620.07030    3.28750   44.79950  -36.73990    2.03980 21936.86330 22029.62110
 3800.00000    5.93830    6.73940    6.26970    6.05480    5.90630    6.02350    5.88540    -999.25    -999.25  215.78820  169.31070   36.76890 2675.80000    -999.25    0.02000    -999.25    0.02000    5.90630    -999.25    -999.25    -999.25    -999.25    -999.25    -999.25  214.90570    -999.25  214.90570   66.83630   66.82660   66.82660  215.78820  229.37910   36.76890    -999.25    -999.25    6.26970    0.13640    0.13640    -999.25    -999.25    4.58730    4.58730    -999.25 2678.07790   10.92850   73.01400   -8.21140    5.93830 22179.72660 22156.09960
 3850.00000    6.43540    6.17790    6.06720    5.94210    5.71590    5.82420    5.56500    -999.25    -999.25  217.47980  174.95060   22.64020 2688.79600    -999.25    0.01240    -999.25    0.01240    5.71590    -999.25    -999.25    -999.25    -999.25    -999.25    -999.25  229.29820    -999.25  229.29820   86.69470   86.81470   86.81470  217.47980  233.52720   22.64020    -999.25    -999.25    6.06720    0.16010    0.16010    -999.25    -999.25    4.39590    4.39590    -999.25 2693.70630   10.88190   40.11920  -37.69150    6.43540 21910.02540 21925.50590
 3900.00000   43.29320  200.69360  104.09960   93.56600  197.19170  164.12010   41.19900    -999.25    -999.25  212.65400    5.07120   11.61760 2538.82900    -999.25    0.10010    -999.25    0.10010  197.19170    -999.25    -999.25    -999.25    -999.25    -999.25    -999.25    -999.25    -999.25    -999.25   72.66070   66.35360   66.35360  212.65400    -999.25   11.61760    -999.25    -999.25  104.09960    0.18510    0.18510    -999.25    -999.25    3.19880    3.19880    -999.25 2539.98340  152.99520   -6.02740  -80.40870   43.29320 23023.51370 23101.79300
 3950.00000    -999.25    -999.25    -999.25    -999.25    -999.25    -999.25    -999.25  150.04250  153.78810  153.78810   19.57990   -1.10320 2702.81800    0.00420    -999.25    -999.25    0.00420   51.07280   -1.10320  335.95050  322.54820  324.10790  159.97210  309.55400    -999.25  309.55400  159.97210    6.48910    5.26840    5.26840    -999.25  152.09890    -999.25   51.07280   43.97590   43.97590    0.00430    0.00430    -999.25    4.79510    4.79510    -999.25 2702.09330    -999.25    -999.25    -999.25    -999.25    -999.25 19863.86130 20426.13670
 4000.00000    -999.25    -999.25    -999.25    -999.25    -999.25    -999.25    -999.25    -999.25  145.48750  145.48750    -999.25   38.91090 2719.06300   -0.00530    -999.25    -999.25   -0.00530    -999.25   38.91090    -999.25    -999.25    -999.25    -999.25    -999.25    -999.25    -999.25    -999.25    -999.25    -999.25    -999.25    -999.25    -999.25    -999.25    -999.25    -999.25    -999.25    -999.25    -999.25    -999.25    3.72140    3.72140    -999.25 2717.86110    -999.25    -999.25    -999.25    -999.25    -999.25 20331.66210 20233.83400
