~Version ---------------------------------------------------
VERS.      2.0 : CWLS log ASCII Standard -VERSION 2.0
WRAP.       NO : One line per depth step
CREA. 08/31/17 : LAS Creation Date
~Well ------------------------------------------------------
STRT.FT                       1300.0 : START DEPTH
STOP.FT                      12650.0 : STOP DEPTH
STEP.FT                     50.00000 : STEP LENGTH
NULL.                        -999.25 : NULL VALUE
COMP.           PETROFINA CANADA LTD : COMPANY
WELL. FINA AMOCO HB MAYBERNE 10-11-5 : WELL
FLD .                                : FIELD
LOC .                                : LOCATION
CTRY.                         CANADA : COUNTRY
SRVC.                   Schlumberger : SERVICE COMPANY
DATE.                    03-Apr-1977 : LOGDATE
PROV.                        Alberta : PROVINCE
UWI .               100101105718W500 : UNIQUE WELL ID
SLAT.WGS84                  53.91479 : SURFACE LATITUDE
SLON.WGS84                 -116.5629 : SURFACE LONGITUDE
~Curve Information -----------------------------------------
DEPT    .FT    : Depth Curve
CALDED  .IN    : DIFFERENTIAL CALIPER FROM DENSITY LOG
CALSED  .IN    : CALIPER FROM SONIC LOG [ADJ. TO GRED]
CALWS   .IN    : CALIPER [CALSED]
CONDWS  .MMHO  : CONDCUTIVITY [1000/DRESWS]
DCORED  .G/C3  : DENSITY CORRECTION FROM DENSITY LOG
DCORWS  .G/C3  : DENSITY CORRECTION [DRHOED]
DENWS   .G/C3  : FORMATION BULK DENSITY [RHOBED]
DPHILSED.V/V   : DENSITY POROSITY LIME [M=2.71, F=1.0] FROM DENSITY LOG [ADJ. TO RHOBED]
DPHISSED.V/V   : DENSITY POROSITY SAND [M=2.65, F=1.0] FROM DENSITY LOG [ADJ, TO RHOBED]
DPOLSWS .V/V   : DENSITY POROSITY LIME [CALC FROM DENWS, M=2.71, F=1.0]
DRESWS  .OHMM  : DEEP RESISTIVITY [ILDED]
DTED    .US/F  : DELTA-T FROM SONIC LOG [ADJ. TO GRDED]
DTWS    .US/F  : COMPRESSIONAL SONIC [DTED]
GRDED   .GAPI  : GAMMA RAY FROM DENSITY LOG
GRSED   .GAPI  : GAMMA RAY FROM SONIC LOG
GRWS    .GAPI  : GAMMA RAY [GRSED]
ILDED   .OHMM  : DEEP INDUCTION RESISTIVITY FROM RESISTIVITY LOG
ILMED   .OHMM  : MEDIUM INDUCTION RESISTIVITY FROM RESISTIVITY LOG
LL8ED   .OHMM  : LATEROLOG-8 RESISTIVITY FROM RESISTIVITY LOG
MRESWS  .OHMM  : MEDIUM RESISTIVITY [ILMED]
NPHILSED.V/V   : NEUTRON POROSITY LIME FROM DENSITY LOG [ADJ. TO RHOBED]
NPOLSWS .V/V   : NEUTRON POROSITY LIME [SS CONVERTS TO LS. SPL. TO LS @ 8849']
NPORSSED.V/V   : NEUTRON POROSITY SAND FROM DENSITY LOG [ADJ. TO RHOBED]
RHOBED  .G/C3  : DENSITY FORMATION DENSITY FROM DENSITY LOG
SPHIED  .V/V   : SONIC POROSITY [DTM=189, DTF=55.6] FROM SONIC LOG [ADJ. TO GRDED]
SPRED   .MV    : SPONTANEOUS POTENTIAL FROM RESISTIVITY LOG
SPWS    .MV    : SPONTANEOUS POTENTIAL [BASELINE 0 MV, SPRED]
SRESWS  .OHMM  : SHALLOW RESISTIVITY [LL8ED]
~Params ----------------------------------------------------
PD  .                     GL : PERMANENT DATUM
EPD .FT                 4315 : ELEVATION PERMANENT DATUM
LMF .                     KB : LOG MEASURED FROM
DAPD.FT                   17 : FEET ABOVE PERMANENT DATUM
EKB .FT                 4322 : KELLY BUSHING
EGL .FT                 4315 : GROUND LEVEL
DATE.               04/03/77 : RUN DATE
RUN .                      1 : RUN NUMBER
DD  .FT                12670 : DEPTH DRILLER
DL  .FT                12672 : DEPTH LOGGER
BLI .FT                12669 : BOTTOM LOG INTERVAL
TLI .FT                 1324 : TOP LOG INTERVAL
CBD .FT                 1327 : CASING BOTTOM DRILLER
CBL .FT                 1324 : CASING BOTTOM LOGGER
BS  .IN                 8.75 : BIT SIZE
BSD .FT                12670 : BIT SIZE AT DEPTH
DFT .               GEL CHEM : DRILLING FLUID TYPE
DFD .                      9 : DRILLING FLUID DENSITY
DFV .                    130 : DRILLING FLUID VISCOSITY
DFPH.                     10 : DRILLING FLUID PH
MSS .               FLOWLINE : MUD SAMPLE SOURCE
RMS .OHMM                3.2 : RESISTIVITY MUD SAMPLE
MST .DEGF                 56 : MUD SAMPLE TEMPERATURE
RMF .OHMM               2.94 : RESISTIVITY MUD FILTRATE SAMPLE
MFST.DEGF                 62 : MUD FILTRATE SAMPLE TEMPERATURE
RMB .OHMM               0.88 : RESISTIVITY MUD AT BHT
TCS .HRS                   4 : TIME CIRCULATED STOPPED
LUN .                   7667 : LOGGING UNIT NUMBER
LUL .                    EDM : LOGGING UNIT LOCATION
ENGI.          CAMPBELL BIGG : RECORDING ENGINEER
WITN.         SANDERS DAVIES : WITNESSED BY
CLNT.                A2DTECH : CLIENT CODE
ORIG.            2" 5" PRINT : ORIGIN OF DATA
UWI .       100101105718W500 : UNIQUE WELL ID
DICO. A2D Technologies, Inc. : DIGITIZING COMPANY
~Other -----------------------------------------------------
~ASCII -----------------------------------------------------
# ...
 10050.00000    8.82790    8.78640    8.78640   45.60220   -0.02140   -0.02140    2.54610    0.10490    -999.25    0.09590   22.00930   69.33580   69.33580  281.54220  297.98160  297.98160   22.00930   29.22550   24.41250   29.22550    0.10750    0.10750    -999.25    2.54610    0.18570  -24.56060  -18.34730   24.41250
 10100.00000    9.97030    9.32020    9.32020    4.09660    0.26490    0.26490    2.62940    0.05340    -999.25    0.04710  244.58400   50.44210   50.44210   18.68800   18.98810   18.98810  244.58400  425.12280 1477.88280  425.12280    0.01580    0.01580    -999.25    2.62940   -0.00630  -80.31870  -71.26530 1477.88280
 10150.00000   10.12870    9.25340    9.25340    1.16980    0.24810    0.24810    2.56970    0.08690    -999.25    0.08200  859.90800   50.38140   50.38140   16.91740   16.26600   16.26600  859.90800 1169.44430 1591.72650 1169.44430    0.00600    0.00600    -999.25    2.56970   -0.00580 -133.62470 -121.74510 1591.72650
 10200.00000    9.79960    9.19610    9.19610    4.49490    0.19840    0.19840    2.60410    0.06060    -999.25    0.06190  222.57550   49.90350   49.90350   12.59140   14.43760   14.43760  222.57550  236.26590  515.74740  236.26590    0.00800    0.00800    -999.25    2.60410   -0.00230 -126.44220 -111.72240  515.74740
 10250.00000   10.05310    9.37340    9.37340    4.78040    0.21870    0.21870    2.60880    0.05680    -999.25    0.05920  209.28530   50.13300   50.13300   11.43220   14.31180   14.31180  209.28530  219.62570  752.91280  219.62570    0.01230    0.01230    -999.25    2.60880    0.00710 -132.06890 -114.53720  752.91280
 10300.00000   10.65910    9.36920    9.36920    3.22010    0.23450    0.23450    2.47320    0.14220    -999.25    0.13850  310.64550   48.75360   48.75360   12.08740   13.33360   13.33360  310.64550  212.40730  943.98540  212.40730    0.03600    0.03600    -999.25    2.47320   -0.01060 -105.36330  -85.01960  943.98540
 10350.00000   11.29760    9.55200    9.55200    0.70630    0.21910    0.21910    2.22030    0.28930    -999.25    0.28640 1415.80860   50.71600   50.71600   13.80640   18.19650   18.19650 1415.80860  992.69940 1541.76010  992.69940    0.01900    0.01900    -999.25    2.22030    0.00780 -185.27220 -162.08830 1541.76010
 10400.00000   10.66670   10.08060   10.08060    1.29880    0.21770    0.21770    2.19030    0.29500    -999.25    0.30400  771.48960   51.12220   51.12220   13.01700   12.68980   12.68980  771.48960  411.00320  358.95580  411.00320    0.05780    0.05780    -999.25    2.19030    0.00820 -200.94280 -174.93280  358.95580
 10450.00000   10.15770    9.03120    9.03120    1.72270    0.23910    0.23910    2.37260    0.19340    -999.25    0.19730  584.43190   49.64970   49.64970   11.11720   14.32600   14.32600  584.43190  791.94010 1454.41120  791.94010    0.03750    0.03750    -999.25    2.37260    0.00290 -159.68710 -130.83700 1454.41120
 10500.00000   10.20510    9.49250    9.49250    0.91970    0.23610    0.23610    2.24000    0.24810    -999.25    0.27490 1096.68350   51.10090   51.10090   11.78850   14.23830   14.23830 1096.68350  796.89620 1474.41000  796.89620    0.02850    0.02850    -999.25    2.24000    0.00390 -176.64490 -144.98280 1474.41000
 10550.00000   10.51060   10.06780   10.06780    1.33940    0.18860    0.18860    2.49220    0.12320    -999.25    0.12740  748.20600   50.55710   50.55710   15.95300   14.91860   14.91860  748.20600  328.44780 1438.65680  328.44780    0.02810    0.02810    -999.25    2.49220    0.00710 -177.47880 -143.00480 1438.65680
 10600.00000   10.92250    9.23140    9.23140    1.58460    0.25240    0.25240    2.49210    0.13150    -999.25    0.12740  645.07490   50.50150   50.50150   13.01420   17.27870   17.27870  645.07490  297.71260 1447.33120  297.71260    0.00890    0.00890    -999.25    2.49210    0.00160 -192.37170 -155.05740 1447.33120
 10650.00000   10.00240    9.30640    9.30640    9.17020    0.24360    0.24360    2.26330    0.25900    -999.25    0.26120  109.04960   51.43050   51.43050   12.84100   13.66650   13.66650  109.04960   86.52190  117.04700   86.52190    0.02550    0.02550    -999.25    2.26330    0.01230 -161.34190 -121.20160  117.04700
 10700.00000    9.37220    8.99290    8.99290    7.94290    0.12060    0.12060    2.55930    0.08700    -999.25    0.08810  125.92720   50.32560   50.32560    9.87510    9.66810    9.66810  125.92720  129.37590  167.95620  129.37590    0.01410    0.01410    -999.25    2.55930    0.00320 -149.90160 -106.92110  167.95620
 10750.00000    9.36310    9.02330    9.02330    1.69260    0.23940    0.23940    2.33070    0.22900    -999.25    0.22180  591.93830   51.08690   51.08690   17.77320   16.30140   16.30140  591.93830  529.77040 1433.37620  529.77040    0.02170    0.02170    -999.25    2.33070    0.00630 -158.85200 -113.05950 1433.37620
 10800.00000    8.44360    8.28770    8.28770   57.50420    0.00750    0.00750    2.73960   -0.02220    -999.25   -0.01730   17.46280   48.63600   48.63600   26.43260   26.00550   26.00550   17.46280   25.77140  134.77360   25.77140    0.05300    0.05300    -999.25    2.73960   -0.01030 -111.56030  -62.95590  134.77360
 10850.00000    8.48780    8.36870    8.36870   52.00150    0.02420    0.02420    2.68440    0.01640    -999.25    0.01500   19.32910   52.17470   52.17470   19.88780   26.79000   26.79000   19.32910   27.80010   83.29780   27.80010    0.10720    0.10720    -999.25    2.68440    0.01580 -113.20560  -64.97340   83.29780
 10900.00000    9.21530    9.04140    9.04140   14.39470    0.26160    0.26160    2.23770    0.28710    -999.25    0.27620   70.54730   51.26140   51.26140   20.38690   23.53890   23.53890   70.54730  107.30070  212.11070  107.30070    0.09380    0.09380    -999.25    2.23770    0.00970 -140.07820  -95.16220  212.11070
 10950.00000   10.31570    9.19630    9.19630   17.79630    0.24030    0.24030    2.28000    0.26100    -999.25    0.25150   56.21890   52.68000   52.68000   30.57190   28.77800   28.77800   56.21890   52.95950   59.75460   52.95950    0.12360    0.12360    -999.25    2.28000    0.02590 -135.26810  -93.68510   59.75460
 11000.00000   10.71460    9.40350    9.40350    4.47640    0.24650    0.24650    2.37550    0.17720    -999.25    0.19560  224.50320   51.24500   51.24500   23.17620   27.43560   27.43560  224.50320  246.80210  174.07420  246.80210    0.04410    0.04410    -999.25    2.37550    0.01040 -140.11650 -101.83310  174.07420
 11050.00000   11.21140    9.19330    9.19330    6.14270    0.26250    0.26250    2.56590    0.08260    -999.25    0.08430  162.80980   52.75360   52.75360   30.33810   31.32870   31.32870  162.80980  245.18670  857.23160  245.18670    0.02150    0.02150    -999.25    2.56590    0.01820  -73.29960  -38.31590  857.23160
 11100.00000    8.98540    9.04170    9.04170   18.87720   -0.01850   -0.01850    2.67750    0.01770    -999.25    0.01900   52.97490   52.70340   52.70340   38.09310   40.22000   40.22000   52.97490   73.84060   99.96840   73.84060    0.03650    0.03650    -999.25    2.67750    0.02060  -39.81070   -8.15990   99.96840
 11150.00000    9.00760    8.94440    8.94440   25.02400   -0.00500   -0.00500    2.69020    0.00670    -999.25    0.01160   40.00380   54.22910   54.22910   41.42770   44.47190   44.47190   40.00380   53.03150   65.66260   53.03150    0.04470    0.04470    -999.25    2.69020    0.03030  -38.77740  -10.44280   65.66260
 11200.00000    9.09150    8.87780    8.87780   26.04880   -0.01400   -0.01400    2.68420    0.01440    -999.25    0.01510   38.38960   53.88320   53.88320   44.79100   42.46230   42.46230   38.38960   49.29530   56.34340   49.29530    0.05250    0.05250    -999.25    2.68420    0.02870  -47.52570  -22.52390   56.34340
 11250.00000    9.13550    8.90810    8.90810   16.05260   -0.00140   -0.00140    2.68850    0.01030    -999.25    0.01260   62.29540   54.29290   54.29290   35.35940   38.32310   38.32310   62.29540   83.02940  121.89990   83.02940    0.03360    0.03360    -999.25    2.68850    0.02800  -55.36290  -33.66080  121.89990
