~Version ---------------------------------------------------
VERS.      2.0 : CWLS log ASCII Standard -VERSION 2.0
WRAP.       NO : One line per depth step
CREA. 08/01/17 : LAS Creation Date
~Well ------------------------------------------------------
STRT.FT                  900.0 : START DEPTH
STOP.FT                 9500.0 : STOP DEPTH
STEP.FT               50.00000 : STEP LENGTH
NULL.                  -999.25 : NULL VALUE
COMP. BP CANADA ENERGY COMPANY : COMPANY
WELL. AMOCO HB WIND 3-32-60-15 : WELL
FLD .                          : FIELD
LOC .                          : LOCATION
CTRY.                   CANADA : COUNTRY
SRVC.   Schlumberger of Canada : SERVICE COMPANY
DATE.              25-Jan-1971 : LOGDATE
PROV.                  Alberta : PROVINCE
UWI .         100033206015W500 : UNIQUE WELL ID
SLAT.WGS84             54.2274 : SURFACE LATITUDE
SLON.WGS84           -116.2148 : SURFACE LONGITUDE
~Curve Information -----------------------------------------
DEPT    .FT    : Depth Curve
CALDED  .IN    : CALIPER FROM DENSITY LOG
CALNED  .IN    : CALIPER FROM NEUTRON LOG
CALSED  .IN    : CALIPER FROM SONIC LOG
CALWS   .IN    : CALIPER [CALSED]
CONDWS  .MMHO  : CONDUCTIVITY [1000/DRESWS]
CORRED  .G/C3  : DENSITY CORRECTION FROM DENSITY LOG
DCORWS  .G/C3  : DENSITY CORR4ECTION [CORRED]
DENWS   .G/C3  : BULK DENSITY RHOBED]
DPHILSED.V/V   : DENSITY POROSITY [M=2.71, F=1.00] FROM DENSITY LOG
DPOLSWS .V/V   : DENSITY POROSITY LIMESTONE [CALCULATED FROM DENWS]
DRESWS  .OHMM  : DEEP RESISTIVITY [ILDED]
DTED    .US/F  : DELTA TIME FROM SONIC LOG
DTWS    .US/F  : DELTA TIME [DTED]
GRDED   .GAPI  : GAMMA RAY FROM DENSITY LOG
GRNED   .GAPI  : GAMMA RAY FROM NEUTRON LOG
GRSED   .GAPI  : GAMMA RAY FROM SONIC LOG
GRWS    .GAPI  : GAMMA RAY [GRDED]
ILDED   .OHMM  : INDUCTION LOG DEEP RESISTIVITY
ILMED   .OHMM  : INDUCTION LOG MEDIUM RESISTIVITY
LL8ED   .OHMM  : 8 INCH LATEROLOG RESISTIVITY
MRESWS  .OHMM  : MEDIUM RESISTIVITY [ILMED]
NPOLSWS .V/V   : NEUTRON POROSITY LIMESTONE [SNPLSED]
RHOBED  .G/C3  : BULK DENSITY FROM DENSITY LOG
SNPLSED .V/V   : SIDEWALL NEUTRON POROSITY LIMESONTE
SPRED   .MV    : SPONTANEOUS POTENTIAL FROM RESISTIVITY LOG
SPWS    .MV    : SPONTANEOUS POTENTIAL [BASELINE 0 MV] [SPRED]
SRESWS  .OHMM  : SHALLOW RESISTIVITY [LL8ED]
~Params ----------------------------------------------------
PD  .                     GL : PERMANENT DATUM
EPD .FT               2499.5 : ELEVATION PERMANENT DATUM
LMF .                     KB : LOG MEASURED FROM
DAPD.FT                   14 : FEET ABOVE PERMANENT DATUM
EKB .FT               2513.5 : KELLY BUSHING
EGL .FT               2499.5 : GROUND LEVEL
DATE.               01/25/71 : RUN DATE
RUN .                      1 : RUN NUMBER
DD  .FT                 8540 : DEPTH DRILLER
DL  .FT                 8541 : DEPTH LOGGER
BLI .FT                 8535 : BOTTOM LOG INTERVAL
TLI .FT                  921 : TOP LOG INTERVAL
CBD .FT                  921 : CASING BOTTOM DRILLER
CBL .FT                  920 : CASING BOTTOM LOGGER
BS  .IN                 8.75 : BIT SIZE
BSD .FT                 9540 : BIT SIZE AT DEPTH
DFT .                GELCHEM : DRILLING FLUID TYPE
DFD .                    9.7 : DRILLING FLUID DENSITY
DFV .                    122 : DRILLING FLUID VISCOSITY
DFPH.                     10 : DRILLING FLUID PH
DFL .                      8 : DRILLING FLUID LOSS
MSS .               FLOWLINE : MUD SAMPLE SOURCE
RMF .OHMM               0.97 : RESISTIVITY MUD FILTRATE SAMPLE
MFST.DEGF                 73 : MUD FILTRATE SAMPLE TEMPERATURE
RMC .OHMM               1.49 : RESISTIVITY MUD CAKE
MCST.DEGF                 72 : MUD CAKE SAMPLE TEMPERATURE
TCS .HRS                   4 : TIME CIRCULATED STOPPED
LUN .                   7501 : LOGGING UNIT NUMBER
LUL .                    EDM : LOGGING UNIT LOCATION
ENGI.                 SLADEN : RECORDING ENGINEER
WITN.       HEIKKINEN MORRIS : WITNESSED BY
CLNT.                A2DTECH : CLIENT CODE
ORIG.            2" 5" PRINT : ORIGIN OF DATA
UWI .       100033206015W500 : UNIQUE WELL ID
DICO. A2D Technologies, Inc. : DIGITIZING COMPANY
~Other -----------------------------------------------------
~ASCII -----------------------------------------------------
# ...
 7400.00000   11.75890   11.66190    9.40300    9.40300    3.36750    0.23260    0.23260    2.70380    0.00940    0.00360  296.95190   47.11270   47.11270    9.03240    9.76340   10.73750   10.73750  296.95190  264.39570  445.96160  264.39570    0.01120    2.70380    0.01120 -168.29190 -121.99880  445.96160
 7450.00000    9.47690    9.50870    8.87250    8.87250   32.44950    0.06790    0.06790    2.73940   -0.01040   -0.01720   30.86380   52.09880   52.09880    7.98700    9.70440   13.39750   13.39750   30.86380   46.02040  132.77880   46.02040    0.02180    2.73940    0.02180 -181.03230 -135.13050  132.77880
 7500.00000   12.10460   12.22020    9.68330    9.68330    3.61220    0.22580    0.22580    2.66560    0.02770    0.02600  276.84090   48.86420   48.86420   17.18590   13.76790   13.37950   13.37950  276.84090 1475.01290 1572.62080 1475.01290    0.02220    2.66560    0.02220 -163.16310 -117.64870 1572.62080
 7550.00000    9.57180    9.68480    9.13750    9.13750    1.34480    0.04100    0.04100    2.93110   -0.10590   -0.12930  743.61870   47.76930   47.76930   12.54000   12.54750   12.66730   12.66730  743.61870  439.41460 1132.10170  439.41460   -0.00260    2.93110   -0.00260 -124.97300  -79.84800 1132.10170
 7600.00000    9.48550    9.58710    9.17480    9.17480    0.70150    0.02310    0.02310    2.95660   -0.10610   -0.14420 1425.58740   48.90270   48.90270   16.61170   11.90570   14.73460   14.73460 1425.58740  974.18730 1556.93520  974.18730   -0.00330    2.95660   -0.00330  -92.98770  -48.25210 1556.93520
 7650.00000    9.58170    9.59990    8.97320    8.97320   20.71930    0.09150    0.09150    2.78000   -0.03490   -0.04090   48.26410   51.90720   51.90720   10.35760   11.79160   14.21160   14.21160   48.26410   74.64850  132.73800   74.64850    0.08460    2.78000    0.08460 -142.39970  -98.05340  132.73800
 7700.00000   11.33480   11.24780    9.25800    9.25800    9.85550    0.23210    0.23210    2.64310    0.03650    0.03910  101.86660   46.65620   46.65620   12.78140   12.15810   16.35010   16.35010  101.86660 1156.13520  234.87520 1156.13520    0.13470    2.64310    0.13470 -136.65530  -92.70030  234.87520
 7750.00000   10.08490   10.55390    9.34710    9.34710    6.03380    0.24650    0.24650    2.85300   -0.07270   -0.08360  165.73420   47.04500   47.04500   16.18290   16.04810   16.40190   16.40190  165.73420  260.77360  247.59100  260.77360    0.05240    2.85300    0.05240 -106.26580  -62.69830  247.59100
 7800.00000    9.29570    9.37080    8.96160    8.96160    7.19460    0.03710    0.03710    2.76670   -0.02720   -0.03320  138.99330   50.24750   50.24750   20.79180   23.66030   27.06830   27.06830  138.99330  168.98050  255.30230  168.98050    0.00810    2.76670    0.00810  -67.67340  -24.49520  255.30230
 7850.00000    9.29430    9.34430    8.98910    8.98910    2.54670    0.03330    0.03330    2.75130   -0.01800   -0.02420  392.66140   50.88100   50.88100   24.67700   20.95280   28.78630   28.78630  392.66140  276.27720  433.45880  276.27720    0.00450    2.75130    0.00450  -53.03380  -11.43720  433.45880
 7900.00000    9.27590    9.35090    8.83690    8.83690    0.71680    0.03600    0.03600    2.76640   -0.02140   -0.03300 1395.15150   50.38430   50.38430   20.77930   21.18620   23.37650   23.37650 1395.15150 1312.07600 1528.41250 1312.07600    0.00310    2.76640    0.00310  -60.27760  -22.68310 1528.41250
 7950.00000    9.32580    9.44320    8.90200    8.90200    0.97810    0.01810    0.01810    2.73020   -0.00490   -0.01180 1022.42840   50.73300   50.73300   21.66310   24.10730   26.21870   26.21870 1022.42840 1449.69390 1520.97500 1449.69390    0.00880    2.73020    0.00880  -46.97560  -13.40320 1520.97500
 8000.00000    9.48680    9.53790    8.95810    8.95810    9.37530    0.02210    0.02210    2.74520   -0.02440   -0.02060  106.66360   53.71590   53.71590   26.14530   27.54040   32.68400   32.68400  106.66360  113.94810  158.11400  113.94810    0.01450    2.74520    0.01450  -31.48700   -1.89680  158.11400
 8050.00000    9.53230    9.62700    9.06480    9.06480   38.29600    0.02710    0.02710    2.74710   -0.01380   -0.02170   26.11240   61.22630   61.22630   55.48330   53.56680   55.04300   55.04300   26.11240   28.87360   33.77690   28.87360    0.05000    2.74710    0.05000  -28.66830   -3.08020   33.77690
 8100.00000    9.53930    9.60320    8.97660    8.97660   32.33300    0.03350    0.03350    2.76590   -0.02690   -0.03270   30.92820   58.76220   58.76220   47.02070   51.65040   48.41960   48.41960   30.92820   33.91080   43.11080   33.91080    0.04930    2.76590    0.04930  -28.47050   -3.95830   43.11080
 8150.00000   10.12140   10.70480    9.30060    9.30060   84.24740    0.11610    0.11610    2.72900    0.01180   -0.01110   11.86980   70.54310   70.54310   78.82630   76.83280   79.07870   79.07870   11.86980   13.59360   18.01370   13.59360    0.15650    2.72900    0.15650  -31.49570   -6.26600   18.01370
 8200.00000    9.83610    9.85480    9.18790    9.18790   59.27040    0.03040    0.03040    2.74570   -0.01410   -0.02090   16.87360   65.30460   65.30460   64.94160   62.73280   67.41410   67.41410   16.87360   18.66020   24.30400   18.66020    0.07530    2.74570    0.07530  -28.00240   -2.05160   24.30400
 8250.00000    9.69200    9.62270    9.06100    9.06100    4.67350    0.03840    0.03840    2.69740    0.01310    0.00740  213.97030   63.00670   63.00670   81.26030   76.72200   81.63650   81.63650  213.97030  475.19520  356.94620  475.19520    0.08090    2.69740    0.08090  -39.30980  -12.64510  356.94620
 8300.00000   10.34540   10.02650   10.92400   10.92400   43.35100    0.21990    0.21990    2.53710    0.10640    0.10110   23.06750   71.50230   71.50230   74.78890   69.60650   79.87300   79.87300   23.06750   19.43140   29.76440   19.43140    0.13830    2.53710    0.13830  -41.44330  -14.06110   29.76440
 8350.00000   13.19950   13.20320   10.86340   10.86340   79.19410    0.20910    0.20910    2.20360    0.29530    0.29610   12.62720   71.51630   71.51630   74.61690   68.70570   71.77480   71.77480   12.62720   14.62070   16.58320   14.62070    0.30030    2.20360    0.30030  -41.10340  -13.00360   16.58320
 8400.00000    9.67490    9.73440    9.30580    9.30580   33.16800    0.04330    0.04330    2.78950   -0.04200   -0.04650   30.14950   63.85290   63.85290   83.90630   78.66310   83.14470   83.14470   30.14950   38.03740   48.19770   38.03740    0.08070    2.78950    0.08070  -33.18440   -4.36710   48.19770
 8450.00000    9.71880    9.83090    9.12220    9.12220   19.74190    0.02560    0.02560    2.77410   -0.02970   -0.03750   50.68460   59.30800   59.30800   73.39580   72.37560   79.67930   79.67930   50.68460   56.74470   98.32940   56.74470    0.04520    2.77410    0.04520  -33.15400   -3.61560   98.32940
 8500.00000   10.22110   10.29370    9.50290    9.50290   34.18290    0.04210    0.04210    2.80260   -0.04170   -0.05420   29.25440   63.97940   63.97940   95.30970   88.41420   96.73190   96.73190   29.25440   32.03840   50.36400   32.03840    0.06410    2.80260    0.06410  -32.20460   -1.95230   50.36400
 8550.00000    8.73610    8.61720    8.13160    8.13160   11.04650    0.20530    0.20530    2.81750   -0.06250   -0.06290   90.52660   51.09700   51.09700    8.66230    8.78420   14.45810   14.45810   90.52660  217.36230  291.75020  217.36230    0.06420    2.81750    0.06420 -133.48350 -102.51370  291.75020
 8600.00000    9.21690    8.77040    9.06640    9.06640    0.89480    0.14920    0.14920    2.67880    0.02400    0.01820 1117.59890   48.79740   48.79740   10.29780    9.76080   13.46370   13.46370 1117.59890  340.26310  763.60460  340.26310    0.09210    2.67880    0.09210 -148.58700 -116.89960  763.60460
 8650.00000    8.69530    8.57510    8.64860    8.64860    0.90870    0.21970    0.21970    2.73970   -0.01360   -0.01740 1100.51490   50.26060   50.26060   11.27290   11.95730   14.74110   14.74110 1100.51490 1576.43290  606.63570 1576.43290    0.13460    2.73970    0.13460 -156.32880 -123.92390  606.63570
