~Version ---------------------------------------------------
VERS.      2.0 : CWLS log ASCII Standard -VERSION 2.0
WRAP.       NO : One line per depth step
CREA. 12/19/12 : LAS Creation Date
~Well ------------------------------------------------------
STRT.M                      300.0 : START DEPTH
STOP.M                     3100.0 : STOP DEPTH
STEP.M                   50.00000 : STEP LENGTH
NULL.                     -999.25 : NULL VALUE
COMP.        PETROFINA CANADA LTD : COMPANY
WELL. FINA ET AL CHIC 11-25-62-16 : WELL
FLD .                             : FIELD
LOC .                             : LOCATION
CTRY.                      CANADA : COUNTRY
SRVC.                Schlumberger : SERVICE COMPANY
DATE.                 08-Nov-1978 : LOGDATE
PROV.                     Alberta : PROVINCE
UWI .            100112506216W500 : UNIQUE WELL ID
SLAT.WGS84               54.39508 : SURFACE LATITUDE
SLON.WGS84              -116.2673 : SURFACE LONGITUDE
~Curve Information -----------------------------------------
DEPT    .M      : DEPTH METER
CALDED  .MM     : CALIPER FROM CND LOG [ADJ. TO ILDED]
CALSED  .MM     : CALIPER FROM BCS LOG [ADJ. TO ILDED]
CALWS   .MM     : CALIPER [CALSED SPL. TO CALDED @ 3113M]
CILDED  .MMHO   : DEEP INDUCTION CONDUCTIVITY FROM DI-SFL LOG
CONDWS  .MMHO   : CONDUCTIVITY [1000/DRESWS]
DCORED  .KG/M3  : DENSITY CORRECTION FROM CND LOG
DCORWS  .KG/M3  : BULK DENSITY [DCORED]
DENWS   .KG/M3  : FORMATION BULK DENSITY [RHOBED]
DPHILSED.V/V    : DENSITY POROSITY LIMESTONE [M=2710, F=1000] FROM CND LOG [ADJ. TO RHOBED]
DPHISSED.V/V    : DENSITY POROSITY SANDSTONE [D=2650, F=1000] FROM CND LOG [ADJ. TO RHOBED]
DPOWS   .V/V    : DENSITY POROSITY LIMESTONE [DPHISSED CONVERTED TO LIMESTONE MATRIX, M=2710, F=1000, SPL. TO DPHILSED @ 1960 M]
DRESWS  .OHMM   : DEEP RESISTIVITY [ILDED]
DTED    .US/M   : DELTA-T FROM BCS LOG [ADJ. TO ILDED]
DTWS    .US/M   : COMPRESSIONAL SONIC [DTED]
GRDED   .GAPI   : GAMMA RAY FROM DI-SFL LOG
GRSED   .GAPI   : GAMMA RAY FROM BCS LOG [ADJ. TO GRDED]
GRWS    .GAPI   : GAMMA RAY [GRSED SPL. TO GRDED @ 3102.3M]
ILDED   .OHMM   : DEEP INDUCTION FROM BCS LOG
ILMED   .OHMM   : MEDIUM INDUCTION FROM BCS LOG
MRESWS  .OHMM   : MEDIUM RESISTIVITY [ILMED]
NPHILSED.V/V    : NEUTRON POROSITY LIMESTONE FROM CND LOG [ADJ. TO RHOBED]
NPHISSED.V/V    : NEUTRON POROSITY SANDSTONE FROM CND LOG [ADJ. TO RHOBED]
NPOWS   .V/V    : NEUTRON POROSITY LIMESTONE [NPHISSED MATRIX CONVERSION FOR LIMESTONE, SPL. TO NPHISSED @ 1960 M]
RHOBED  .KG/M3  : BULK DENSITY FROM CND LOG
SFLED   .OHMM   : SPHERICALLY FOCUSED FROM DI-SFL LOG
SPRED   .MV     : SPONTANEOUS POTENTIAL FROM DI-SFL LOG
SPWS    .MV     : SPONTANEOUS POTENTIAL [BASELINED 0 MV, SPRED]
SRESWS  .OHMM   : SHALLOW RESISTIVITY [SFLED]
~Params ----------------------------------------------------
PD  .                         GL : PERMANENT DATUM
EPD .M                   1019.76 : ELEVATION PERMANENT DATUM
LMF .                         KB : LOG MEASURED FROM
DAPD.M                      5.24 : FEET ABOVE PERMANENT DATUM
DMF .                         KB : DRILLING MEASURED FROM
EKB .M                      1025 : KELLY BUSHING
EGL .M                   1019.76 : GROUND LEVEL
DATE.                   11/08/78 : RUN DATE
RUN .                          2 : RUN NUMBER
DD  .M                      3113 : DEPTH DRILLER
DL  .M                      3114 : DEPTH LOGGER
BLI .M                      3113 : BOTTOM LOG INTERVAL
TLI .M                      1825 : TOP LOG INTERVAL
CBD .M                       318 : CASING BOTTOM DRILLER
CBL .M                       318 : CASING BOTTOM LOGGER
BS  .MM                      222 : BIT SIZE
BSD .M                      3113 : BIT SIZE AT DEPTH
DFT .                        KCL : DRILLING FLUID TYPE
DFD .                       1120 : DRILLING FLUID DENSITY
DFV .                         42 : DRILLING FLUID VISCOSITY
DFPH.                         10 : DRILLING FLUID PH
DFL .                       15.2 : DRILLING FLUID LOSS
MSS .                CIRCULATION : MUD SAMPLE SOURCE
RMS .OHMM                  0.189 : RESISTIVITY MUD SAMPLE
MST .DEGF                     25 : MUD SAMPLE TEMPERATURE
RMF .OHMM                  0.168 : RESISTIVITY MUD FILTRATE SAMPLE
MFST.DEGC                     15 : MUD FILTRATE SAMPLE TEMPERATURE
MFSS.                CIRCULATION : MUD FILTRATE SAMPLE SOURCE
TCS .HRS                    2100 : TIME CIRCULATED STOPPED
TLAB.HRS                    1500 : TIME LOGGER AT BOTTOM
LUN .                       7738 : LOGGING UNIT NUMBER
LUL .                        EDM : LOGGING UNIT LOCATION
ENGI.                       GUNN : RECORDING ENGINEER
WITN.                      SMITH : WITNESSED BY
CLNT.                    A2DTECH : CLIENT CODE
ORIG. 6.5"/100M 16.5"/100M PRINT : ORIGIN OF DATA
UWI .           100112506216W500 : UNIQUE WELL ID
DICO.     A2D Technologies, Inc. : DIGITIZING COMPANY
~Other -----------------------------------------------------
SFLED, CILDED, ILDED & SPRED FOR DEPTH 750M IS FROM 1"LOG SECTION, DTED, GRSED, CALSED UPTO DEPTH 700M IS FROM 1" LOG SECTION,
~ASCII -----------------------------------------------------
  300.00000    -999.25    -999.25    -999.25    -999.25    -999.25    -999.25    -999.25    -999.25    -999.25    -999.25    -999.25    -999.25    -999.25    -999.25    -999.25   56.66470   56.66470    -999.25    -999.25    -999.25    -999.25    -999.25    -999.25    -999.25    -999.25    -999.25    -999.25    -999.25
  350.00000    -999.25  251.13650  251.13650  130.13860  125.27380    -999.25    -999.25    -999.25    -999.25    -999.25    -999.25    7.99520  354.69350  354.69350    -999.25   67.38550   67.38550    7.99520    -999.25    -999.25    -999.25    -999.25    -999.25    -999.25    5.20950  -19.84190  -18.99460    5.20960
  400.00000    -999.25  258.25300  258.25300  117.37350  116.03420    -999.25    -999.25    -999.25    -999.25    -999.25    -999.25    8.63230  331.54450  331.54450    -999.25   82.33360   82.33360    8.63230    -999.25    -999.25    -999.25    -999.25    -999.25    -999.25    7.61610  -35.13610  -34.66360    7.61610
  450.00000    -999.25  256.73190  256.73190  158.20210  167.02260    -999.25    -999.25    -999.25    -999.25    -999.25    -999.25    5.99640  363.22760  363.22760    -999.25   97.40600   97.40600    5.92320    -999.25    -999.25    -999.25    -999.25    -999.25    -999.25    4.68520  -30.98370  -31.01770    4.68520
  500.00000    -999.25  243.04040  243.04040  243.31550  267.93850    -999.25    -999.25    -999.25    -999.25    -999.25    -999.25    3.73220  368.73530  368.73530    -999.25  118.61440  118.61440    3.73220    -999.25    -999.25    -999.25    -999.25    -999.25    -999.25    3.32460  -53.07200  -53.61250    3.32460
  550.00000    -999.25  233.78180  233.78180  190.57040  206.40260    -999.25    -999.25    -999.25    -999.25    -999.25    -999.25    4.84490  346.17910  346.17910    -999.25  104.65230  104.65230    4.84490    -999.25    -999.25    -999.25    -999.25    -999.25    -999.25    4.38580  -53.21980  -54.26690    4.38580
  600.00000    -999.25  234.36330  234.36330  143.23530  157.59700    -999.25    -999.25    -999.25    -999.25    -999.25    -999.25    6.34530  333.79450  333.79450    -999.25   85.42130   85.42130    6.34530    -999.25    -999.25    -999.25    -999.25    -999.25    -999.25    5.74750  -51.95350  -53.50710    5.74750
  650.00000    -999.25  242.04800  242.04800  269.17220  295.42970    -999.25    -999.25    -999.25    -999.25    -999.25    -999.25    3.38490  362.50720  362.50720    -999.25   97.41600   97.41600    3.38490    -999.25    -999.25    -999.25    -999.25    -999.25    -999.25    3.96980  -55.76120  -57.82130    3.96980
  700.00000    -999.25  269.18750  269.18750  283.35900  328.05170    -999.25    -999.25    -999.25    -999.25    -999.25    -999.25    3.04830  492.86310  492.86310    -999.25  102.80160  102.80160    3.04830    -999.25    -999.25    -999.25    -999.25    -999.25    -999.25    2.26630  -48.89200  -51.45860    2.26630
  750.00000    -999.25  230.53610  230.53610    -999.25  185.22290    -999.25    -999.25    -999.25    -999.25    -999.25    -999.25    5.39890  307.00750  307.00750    -999.25   86.06860   86.06860    5.39890    5.01930    5.01930    -999.25    -999.25    -999.25    -999.25    6.05150  -18.80730  -21.88040    6.05150
  800.00000  376.25620  304.11630  304.11630    -999.25  403.27460  180.51250  180.51250 1821.08150    -999.25    0.48650    0.50450    2.47970  474.05380  474.05380  128.40740  119.15280  119.15280    2.47970    2.08600    2.08600    -999.25    0.46130    0.41960 1821.08150    1.78680  -49.39380  -52.97340    1.78680
  850.00000  234.58310  243.06860  243.06860    -999.25   79.83390   56.61290   56.61290 2324.39750    -999.25    0.20440    0.23230   12.52600  308.14580  308.14580   73.67490   77.39620   77.39620   12.52600   11.67640   11.67640    -999.25    0.33520    0.29140 2324.39750    8.96340  -36.27860  -40.36470    8.96340
  900.00000  259.51300  250.51810  250.51810    -999.25  129.77450  171.15710  171.15710 2177.67800    -999.25    0.28210    0.30730    7.70770  303.18810  303.18810   80.86140   73.24940   73.24940    7.77600    6.53850    6.45810    -999.25    0.39710    0.35410 2177.67800    5.89130  -38.17340  -42.76610    5.80710
  950.00000  299.34540  255.89450  255.89450    -999.25  246.43100   75.37480   75.37480 1727.13450    -999.25    0.52940    0.54590    4.07370  328.94520  328.94520   56.53970   62.36130   62.36130    4.03620    4.36710    4.37920    -999.25    0.49010    0.44840 1727.13450    4.50760  -54.02540  -59.12460    4.61160
 1000.00000  230.13360  229.94980  229.94980    -999.25  114.07680   81.94420   81.94420 2288.75370    -999.25    0.19560    0.22380    8.76620  325.42040  325.42040   63.79230   68.92930   68.92930    8.79740    6.45390    6.43180    -999.25    0.34160    0.29790 2288.75370    5.90310  -27.98670  -33.59240    5.79940
 1050.00000  232.59900  239.52610  239.52610    -999.25   89.17460   69.02920   69.02920 2307.47220    -999.25    0.21390    0.24150   11.21760  298.52730  298.52730   62.91160   63.33700   63.33700   11.41860    8.87190    8.77510    -999.25    0.30830    0.26440 2307.47220    8.29500  -21.89640  -26.95120    7.93500
 1100.00000  280.55990  249.49620  249.49620    -999.25  138.60210  229.45330  229.45330 2309.69340    -999.25    0.18250    0.21120    7.21490  297.90850  297.90850  110.42540  109.94590  109.94590    7.21490    7.48640    7.48640    -999.25    0.30180    0.25780 2309.69340    6.47000  -43.08380  -46.48720    6.47000
 1150.00000  234.66780  235.55370  235.55370    -999.25  122.93770    4.09120    4.09120 2483.87160    -999.25    0.10870    0.14000    8.13420  324.20290  324.20290  162.02400  160.32200  160.32200    8.13420    8.74240    8.74240    -999.25    0.35210    0.30850 2483.87160   10.46930  -49.68960  -51.44160   10.46930
 1200.00000  249.93280  246.35220  246.35220    -999.25  118.85800  254.18150  254.18150 2232.15620    -999.25    0.25990    0.28590    8.41340  275.91960  275.91960  109.57030  100.51580  100.51580    8.41340    9.25510    9.25510    -999.25    0.31800    0.27410 2232.15620    8.15690  -44.76500  -44.86560    8.15690
 1250.00000  290.12020  257.41690  257.41690    -999.25  146.55240  252.53580  252.53580 2008.28600    -999.25    0.40830    0.42910    6.82350  307.05130  307.05130  123.58760  121.37370  121.37370    6.82350    5.74140    5.74140    -999.25    0.35620    0.31260 2008.28600    6.42380  -43.88060  -42.32980    6.42380
 1300.00000  255.69980  264.96870  264.96870    -999.25  164.41960   40.99310   40.99310 2473.74120    -999.25    0.10390    0.13530    6.08200  297.08130  297.08130  122.46090  119.04710  119.04710    6.08200    6.52110    6.52110    -999.25    0.33760    0.29380 2473.74120    5.60040  -41.32090  -38.11870    5.60040
 1350.00000  283.36100  270.46520  270.46520    -999.25  117.44120  103.83040  103.83040 2354.04960    -999.25    0.18310    0.21180    8.51490  287.83160  287.83160  122.06610  128.78400  128.78400    8.51490    7.14570    7.14570    -999.25    0.31070    0.26680 2354.04960    8.08350  -43.27130  -38.41780    8.08350
 1400.00000  250.68310  245.28940  245.28940    -999.25  140.27800   32.89280   32.89280 2502.67160    -999.25    0.08950    0.12140    7.12870  314.48640  314.48640  138.69040  147.20410  147.20410    7.12870    7.56250    7.56250    -999.25    0.34750    0.30380 2502.67160    9.10560  -49.29810  -42.79320    9.10560
 1450.00000  232.76320  235.78190  235.78190    -999.25  148.76750   20.78650   20.78650 2518.86300    -999.25    0.07600    0.10840    6.72190  314.00980  314.00980  137.96110  145.05780  145.05780    6.72190    6.93310    6.93310    -999.25    0.35820    0.31470 2518.86300    8.96620  -51.69940  -43.54310    8.96620
 1500.00000  234.83450  239.25330  239.25330    -999.25  201.25610   22.39420   22.39420 2554.50420    -999.25    0.06560    0.09830    4.96880  295.82730  295.82730  132.01870  131.66100  131.66100    4.96880    5.16680    5.16680    -999.25    0.32170    0.27780 2554.50420    6.06850  -55.98760  -46.17990    6.06850
