~Version ---------------------------------------------------
VERS.      2.0 : CWLS log ASCII Standard -VERSION 2.0
WRAP.       NO : One line per depth step
CREA. 09/26/17 : LAS Creation Date
~Well ------------------------------------------------------
STRT.FT                            1050.0 : START DEPTH
STOP.FT                           10300.0 : STOP DEPTH
STEP.FT                          50.00000 : STEP LENGTH
NULL.                             -999.25 : NULL VALUE
COMP.        CANADIAN HOMESTEAD OILS LTD. : COMPANY
WELL. HOMESTEAD S. SNIPE LAKE 10-14-68-19 : WELL
FLD .                                     : FIELD
LOC .                                     : LOCATION
CTRY.                              CANADA : COUNTRY
SRVC.              Schlumberger of Canada : SERVICE COMPANY
DATE.                         04-Mar-1963 : LOGDATE
PROV.                             Alberta : PROVINCE
UWI .                    100101406819W500 : UNIQUE WELL ID
SLAT.WGS84                       54.88835 : SURFACE LATITUDE
SLON.WGS84                      -116.7806 : SURFACE LONGITUDE
~Curve Information -----------------------------------------
DEPT  .FT    : Depth Curve
CALSED.IN    : CALIPER FROM SONIC LOG [ADJ. TO RESISTIVITY LOG]
CALWS .IN    : CALIPER [CALSED]
CILDED.MMHO  : CONDUCTIVITY FROM RESISTIVITY LOG
CONDWS.MMHO  : CONDUCTIVITY [1000/DRESWS]
DRESWS.OHMM  : DEEP RESISTIVITY [1000/CILDED, IF ILDED<1, ILDED]
DTED  .US/F  : DELTA TIME FROM SONIC LOG [ADJ. TO RESISTIVITY LOG]
DTWS  .US/F  : COMPRESSIONAL SONIC [DTED]
GRSED .GAPI  : GAMMA RAY FROM SONIC LOG [ADJ. TO RESISTIVITY LOG]
GRWS  .GAPI  : GAMMA RAY [GRSED]
ILDED .OHMM  : DEEP INDUCTION RESISTIVITY FROM RESISTIVITY LOG
SNED  .OHMM  : SHORT NORMAL 16"  FROM RESISTIVITY LOG
SPRED .MV    : SPONTANEOUS POTENTIAL FROM RESISTIVITY LOG
SPWS  .MV    : SPONTANEOUS POTENTIAL [BASELINE 0 MV, SPRED]
SRESWS.OHMM  : SHALLOW RESISTIVITY [SNED]
~Params ----------------------------------------------------
PD  .                     GL : PERMANENT DATUM
EPD .FT               2807.4 : ELEVATION PERMANENT DATUM
LMF .                     KB : LOG MEASURED FROM
DAPD.FT                 13.6 : FEET ABOVE PERMANENT DATUM
EKB .FT                 2821 : KELLY BUSHING
EDF .FT               2807.4 : DRILLING FLOOR
DATE.               03/04/63 : RUN DATE
RUN .                      1 : RUN NUMBER
DD  .FT                10320 : DEPTH DRILLER
DL  .FT                10325 : DEPTH LOGGER
BLI .FT                10324 : BOTTOM LOG INTERVAL
TLI .FT                 1073 : TOP LOG INTERVAL
CBD .FT                 1075 : CASING BOTTOM DRILLER
CBL .FT                 1073 : CASING BOTTOM LOGGER
BS  .IN                    9 : BIT SIZE
BSD .FT                10320 : BIT SIZE AT DEPTH
DFT .                    GEL : DRILLING FLUID TYPE
DFD .                    9.9 : DRILLING FLUID DENSITY
DFV .                     84 : DRILLING FLUID VISCOSITY
DFPH.                      9 : DRILLING FLUID PH
DFL .                    8.6 : DRILLING FLUID LOSS
RMS .OHMM               3.51 : RESISTIVITY MUD SAMPLE
MST .DEGF                 55 : MUD SAMPLE TEMPERATURE
RMF .OHMM               1.98 : RESISTIVITY MUD FILTRATE SAMPLE
MFST.DEGF                 74 : MUD FILTRATE SAMPLE TEMPERATURE
RMC .OHMM               1.05 : RESISTIVITY MUD CAKE
MCST.DEGF                171 : MUD CAKE SAMPLE TEMPERATURE
RMB .OHMM               1.15 : RESISTIVITY MUD AT BHT
TCS .HRS                 3.5 : TIME CIRCULATED STOPPED
LUN .                   1571 : LOGGING UNIT NUMBER
LUL .                    WCT : LOGGING UNIT LOCATION
ENGI.                 PAVLIN : RECORDING ENGINEER
WITN.                   EARL : WITNESSED BY
CLNT.                A2DTECH : CLIENT CODE
ORIG.            2" 5" PRINT : ORIGIN OF DATA
UWI .       100101406819W500 : UNIQUE WELL ID
DICO. A2D Technologies, Inc. : DIGITIZING COMPANY
~Other -----------------------------------------------------
IEL-BHC SONIC TOOL RUN
RESISTIVITY LOG FROM (TOP TO 3960') HAS TAKEN FROM SMALL SECTION
~ASCII -----------------------------------------------------
# ...
 5950.00000    9.86650    9.86650   29.20130   28.79940   34.72290   56.26320   56.26320   49.43520   49.43520   34.72290   62.61120  -59.22210  -21.88270   62.61120
 6000.00000   11.14760   11.14760  400.52630  352.46020    2.83720   60.45690   60.45690   37.38970   37.38970    2.83720   18.84940 -110.01010  -66.40530   18.84940
 6050.00000    9.88350    9.88350  589.68120  434.48040    2.30160   71.22050   71.22050   46.65650   46.65650    2.30160   14.20450 -161.88360 -112.01330   14.20450
 6100.00000   11.16630   11.16630   49.23480   48.17560   20.75740   56.06520   56.06520   43.11480   43.11480   20.75740   29.96290  -78.40940  -22.23240   29.96290
 6150.00000   10.68000   10.68000   64.83250   64.18940   15.57890   56.97860   56.97860   25.51110   25.51110   15.57890   74.82830 -163.27880 -111.23270   74.82830
 6200.00000    9.60860    9.60860  147.57080  155.19270    6.44360   58.63430   58.63430   25.73140   25.73140    6.44360   45.01410 -173.56740 -128.25280   45.01410
 6250.00000   10.99740   10.99740   24.93590   23.46910   42.60920   52.15390   52.15390   25.50120   25.50120   42.60920   72.45540 -155.19310 -116.56590   72.45540
 6300.00000   11.26850   11.26850   16.95460   16.33200   61.22950   51.43690   51.43690   26.43460   26.43460   61.22950   80.61910 -143.22180 -111.28200   80.61910
 6350.00000   11.49930   11.49930  527.21310  388.96880    2.57090   70.93380   70.93380   70.22160   70.22160    2.57090    4.11070  -80.03660  -54.82820    4.11070
 6400.00000   10.67170   10.67170  191.80850  198.47180    5.03850   66.04420   66.04420   83.05920   83.05920    5.03850   11.02150  -30.74920  -12.22830   11.02150
 6450.00000   11.73320   11.73320   77.09870   74.67260   13.39180   60.13490   60.13490   49.26180   49.26180   13.39180   18.97250  -15.55030   -3.76080   18.97250
 6500.00000   12.39380   12.39380  118.04680   94.62890   10.56760   55.42370   55.42370   54.94030   54.94030   10.56760   16.89620  -42.97740  -33.29290   16.89620
 6550.00000    9.73590    9.73590   34.24360   32.63790   30.63920   54.60150   54.60150   41.96790   41.96790   30.63920   45.03230  -63.73710  -55.86920   45.03230
 6600.00000    9.58610    9.58610   14.91270   14.62110   68.39440   52.10040   52.10040   30.65420   30.65420   68.39440   74.31550  -31.19930  -25.15990   74.31550
 6650.00000    9.23170    9.23170   10.45520   10.24260   97.63130   51.03000   51.03000   20.69990   20.69990   97.63130   89.70710  -37.76520  -33.54240   89.70710
 6700.00000    9.34110    9.34110   29.85820   28.70360   34.83880   56.44940   56.44940   43.91660   43.91660   34.83880   42.74690  -36.50030  -34.10600   42.74690
 6750.00000    9.14670    9.14670   18.48710   18.44890   54.20370   54.06370   54.06370   38.19950   38.19950   54.20370   73.14490  -60.75150  -60.17380   73.14490
 6800.00000    9.01440    9.01440   12.25840   12.55830   79.62850   53.23660   53.23660   28.78380   28.78380   79.62850   99.44060  -55.10160  -56.34050   99.44060
 6850.00000    9.07960    9.07960   16.03850   15.66560   63.83430   55.51820   55.51820   34.43570   34.43570   63.83430   76.34590  -27.09590  -30.16330   76.34590
 6900.00000   10.01070   10.01070   50.93090   49.03260   20.39460   62.95090   62.95090   61.51260   61.51260   20.39460   29.39280   -7.89780  -12.78180   29.39280
 6950.00000   10.83230   10.83230   40.14340   40.94080   24.42550   55.76060   55.76060   39.08460   39.08460   24.42550   37.69260  -18.91730  -19.78020   37.69260
 7000.00000   10.51400   10.51400    4.18460    4.11510  243.00490   51.81080   51.81080   22.05790   22.05790  243.00490  178.52040  -20.83440  -10.99060  178.52040
 7050.00000   10.53170   10.53170    8.90730    8.41450  118.84300   49.38070   49.38070   21.22540   21.22540  118.84300   91.74030  -90.86220  -78.18590   91.74030
 7100.00000   10.02360   10.02360    6.96380    4.66420  214.39950   50.44370   50.44370   27.05700   27.05700  214.39950  144.96300  -63.12610  -48.94010  144.96300
 7150.00000   10.03490   10.03490    6.75090    5.63640  177.41930   50.89690   50.89690   24.03790   24.03790  177.41930  133.60010  -97.02530  -81.33940  133.60010
 7200.00000    9.79080    9.79080    4.00300    5.90890  169.23750   50.91940   50.91940   21.60960   21.60960  169.23750  129.06200  -89.25050  -72.05480  129.06200
 7250.00000    9.99400    9.99400    4.90930    6.61700  151.12540   48.93540   48.93540   21.97200   21.97200  151.12540  135.57970 -117.69250  -98.99700  135.57970
 7300.00000    9.57950    9.57950   19.93050   20.02510   49.93740   52.87340   52.87340   20.85720   20.85720   49.93740  105.43560 -163.66750 -143.47210  105.43560
 7350.00000    9.00340    9.00340   30.34320   29.38000   34.03680   53.52070   53.52070   23.31180   23.31180   34.03680  114.32980 -177.84600 -156.14080  114.32980
 7400.00000   10.18980   10.18980   14.86350   13.30990   75.13200   51.92510   51.92510   20.64970   20.64970   75.13200  114.06680 -132.95840 -109.75330  114.06680
 7450.00000   10.14940   10.14940    7.23640    5.77550  173.14460   51.66870   51.66870   25.59740   25.59740  173.14460  117.25780 -114.95660  -90.24180  117.25780
 7500.00000   10.13480   10.13480    5.55670    3.72880  268.18630   49.40700   49.40700   25.91790   25.91790  268.18630  161.72970 -105.35460  -79.13990  161.72970
 7550.00000   10.27790   10.27790    4.14110    3.55750  281.09480   49.65120   49.65120   24.66930   24.66930  281.09480  171.34650  -83.60160  -55.88700  171.34650
 7600.00000   10.26570   10.26570    4.86790    3.61110  276.92070   49.75420   49.75420   23.94610   23.94610  276.92070  169.01430 -121.67470  -92.45040  169.01430
 7650.00000    9.81170    9.81170   14.22220   13.92760   71.80000   48.74400   48.74400   22.75480   22.75480   71.80000  106.60020 -160.57160 -129.84740  106.60020
 7700.00000    9.79320    9.79320   15.34880   13.51710   73.98020   48.89410   48.89410   25.26200   25.26200   73.98020  117.49020 -165.42830 -133.19440  117.49020
 7750.00000   10.58600   10.58600   50.37450   45.31860   22.06600   50.48410   50.48410   36.53890   36.53890   22.06600   49.78410 -113.95780  -80.22400   49.78410
 7800.00000    9.95220    9.95220  140.19700  131.62050    7.59760   51.65620   51.65620   32.01430   32.01430    7.59760   33.71860 -150.03180 -114.79810   33.71860
 7850.00000   10.36460   10.36460   16.10930   15.36430   65.08590   49.41470   49.41470   28.58800   28.58800   65.08590   56.59920 -139.75490 -103.01150   56.59920
 7900.00000   10.36290   10.36290   39.72030   37.97210   26.33510   51.76950   51.76950   40.49730   40.49730   26.33510   38.54000 -109.02580  -70.78250   38.54000
 7950.00000   10.20040   10.20040   28.46760   25.71120   38.89350   50.54650   50.54650   42.25690   42.25690   38.89350   48.86250  -81.06420  -41.31110   48.86250
 8000.00000   10.38890   10.38890   37.50490   33.65150   29.71640   57.62100   57.62100   57.08980   57.08980   29.71640   36.31200  -43.02160   -1.83310   36.31200
 8050.00000   10.05570   10.05570    5.57820    4.81520  207.67410   50.37460   50.37460   21.38080   21.38080  207.67410  155.94780  -80.79850  -38.80920  155.94780
 8100.00000   10.41530   10.41530   76.83680   69.69080   14.34910   61.28870   61.28870   56.84220   56.84220   14.34910   18.27890  -51.11530   -8.32000   18.27890
 8150.00000   11.38900   11.38900   70.42790   69.41650   14.40580   61.56480   61.56480   48.11150   48.11150   14.40580   17.76130  -54.65760  -10.45380   17.76130
 8200.00000   11.67030   11.67030  166.36060  172.41080    5.80010   76.98710   76.98710   63.46360   63.46360    5.80010   10.67310  -62.28540  -16.40650   10.67310
 8250.00000   13.70270   13.70270  210.90520  210.95710    4.74030   77.31650   77.31650   82.22600   82.22600    4.74030    6.46090  -76.52400  -28.98100    6.46090
 8300.00000   14.39480   14.39480  290.14800  273.29120    3.65910   83.77910   83.77910   77.35190   77.35190    3.65910    4.73380  -60.46870  -11.26160    4.73380
 8350.00000   14.28870   14.28870  238.61600  233.34500    4.28550   78.95540   78.95540   70.08500   70.08500    4.28550    5.25130  -63.57060  -15.44550    5.25130
