~Version ---------------------------------------------------
VERS.      2.0 : CWLS log ASCII Standard -VERSION 2.0
WRAP.       NO : One line per depth step
CREA. 01/03/18 : LAS Creation Date
~Well ------------------------------------------------------
STRT.FT                 1000.0 : START DEPTH
STOP.FT                12750.0 : STOP DEPTH
STEP.FT               50.00000 : STEP LENGTH
NULL.                  -999.25 : NULL VALUE
COMP.      TALISMAN ENERGY INC : COMPANY
WELL. TALISMAN EDSON 6-8-52-17 : WELL
FLD .                          : FIELD
LOC .                          : LOCATION
CTRY.                   CANADA : COUNTRY
SRVC.   Schlumberger of Canada : SERVICE COMPANY
DATE.              06-May-1978 : LOGDATE
PROV.                  Alberta : PROVINCE
UWI .         100060805217W500 : UNIQUE WELL ID
SLAT.WGS84            53.47276 : SURFACE LATITUDE
SLON.WGS84           -116.4739 : SURFACE LONGITUDE
~Curve Information -----------------------------------------
DEPT    .FT    : Depth Curve
CALDED  .IN    : CALIPER FROM DENSITY LOG [ADJ. TO RESISTIVITY LOG]
CALSED  .IN    : CALIPER FROM SONIC LOG
CALWS   .IN    : CALIPER [CALSED]
CILDED  .MMHO  : DEEP CONDUCTIVITY FROM RESISTIVITY LOG
CONDWS  .MMHO  : CONDUCTIVITY [1000/DRESWS]
DCORED  .G/C3  : DENSITY CORRECTION FROM DENSITY LOG
DCORWS  .G/C3  : DENSITY CORRECTION [DCORED]
DENWS   .G/C3  : FORMATION BULK DENSITY [CALC. FROM DPOLSWS , M=2.71 F=1.00]
DPHILSED.V/V   : DENSITY POROSITY LIMESTONE [M=2.71 F=1.00] FROM DENSITY LOG [ADJ. TO RESISTIVITY LOG]
DPHISSED.V/V   : DENSITY POROSITY SANDSTONE [M=2.71 F=1.00] FROM DENSITY LOG [ADJ. TO RESISTIVITY LOG]
DPOLSWS .V/V   : DENSITY POROSITY LIMESTONE [DPHISSED MATRIX CONVERSION FOR LIMESTONE , M=2.71 F=1.00 & SPL TO DPHILSED @ 9209']
DRESWS  .OHMM  : DEEP RESISTIVITY [1000/CILDED IF ILDED<1, ILDED & SPL. TO ILDED 6256']
DTED    .US/F  : DELTA TIME FROM SONIC LOG
DTWS    .US/F  : COMPRESSIONAL SONIC [DTED]
GRDED   .GAPI  : GAMMA RAY FROM DENSITY LOG [ADJ. TO RESISTIVITY LOG]
GRSED   .GAPI  : GAMMA RAY FROM SONIC LOG
GRWS    .GAPI  : GAMMA RAY [GRSED]
ILDED   .OHMM  : DEEP INDUCTION RESISTIVITY FROM RESISTIVITY LOG
ILMED   .OHMM  : MEDIUM INDUCTION RESISTIVITY FROM RESISTIVITY LOG
LL8ED   .OHMM  : LATEROLOG 8 RESISTIVITY FROM RESISTIVITY LOG
MRESWS  .OHMM  : MEDIUM RESISTIVITY [ILMED]
NPHILSED.V/V   : NEUTRON POROSITY LIMESTONE FROM DENSITY LOG [ADJ. TO RESISTIVITY LOG]
NPHISSED.V/V   : NEUTRON POROSITY  SANDSTONE FROM DENSITY LOG [ADJ. TO RESISTIVITY LOG]
NPOLSWS .V/V   : NEUTRON POROSITY LIMESTONE [NPHISSED MATRIX CONVERSION FOR LIMESTONE & SPL. TO NPHILSED @ 9198']
RHOBED  .G/C3  : FORMATION BULK DENSITY  FROM DENSITY LOG[ADJ. TO RESISTIVITY LOG]
SPRED   .MV    : SPONTANEOUS POTENTIAL FROM RESISTIVITY LOG
SPWS    .MV    : SPONTANEOUS POTENTIAL [BASELINE 0 MV. SPRED]
SRESWS  .OHMM  : SHALLOW RESISTIVITY [LL8ED]
~Params ----------------------------------------------------
PD  .                     GL : PERMANENT DATUM
EPD .FT               3147.2 : ELEVATION PERMANENT DATUM
LMF .                     KB : LOG MEASURED FROM
DAPD.FT                 22.3 : FEET ABOVE PERMANENT DATUM
EKB .FT               3169.5 : KELLY BUSHING
EGL .FT               3147.2 : GROUND LEVEL
DATE.               05/31/78 : RUN DATE
RUN .                      2 : RUN NUMBER
DD  .FT                12769 : DEPTH DRILLER
DL  .FT                12757 : DEPTH LOGGER
BLI .FT                12751 : BOTTOM LOG INTERVAL
TLI .FT                 9616 : TOP LOG INTERVAL
CBD .FT                 9625 : CASING BOTTOM DRILLER
BS  .IN                  8.5 : BIT SIZE
BSD .FT                12769 : BIT SIZE AT DEPTH
DFT .                    GEL : DRILLING FLUID TYPE
DFD .                    9.1 : DRILLING FLUID DENSITY
DFV .                     51 : DRILLING FLUID VISCOSITY
DFPH.                     10 : DRILLING FLUID PH
DFL .                     22 : DRILLING FLUID LOSS
MSS .               FLOWLINE : MUD SAMPLE SOURCE
RMF .OHMM              0.809 : RESISTIVITY MUD FILTRATE SAMPLE
MFST.DEGF                 63 : MUD FILTRATE SAMPLE TEMPERATURE
TCS .HRS                  12 : TIME CIRCULATED STOPPED
LUN .                   7800 : LOGGING UNIT NUMBER
LUL .                    EDM : LOGGING UNIT LOCATION
ENGI.               BERNISKY : RECORDING ENGINEER
WITN.               BRINKMAN : WITNESSED BY
CLNT.                A2DTECH : CLIENT CODE
ORIG.            2" 5" PRINT : ORIGIN OF DATA
UWI .       100060805217W500 : UNIQUE WELL ID
DICO. A2D Technologies, Inc. : DIGITIZING COMPANY
~Other -----------------------------------------------------
~ASCII -----------------------------------------------------
# ...
 7250.00000   12.74790   12.47850   12.47850    -999.25   77.09330    0.11760    0.11760    2.56950    -999.25    0.04880    0.08220   12.97130   85.80610   85.80610  149.07010  126.54650  126.54650   12.97130    6.77960   11.60860    6.77960    -999.25    0.33650    0.29270    2.57050 -300.92380   -5.54060   11.60860
 7300.00000   12.61240   12.59220   12.59220    -999.25   56.11250    0.08360    0.08360    2.53920    -999.25    0.06710    0.09990   17.82270   88.57390   88.57390  152.54820  139.64590  139.64590   17.82270    8.10300   14.81810    8.10300    -999.25    0.36020    0.31670    2.51520 -303.20070   -3.41530   14.81810
 7350.00000   12.62530   12.89020   12.89020    -999.25  104.24920    0.05560    0.05560    2.59650    -999.25    0.03240    0.06640    9.59240   88.03450   88.03450  135.20260  125.47480  125.47480    9.59240    5.70840    8.59200    5.70840    -999.25    0.37270    0.32940    2.58300 -299.89440   -6.87410    8.59200
 7400.00000   12.61990   12.30600   12.30600    -999.25   81.57210    0.09100    0.09100    2.52510    -999.25    0.07570    0.10810   12.25910   85.45750   85.45750  130.42490  130.24620  130.24620   12.25910    6.13110   11.26850    6.13110    -999.25    0.37010    0.32670    2.53090 -299.10750   -7.81260   11.26850
 7450.00000   15.22770   13.20480   13.20480    -999.25   86.27090    0.24250    0.24250    2.23670    -999.25    0.25050    0.27680   11.59140   88.94150   88.94150  173.56030  159.56720  159.56720   11.59140    5.40920   10.55580    5.40920    -999.25    0.38780    0.34470    2.23940 -299.90100   -7.17160   10.55580
 7500.00000   15.36000   13.85350   13.85350    -999.25  109.08580    0.25040    0.25040    2.30710    -999.25    0.20780    0.23560    9.16710   78.17790   78.17790  123.27470  114.30040  114.30040    9.16710    4.67550    7.12350    4.67550    -999.25    0.32090    0.27700    2.33880 -299.53950   -7.68460    7.12350
 7550.00000   16.97430   13.69230   13.69230    -999.25   83.44550    0.18250    0.18250    2.11630    -999.25    0.32350    0.34720   12.09590   85.64770   85.64770  136.13090  124.36690  124.36690   12.09590    6.06550    7.27320    6.06550    -999.25    0.38710    0.34400    2.11450 -297.72830   -9.64740    7.27320
 7600.00000   12.64530   12.54100   12.54100    -999.25  108.20640    0.19660    0.19660    2.52630    -999.25    0.07500    0.10750    9.24160   78.11430   78.11430  143.33440  131.99190  131.99190    9.24160    4.02320    6.92480    4.02320    -999.25    0.29310    0.24910    2.51240 -296.83200  -10.69620    6.92480
 7650.00000   12.75320   12.34600   12.34600    -999.25  111.10490    0.07070    0.07070    2.52760    -999.25    0.07420    0.10670    9.00050   77.19230   77.19230  132.33400  124.09790  124.09790    9.00050    5.72910    8.52950    5.72910    -999.25    0.31090    0.26700    2.48160 -299.07650   -8.60320    8.52950
 7700.00000   13.41100   12.68280   12.68280    -999.25  135.04210    0.26040    0.26040    2.42360    -999.25    0.13720    0.16750    7.40510   79.62810   79.62810  132.01090  121.62300  121.62300    7.40510    4.43480    7.07270    4.43480    -999.25    0.33480    0.29100    2.42390 -297.10290  -10.72940    7.07270
 7750.00000   14.39310   12.95620   12.95620    -999.25   94.20630    0.24970    0.24970    2.23820    -999.25    0.24960    0.27590   10.61500   81.78370   81.78370  124.95190  110.07350  110.07350   10.61500    4.64510    6.48060    4.64510    -999.25    0.35460    0.31100    2.22770 -294.98520  -12.99860    6.48060
 7800.00000   16.28160   13.80280   13.80280    -999.25  351.53560    0.25250    0.25250    2.30710    -999.25    0.20780    0.23560    2.85360   94.73950   94.73950  157.54650  116.62450  116.62450    2.85360    1.96970    2.92450    1.96970    -999.25    0.45170    0.41010    2.30770 -290.01430  -18.12110    2.92450
 7850.00000   14.85380   13.44850   13.44850    -999.25  113.01610    0.21090    0.21090    2.20050    -999.25    0.27240    0.29790    8.84830   81.55630   81.55630  142.67470  120.19260  120.19260    8.84830    7.24610    5.92920    7.24610    -999.25    0.30690    0.26290    2.21390 -295.57240  -12.71550    5.92920
 7900.00000   12.60130   12.29610   12.29610    -999.25   56.21610    0.11710    0.11710    2.61070    -999.25    0.02380    0.05810   17.78850   67.35040   67.35040  102.54070   87.71020   87.71020   17.78850    7.39410   13.13800    7.39410    -999.25    0.15720    0.11450    2.60400 -298.91070   -9.52870   13.13800
 7950.00000   17.40010   13.91900   13.91900    -999.25  276.27360    0.18370    0.18370    2.01080    -999.25    0.38740    0.40890    3.61960   81.54720   81.54720  113.56260  106.04590  106.04590    3.61960    1.33470    2.81780    1.33470    -999.25    0.49610    0.45610    2.00680 -288.84450  -19.74750    2.81780
 8000.00000   12.62740   12.31820   12.31820    -999.25   31.72610    0.04400    0.04400    2.52690    -999.25    0.07460    0.10710   31.51980   68.16850   68.16850   60.81900   52.40870   52.40870   31.51980    9.49520   12.74990    9.49520    -999.25    0.21630    0.17270    2.52190 -298.66270  -10.08080   12.74990
 8050.00000   16.58050   14.29250   14.29250    -999.25  257.41340    0.20210    0.20210    2.36080    -999.25    0.17530    0.20420    4.04010  119.32530  119.32530  108.66500  107.09900  107.09900    4.04010    1.43510    3.58980    1.43510    -999.25    0.39050    0.34750    2.33490 -289.21340  -19.68170    3.58980
 8100.00000   13.94390   12.74090   12.74090    -999.25  119.62150    0.16110    0.16110    2.34970    -999.25    0.18200    0.21070    8.35970   75.25440   75.25440  106.33980   99.60450   99.60450    8.35970   18.39580    6.75590   18.39580    -999.25    0.31220    0.26830    2.32390 -296.16630  -12.88130    6.75590
 8150.00000   12.68670   12.32820   12.32820    -999.25   69.95600    0.02550    0.02550    2.55430    -999.25    0.05800    0.09110   14.29470   66.17380   66.17380   81.10110   72.12530   72.12530   14.29470    6.90960   12.48670    6.90960    -999.25    0.19860    0.15520    2.55490 -301.72690   -7.47220   12.48670
 8200.00000   13.49260   12.46820   12.46820    -999.25   85.72870    0.18070    0.18070    2.48600    -999.25    0.09940    0.13100   11.66470   81.47680   81.47680  109.35770   97.73420   97.73420   11.66470    6.67060   10.76300    6.67060    -999.25    0.38670    0.34360    2.47560 -302.01470   -7.33700   10.76300
 8250.00000   12.62780   12.39270   12.39270    -999.25   70.11250    0.03040    0.03040    2.61850    -999.25    0.01910    0.05350   14.26280   68.27720   68.27720   94.27750   87.24700   87.24700   14.26280    7.37040   12.18330    7.37040    -999.25    0.29710    0.25310    2.61030 -302.27940   -7.22380   12.18330
 8300.00000   18.87500   14.93290   14.93290    -999.25  172.43750    0.06830    0.06830    1.45170    -999.25    0.72630    0.73590    5.79940  122.47350  122.47350   52.99170   49.72840   49.72840    5.79940    3.12340   21.26340    3.12340    -999.25    0.59910    0.56510    1.50970 -304.32480   -5.33000   21.26340
 8350.00000   12.51060   12.44240   12.44240    -999.25   67.78140    0.04960    0.04960    2.52920    -999.25    0.07320    0.10570   14.75330   66.61490   66.61490   96.57610   93.32170   93.32170   14.75330    8.00940   13.39350    8.00940    -999.25    0.28410    0.24010    2.53010 -309.00350   -0.80380   13.39350
 8400.00000   19.21130   13.21710   13.21710    -999.25    0.48860    0.06750    0.06750    1.66170    -999.25    0.59900    0.61310 2046.81700  117.62460  117.62460   60.30720   48.11120   48.11120 2046.81700    8.17870   29.71090    8.17870    -999.25    0.56970    0.53370    1.54640 -305.64780   -5.76640   29.71090
 8450.00000   12.55170   12.33270   12.33270    -999.25   28.74340    0.05870    0.05870    2.53200    -999.25    0.07150    0.10410   34.79060   63.94600   63.94600   65.27720   59.10850   59.10850   34.79060   11.91590   21.15220   11.91590    -999.25    0.13840    0.09600    2.53910 -306.36100   -7.76530   21.15220
