~Version ---------------------------------------------------
VERS.      2.0 : CWLS log ASCII Standard -VERSION 2.0
WRAP.       NO : One line per depth step
CREA. 11/16/17 : LAS Creation Date
~Well ------------------------------------------------------
STRT.FT                            300.0 : START DEPTH
STOP.FT                          10650.0 : STOP DEPTH
STEP.FT                         50.00000 : STEP LENGTH
NULL.                            -999.25 : NULL VALUE
COMP.               IMPERIAL OIL LIMITED : COMPANY
WELL. IMPERIAL VIRGINIA HILLS 6-36-63-12 : WELL
FLD .                                 WC : FIELD
LOC .                                    : LOCATION
CTRY.                             CANADA : COUNTRY
SRVC.                       Schlumberger : SERVICE COMPANY
DATE.                        16-Jul-1956 : LOGDATE
PROV.                            Alberta : PROVINCE
UWI .                   100063606312W500 : UNIQUE WELL ID
SLAT.WGS84                  54.492313385 : SURFACE LATITUDE
SLON.WGS84               -115.6804122925 : SURFACE LONGITUDE
~Curve Information -----------------------------------------
DEPT  .FT         : Depth Curve
CALMED.IN         : CALIPER FROM MICRO LOG
CALWS .IN         : CALIPER [CALMED]
CONDWS.MMHO       : CONDUCTIVITY [1000/DRESWS]
DRESWS.OHMM       : DEEP RESISTIVITY [LNED]
GRNED .UgRa-Eq/T  : GAMMA RAY FROM GRN LOG
GRWS  .GAPI       : GAMMA RAY [GRNED*16.5]
LNED  .OHMM       : LONG NORMAL 64" FROM RESISTIVITY LOG
LT18ED.OHMM       : LATERAL 18" FROM RESISTIVITY LOG
MLLED .OHMM       : MICROLATEROLOG RESISTIVITY FROM MICRO LOG
NEUTED.SCPS       : NEUTRON FROM GRN LOG
NEUTWS.SCPS       : NEUTRON [NEUTED]
SNED  .OHMM       : 16 INCH SHORT NORMAL RESISTIVITY FROM RESISTIVITY LOG
SPRED .MV         : SPONTANEOUS POTENTIAL FROM RESISTIVITY LOG
SPWS  .MV         : SPONTANEOUS POTENTIAL [BASELINE 0 MV, SPRED]
SRESWS.OHMM       : SHALLOW RESISTIVITY [SNED]
~Params ----------------------------------------------------
LMF .                     KB : LOG MEASURED FROM
DMF .                     KB : DRILLING MEASURED FROM
EKB .FT                 3708 : KELLY BUSHING
DATE.               07/16/56 : RUN DATE
RUN .                      1 : RUN NUMBER
DD  .FT                10710 : DEPTH DRILLER
DL  .FT                10689 : DEPTH LOGGER
BLI .FT                10688 : BOTTOM LOG INTERVAL
TLI .FT                  714 : TOP LOG INTERVAL
CBD .FT                  713 : CASING BOTTOM DRILLER
CBL .FT                  714 : CASING BOTTOM LOGGER
BS  .IN                    9 : BIT SIZE
BSD .FT                10710 : BIT SIZE AT DEPTH
DFT .                    GEL : DRILLING FLUID TYPE
DFD .                     10 : DRILLING FLUID DENSITY
DFV .                    140 : DRILLING FLUID VISCOSITY
DFPH.                      9 : DRILLING FLUID PH
DFL .                      9 : DRILLING FLUID LOSS
RMS .OHMM                2.2 : RESISTIVITY MUD SAMPLE
MST .DEGF                 72 : MUD SAMPLE TEMPERATURE
RMB .OHMM                0.8 : RESISTIVITY MUD AT BHT
TCS .HRS                   4 : TIME CIRCULATED STOPPED
LUN .                   1890 : LOGGING UNIT NUMBER
LUL .                    SKW : LOGGING UNIT LOCATION
ENGI.                CHARLES : RECORDING ENGINEER
WITN.                PURCELL : WITNESSED BY
CLNT.                A2DTECH : CLIENT CODE
ORIG.            2" 5" PRINT : ORIGIN OF DATA
UWI .       100063606312W500 : UNIQUE WELL ID
DICO. A2D Technologies, Inc. : DIGITIZING COMPANY
~Other -----------------------------------------------------
~ASCII -----------------------------------------------------
# ...
 4900.00000   11.41110   11.41110  282.44210    3.54060    8.08570  133.41400    3.54060    3.82110    1.34770  220.18460  220.18460    4.08030  -55.50910   -4.16150    4.08030
 4950.00000   11.61370   11.61370  157.37870    6.35410    9.14430  150.88090    6.35410    5.52940    2.64390  235.33440  235.33440    7.48890  -56.83310   -5.66450    7.48890
 5000.00000   10.93980   10.93980  407.56440    2.45360    7.00320  115.55280    2.45360    5.08220    1.16380  227.85270  227.85270    2.50500  -54.91530   -3.92460    2.50500
 5050.00000   10.98450   10.98450  112.07530    8.92350    6.06140  100.01310    8.92350    8.41310    3.10770  250.67710  250.67710    9.83320  -66.43050  -15.61760    9.83320
 5100.00000   10.39260   10.39260  221.64100    4.51180    6.85030  113.03000    4.51180   42.88770    3.87310  205.87850  205.87850   11.39550  -58.95770   -8.32380   11.39550
 5150.00000   10.40950   10.40950  104.89030    9.53380    5.90090   97.36490    9.53380   10.29170    9.70080  256.06810  256.06810    9.53670  -66.85970  -16.40360    9.53670
 5200.00000   10.00300   10.00300  126.76840    7.88840    7.26480  119.86920    7.88840    4.71800    2.48560  252.92890  252.92890    9.34410  -62.71490  -12.43780    9.34410
 5250.00000    8.43820    8.43820   53.51490   18.68640    5.93170   97.87310   18.68640    8.18890    5.61800  262.37450  262.37450   25.88000 -114.88080  -64.78150   25.88000
 5300.00000   10.16240   10.16240   48.72660   20.52350    7.09480  117.06420   20.52350   39.01620    6.72400  229.68910  229.68910   24.48290  -57.85180   -7.93040   24.48290
 5350.00000    9.94830    9.94830  111.35610    8.98020    6.95210  114.70970    8.98020    6.60760    7.11930  258.24900  258.24900   12.84670  -86.54130  -36.80850   12.84670
 5400.00000    8.51470    8.51470  146.90740    6.81060    4.51100   74.43150    6.81060    9.60430    3.63250  266.47520  266.47520   13.83080  -97.96740  -49.87880   13.83080
 5450.00000    8.72480    8.72480  157.27720    6.35820    5.65680   93.33720    6.35820    6.14290    2.62680  270.14390  270.14390    9.93090  -86.41450  -39.98080    9.93090
 5500.00000   10.23760   10.23760  173.30120    5.77030    6.66710  110.00720    5.77030    5.61650    9.07160  253.55890  253.55890    8.69220  -63.67440  -18.88490    8.69220
 5550.00000   10.22660   10.22660  115.34290    8.66980    7.21630  119.06900    8.66980    6.54940    8.46490  257.33020  257.33020   11.19790  -54.80240  -11.65700   11.19790
 5600.00000   10.07450   10.07450  134.50440    7.43470    6.86300  113.23950    7.43470    4.30620    7.81780  252.21640  252.21640    8.31840  -50.17920   -8.68880    8.31840
 5650.00000    8.62940    8.62940   82.46840   12.15450    4.11950   67.97180   12.15450    4.18610    3.60880  281.66440  281.66440   21.65880  -98.34600  -58.49970   21.65880
 5700.00000    9.57150    9.57150   34.48930   28.99450    4.56670   75.35050   28.99450   18.26760   34.58680  292.99930  292.99930   32.91260  -62.95500  -23.59820   32.91260
 5750.00000    8.12860    8.12860   68.47440   14.60400    6.49110  107.10320   14.60400   11.57850    3.47610  268.62400  268.62400   23.19180  -92.66340  -53.04590   23.19180
 5800.00000   10.43450   10.43450  105.48290    9.48230    7.90780  130.47870    9.48230    8.89630   22.43670  253.79740  253.79740   12.71150  -65.40150  -25.52330   12.71150
 5850.00000   10.95530   10.95530   51.09810   19.57020    3.03450   50.06920   19.57020   10.05800   20.04890  348.60620  348.60620   25.54940  -54.87090  -14.73030   25.54940
 5900.00000   10.32870   10.32870   48.77640   20.51030    4.43650   73.20220   20.51030   11.76530   12.78170  293.66620  293.66620   21.73910  -70.83450  -30.43320   21.73910
 5950.00000    8.38740    8.38740    3.40230  293.91870    1.84830   30.49700  293.91870  720.86730    1.84020  318.80720  318.80720  119.81600 -174.33740 -133.67370  119.81600
 6000.00000    8.25870    8.25870    4.01770  248.90070    2.00210   33.03460  248.90070  670.40420    1.67750  345.59860  345.59860  104.68820    -999.25    -999.25  104.68820
 6050.00000    8.34450    8.34450    4.62220  216.36150    1.94130   32.03150  216.36150  787.79540    2.47740  335.81890  335.81890   90.04640 -194.41280 -153.22770   90.04640
 6100.00000    9.78190    9.78190  238.94860    4.18500    5.24790   86.59030    4.18500    4.09580   18.56480  263.00340  263.00340    9.96820 -100.29680  -58.84930    9.96820
 6150.00000    8.56080    8.56080   67.13380   14.89780    3.78170   62.39800   14.89780    3.65910    1.27020  308.52190  308.52190   24.66880 -149.78740 -108.07920   24.66880
 6200.00000    9.76570    9.76570   30.51710   32.76850    3.73490   61.62590   32.76850   13.85400   84.23980  389.51390  389.51390   41.00410  -71.47630  -29.50560   41.00410
 6250.00000    9.63340    9.63340    4.08960  244.52510    1.88740   31.14210  244.52510  255.92470  730.74060  413.41920  413.41920  115.79840  -81.30540  -39.07400  115.79840
 6300.00000    9.70550    9.70550   17.35290   57.76550    2.92730   48.30040   57.76550  108.52460  100.38530  373.06670  373.06670   39.78770  -51.97970   -9.48760   39.78770
 6350.00000    9.74020    9.74020   29.75450   33.60840    2.39620   39.53730   33.60840   43.88670 1040.65470  361.63640  361.63640   42.37200  -72.57620  -29.82170   42.37200
 6400.00000    9.66180    9.66180   43.62190   22.92460    3.15910   52.12510   22.92460   19.17820   52.90360  343.55200  343.55200   24.96070  -80.68290  -37.66770   24.96070
 6450.00000    -999.25    -999.25   33.72400   29.65250    3.29400   54.35100   29.65250   27.09560    -999.25  385.28830  385.28830   30.39370  -70.49150  -27.21390   30.39370
 6500.00000    -999.25    -999.25   53.02340   18.85960    5.35460   88.35090   18.85960   19.40010    -999.25  348.50050  348.50050   19.32480  -65.81160  -22.27330   19.32480
 6550.00000    -999.25    -999.25   60.88460   16.42730    5.81730   95.98550   16.42730    8.75150    -999.25  333.94140  333.94140   17.04810  -69.81060  -26.01160   17.04810
 6600.00000    -999.25    -999.25   80.96310   12.35130    8.22680  135.74220   12.35130   25.25180    -999.25  295.52630  295.52630   13.25710  -71.91040  -27.84900   13.25710
 6650.00000    -999.25    -999.25   81.47820   12.27330    6.33770  104.57210   12.27330   17.05340    -999.25  303.83870  303.83870   13.23990  -97.48180  -53.15970   13.23990
 6700.00000    9.69420    9.69420    3.23760  308.87160    1.66610   27.49060  308.87160   24.86150  168.76180  456.43590  456.43590  144.69660  -93.93260  -49.34810  144.69660
 6750.00000    9.73170    9.73170    2.62060  381.59390    2.03490   33.57580  381.59390  155.87630   96.04330  394.67290  394.67290  157.48480 -142.16220  -97.31700  157.48480
 6800.00000    9.80740    9.80740    4.16150  240.62220    1.81550   29.95570  240.62220  896.92960  123.73990  453.35960  453.35960  103.12840 -117.56030  -72.45440  103.12840
 6850.00000    9.74390    9.74390    1.80170  555.03020    1.29930   21.43850  555.03020  923.00450   55.12510  429.34610  429.34610  167.47230 -135.48900  -90.12070  167.47230
 6900.00000    9.75390    9.75390    3.09830  322.79130    1.52210   25.11470  322.79130 1320.94470  156.36190  425.93060  425.93060  114.14290 -168.47110 -122.84210  114.14290
 6950.00000    9.08100    9.08100    2.28300  438.02820    1.80140   29.72310  438.02820  699.96240    1.57230  419.43150  419.43150  155.38130 -246.02750 -200.13610  155.38130
 7000.00000    9.51680    9.51680    2.90070  344.74480    1.69820   28.02030  344.74480 1268.52560   19.30810  382.85880  382.85880  123.82660 -233.76140 -187.60930  123.82660
 7050.00000    8.49640    8.49640    4.19240  238.63700    1.77360   29.26440  238.63700  161.00360    0.47430  410.19210  410.19210  119.91320 -224.21620 -177.80340  119.91320
 7100.00000    8.50500    8.50500    2.92210  342.21530    1.94190   32.04140  342.21530  688.76540    1.84160  351.54420  351.54420  127.56950 -243.58850 -196.91330  127.56950
 7150.00000    9.94240    9.94240    2.55790  390.95410    1.78240   29.40960  390.95410  579.77100   49.17560  460.28610  460.28610  147.01860 -169.57520 -122.63930  147.01860
