~Version ---------------------------------------------------
VERS.      2.0 : CWLS log ASCII Standard -VERSION 2.0
WRAP.       NO : One line per depth step
CREA. 08/23/13 : LAS Creation Date
~Well ------------------------------------------------------
STRT.M                      550.0 : START DEPTH
STOP.M                     3600.0 : STOP DEPTH
STEP.M                   50.00000 : STEP LENGTH
NULL.                     -999.25 : NULL VALUE
COMP.   GULF CANADA RESOURCES INC : COMPANY
WELL. GULF ANTE CREEK 13-21-65-24 : WELL
FLD .                  ANTE CREEK : FIELD
LOC .                             : LOCATION
CTRY.                      CANADA : COUNTRY
SRVC.      Schlumberger of Canada : SERVICE COMPANY
DATE.                 31-Mar-1982 : LOGDATE
PROV.                     Alberta : PROVINCE
UWI .            100132106524W500 : UNIQUE WELL ID
SLAT.WGS84               54.64334 : SURFACE LATITUDE
SLON.WGS84               -117.574 : SURFACE LONGITUDE
~Curve Information -----------------------------------------
DEPT    .M      : DEPTH METER
CALDED  .MM     : CALIPER FROM DENSITY LOG [ADJ. TO RESISTIVITY LOG]
CALSED  .MM     : CALIPER FROM SONIC LOG
CALWS   .MM     : CALIPER [CALDED]
CNLLSED .V/V    : NEUTRON POROSITY LIMESTONE [M=2710,F=1000] FROM DENSITY LOG [ADJ. TO RESISTIVITY LOG]
CONDWS  .MMHO   : CONDUCTIVITY [1000/DRESWS]
DCORWS  .KG/M3  : DENSITY CORRECTION [DRHOED]
DENWS   .KG/M3  : FORMATION BULK DENSITY [CALC FROM DPOLSWS, M=2710,F=1000]
DPHILSED.V/V    : DENSITY POROSITY LIMESTONE [M=2710,F=1000] FROM DENSITY LOG [ADJ. TO RESISTIVITY LOG]
DPHISSED.V/V    : DENSITY POROSITY SANDTONE FROM DENSITY LOG [ADJ. TO RESISTIVITY LOG]
DPOLSWS .V/V    : DENSITY POROSITY [DPHISSED CONVERTED TO LIMESTINE METRIX,M=2.71,F=1.0, SPL. TO DPHILSED @ 2118.4']
DRESWS  .OHMM   : DEEP RESISTIVITY [ILDED]
DRHOED  .KG/M3  : DENSITY CORRECTION FROM DENSITY LOG [ADJ. TO RESISTIVITY LOG]
DTMEED  .US/M   : DELTA-T FROM SONIC LOG
DTWS    .US/M   : COMPRESSIONAL SONIC [DTMEED]
GRDED   .GAPI   : GAMMA RAY FROM DENSITY LOG [ADJ. TO RESISTIVITY LOG]
GRSED   .GAPI   : GAMMA RAY FROM SONIC LOG
GRWS    .GAPI   : GAMMA RAY [GRDED]
ILDED   .OHMM   : DEEP INDUCTION FROM RESISTIVITY LOG
ILMED   .OHMM   : MEDIUM INDUCTION FROM RESISTIVITY LOG
MRESWS  .OHMM   : MEDIUM RESISTIVITY [ILMED]
NPHILSED.V/V    : NEUTRON POROSITY LIMESTONE FROM DENSITY LOG [ADJ. TO RESISTIVITY LOG]
NPHISSED.V/V    : NEUTRON POROSITY SANDTONE [M=2680,F=1000] FROM DENSITY LOG [ADJ. TO RESISTIVITY LOG]
NPOLSWS .V/V    : NEUTRON POROSITY [NPHISSED MATRIX CONVERSION FOR LIMESTONE, SPL. TO NPHILSED & CNLLSED @ 2117.9' & 2321.1']
RHOBED  .KG/M3  : BULK DENSITY FROM DENSITY LOG [ADJ. TO RESISTIVITY LOG/DPHILSED/DPHISSED]
SFLUED  .OHMM   : SPHERICALLY FOCUSED FROM RESISTIVITY LOG
SPRED   .MV     : SPONTANEOUS POTENTIAL FROM RESISTIVITY LOG
SPWS    .MV     : SPONTANEOUS POTENTIAL [BASELINE 0 MV, SPRED]
SRESWS  .OHMM   : SHALLOW RESISTIVITY [SFLUED]
~Params ----------------------------------------------------
PD  .                         GL : PERMANENT DATUM
EPD .M                    879.75 : ELEVATION PERMANENT DATUM
LMF .                         KB : LOG MEASURED FROM
DAPD.M                      4.04 : FEET ABOVE PERMANENT DATUM
DMF .                         KB : DRILLING MEASURED FROM
EKB .M                    883.79 : KELLY BUSHING
EDF .M                    883.39 : DRILLING FLOOR
EGL .M                    879.75 : GROUND LEVEL
DATE.                   03/31/82 : RUN DATE
RUN .                          2 : RUN NUMBER
DD  .M                      3625 : DEPTH DRILLER
DL  .M                      3626 : DEPTH LOGGER
BLI .M                      3625 : BOTTOM LOG INTERVAL
TLI .M                      2300 : TOP LOG INTERVAL
CS  .MM                      244 : CASING SIZE
CBD .M                       611 : CASING BOTTOM DRILLER
CBL .M                       612 : CASING BOTTOM LOGGER
BS  .MM                      222 : BIT SIZE
BSD .M                      3625 : BIT SIZE AT DEPTH
DFT .                   GEL CHEM : DRILLING FLUID TYPE
DFD .                       1115 : DRILLING FLUID DENSITY
DFV .                       1113 : DRILLING FLUID VISCOSITY
DFPH.                         10 : DRILLING FLUID PH
DFL .                        7.4 : DRILLING FLUID LOSS
MSS .                   FLOWLINE : MUD SAMPLE SOURCE
RMS .OHMM                   1.69 : RESISTIVITY MUD SAMPLE
MST .DEGC                   17.8 : MUD SAMPLE TEMPERATURE
RMF .OHMM                   1.43 : RESISTIVITY MUD FILTRATE SAMPLE
MFST.DEGC                   19.4 : MUD FILTRATE SAMPLE TEMPERATURE
MFSS.                  MUD PRESS : MUD FILTRATE SAMPLE SOURCE
MCSS.                  MUD PRESS : MUD CAKE SAMPLE SOURCE
RMB .OHMM                  1.176 : RESISTIVITY MUD AT BHT
TCS .HRS                     130 : TIME CIRCULATED STOPPED
TLAB.HRS                    1100 : TIME LOGGER AT BOTTOM
LUN .                       8110 : LOGGING UNIT NUMBER
LUL .                        EDS : LOGGING UNIT LOCATION
ENGI.                   MORRISON : RECORDING ENGINEER
WITN.                   STEPHENS : WITNESSED BY
CLNT.                    A2DTECH : CLIENT CODE
ORIG. 6.5"/100M 16.5"/100M PRINT : ORIGIN OF DATA
UWI .           100132106524W500 : UNIQUE WELL ID
DICO.     A2D Technologies, Inc. : DIGITIZING COMPANY
~Other -----------------------------------------------------
DIL-SFL & CNFD & BHC LOG RUN
RHOB FROM SMALL SCALE SECTION
~ASCII -----------------------------------------------------
  550.00000    -999.25    -999.25    -999.25    -999.25    -999.25    -999.25    -999.25    -999.25    -999.25    -999.25    -999.25    -999.25    -999.25    -999.25    -999.25   62.37070    -999.25    -999.25    -999.25    -999.25    -999.25    -999.25    -999.25    -999.25    -999.25    -999.25    -999.25    -999.25
  600.00000    -999.25    -999.25    -999.25    -999.25    -999.25    -999.25    -999.25    -999.25    -999.25    -999.25    -999.25    -999.25    -999.25    -999.25    -999.25    -999.25    -999.25    -999.25    -999.25    -999.25    -999.25    -999.25    -999.25    -999.25    -999.25    -999.25    -999.25    -999.25
  650.00000  284.02500  277.00170  284.02500    -999.25  134.36350   87.40000 2273.95000    -999.25    0.24170    0.25500    7.44250   87.40000  316.71760  316.71760   68.39890   64.54360   68.39890    7.44250    6.90250    6.90250    -999.25    0.38230    0.33910 2250.87870    -999.25  -22.55230   -5.29640    -999.25
  700.00000  323.38030  277.07840  323.38030    -999.25  177.86000  169.00000 2353.80700    -999.25    0.19420    0.20830    5.62240  169.00000  327.86690  327.86690   85.60620   72.11730   85.60620    5.62240    5.12100    5.12100    -999.25    0.32510    0.28120 2300.38280    -999.25  -21.78270   -5.77760    -999.25
  750.00000  254.86680  237.34930  254.86680    -999.25  155.90650   26.70000 2359.62100    -999.25    0.19070    0.20490    6.41410   26.70000  317.02700  317.02700   78.56820   64.92050   78.56820    6.41410    5.84920    5.84920    -999.25    0.41810    0.37560 2339.75440    -999.25  -24.32940   -8.60960    -999.25
  800.00000  250.39430  231.83910  250.39430    -999.25  112.70530   12.90000 2400.66100    -999.25    0.16630    0.18090    8.87270   12.90000  314.04400  314.04400   66.10070   62.55930   66.10070    8.87270    7.95910    7.95910    -999.25    0.34490    0.30120 2376.24630    -999.25  -25.77750   -9.64110    -999.25
  850.00000  289.16820  233.98270  289.16820    -999.25  192.32250  249.70000 2224.87300    -999.25    0.27090    0.28370    5.19960  249.70000  323.79140  323.79140   71.09690   72.94280   71.09690    5.19960    4.93380    4.93380    -999.25    0.37520    0.33190 2187.27390    -999.25  -21.26220   -4.70920    -999.25
  900.00000  264.13730  228.66380  264.13730    -999.25  169.15320  244.50000 2266.59700    -999.25    0.24610    0.25930    5.91180  244.50000  311.41940  311.41940   73.28030   65.81920   73.28030    5.91180    5.50360    5.50360    -999.25    0.38630    0.34320 2271.74050    -999.25  -22.26020   -5.29060    -999.25
  950.00000  249.37360  230.01270  249.37360    -999.25  138.81180   14.60000 2445.46300    -999.25    0.13960    0.15470    7.20400   14.60000  294.19000  294.19000   64.31340   58.05460   64.31340    7.20400    6.94030    6.94030    -999.25    0.31410    0.27020 2419.68870    -999.25  -23.91480   -6.52860    -999.25
 1000.00000  260.89620  227.34670  260.89620    -999.25  163.19340  244.90000 2249.32600    -999.25    0.25640    0.26940    6.12770  244.90000  316.23240  316.23240   85.58760   78.73350   85.58760    6.12770    5.97100    5.97100    -999.25    0.40980    0.36710 2220.00680    -999.25  -20.28400   -2.48120    -999.25
 1050.00000  248.91460  242.57260  248.91460    -999.25   95.61230   72.80000 2559.34900    -999.25    0.07180    0.08810   10.45890   72.80000  311.15190  311.15190  128.25140  121.94050  128.25140   10.45890   10.04980   10.04980    -999.25    0.37780    0.33450 2520.42530    -999.25  -20.86440   -3.93460    -999.25
 1100.00000  261.92560  236.29260  261.92560    -999.25  128.34170  159.60000 2305.07200    -999.25    0.22320    0.23680    7.79170  159.60000  306.60990  306.60990  119.75540  105.56280  119.75540    7.79170    7.47370    7.47370    -999.25    0.39610    0.35320 2303.64940    -999.25  -20.34280   -4.15330    -999.25
 1150.00000  264.79330  236.81240  264.79330    -999.25  108.69680  249.80000 2279.25100    -999.25    0.23850    0.25190    9.19990  249.80000  287.84350  287.84350  120.86800  102.73510  120.86800    9.19990    9.05940    9.05940    -999.25    0.37010    0.32670 2249.20800    -999.25  -20.08100   -4.63180    -999.25
 1200.00000  220.42650  204.00450  220.42650    -999.25   85.64500   87.40000 2475.21700    -999.25    0.12190    0.13730   11.67610   87.40000  278.10210  278.10210   84.91740   76.81510   84.91740   11.67610   13.06630   13.06630    -999.25    0.26740    0.22340 2455.08010    -999.25  -39.75690  -25.04810    -999.25
 1250.00000  274.61730  237.42380  274.61730    -999.25   89.25620  174.70000 2475.90100    -999.25    0.12150    0.13690   11.20370  174.70000  292.66930  292.66930  119.19400  113.60530  119.19400   11.20370   10.80240   10.80240    -999.25    0.29500    0.25100 2405.16040    -999.25  -19.35480   -5.38630    -999.25
 1300.00000  262.73210  222.48380  262.73210    -999.25  116.54200  128.10000 2614.41100    -999.25    0.03900    0.05590    8.58060  128.10000  302.60490  302.60490  134.96500  120.17200  134.96500    8.58060    8.40430    8.40430    -999.25    0.37610    0.33280 2588.38670   10.33100  -18.56130   -5.33310   10.33100
 1350.00000  257.83830  230.62010  257.83830    -999.25   83.89190   83.30000 2637.66700    -999.25    0.02520    0.04230   11.92010   83.30000  283.17900  283.17900  137.41000  121.68440  137.41000   11.92010   12.83220   12.83220    -999.25    0.35760    0.31410 2567.69510   18.92330  -17.37790   -4.89000   18.92330
 1400.00000  243.44300  222.01500  243.44300    -999.25   91.37340  250.10000 2343.71800    -999.25    0.20020    0.21420   10.94410  250.10000  297.32960  297.32960  129.37840  119.97170  129.37840   10.94410   11.15930   11.15930    -999.25    0.36440    0.32090 2377.21780   12.85820  -17.01440   -5.26680   12.85820
 1450.00000  243.50510  233.65450  243.50510    -999.25  122.11210   74.50000 2588.59000    -999.25    0.05440    0.07100    8.18920   74.50000  264.31640  264.31640  100.26440   91.71280  100.26440    8.18920    8.30490    8.30490    -999.25    0.27190    0.22790 2564.61160    8.57650  -15.08060   -4.98830    8.57650
 1500.00000  262.85370  234.72470  262.85370    -999.25  132.22270   79.10000 2629.80100    -999.25    0.02990    0.04690    7.56300   79.10000  272.90800  272.90800  124.28950  108.98850  124.28950    7.56300    7.81880    7.81880    -999.25    0.29790    0.25390 2603.74850    9.98580  -11.65610   -3.89810    9.98580
 1550.00000  253.95470  236.19940  253.95470    -999.25  160.04100  178.50000 2611.16200    -999.25    0.04100    0.05780    6.24840  178.50000  284.54130  284.54130  122.07910  109.98850  122.07910    6.24840    6.43410    6.43410    -999.25    0.35940    0.31590 2588.51150    7.38340   -9.43040   -4.00660    7.38340
 1600.00000  253.11590  243.19730  253.11590    -999.25  251.22470  118.20000 2552.85100    -999.25    0.07570    0.09190    3.98050  118.20000  299.77920  299.77920  110.72000   98.04600  110.72000    3.98050    4.37360    4.37360    -999.25    0.34630    0.30260 2523.86600    6.19280   -6.93790   -3.84840    6.19280
 1650.00000  280.58170  247.45340  280.58170    -999.25  173.52680  119.80000 2524.46500    -999.25    0.09260    0.10850    5.76280  119.80000  285.29200  285.29200  127.15150  109.84820  127.15150    5.76280    5.85500    5.85500    -999.25    0.34090    0.29720 2497.85790    6.14700   -5.18120   -4.42600    6.14700
 1700.00000  228.93070  219.28760  228.93070    -999.25   53.72530   21.30000 2454.69700    -999.25    0.13410    0.14930   18.61320   21.30000  227.41220  227.41220   53.67800   47.24740   53.67800   18.61320   24.01920   24.01920    -999.25    0.20730    0.16380 2406.68330   29.68990  -36.90820  -37.97280   29.68990
 1750.00000  270.07360  277.09320  270.07360    -999.25   81.54080   73.00000 2475.90100    -999.25    0.12150    0.13690   12.26380   73.00000  272.91080  272.91080   79.70740   64.18320   79.70740   12.26380   12.43660   12.43660    -999.25    0.28330    0.23930 2450.06150   17.15040   -4.64200   -6.23650   17.15040
