~Version ---------------------------------------------------
VERS.      2.0 : CWLS log ASCII Standard -VERSION 2.0
WRAP.       NO : One line per depth step
CREA. 08/01/17 : LAS Creation Date
~Well ------------------------------------------------------
STRT.FT                       300.0 : START DEPTH
STOP.FT                     11500.0 : STOP DEPTH
STEP.FT                    50.00000 : STEP LENGTH
NULL.                       -999.25 : NULL VALUE
COMP.          MOBIL OIL CANADA LTD : COMPANY
WELL. MOBIL ET AL NE PINE 6-9-59-18 : WELL
FLD .                    CLARK LAKE : FIELD
LOC .                               : LOCATION
CTRY.                        CANADA : COUNTRY
SRVC.                  Schlumberger : SERVICE COMPANY
DATE.                   18-Jul-1968 : LOGDATE
PROV.                       Alberta : PROVINCE
UWI .              100060905918W500 : UNIQUE WELL ID
SLAT.WGS84                 54.08428 : SURFACE LATITUDE
SLON.WGS84                -116.6419 : SURFACE LONGITUDE
~Curve Information -----------------------------------------
DEPT  .FT    : Depth Curve
CALSED.IN    : CALIPER FROM SONIC LOG
CALWS .IN    : CALIPER [CALSED]
CILDED.MMHO  : CONDUCTIVITY FROM RESISTIVITY LOG
CONDWS.MMHO  : CONDUCTIVITY [1000/DRESWS]
DRESWS.OHMM  : DEEP RESISTIVITY [ILDED]
DTED  .US/F  : DELTA TIME FROM SONIC LOG
DTWS  .US/F  : DELTA TIME [DTED]
GRSED .GAPI  : GAMMA RAY FROM SONIC LOG
GRWS  .GAPI  : GAMMA RAY [GRSED]
ILDED .OHMM  : INDUCTION LOG DEEP RESISTIVITY
SNED  .OHMM  : 16 INCH SHORT NORMAL RESISTIVITY FROM IEL
SPRED .MV    : SPONTANEOUS POTENTIAL FROM RESISTIVITY LOG
SPWS  .MV    : SPONTANEOUS POTENTIAL [BASELINE 0 MV] [SPRED]
SRESWS.OHMM  : SHALLOW RESISTIVITY [SNED]
~Params ----------------------------------------------------
PD  .                     GL : PERMANENT DATUM
EPD .FT               3509.9 : ELEVATION PERMANENT DATUM
LMF .                     KB : LOG MEASURED FROM
DAPD.FT                16.06 : FEET ABOVE PERMANENT DATUM
EKB .FT              3525.96 : KELLY BUSHING
EGL .FT               3509.9 : GROUND LEVEL
DATE.               07/18/68 : RUN DATE
RUN .                      1 : RUN NUMBER
DD  .FT                11521 : DEPTH DRILLER
DL  .FT                11510 : DEPTH LOGGER
BLI .FT                11510 : BOTTOM LOG INTERVAL
TLI .FT                 1200 : TOP LOG INTERVAL
CBL .FT                 1215 : CASING BOTTOM LOGGER
BS  .IN                 8.75 : BIT SIZE
BSD .FT                11521 : BIT SIZE AT DEPTH
DFT .                    GEL : DRILLING FLUID TYPE
DFD .                   10.2 : DRILLING FLUID DENSITY
DFV .                     95 : DRILLING FLUID VISCOSITY
DFPH.                   10.5 : DRILLING FLUID PH
DFL .                      6 : DRILLING FLUID LOSS
RMS .OHMM               1.18 : RESISTIVITY MUD SAMPLE
MST .DEGF                 58 : MUD SAMPLE TEMPERATURE
RMF .OHMM              0.693 : RESISTIVITY MUD FILTRATE SAMPLE
MFST.DEGF                 60 : MUD FILTRATE SAMPLE TEMPERATURE
RMC .OHMM                1.4 : RESISTIVITY MUD CAKE
MCST.DEGF                 59 : MUD CAKE SAMPLE TEMPERATURE
RMB .OHMM               0.39 : RESISTIVITY MUD AT BHT
TCS .HRS                   3 : TIME CIRCULATED STOPPED
LUN .                   7501 : LOGGING UNIT NUMBER
LUL .                    EDM : LOGGING UNIT LOCATION
ENGI.               STUEHMER : RECORDING ENGINEER
WITN.                   HELM : WITNESSED BY
CLNT.                A2DTECH : CLIENT CODE
ORIG.            2" 5" PRINT : ORIGIN OF DATA
UWI .       100060905918W500 : UNIQUE WELL ID
DICO. A2D Technologies, Inc. : DIGITIZING COMPANY
~Other -----------------------------------------------------
~ASCII -----------------------------------------------------
# ...
 2750.00000   10.86530   10.86530  154.08060  147.77380    6.76710   92.07170   92.07170   57.02030   57.02030    6.76710    6.22320  -89.88100   -4.66530    6.22320
 2800.00000   11.09180   11.09180  281.42990  252.14880    3.96620  104.65580  104.65580   67.94780   67.94780    3.96620    3.42840  -89.23950   -4.05080    3.42840
 2850.00000   11.11240   11.11240  196.21910  199.07230    5.02330   87.82970   87.82970   58.56950   58.56950    5.02330    6.28110  -89.77970   -4.61830    6.28110
 2900.00000   11.13640   11.13640  181.28950  169.77060    5.89030   84.91280   84.91280   58.10290   58.10290    5.89030    5.49770  -89.28210   -4.14790    5.49770
 2950.00000   11.15140   11.15140  158.12740  167.75710    5.96100  109.54930  109.54930   58.63530   58.63530    5.96100    6.34530  -87.98010   -2.87310    6.34530
 3000.00000   11.11580   11.11580  294.04200  321.22320    3.11310  114.25300  114.25300   73.75740   73.75740    3.11310    4.55050  -87.26850   -2.18860    4.55050
 3050.00000   11.33810   11.33810  193.32530  188.37360    5.30860   98.80430   98.80430   69.40970   69.40970    5.30860    4.68760  -89.11450   -4.06160    4.68760
 3100.00000   11.36960   11.36960  104.10140  102.83090    9.72470   83.78970   83.78970   46.40250   46.40250    9.72470    8.24030  -90.26470   -5.23920    8.24030
 3150.00000   11.54160   11.54160  243.13680  251.90820    3.96970   99.71890   99.71890   74.46660   74.46660    3.96970    4.57170  -88.07440   -3.07730    4.57170
 3200.00000   12.00210   12.00210  139.72490  139.35150    7.17610   89.37300   89.37300   69.68840   69.68840    7.17610    6.01530  -88.74950   -3.80110    6.01530
 3250.00000   11.67620   11.67620   70.06380   69.55170   14.37780   80.96280   80.96280   56.11290   56.11290   14.37780   11.60690  -94.42060   -9.52080   11.60690
 3300.00000   11.54800   11.54800  536.98180  392.58030    2.54720  127.72310  127.72310   94.68950   94.68950    2.54720    2.01750  -87.47430   -2.62290    2.01750
 3350.00000   11.61600   11.61600  140.14720  143.42060    6.97250   89.48880   89.48880   92.12570   92.12570    6.97250    4.70500  -88.23650   -3.43400    4.70500
 3400.00000   11.32530   11.32530  101.32610   97.97290   10.20690   91.41970   91.41970   60.93690   60.93690   10.20690    8.09840  -89.68000   -4.92610    8.09840
 3450.00000   10.45510   10.45510   91.76060   90.37020   11.06560   85.33880   85.33880   54.54050   54.54050   11.06560    8.28870  -96.32490  -11.61970    8.28870
 3500.00000   12.17290   12.17290  297.16900  279.99440    3.57150   95.71210   95.71210   67.21840   67.21840    3.57150    2.92290  -88.11270   -3.45610    2.92290
 3550.00000   11.38110   11.38110  156.47890  153.30560    6.52390   86.43450   86.43450   53.22910   53.22910    6.52390    5.46690  -87.88710   -3.27890    5.46690
 3600.00000   11.62490   11.62490  262.80050  247.45740    4.04110   94.06430   94.06430   66.42840   66.42840    4.04110    3.58350  -87.37460   -2.81530    3.58350
 3650.00000   12.74750   12.74750  241.06430  236.41220    4.22990   99.63080   99.63080   56.11010   56.11010    4.22990    3.81540  -86.05560   -1.54490    3.81540
 3700.00000   11.68440   11.68440  215.18520  213.25600    4.68920   93.70000   93.70000   63.99740   63.99740    4.68920    3.92700  -88.11600   -3.65400    3.92700
 3750.00000   11.47460   11.47460  216.05400  211.16650    4.73560  105.60450  105.60450   68.63740   68.63740    4.73560    4.36290  -88.70910   -4.29570    4.36290
 3800.00000   11.98960   11.98960  132.80550  127.75830    7.83070   89.50190   89.50190   55.51910   55.51910    7.83070    6.96340  -88.73830   -4.37330    6.96340
 3850.00000   12.50760   12.50760  172.10560  177.24530    5.64190   92.72250   92.72250   39.43880   39.43880    5.64190    6.15910  -89.91470   -5.59860    6.15910
 3900.00000   11.83310   11.83310  221.42280  214.76740    4.65620  104.64970  104.64970   67.61580   67.61580    4.65620    4.09860  -86.94250   -2.67500    4.09860
 3950.00000   11.52600   11.52600  180.17940  174.02200    5.74640   78.29400   78.29400   43.05250   43.05250    5.74640    5.39490  -88.03830   -3.81950    5.39490
 4000.00000   11.86910   11.86910  184.21470  189.48010    5.27760   89.09880   89.09880   54.32870   54.32870    5.27760    4.64960  -88.11260   -3.94240    4.64960
 4050.00000   12.83750   12.83750  148.49970  141.87890    7.08240   98.88920   98.88920   47.03700   47.03700    7.08240    6.93840  -88.43740   -4.31560    6.93840
 4100.00000   11.77550   11.77550   82.17840   82.49400   12.12210   82.44930   82.44930   47.50250   47.50250   12.12210    8.95640  -89.16050   -5.08760    8.95640
 4150.00000    9.18690    9.18690   49.34180   48.70520   20.53170   84.32150   84.32150   31.53790   31.53790   20.53170   16.84310  -96.25790  -12.23360   16.84310
 4200.00000   11.45640   11.45640   50.67730   50.35350   19.85960   82.06970   82.06970   35.24880   35.24880   19.85960   16.26130 -100.43470  -16.45910   16.26130
 4250.00000   11.19470   11.19470  382.77380  399.80810    2.50120   95.47880   95.47880   55.40490   55.40490    2.50120    3.04280  -85.67670   -1.74970    3.04280
 4300.00000   11.82500   11.82500  168.65230  179.10550    5.58330   89.02280   89.02280   54.93900   54.93900    5.58330    6.87030  -88.71830   -4.83970    6.87030
 4350.00000   10.14760   10.14760   34.15400   33.70370   29.67030   77.55640   77.55640   28.89500   28.89500   29.67030   28.03990  -98.99280  -15.16310   28.03990
 4400.00000   11.15030   11.15030   65.81030   63.92840   15.64250   74.89800   74.89800   41.16630   41.16630   15.64250   14.54440  -92.38720   -8.60610   14.54440
 4450.00000   11.97060   11.97060  179.64760  184.67900    5.41480  121.20140  121.20140   56.23630   56.23630    5.41480    6.95100  -86.63510   -2.90270    6.95100
 4500.00000   11.52090   11.52090  137.46840  136.45730    7.32830   83.63370   83.63370   51.50590   51.50590    7.32830    9.30150  -88.22300   -4.53920    9.30150
 4550.00000   11.18630   11.18630   87.13090   86.97940   11.49700   77.53620   77.53620   49.40590   49.40590   11.49700   12.29450  -91.07560   -7.44020   12.29450
 4600.00000   13.15980   13.15980   75.82340   73.82850   13.54490   87.72900   87.72900   50.37310   50.37310   13.54490   12.92200  -88.54750   -4.96100   12.92200
 4650.00000   13.25190   13.25190  189.57220  202.86440    4.92940   99.07020   99.07020   66.74880   66.74880    4.92940    6.12640  -84.68290   -1.30080    6.12640
 4700.00000   14.05280   14.05280  128.46100  125.82100    7.94780   88.24630   88.24630   83.77400   83.77400    7.94780    6.89120  -85.37350   -2.26580    6.89120
 4750.00000   14.19000   14.19000  123.52650  120.57930    8.29330   86.50660   86.50660   74.96750   74.96750    8.29330    7.52970  -85.68150   -2.84810    7.52970
 4800.00000   13.77150   13.77150  117.66740  113.00710    8.84900   86.78200   86.78200   85.30670   85.30670    8.84900    8.19520  -85.09440   -2.53400    8.19520
 4850.00000   12.82810   12.82810  131.74550  132.27510    7.56000   88.71910   88.71910   80.97700   80.97700    7.56000    8.19000  -85.32180   -3.03720    8.19000
 4900.00000   11.66910   11.66910   92.70180   91.60190   10.91680   91.62070   91.62070  112.90710  112.90710   10.91680   12.62770  -86.14950   -4.13930   12.62770
 4950.00000   10.86190   10.86190  105.40870  101.74080    9.82890   88.69840   88.69840   86.38860   86.38860    9.82890   10.79250  -84.67560   -2.93970   10.79250
 5000.00000   11.49780   11.49780  107.66190  109.14770    9.16190   85.69680   85.69680   79.93290   79.93290    9.16190    9.88480  -83.67580   -2.21430    9.88480
 5050.00000   11.53600   11.53600  159.30090  168.55580    5.93320   89.28950   89.28950   81.16690   81.16690    5.93320    6.55510  -82.50660   -1.31810    6.55510
 5100.00000   11.62560   11.62560  134.43710  138.92360    7.19820   87.00230   87.00230   77.18010   77.18010    7.19820    7.76430  -82.38660   -1.47380    7.76430
 5150.00000   12.18040   12.18040  109.35500  105.27420    9.49900   84.09020   84.09020   74.46920   74.46920    9.49900    8.65270  -82.28770   -1.64930    8.65270
