~Version ---------------------------------------------------
VERS.      2.0 : CWLS log ASCII Standard -VERSION 2.0
WRAP.       NO : One line per depth step
CREA. 11/20/17 : LAS Creation Date
~Well ------------------------------------------------------
STRT.FT                          1000.0 : START DEPTH
STOP.FT                          9600.0 : STOP DEPTH
STEP.FT                        50.00000 : STEP LENGTH
NULL.                           -999.25 : NULL VALUE
COMP.  MIAMI OIL PRODUCERS INCORPORATED : COMPANY
WELL. MIAMI HB STURGEN LAKE 12-33-68-20 : WELL
FLD .                                   : FIELD
LOC .                                   : LOCATION
CTRY.                            CANADA : COUNTRY
SRVC.            Schlumberger of Canada : SERVICE COMPANY
DATE.                       06-Mar-1967 : LOGDATE
PROV.                           Alberta : PROVINCE
UWI .                  100123306820W500 : UNIQUE WELL ID
SLAT.WGS84                     54.93222 : SURFACE LATITUDE
SLON.WGS84                    -116.9965 : SURFACE LONGITUDE
~Curve Information -----------------------------------------
DEPT  .FT    : Depth Curve
CALSED.IN    : CALIPER FROM SONIC LOG
CALWS .IN    : CALIPER [CALSED]
CILDED.MMHO  : DEEP INDUCTION CONDUCTIVITY FROM RESISTIVITY LOG
CONDWS.MMHO  : CONDUCTIVITY [1000/DRESWS]
DRESWS.OHMM  : DEEP RESISTIVITY [1000/CILDED IF ILDED<1,ILDED]
DTED  .US/F  : DELTA-T FROM SONIC LOG
DTWS  .US/F  : DELTA-T [DTED]
GRSED .GAPI  : GAMMA RAY FROM SONIC LOG
GRWS  .GAPI  : GAMMA RAY [GRSED]
ILDED .OHMM  : DEEP INDUCTION RESISTIVITY FROM RESISTIVITY LOG
SNED  .OHMM  : SHORT NORMAL RESISTIVITY FROM RESISTIVITY LOG
SPRED .MV    : SPONTANEOUS POTENTIAL FROM RESISTIVITY LOG
SPWS  .MV    : SPONTANEOUS POTENTIAL [BASELINE 0 MV,SPRED]
SRESWS.OHMM  : SHALLOW RESISTIVITY [SNED]
~Params ----------------------------------------------------
PD  .                     GL : PERMANENT DATUM
EPD .FT                 2429 : ELEVATION PERMANENT DATUM
LMF .                     KB : LOG MEASURED FROM
DAPD.FT                   13 : FEET ABOVE PERMANENT DATUM
EKB .FT                 2442 : KELLY BUSHING
EGL .FT                 2429 : GROUND LEVEL
DATE.               03/06/67 : RUN DATE
RUN .                      1 : RUN NUMBER
DD  .FT                 9641 : DEPTH DRILLER
DL  .FT                 9641 : DEPTH LOGGER
BLI .FT                 9640 : BOTTOM LOG INTERVAL
TLI .FT                 1006 : TOP LOG INTERVAL
CBD .FT                 1003 : CASING BOTTOM DRILLER
CBL .FT                 1006 : CASING BOTTOM LOGGER
BS  .IN                7.875 : BIT SIZE
BSD .FT                 9641 : BIT SIZE AT DEPTH
DFT .                    GEL : DRILLING FLUID TYPE
DFD .                    9.7 : DRILLING FLUID DENSITY
DFV .                    160 : DRILLING FLUID VISCOSITY
DFPH.                     10 : DRILLING FLUID PH
DFL .                      8 : DRILLING FLUID LOSS
RMS .OHMM               2.56 : RESISTIVITY MUD SAMPLE
MST .DEGF                 56 : MUD SAMPLE TEMPERATURE
RMF .OHMM               0.82 : RESISTIVITY MUD FILTRATE SAMPLE
MFST.DEGF                170 : MUD FILTRATE SAMPLE TEMPERATURE
RMC .OHMM               0.78 : RESISTIVITY MUD CAKE
MCST.DEGF                170 : MUD CAKE SAMPLE TEMPERATURE
RMB .OHMM               0.84 : RESISTIVITY MUD AT BHT
TCS .HRS                   3 : TIME CIRCULATED STOPPED
LUN .                   3705 : LOGGING UNIT NUMBER
LUL .                     RL : LOGGING UNIT LOCATION
ENGI.              DEMETRICK : RECORDING ENGINEER
WITN.                  SLOAN : WITNESSED BY
CLNT.                A2DTECH : CLIENT CODE
ORIG.            2" 5" PRINT : ORIGIN OF DATA
UWI .       100123306820W500 : UNIQUE WELL ID
DICO. A2D Technologies, Inc. : DIGITIZING COMPANY
~Other -----------------------------------------------------
IEL-SON LOG RUN
ALL DATA FROM TOP TO 3570' FROM 2" SCALE
~ASCII -----------------------------------------------------
# ...
 3450.00000   12.08040   12.08040  394.61440  424.14220    2.35770  112.68100  112.68100  102.36140  102.36140    2.35770    3.55320  -97.07340   -2.34650    3.55320
 3500.00000   12.55860   12.55860  413.38590  437.42620    2.28610  103.80650  103.80650   74.58040   74.58040    2.28610    3.25230  -98.78870   -2.60050    3.25230
 3550.00000   12.73960   12.73960  506.23700  506.22660    1.97540  126.49750  126.49750   86.99060   86.99060    1.91360    2.77110 -100.30650   -2.02550    2.77110
 3600.00000   12.73240   12.73240  290.93390  295.35120    3.38580  103.28270  103.28270   80.57300   80.57300    3.38580    4.33400 -105.43780   -4.77950    4.33400
 3650.00000   12.44630   12.44630  242.26990  248.26220    4.02800   96.78670   96.78670   84.93670   84.93670    4.02800    5.28160 -109.09200   -6.07190    5.28160
 3700.00000   13.31570   13.31570  175.87780  181.55410    5.50800   91.50710   91.50710   73.67070   73.67070    5.50800    6.68960 -108.36200   -2.96460    6.68960
 3750.00000    8.89400    8.89400  170.39320  162.53030    6.15270   83.66940   83.66940   54.99540   54.99540    6.15270   10.27970 -128.95050  -21.91820   10.27970
 3800.00000   14.98600   14.98600  462.17920  434.44260    2.30180  182.18890  182.18890   62.75730   62.75730    2.30180    3.21740 -112.94290   -5.74190    3.21740
 3850.00000   10.26730   10.26730  151.71240  161.42830    6.19470   94.75800   94.75800   50.87430   50.87430    6.19470   10.20690 -129.16920  -23.56870   10.20690
 3900.00000    9.69940    9.69940  129.73220  137.18360    7.28950   90.66870   90.66870   55.34300   55.34300    7.28950   12.59920 -141.06410  -37.05360   12.59920
 3950.00000   11.30040   11.30040  274.32570  284.73800    3.51200   95.68090   95.68090   61.77560   61.77560    3.51200    5.00110 -106.92810   -4.51810    5.00110
 4000.00000    9.34690    9.34690  113.50570  121.20040    8.25080   84.37920   84.37920   68.09990   68.09990    8.25080   12.39110 -110.72010  -11.61400   12.39110
 4050.00000    9.64030    9.64030  135.27760  138.87730    7.20060   86.53200   86.53200   62.87150   62.87150    7.20060   13.45770 -110.64390  -14.53830   13.45770
 4100.00000   10.61690   10.61690  192.25490  203.46710    4.91480   89.64480   89.64480   60.07900   60.07900    4.91480    7.52560 -103.16560   -5.87310    7.52560
 4150.00000   11.70790   11.70790  193.42500  201.65760    4.95890  107.32640  107.32640   52.32440   52.32440    4.95890    6.89780 -104.35070   -7.25400    6.89780
 4200.00000    9.56060    9.56060  143.55610  149.55950    6.68630   82.40730   82.40730   57.12000   57.12000    6.68630   18.24840 -137.76770  -41.46870   18.24840
 4250.00000   11.04260   11.04260  171.09050  166.71390    5.99830   83.20140   83.20140   64.12630   64.12630    5.99830    8.13430 -106.66650  -11.16000    8.13430
 4300.00000   11.19580   11.19580  163.96200  177.88210    5.62170   87.02160   87.02160   71.62650   71.62650    5.62170    8.91350  -99.66740   -4.95350    8.91350
 4350.00000   10.74840   10.74840  324.03920  312.14880    3.20360   91.06800   91.06800   52.69570   52.69570    3.20360   11.12190 -152.23430  -58.88650   11.12190
 4400.00000   11.44440   11.44440  256.86390  257.52620    3.88310   83.82340   83.82340   57.63660   57.63660    3.88310    5.54730 -106.62040  -15.06980    5.54730
 4450.00000   10.31760   10.31760  227.40830  230.69120    4.33480   86.29350   86.29350   77.55300   77.55300    4.33480    8.50800 -118.97150  -29.22990    8.50800
 4500.00000   11.27550   11.27550  206.09910  208.27260    4.80140   86.59750   86.59750   74.92720   74.92720    4.80140    6.76300  -89.29540   -1.35090    6.76300
 4550.00000   11.16950   11.16950  175.13680  183.18040    5.45910   86.48560   86.48560   75.11360   75.11360    5.45910    7.40380  -95.71730   -9.89260    7.40380
 4600.00000   11.37280   11.37280  175.90560  180.34590    5.54490   85.91800   85.91800   79.78480   79.78480    5.54490    8.03170  -85.48680   -1.86910    8.03170
 4650.00000   14.74560   14.74560  290.16810  283.51900    3.52710  102.74210  102.74210   68.16990   68.16990    3.52710    5.04530  -93.00200  -11.02410    5.04530
 4700.00000    8.44200    8.44200  198.37710  202.48240    4.93870   81.07980   81.07980   24.80000   24.80000    4.93870   22.67250 -171.97740  -91.64640   22.67250
 4750.00000    8.55440    8.55440  143.56330  145.02000    6.89560   79.56640   79.56640   29.50500   29.50500    6.89560   25.43880 -161.64730  -82.95250   25.43880
 4800.00000   11.13840   11.13840  118.28410  120.86780    8.27350   87.30540   87.30540   77.10970   77.10970    8.27350   16.15210 -100.01440  -22.95580   16.15210
 4850.00000   14.97830   14.97830  545.48910  478.42310    2.09020  119.60790  119.60790   66.65250   66.65250    2.09020    2.72630  -86.73500  -11.32330    2.72630
 4900.00000   15.02770   15.02770  387.08890  359.31160    2.78310   95.65360   95.65360   81.26920   81.26920    2.78310    3.41340  -77.85130   -2.99180    3.41340
 4950.00000   13.79040   13.79040  250.37960  235.21660    4.25140  120.77860  120.77860   79.10120   79.10120    4.25140    6.90450  -89.78610  -12.23470    6.90450
 5000.00000   10.21060   10.21060   68.49860   65.73840   15.21180  114.65380  114.65380  140.38590  140.38590   15.21180   25.70580  -96.80930  -16.58350   25.70580
 5050.00000    9.14370    9.14370    7.92850    2.53990  393.71930   90.73490   90.73490  240.00000  240.00000  393.71930  211.54820 -117.46200  -34.56190  211.54820
 5100.00000    8.69830    8.69830  237.81730  238.68630    4.18960   78.95250   78.95250   35.19730   35.19730    4.18960   30.90140 -191.86510 -106.27310   30.90140
 5150.00000   12.53850   12.53850  225.77150  223.87390    4.46680   75.49610   75.49610   66.04450   66.04450    4.46680    7.99370 -121.87420  -33.60790    7.99370
 5200.00000   12.17580   12.17580  210.79260  213.74370    4.67850   73.23870   73.23870   63.77700   63.77700    4.67850   10.91640 -119.38780  -28.42950   10.91640
 5250.00000   10.19810   10.19810  265.99770  255.32350    3.91660   74.32810   74.32810   59.47160   59.47160    3.91660   17.86670 -160.80140  -73.65280   17.86670
 5300.00000    9.45460    9.45460  247.84680  248.70670    4.02080   74.86260   74.86260   58.07260   58.07260    4.02080   14.69020 -136.27900  -55.17780   14.69020
 5350.00000    7.37620    7.37620  317.98670  305.58610    3.27240   77.67730   77.67730   15.05020   15.05020    3.27240   14.27730 -185.54970 -110.53570   14.27730
 5400.00000    7.46810    7.46810  353.96520  311.18720    3.21350   71.57130   71.57130   14.96100   14.96100    3.21350   17.84240 -193.17010 -124.20360   17.84240
 5450.00000    8.73760    8.73760  133.74030  132.86040    7.52670   53.61470   53.61470   19.71160   19.71160    7.52670   43.61350 -157.25030  -94.37100   43.61350
 5500.00000    7.84100    7.84100  136.57200  138.33940    7.22860   60.73970   60.73970   23.51660   23.51660    7.22860   41.49260 -156.25760  -99.42570   41.49260
 5550.00000    8.79140    8.79140   17.88050   12.11190   82.56370   52.15930   52.15930   18.44500   18.44500   82.56370   86.12490 -102.82100  -52.03660   86.12490
 5600.00000    7.59850    7.59850  247.45730  245.96620    4.06560   66.85200   66.85200   16.59580   16.59580    4.06560   23.38600 -152.38750 -107.69030   23.38600
 5650.00000    9.69210    9.69210  906.31290  626.33100    1.59660   70.71550   70.71550   43.43520   43.43520    1.59660    8.52120 -113.31690  -74.66710    8.52120
 5700.00000    8.15750    8.15750  182.04960  180.38170    5.54380   57.52090   57.52090   21.65250   21.65250    5.54380   34.97020 -117.53810  -84.97550   34.97020
 5750.00000    9.63970    9.63970   93.56960   84.86800   11.78300   56.31270   56.31270   29.32970   29.32970   11.78300   17.14260  -45.36970  -19.82530   17.14260
 5800.00000    9.06880    9.06880   49.03620   45.44010   22.00700   57.14240   57.14240   43.88540   43.88540   22.00700   35.51700  -17.09150   -8.13320   35.51700
 5850.00000    8.64560    8.64560   24.34450   12.48070   80.12380   53.01170   53.01170   27.68590   27.68590   80.12380   55.82260  -10.10490   -7.02040   55.82260
