~Version ---------------------------------------------------
VERS. 2.0 : CWLS log ASCII Standard -VERSION 2.0
WRAP.  NO : ONE LINE PER DEPTH STEP
~Well ------------------------------------------------------
STRT.F                         1050.0 : START DEPTH
STOP.F                        10050.0 : STOP DEPTH
STEP.F                       50.00000 : STEP LENGTH
NULL.                         -999.25 : NULL VALUE
COMP.        SKELLY OIL OF CANADA LTD : COMPANY
WELL. SKELLY A3 TWO CREEK 10-17-62-16 : WELL
FLD .                                 : FIELD
LOC .                                 : LOCATION
CTRY.                          CANADA : COUNTRY
SRVC.                         Unknown : SERVICE COMPANY
DATE.                     26-Aug-1976 : LOGDATE
PROV.                         Alberta : PROVINCE
UWI .                100101706216W500 : UNIQUE WELL ID
SLAT.WGS84                   54.36596 : SURFACE LATITUDE
SLON.WGS84                   -116.357 : SURFACE LONGITUDE
~Curve Information -----------------------------------------
DEPT   .F    0   1   0  0 : 1 MEASURED DEPTH
DRHO   .G/C3 45 356 01 00 : BULK DENSITY CORRECTION
RHOB   .G/C3 45 350 01 00 : BULK DENSITY
CALD   .IN   45 280 60 00 : CALIPER FROM DENSITY LOG
GRD    .GAPI 45 310 01 00 : GAMMA RAY FROM DENSITY LOG
DPHI_SS.DEC  45 890 12 00 : DENSITY POROSITY SANDSTONE
NPHI_SS.DEC  42 890 03 00 : NEUTRON POROSITY SANDSTONE
DPHI_LS.DEC  45 890 10 00 : DENSITY POROSITY LIMESTONE
NPHI_LS.DEC  42 890 01 00 : NEUTRON POROSITY LIMESTONE
SPR    .MV   07 010 01 00 : SPONTANEOUS POTENTIAL FROM RESISTIVITY LOG
ILD    .OHMM 07 120 46 00 : INDUCTION DEEP RESISTIVITY
ILM    .OHMM 07 120 44 00 : INDUCTION MEDIUM RESISTIVITY
LL8    .OHMM 07 220 08 00 : LATEROLOG 8
CILD   .MMHO 07 110 46 00 : INDUCTION DEEP CONDUCTIVITY
DT     .US/F 60 500 00 00 : DELTA-T (INTERVAL TRANSIT TIME)
GRS    .GAPI 60 310 01 00 : GAMMA RAY FROM SONIC LOG
CALS   .IN   60 280 50 00 : CALIPER FROM SONIC LOG
~Params ----------------------------------------------------
PD  .                     GL : PERMANENT DATUM
EPD .FT               3020.5 : ELEVATION PERMANENT DATUM
LMF .                     KB : LOG MEASURED FROM
DAPD.FT                 14.9 : FEET ABOVE PERMANENT DATUM
EKB .FT               3035.4 : KELLY BUSHING
EGL .FT               3020.5 : GROUND LEVEL
DATE.               08/26/76 : RUN DATE
RUN .                      1 : RUN NUMBER
DD  .FT                10065 : DEPTH DRILLER
DL  .FT                10059 : DEPTH LOGGER
BLI .FT                10053 : BOTTOM LOG INTERVAL
TLI .FT                 1048 : TOP LOG INTERVAL
CBD .FT                 1047 : CASING BOTTOM DRILLER
CBL .FT                 1048 : CASING BOTTOM LOGGER
BS  .IN                7.875 : BIT SIZE
BSD .FT                10065 : BIT SIZE AT DEPTH
DFT .               GEL CHEM : DRILLING FLUID TYPE
DFD .                    9.9 : DRILLING FLUID DENSITY
DFV .                    2.2 : DRILLING FLUID VISCOSITY
DFPH.                      9 : DRILLING FLUID PH
DFL .                    6.2 : DRILLING FLUID LOSS
MSS .             CIRCULATED : MUD SAMPLE SOURCE
RMS .OHMM               2.55 : RESISTIVITY MUD SAMPLE
MST .DEGF                 57 : MUD SAMPLE TEMPERATURE
RMF .OHMM               2.27 : RESISTIVITY MUD FILTRATE SAMPLE
MFST.DEGF                 60 : MUD FILTRATE SAMPLE TEMPERATURE
RMC .OHMM               2.87 : RESISTIVITY MUD CAKE
MCST.DEGF                 55 : MUD CAKE SAMPLE TEMPERATURE
RMB .OHMM               0.77 : RESISTIVITY MUD AT BHT
TCS .HRS                   3 : TIME CIRCULATED STOPPED
LUN .                   7691 : LOGGING UNIT NUMBER
LUL .                    WCT : LOGGING UNIT LOCATION
ENGI.              CROCKFORD : RECORDING ENGINEER
WITN.                   BALL : WITNESSED BY
CLNT.                A2DTECH : CLIENT CODE
ORIG.        2" 5" 10" PRINT : ORIGIN OF DATA
UWI .       100101706216W500 : UNIQUE WELL ID
DICO. A2D Technologies, Inc. : DIGITIZING COMPANY
~Other -----------------------------------------------------
~ASCII -----------------------------------------------------
# ...
 7500.00000    0.03000    2.74910    8.65810   20.82660    -999.25    -999.25   -0.00150    0.00610 -166.21620  569.00990  629.81110  813.46370    -999.25   48.88250   20.15520    8.39880
 7550.00000    0.04430    2.68440    9.31170   14.23720    -999.25    -999.25    0.02130    0.00650 -203.80040  354.66570  238.04190  332.31190    -999.25   49.02610   16.64630    8.51440
 7600.00000    0.24880    2.71670   10.29420   14.09080    -999.25    -999.25   -0.03080    0.00250 -191.21000  781.36850  988.47580 1354.75270    -999.25   49.41830   19.10200    8.49570
 7650.00000    0.13260    2.58950    9.64850   18.23580    -999.25    -999.25    0.02150    0.00860 -211.87350  135.32620  181.74820  258.77730    -999.25   50.46160   19.12210    8.34440
 7700.00000    0.17400    2.53600    9.92320   14.76210    -999.25    -999.25    0.09450    0.00060 -228.77910  151.14860 1103.15160 1486.92360    -999.25   48.53290   15.95490    8.31110
 7750.00000    0.16500    2.73190    9.05440   14.66660    -999.25    -999.25   -0.00630    0.01140 -206.60370  194.77860  313.51650  355.63460    -999.25   48.84220   16.09640    8.34310
 7800.00000    0.11120    2.76020    8.90020   13.47310    -999.25    -999.25   -0.03030    0.00560 -205.76660  433.13530  454.93860  590.23790    -999.25   48.96770   14.24700    8.35560
 7850.00000    0.13570    2.64180    9.34320   14.79360    -999.25    -999.25    0.03650    0.01960 -211.29660   83.91340   80.40740  354.43060    -999.25   50.37940   15.33420    8.30890
 7900.00000    0.17020    2.66130    9.35970   16.94960    -999.25    -999.25   -0.01180    0.00740 -198.85470 1357.04460 1484.49630 1399.16370    -999.25   49.00300   17.18380    8.35010
 7950.00000    0.01200    2.69560    8.33370   15.52460    -999.25    -999.25   -0.00920    0.00910 -217.11550   68.89050   89.30890  191.92570    -999.25   50.55740   14.24240    8.28060
 8000.00000    0.00300    2.68810    8.04390   15.56400    -999.25    -999.25    0.04540    0.00770 -238.15780   41.99080   87.39840  668.14290    -999.25   48.93680   16.78890    8.47870
 8050.00000    0.01800    2.68870    8.07450   14.89940    -999.25    -999.25    0.01200    0.02010 -214.74010   43.84920   48.14410  143.86220    -999.25   51.51420   15.57890    8.20970
 8100.00000    0.03230    2.89000    8.16480   19.19530    -999.25    -999.25   -0.08050    0.03160 -190.23330  173.63870  191.61650  192.69730    -999.25   49.04240   19.01230    8.24920
 8150.00000    0.09770    2.60710    8.08130   51.78580    -999.25    -999.25    0.07530    0.07370 -173.03370    7.73930    8.75850   18.56290    -999.25   62.41670   49.99900    7.97090
 8200.00000    0.19220    2.68210    9.29780   21.25810    -999.25    -999.25   -0.02370    0.03650 -172.57950  280.71730  371.52360  539.49540    -999.25   47.08540   21.21390    8.39390
 8250.00000    0.17700    2.74390    8.76770   31.33100    -999.25    -999.25   -0.04200    0.03190 -185.98310  122.59500  194.68600  403.49140    -999.25   47.26340   26.51150    8.27460
 8300.00000    0.14200    2.79830    9.18130   32.20980    -999.25    -999.25   -0.07240    0.04590 -152.43410   58.85330   62.84720   74.42270    -999.25   49.66870   30.18150    8.27140
 8350.00000    0.01340    2.72590    8.22500   34.45300    -999.25    -999.25   -0.00040    0.01630 -114.68810  136.85130  145.13260  195.51010    -999.25   51.47350   35.50730    8.25200
 8400.00000    0.01970    2.72770    8.22990   28.52870    -999.25    -999.25    0.00120    0.01020 -130.01680  554.64940  714.23370  665.52590    -999.25   51.23190   29.73900    8.21750
 8450.00000    0.01460    2.72930    8.24760   38.71720    -999.25    -999.25    0.00560    0.01330 -116.92930  188.08150  180.45890  293.89820    -999.25   52.87150   37.89490    8.21350
 8500.00000    0.00140    2.72050    8.28670   33.49110    -999.25    -999.25   -0.00430    0.01650 -110.80000  104.24120  105.36570  144.29010    -999.25   52.43030   32.84800    8.20010
 8550.00000    0.03540    2.74190    8.37320   42.06660    -999.25    -999.25   -0.00710    0.03040  -99.61610   41.57630   39.92530   55.02800    -999.25   55.44970   40.75320    8.29650
 8600.00000    0.00940    2.67250    8.47990   58.18640    -999.25    -999.25    0.03060    0.08460  -99.32230   14.99470   14.45180   19.72580    -999.25   62.14100   58.87620    8.44630
 8650.00000    0.03140    2.72540    8.50390   57.20900    -999.25    -999.25   -0.01500    0.07960 -102.52060   13.11680   12.59290   17.56620    -999.25   62.09490   62.42550    8.45260
 8700.00000    0.04490    2.71610    8.66400   76.38390    -999.25    -999.25    0.00200    0.14410 -109.07560    7.09060    6.73990    9.35820    -999.25   69.72630   74.86680    8.67300
 8750.00000    0.00800    2.69710    8.44000   69.46050    -999.25    -999.25   -0.00440    0.12890 -112.99250   10.37500    9.84850   12.82160    -999.25   64.60430   68.60940    8.40310
 8800.00000    0.12140    2.70140    9.24210   76.29390    -999.25    -999.25   -0.00980    0.13270 -116.90080    8.80820    8.17400   10.85830    -999.25   68.41080   78.76870    9.06020
 8850.00000    0.02900    2.68070    8.54690   91.30060    -999.25    -999.25    0.01360    0.16570 -114.01530    9.65770   10.20820   11.97600    -999.25   68.18580   90.98770    8.48860
 8900.00000    0.19450    2.62640    8.99470   74.60770    -999.25    -999.25    0.00880    0.14250 -112.99200   10.12650    9.73850   14.55470    -999.25   67.21130   75.20340    8.59610
 8950.00000    0.24130    2.56530    9.25310   97.16180    -999.25    -999.25    0.16560    0.21620 -113.64670    8.19350    7.30610    9.64340    -999.25   75.25680   92.97730    8.69210
 9000.00000    0.16880    2.42760   10.98900   93.53820    -999.25    -999.25    0.19760    0.26570 -113.04980    7.74160    7.27690   13.29960    -999.25   71.39580   92.20710    9.47230
 9050.00000    0.10630    2.70780    8.86560   78.90610    -999.25    -999.25   -0.02270    0.14910 -100.25830   12.15080   12.66070   19.91780    -999.25   65.77910   74.26050    8.60250
 9100.00000    0.09990    2.73210    8.83650   86.83520    -999.25    -999.25   -0.00010    0.14810  -99.13970   10.55640   10.87980   14.22110    -999.25   65.96390   86.23060    8.57280
 9150.00000    0.00120    2.67870    8.61210   72.35490    -999.25    -999.25    0.02380    0.12480  -95.24550   13.01150   13.52680   20.19640    -999.25   64.69190   77.32490    8.52330
 9200.00000    0.21810    2.54210   11.34830  109.37010    -999.25    -999.25    0.10750    0.23730 -101.43600    6.06250    6.52020    8.68930    -999.25   78.50440  106.80990   10.13740
 9250.00000    0.12470    2.63690    8.95760   94.66650    -999.25    -999.25    0.05540    0.20130  -90.96420    7.95240    8.38890   11.88270    -999.25   72.18290   94.38370    8.75580
 9300.00000    0.05740    2.67960    8.73520   88.37640    -999.25    -999.25    0.01840    0.16530  -90.90060    8.15600    8.49490   11.37650    -999.25   68.89510   83.82350    8.55170
 9350.00000    0.12170    2.68880    8.80910  100.78780    -999.25    -999.25   -0.00070    0.16820  -91.39810    8.85330    9.29690   14.13930    -999.25   70.61850   95.89100    8.46590
 9400.00000    0.01570    2.59080    8.14820  126.57340    -999.25    -999.25    0.05710    0.11780 -128.72160 1454.70140 1402.67220 1522.28280    -999.25   66.65410  130.70880    8.18230
 9450.00000    0.03710    2.54640    8.12720  175.71420    -999.25    -999.25    0.08360    0.16960 -127.49370 1477.43690 1417.59670 1504.05920    -999.25   69.88490  156.65470    8.18940
 9500.00000    0.00010    2.68080    8.15710   36.61350    -999.25    -999.25    0.00740    0.02930  -96.69090  135.86160  146.15400  237.17890    -999.25   52.62240   34.78580    8.21900
 9550.00000    0.21890    2.63420    8.69630  127.11110    -999.25    -999.25    0.05080    0.19480  -89.04670    9.49040    8.76690   13.69090    -999.25   75.78220  116.66640    8.54100
 9600.00000    0.00810    2.69270    8.18280   31.69970    -999.25    -999.25    0.01810    0.03630 -102.80510  421.69770  529.33640  923.45190    -999.25   55.29840   42.62730    8.03620
