~Version ---------------------------------------------------
VERS.      2.0 : CWLS log ASCII Standard -VERSION 2.0
WRAP.       NO : One line per depth step
CREA. 11/10/17 : LAS Creation Date
~Well ------------------------------------------------------
STRT.FT                    1200.0 : START DEPTH
STOP.FT                   11350.0 : STOP DEPTH
STEP.FT                  50.00000 : STEP LENGTH
NULL.                     -999.25 : NULL VALUE
COMP.      PHILLIPS PETROLEUM CO. : COMPANY
WELL. PHILLIPS A TONY 10-27-62-21 : WELL
FLD .                          WC : FIELD
LOC .                             : LOCATION
CTRY.                      CANADA : COUNTRY
SRVC.      Schlumberger of Canada : SERVICE COMPANY
DATE.                 01-Mar-1958 : LOGDATE
PROV.                     Alberta : PROVINCE
UWI .            100102706221W500 : UNIQUE WELL ID
SLAT.WGS84               54.39406 : SURFACE LATITUDE
SLON.WGS84              -117.0596 : SURFACE LONGITUDE
~Curve Information -----------------------------------------
DEPT  .FT         : Depth Curve
CALMED.IN         : CALIPER FROM MICROLOG
CALWS .IN         : CALIPER [CALMED]
CONDWS.MMHO       : CONDUCTIVITY [1000/DRESWS]
DRESWS.OHMM       : DEEP RESISTIVITY [LNED]
GRNED .UgRa-Eq/T  : GAMMA RAY FROM GRN LOG [ADJ. TO EL LOG]
GRWS  .GAPI       : GAMMA RAY [GRNED*16.5]
LATED .OHMM       : 18 FOOT 8 INCH LATERAL RESISTIVITY FROM EL LOG
LLED  .OHMM       : LATERAL RESISTIVITY FROM LL RESISTIVITY LOG [ADJ. TO EL LOG]
LNED  .OHMM       : 64 INCH LONG NORMAL RESISTIVITY FROM EL LOG
NEUTED.CPS        : NEUTRON FROM GRN LOG [ADJ. TO EL LOG]
NEUTWS.CPS        : NEUTRON [NEUTED]
SNED  .OHMM       : 16 INCH SHORT NORMAL RESISTIVITY FROM EL LOG
SPR1ED.MV         : SPONTANEOUS POTENTIAL FROM LL RESISTIVITY LOG [ADJ. TO EL LOG]
SPRED .MV         : SPONTANEOUS POTENTIAL FROM EL LOG
SPWS  .MV         : SPONTANEOUS POTENTIAL [BASELINE 0MV, SPRED]
SRESWS.OHMM       : SHALLOW RESISTIVITY [SNED]
~Params ----------------------------------------------------
LMF .                     KB : LOG MEASURED FROM
DMF .                     KB : DRILLING MEASURED FROM
EKB .FT                 2925 : KELLY BUSHING
EDF .FT                 2922 : DRILLING FLOOR
EGL .FT                 2910 : GROUND LEVEL
DATE.               03/01/58 : RUN DATE
RUN .                      1 : RUN NUMBER
DD  .FT                11400 : DEPTH DRILLER
DL  .FT                11400 : DEPTH LOGGER
BLI .FT                11399 : BOTTOM LOG INTERVAL
TLI .FT                 1533 : TOP LOG INTERVAL
CBD .FT                 1532 : CASING BOTTOM DRILLER
CBL .FT                 1533 : CASING BOTTOM LOGGER
BS  .IN                12.25 : BIT SIZE
BSD .FT                11400 : BIT SIZE AT DEPTH
DFT .                    GEL : DRILLING FLUID TYPE
DFD .                   10.6 : DRILLING FLUID DENSITY
DFV .                    115 : DRILLING FLUID VISCOSITY
DFPH.                    9.7 : DRILLING FLUID PH
DFL .                      4 : DRILLING FLUID LOSS
RMF .OHMM               0.41 : RESISTIVITY MUD FILTRATE SAMPLE
MFST.DEGF                 71 : MUD FILTRATE SAMPLE TEMPERATURE
RMC .OHMM                1.2 : RESISTIVITY MUD CAKE
MCST.DEGF                 74 : MUD CAKE SAMPLE TEMPERATURE
RMB .OHMM               0.53 : RESISTIVITY MUD AT BHT
TCS .HRS                   6 : TIME CIRCULATED STOPPED
LUN .                   1785 : LOGGING UNIT NUMBER
LUL .                     WC : LOGGING UNIT LOCATION
ENGI.                LAVERTY : RECORDING ENGINEER
WITN.         FOSTER TIBBITT : WITNESSED BY
CLNT.                A2DTECH : CLIENT CODE
ORIG.            2" 5" PRINT : ORIGIN OF DATA
UWI .       100102706221W500 : UNIQUE WELL ID
DICO. A2D Technologies, Inc. : DIGITIZING COMPANY
~Other -----------------------------------------------------
~ASCII -----------------------------------------------------
# ...
 9800.00000   10.00310   10.00310    1.65010  606.00820    3.20290   52.84870 1087.99850 1689.39100  606.00820  439.62340  439.62340  137.04180 -103.38510 -101.74440  -36.86540  137.04180
 9850.00000    8.98360    8.98360    4.02580  248.39600    3.90390   64.41430  616.14960  197.32020  248.39600  433.57100  433.57100   77.56750  -81.91840  -82.91930  -17.55930   77.56750
 9900.00000    9.05820    9.05820   14.63320   68.36010    5.38270   88.81370  205.59220   71.02690   68.36010  356.72430  356.72430   40.65370  -68.06470  -69.33230   -3.49450   40.65370
 9950.00000    9.39640    9.39640   49.74750   20.10150    6.06060   99.99990   20.00280   19.77690   20.10150  265.08820  265.08820   17.77040  -78.48510  -79.77070  -13.75060   17.77040
 10000.00000    9.86600    9.86600   82.39470   12.13670    6.38840  105.40860   12.02910   12.99990   12.13670  228.22840  228.22840   11.89260  -81.12260  -83.62950  -17.60940   11.89260
 10050.00000   11.16200   11.16200   97.42170   10.26510    6.38670  105.38140    9.33120   11.53730   10.26510  224.23640  224.23640   10.90810  -86.98830  -90.33150  -24.31140   10.90810
 10100.00000   10.69230   10.69230  109.45230    9.13640    6.36450  105.01420    4.62850    9.87330    9.13640  216.90090  216.90090    9.58760  -91.59050  -90.88220  -24.86210    9.58760
 10150.00000    9.11810    9.11810  107.33480    9.31710    6.94050  114.51820   18.22360    8.25990    9.31710  221.33120  221.33120    7.31920  -81.35630  -83.14310  -17.12300    7.31920
 10200.00000    9.48220    9.48220  186.90190    5.35040    5.60320   92.45280    9.89890   10.77810    5.35040  258.10720  258.10720    8.97330  -81.34150  -77.69800  -11.67790    8.97330
 10250.00000   11.33160   11.33160  210.51750    4.75020    6.83430  112.76600    3.71980    5.75010    4.75020  207.78630  207.78630    5.49610  -74.89930  -77.74510  -12.49230    5.49610
 10300.00000   11.14000   11.14000  165.72600    6.03420    6.83670  112.80470    3.76500    5.53120    6.03420  199.72300  199.72300    6.70230  -96.87100  -99.30660  -36.76620    6.70230
 10350.00000    9.08730    9.08730   79.72070   12.54380    5.60590   92.49730   11.77620   12.09380   12.54380  249.38020  249.38020   11.63340  -95.38060  -93.17390  -33.36370   11.63340
 10400.00000    9.13510    9.13510   77.03860   12.98070    6.38180  105.29970   10.39390   13.77800   12.98070  229.66670  229.66670   12.16500  -83.08010  -81.18780  -24.08990   12.16500
 10450.00000    9.30280    9.30280   82.14770   12.17320    6.06450  100.06430    9.83230   11.88270   12.17320  232.83260  232.83260   11.65290  -67.13900  -61.87340   -7.50570   11.65290
 10500.00000    9.38500    9.38500   99.88410   10.01160    6.79880  112.18020   11.17420   10.98430   10.01160  222.88700  222.88700    8.43320  -69.16370  -66.48130  -14.82600    8.43320
 10550.00000    9.50070    9.50070  130.79500    7.64570    7.33280  120.99120    6.61740    8.89580    7.64570  219.75140  219.75140    8.29470  -75.16690  -72.31350  -23.37060    8.29470
 10600.00000    9.30250    9.30250  127.32200    7.85410    7.31140  120.63810    9.34110    8.09950    7.85410  212.17110  212.17110    8.17820  -83.35690  -81.48420  -35.27150    8.17820
 10650.00000    9.41190    9.41190  123.80090    8.07750    6.91850  114.15520    5.94240    7.59300    8.07750  213.36010  213.36010    7.08680  -53.25000  -51.16350   -8.25470    7.08680
 10700.00000    9.08200    9.08200    4.60730  217.04830    9.40440  155.17260  282.86280  367.18700  217.04830  258.28130  258.28130   83.33830  -71.60230  -68.83550  -32.27740   83.33830
 10750.00000    9.09190    9.09190    1.40640  711.02620    8.15820  134.61030  928.60140 1613.99940  711.02620  242.69330  242.69330  156.01790  -79.27770  -75.25690  -45.00800  156.01790
 10800.00000    9.01900    9.01900    1.91380  522.73170    2.39220   39.47130 1715.89770 1771.42240  522.73170  350.28660  350.28660   93.01940  -55.27430  -56.20960  -32.26990   93.01940
 10850.00000    9.15960    9.15960    5.99040  166.93260    6.89530  113.77240  240.12390  274.41170  166.93260  239.36950  239.36950   65.93760  -32.39250  -29.77600  -12.18700   65.93760
 10900.00000    9.09910    9.09910    2.19420  455.73710    1.04920   17.31100  306.93240 1006.01740  455.73710  296.03630  296.03630  138.38960 -118.09690 -118.82450 -103.80310  138.38960
 10950.00000    8.73100    8.73100    5.83310  171.43450    1.19590   19.73240  208.68680  263.45430  171.43450  296.62800  296.62800   65.38500 -150.16970 -145.57110 -130.24390   65.38500
 11000.00000    9.45140    9.45140    3.48640  286.83140    1.56300   25.78950  460.07740  472.46120  286.83140  318.65580  318.65580   87.12770 -170.53250 -171.69070 -156.05970   87.12770
 11050.00000    8.76290    8.76290    4.07680  245.29720    1.35520   22.36080  479.24310  126.76640  245.29720  319.36810  319.36810   73.71700 -155.76210 -154.11280 -138.17800   73.71700
 11100.00000   10.15240   10.15240    1.81040  552.37020    1.84750   30.48370  659.12530 1961.42690  552.37020  367.61680  367.61680  134.89720 -129.84140 -132.47030 -116.22970  134.89720
 11150.00000    8.80930    8.80930    1.03290  968.15600    2.34530   38.69660 1272.11790 2402.56960  968.15600  325.58300  325.58300  143.60130  -93.95640  -90.25140  -73.70700  143.60130
 11200.00000    9.66920    9.66920   14.63250   68.34090   12.48180  205.94970  305.04020   45.96130   68.34090  211.62680  211.62680   28.13250  -19.47920  -19.57570   -2.72550   28.13250
 11250.00000    7.70260    7.70260   17.36310   57.59340    1.59440   26.30760   36.73090   45.44840   57.59340  290.89700  290.89700   37.41360 -104.41440 -105.57930  -79.37940   37.41360
 11300.00000    7.94010    7.94010   20.00000   50.00000    4.57600   75.50320   47.62550   37.65640   50.00000  290.76380  290.76380   31.63580  -95.99210  -96.80760  -64.48320   31.63580
 11350.00000    7.77270    7.77270  110.44960    9.05390    8.67350  143.11280   10.00400   12.56370    9.05390  291.28900  291.28900   11.94890 -104.78820 -107.25490  -69.52750   11.94890
