~Version ---------------------------------------------------
VERS. 2.0 : CWLS log ASCII Standard -VERSION 2.0
WRAP.  NO : ONE LINE PER DEPTH STEP
~Well ------------------------------------------------------
STRT.M                           400.0 : START DEPTH
STOP.M                          2850.0 : STOP DEPTH
STEP.M                        50.00000 : STEP LENGTH
NULL.                          -999.25 : NULL VALUE
COMP. CHEVRON CANADA RESOURCES LIMITED : COMPANY
WELL.   CHEVRON VALLEYVIEW 13-20-71-21 : WELL
FLD .                                  : FIELD
LOC .                                  : LOCATION
CTRY.                           CANADA : COUNTRY
SRVC.                    Dresser Atlas : SERVICE COMPANY
DATE.                      01-May-1983 : LOGDATE
PROV.                          Alberta : PROVINCE
UWI .                 100132007121W500 : UNIQUE WELL ID
SLAT.WGS84                    55.17042 : SURFACE LATITUDE
SLON.WGS84                   -117.2038 : SURFACE LONGITUDE
~Curve Information -----------------------------------------
DEPT   .M                 : 
GRR    .GAPI 07 310 01 00 : GAMMA RAY FROM RESISTIVITY LOG
RILD   .OHMM 07 120 46 00 : INDUCTION DEEP RESISTIVITY
SPR    .MV   07 010 01 00 : SPONTANEOUS POTENTIAL FROM RESISTIVITY LOG
RILM   .OHMM 07 120 44 00 : INDUCTION MEDIUM RESISTIVITY
RFOC   .OHMM 07 220 06 00 : SHALLOW FOCUSED LOG RESISTIVITY
GRS    .GAPI 60 310 01 00 : GAMMA RAY FROM SONIC LOG
CALS   .MM   60 280 50 00 : CALIPER FROM SONIC LOG
AC     .US/M 60 500 00 00 : ACOUSTIC
TENS   .KG   60 635 00 00 : TENSION FROM SONIC LOG
GRD    .GAPI 45 310 01 00 : GAMMA RAY FROM DENSITY LOG
TEND   .KG   45 635 00 00 : TENSION FROM DENSITY LOG
C24    .MM   45 280 24 00 : CALIPER 2-4 PAD ELECTRODE
CORR   .G/C3 45 356 01 00 : DENSITY CORRECTION
DEN    .G/C3 45 350 01 00 : COMPENSATED BULK DENSITY
C13    .MM   45 280 13 00 : CALIPER 1-3 PAD ELECTRODE
CN_SS  .DEC  42 890 03 00 : COMPENSATED NEUTRON POROSITY SANDSTONE
PORD_SS.DEC  45 890 12 00 : DENSITY POROSITY [SANDSTONE]
PORD_LS.DEC  45 890 10 00 : DENSITY POROSITY [LIMESTONE]
CN_LS  .DEC  42 890 01 00 : COMPENSATED NEUTRON POROSITY LIMESTONE
TENR   .KG   07 635 00 00 : TENSION FROM RESISTIVITY LOG
~Params ----------------------------------------------------
PD  .                         GL : PERMANENT DATUM
EPD .M                    669.45 : ELEVATION PERMANENT DATUM
LMF .                         KB : LOG MEASURED FROM
DAPD.M                      5.79 : FEET ABOVE PERMANENT DATUM
DMF .                         KB : DRILLING MEASURED FROM
EKB .M                    675.24 : KELLY BUSHING
EGL .M                    669.45 : GROUND LEVEL
DATE.                   05/01/83 : RUN DATE
RUN .                          1 : RUN NUMBER
DD  .M                      2885 : DEPTH DRILLER
DL  .M                      2886 : DEPTH LOGGER
BLI .M                    2885.6 : BOTTOM LOG INTERVAL
TLI .M                     419.6 : TOP LOG INTERVAL
CS  .MM                    244.5 : CASING SIZE
CBD .M                     419.6 : CASING BOTTOM DRILLER
CBL .M                     419.6 : CASING BOTTOM LOGGER
BS  .MM                      222 : BIT SIZE
BSD .M                      2885 : BIT SIZE AT DEPTH
DFT .                   GEL CHEM : DRILLING FLUID TYPE
DFD .                       1110 : DRILLING FLUID DENSITY
DFV .                         80 : DRILLING FLUID VISCOSITY
DFPH.                          9 : DRILLING FLUID PH
DFL .                         11 : DRILLING FLUID LOSS
MSS .                   FLOWLINE : MUD SAMPLE SOURCE
RMS .OHMM                    1.8 : RESISTIVITY MUD SAMPLE
MST .DEGC                     17 : MUD SAMPLE TEMPERATURE
RMF .OHMM                    1.9 : RESISTIVITY MUD FILTRATE SAMPLE
MFST.DEGC                     17 : MUD FILTRATE SAMPLE TEMPERATURE
RMC .OHMM                      2 : RESISTIVITY MUD CAKE
MCST.DEGC                     17 : MUD CAKE SAMPLE TEMPERATURE
MFSS.                       MEAS : MUD FILTRATE SAMPLE SOURCE
MCSS.                       MEAS : MUD CAKE SAMPLE SOURCE
RMB .OHMM                   0.68 : RESISTIVITY MUD AT BHT
TCS .HRS                       5 : TIME CIRCULATED STOPPED
LUN .                       6219 : LOGGING UNIT NUMBER
LUL .                        G P : LOGGING UNIT LOCATION
ENGI.                    LAMBERT : RECORDING ENGINEER
WITN.                   MCLENNAN : WITNESSED BY
CLNT.                    A2DTECH : CLIENT CODE
ORIG. 6.5"/100M 16.5"/100M PRINT : ORIGIN OF DATA
UWI .           100132007121W500 : UNIQUE WELL ID
DICO.     A2D Technologies, Inc. : DIGITIZING COMPANY
~Other -----------------------------------------------------
~ASCII -----------------------------------------------------
  400.00000    -999.25    -999.25    -999.25    -999.25    -999.25   63.09030    -999.25    -999.25    -999.25    -999.25    -999.25    -999.25    -999.25    -999.25    -999.25    -999.25    -999.25    -999.25    -999.25    -999.25
  450.00000   61.47180   13.77890 -117.14510   12.14180   13.32360   55.04380  251.02730  367.93390  -21.30270   67.89780  -12.98730  254.99670    0.08870    2.16490  234.54280    0.22510    0.27690    -999.25    -999.25  -18.55430
  500.00000  109.80110    6.96480 -105.78860    6.76490    6.54970  109.21530  234.74780  396.21460  -22.16420  113.72800  -11.33080  245.13330    0.04640    1.92980  228.94940    0.31330    0.44560    -999.25    -999.25  -24.69630
  550.00000  112.43600    7.46280 -107.01830    7.25320    6.88790  100.79470  251.34320  382.44670  -19.07410  112.85160  -15.19210  318.23090    0.07890    2.05430  231.41590    0.28900    0.36130    -999.25    -999.25  -14.43700
  600.00000  116.95850    6.50730 -105.72280    6.67030    7.00110  115.20490  244.28560  391.46280  -22.22180  124.09450  -18.52720  346.16920    0.11670    2.19940  223.14620    0.29150    0.27190    -999.25    -999.25  -18.82690
  650.00000  108.74130    6.63230 -105.64000    6.80120    6.98480  100.17810  240.99950  218.33520  -14.14970  106.87860   -1.86370  295.94740    0.04350    2.10270  217.85850    0.27120    0.33370    -999.25    -999.25  -23.21680
  700.00000  107.28350    4.85280 -101.54970    4.97430    5.28790  104.03490  246.52300  358.63280  -14.19280  113.43490  -19.55040  302.09890    0.07130    2.22680  225.54830    0.30030    0.25840    -999.25    -999.25  -16.41930
  750.00000  102.64130    5.45320 -103.81420    5.23270    4.89750   94.79000  282.19610  333.46220  -17.29290  102.01330  -32.66010  289.35950    0.11020    2.00790  294.86080    0.25430    0.39240    -999.25    -999.25  -92.52850
  800.00000  100.89610    5.09150 -102.46910    5.17990    4.89790   93.71000  312.07030  335.89470  -20.11870  112.97630  -13.02790  278.82800    0.18270    2.21140  319.76220    0.27430    0.27220    -999.25    -999.25  -97.56310
  850.00000  101.33560    2.63180 -100.69930    2.73960    2.99880   89.41440  230.28840  304.40310  -18.95080   98.04450  -14.18860  420.63210    0.00940    1.86880  215.43240    0.29580    0.47570    -999.25    -999.25  -95.07640
  900.00000   26.83370    5.48540 -153.77450    9.61470   12.83160   26.80860  209.73560  300.71910  -21.18070   33.56260  -22.09100  218.03970    0.15230    2.25650  208.44470    0.21060    0.24250    -999.25    -999.25  -92.58970
  950.00000   77.45830    3.86730 -117.56150    4.50250    5.54470   78.55960  220.76520  323.64260  -28.71800   86.13280  -16.46740  220.15250    0.06950    2.19610  216.95840    0.27120    0.26820    -999.25    -999.25  -95.51070
 1000.00000   55.31940    5.21520 -157.05730    9.47960   13.22790   50.44180  203.86130  283.99280  -27.70690   58.22160  -17.35550  202.12550    0.18350    2.27760  198.45220    0.27150    0.22650    -999.25    -999.25  -95.38310
 1050.00000   63.25570    4.76700 -119.50960    6.97090    8.24510   48.67830  221.01390  252.84180  -31.29080   64.77330  -27.54830  207.90280    0.16180    2.47130  225.93850    0.21430    0.11180    -999.25    -999.25  -99.55410
 1100.00000   93.04180    4.55360 -108.73120    4.92690    5.30280   96.98520  238.39360  303.03340  -29.09990  102.34370  -23.75430  233.15110    0.16370    2.43710  230.98420    0.23880    0.13120    -999.25    -999.25  -14.48120
 1150.00000   93.29120    4.70570 -106.13400    5.02620    5.16710   84.55040  229.23660  302.65150  -22.02630  100.61600  -28.81710  236.75510    0.17340    2.37320  230.09870    0.25570    0.17320    -999.25    -999.25  -15.09230
 1200.00000   80.16890    5.13540 -115.08830    5.98420    7.52030   81.88450  222.93920  285.53600  -32.10460   89.19670  -16.17730  221.88330    0.24860    2.57140  216.96770    0.24830    0.05090    -999.25    -999.25  -20.86740
 1250.00000   64.70390    9.62200 -111.81460   12.34900   16.38520   67.69600  231.89050  259.20760  -14.78620   73.44840   -8.45000  251.03610    0.02230    2.43980  222.98760    0.22220    0.13010    -999.25    -999.25  -26.42990
 1300.00000   98.81140    3.25130 -101.05160    3.45450    4.24220   88.19370  331.59960  325.12580  -22.68670  100.80380   -6.62800  352.38910    0.09560    1.74450  335.49850    0.28000    0.55620    -999.25    -999.25  -24.21050
 1350.00000  273.77080  140.75940 -113.46640   82.52530 1983.97030  238.46500  218.64780  238.17840  -17.27510  227.23230   -7.34960  223.38570    0.13370    2.42560  211.32400    0.19760    0.13640    -999.25    -999.25  -93.95040
 1400.00000   91.69560    4.75190 -175.09250    5.04590    5.36350   84.46860  292.72800  250.34920  -37.38180  100.56270  -10.43410  323.81350    0.23340    2.59000  277.86000    0.21450    0.04150    -999.25    -999.25  -91.17760
 1450.00000   28.81020    1.38530 -223.96400    2.69080   14.47600   29.52890  206.60980  248.07640    1.31990   38.47050   -6.17480  207.42300    0.17120    2.40450  213.14940    0.22010    0.15160    0.21800    0.17320  -96.46010
 1500.00000   45.88460    6.96270 -170.00750    7.64490   10.08620   47.46620  241.95530  190.16320  -29.83580   56.59050  -20.36030  248.24700    0.06780    2.68420  237.16630    -999.25    -999.25    0.01650    0.11390  -91.45340
 1550.00000   31.95060    7.50300 -172.89500   10.42080   40.81400   29.90010  252.43450  189.23780  -24.13790   36.06830   -9.36450  257.87130    0.21880    2.66900  241.44370    -999.25    -999.25    0.02570    0.09030  -87.62530
 1600.00000   34.32370    6.45070 -112.27100    8.96340   31.66350   25.27610  259.43980  183.40170  -24.92110   41.61820  -27.97170  260.98900    0.25090    2.57360  240.40220    -999.25    -999.25    0.08400    0.07990  -87.79180
 1650.00000   49.74880   83.60490 -107.57360  108.48940   21.23720   47.54130  253.06970  203.54740  -27.83060   56.38020  -19.85840  282.47480    0.14080    2.64520  235.25200    -999.25    -999.25    0.03910    0.08190  -88.08040
 1700.00000   14.34530   12.52690 -141.42050   14.55130   26.76940   19.76820  251.89510  183.58300  -19.44230   26.26670  -36.26070  249.07970    0.07190    2.60770  247.17480    -999.25    -999.25    0.06210    0.06710  -93.89000
 1750.00000   20.48880    7.07480 -143.32040   10.98500   42.72700   19.98470  250.22890  198.56840  -11.87370   28.31830    1.51880  259.66980    -999.25    2.38490  230.03690    -999.25    -999.25    0.19290    0.11450  -95.11890
 1800.00000   12.52750   14.20990 -134.64580   16.67590   57.96710   15.71380  272.81610  180.87110  -29.03100   24.45390  -22.46450  262.92740    -999.25    2.54670  264.85220    -999.25    -999.25    0.09830    0.05510  -30.33870
 1850.00000   55.84530    8.86210  -83.88320    9.70250   12.27170   51.91150  279.08370  220.69340  -29.20920   66.17200  -14.44350  313.74540    0.25190    2.53530  250.48780    -999.25    -999.25    0.09960    0.10080  -16.40690
 1900.00000   60.49580   16.62300  -32.29860   18.98370   25.23890   52.68140  244.47750  201.30640  -22.02120   59.59900   -3.94530  242.35640    0.05820    2.61380  237.91080    -999.25    -999.25    0.06220    0.08690  -16.57590
 1950.00000   27.62460   60.31690  -79.20680   71.90670  101.19320   22.86490  229.23140  175.83900  -20.98300   32.57570  -16.25270  232.93700    0.03350    2.67850  231.15040    -999.25    -999.25    0.01920    0.03140  -16.74480
 2000.00000   48.94710   18.30850  -63.07690   22.42980   27.54360   46.88200  239.95310  203.82300  -17.02360   53.05600  -20.12500  243.43380    0.08950    2.64840  240.97740    -999.25    -999.25    0.03460    0.08000  -16.91370
 2050.00000   14.68590  273.46660  -96.29370  641.38480 1367.29240   14.54930  251.89760  163.02010  -18.99030   22.91100  -13.09330  254.28520    0.10470    2.70270  239.30230    -999.25    -999.25    0.00440    0.01230  -17.54210
 2100.00000   11.58220  154.87630 -103.12650  255.11930  299.82770   15.08150  236.21280  159.97830  -16.45310   20.06310  -10.10850  250.82180    0.06240    2.74930  229.75630    -999.25    -999.25   -0.01960    0.01700  -18.60280
