~Version ---------------------------------------------------
VERS.      2.0 : CWLS log ASCII Standard -VERSION 2.0
WRAP.       NO : One line per depth step
CREA. 08/01/17 : LAS Creation Date
~Well ------------------------------------------------------
STRT.FT                  900.0 : START DEPTH
STOP.FT                 9500.0 : STOP DEPTH
STEP.FT               50.00000 : STEP LENGTH
NULL.                  -999.25 : NULL VALUE
COMP. BP CANADA ENERGY COMPANY : COMPANY
WELL. AMOCO HB WIND 3-32-60-15 : WELL
FLD .                          : FIELD
LOC .                          : LOCATION
CTRY.                   CANADA : COUNTRY
SRVC.   Schlumberger of Canada : SERVICE COMPANY
DATE.              25-Jan-1971 : LOGDATE
PROV.                  Alberta : PROVINCE
UWI .         100033206015W500 : UNIQUE WELL ID
SLAT.WGS84             54.2274 : SURFACE LATITUDE
SLON.WGS84           -116.2148 : SURFACE LONGITUDE
~Curve Information -----------------------------------------
DEPT    .FT    : Depth Curve
CALDED  .IN    : CALIPER FROM DENSITY LOG
CALNED  .IN    : CALIPER FROM NEUTRON LOG
CALSED  .IN    : CALIPER FROM SONIC LOG
CALWS   .IN    : CALIPER [CALSED]
CONDWS  .MMHO  : CONDUCTIVITY [1000/DRESWS]
CORRED  .G/C3  : DENSITY CORRECTION FROM DENSITY LOG
DCORWS  .G/C3  : DENSITY CORR4ECTION [CORRED]
DENWS   .G/C3  : BULK DENSITY RHOBED]
DPHILSED.V/V   : DENSITY POROSITY [M=2.71, F=1.00] FROM DENSITY LOG
DPOLSWS .V/V   : DENSITY POROSITY LIMESTONE [CALCULATED FROM DENWS]
DRESWS  .OHMM  : DEEP RESISTIVITY [ILDED]
DTED    .US/F  : DELTA TIME FROM SONIC LOG
DTWS    .US/F  : DELTA TIME [DTED]
GRDED   .GAPI  : GAMMA RAY FROM DENSITY LOG
GRNED   .GAPI  : GAMMA RAY FROM NEUTRON LOG
GRSED   .GAPI  : GAMMA RAY FROM SONIC LOG
GRWS    .GAPI  : GAMMA RAY [GRDED]
ILDED   .OHMM  : INDUCTION LOG DEEP RESISTIVITY
ILMED   .OHMM  : INDUCTION LOG MEDIUM RESISTIVITY
LL8ED   .OHMM  : 8 INCH LATEROLOG RESISTIVITY
MRESWS  .OHMM  : MEDIUM RESISTIVITY [ILMED]
NPOLSWS .V/V   : NEUTRON POROSITY LIMESTONE [SNPLSED]
RHOBED  .G/C3  : BULK DENSITY FROM DENSITY LOG
SNPLSED .V/V   : SIDEWALL NEUTRON POROSITY LIMESONTE
SPRED   .MV    : SPONTANEOUS POTENTIAL FROM RESISTIVITY LOG
SPWS    .MV    : SPONTANEOUS POTENTIAL [BASELINE 0 MV] [SPRED]
SRESWS  .OHMM  : SHALLOW RESISTIVITY [LL8ED]
~Params ----------------------------------------------------
PD  .                     GL : PERMANENT DATUM
EPD .FT               2499.5 : ELEVATION PERMANENT DATUM
LMF .                     KB : LOG MEASURED FROM
DAPD.FT                   14 : FEET ABOVE PERMANENT DATUM
EKB .FT               2513.5 : KELLY BUSHING
EGL .FT               2499.5 : GROUND LEVEL
DATE.               01/25/71 : RUN DATE
RUN .                      1 : RUN NUMBER
DD  .FT                 8540 : DEPTH DRILLER
DL  .FT                 8541 : DEPTH LOGGER
BLI .FT                 8535 : BOTTOM LOG INTERVAL
TLI .FT                  921 : TOP LOG INTERVAL
CBD .FT                  921 : CASING BOTTOM DRILLER
CBL .FT                  920 : CASING BOTTOM LOGGER
BS  .IN                 8.75 : BIT SIZE
BSD .FT                 9540 : BIT SIZE AT DEPTH
DFT .                GELCHEM : DRILLING FLUID TYPE
DFD .                    9.7 : DRILLING FLUID DENSITY
DFV .                    122 : DRILLING FLUID VISCOSITY
DFPH.                     10 : DRILLING FLUID PH
DFL .                      8 : DRILLING FLUID LOSS
MSS .               FLOWLINE : MUD SAMPLE SOURCE
RMF .OHMM               0.97 : RESISTIVITY MUD FILTRATE SAMPLE
MFST.DEGF                 73 : MUD FILTRATE SAMPLE TEMPERATURE
RMC .OHMM               1.49 : RESISTIVITY MUD CAKE
MCST.DEGF                 72 : MUD CAKE SAMPLE TEMPERATURE
TCS .HRS                   4 : TIME CIRCULATED STOPPED
LUN .                   7501 : LOGGING UNIT NUMBER
LUL .                    EDM : LOGGING UNIT LOCATION
ENGI.                 SLADEN : RECORDING ENGINEER
WITN.       HEIKKINEN MORRIS : WITNESSED BY
CLNT.                A2DTECH : CLIENT CODE
ORIG.            2" 5" PRINT : ORIGIN OF DATA
UWI .       100033206015W500 : UNIQUE WELL ID
DICO. A2D Technologies, Inc. : DIGITIZING COMPANY
~Other -----------------------------------------------------
~ASCII -----------------------------------------------------
# ...
 3500.00000    -999.25    -999.25   10.76880   10.76880  142.67980    -999.25    -999.25    -999.25    -999.25    -999.25    7.00870   91.42770   91.42770    -999.25    -999.25   89.08090   89.08090    7.00870    6.70680    7.71790    6.70680    -999.25    -999.25    -999.25  -94.32710   -9.21680    7.71790
 3550.00000    -999.25    -999.25   10.61010   10.61010  135.31620    -999.25    -999.25    -999.25    -999.25    -999.25    7.39010   87.22320   87.22320    -999.25    -999.25   89.14630   89.14630    7.39010    6.97140    7.93250    6.97140    -999.25    -999.25    -999.25  -94.47460   -9.66400    7.93250
 3600.00000    -999.25    -999.25   10.79990   10.79990  163.64200    -999.25    -999.25    -999.25    -999.25    -999.25    6.11090   89.99090   89.99090    -999.25    -999.25   96.78890   96.78890    6.11090    5.71740    6.35090    5.71740    -999.25    -999.25    -999.25  -93.90070   -9.38990    6.35090
 3650.00000    -999.25    -999.25   10.76600   10.76600  125.42020    -999.25    -999.25    -999.25    -999.25    -999.25    7.97320   87.11950   87.11950    -999.25    -999.25   79.77780   79.77780    7.97320    7.56260    8.56620    7.56260    -999.25    -999.25    -999.25  -92.80410   -8.59300    8.56620
 3700.00000    -999.25    -999.25   10.88180   10.88180  167.48170    -999.25    -999.25    -999.25    -999.25    -999.25    5.97080   93.37690   93.37690    -999.25    -999.25   87.00230   87.00230    5.97080    5.62470    6.72400    5.62470    -999.25    -999.25    -999.25  -92.52080   -8.61100    6.72400
 3750.00000    -999.25    -999.25   10.82350   10.82350  118.10700    -999.25    -999.25    -999.25    -999.25    -999.25    8.46690   85.45240   85.45240    -999.25    -999.25   89.41960   89.41960    8.46690    8.21940    7.86250    8.21940    -999.25    -999.25    -999.25  -92.85560   -9.24400    7.86250
 3800.00000    -999.25    -999.25   10.78630   10.78630  125.65970    -999.25    -999.25    -999.25    -999.25    -999.25    7.95800   86.61160   86.61160    -999.25    -999.25   90.53060   90.53060    7.95800    7.66410    8.73780    7.66410    -999.25    -999.25    -999.25  -92.50970   -9.19790    8.73780
 3850.00000    -999.25    -999.25   10.98490   10.98490  120.82400    -999.25    -999.25    -999.25    -999.25    -999.25    8.27650   84.83700   84.83700    -999.25    -999.25   93.97280   93.97280    8.27650    7.86510    9.11800    7.86510    -999.25    -999.25    -999.25  -91.54990   -8.53780    9.11800
 3900.00000    -999.25    -999.25   11.10710   11.10710  117.63320    -999.25    -999.25    -999.25    -999.25    -999.25    8.50100   83.18240   83.18240    -999.25    -999.25   96.65440   96.65440    8.50100    8.26270   10.30520    8.26270    -999.25    -999.25    -999.25  -91.64030   -8.92800   10.30520
 3950.00000    -999.25    -999.25   11.94250   11.94250  149.13480    -999.25    -999.25    -999.25    -999.25    -999.25    6.70530   91.48780   91.48780    -999.25    -999.25   98.07370   98.07370    6.70530    6.39740    7.41520    6.39740    -999.25    -999.25    -999.25  -90.50990   -8.09880    7.41520
 4000.00000    -999.25    -999.25   10.95190   10.95190  139.83860    -999.25    -999.25    -999.25    -999.25    -999.25    7.15110   94.10240   94.10240    -999.25    -999.25  100.89290  100.89290    7.15110    6.92800    8.28470    6.92800    -999.25    -999.25    -999.25  -89.48900   -7.37620    8.28470
 4050.00000    -999.25    -999.25   10.05860   10.05860  119.16390    -999.25    -999.25    -999.25    -999.25    -999.25    8.39180   95.79280   95.79280    -999.25    -999.25  109.18450  109.18450    8.39180    8.17730   10.39900    8.17730    -999.25    -999.25    -999.25  -88.40070   -6.58760   10.39900
 4100.00000    -999.25    -999.25   10.02000   10.02000  109.10360    -999.25    -999.25    -999.25    -999.25    -999.25    9.16560   91.49050   91.49050    -999.25    -999.25  105.63390  105.63390    9.16560    8.88270   12.27830    8.88270    -999.25    -999.25    -999.25  -87.95300   -6.43970   12.27830
 4150.00000    -999.25    -999.25   10.08420   10.08420   95.74050    -999.25    -999.25    -999.25    -999.25    -999.25   10.44490   92.59930   92.59930    -999.25    -999.25  118.91250  118.91250   10.44490    9.88890   13.75240    9.88890    -999.25    -999.25    -999.25  -86.96320   -5.74960   13.75240
 4200.00000    -999.25    -999.25    9.86940    9.86940   59.60130    -999.25    -999.25    -999.25    -999.25    -999.25   16.79740   85.07060   85.07060    -999.25    -999.25  103.73970  103.73970   16.79740   15.64520   30.06950   15.64520    -999.25    -999.25    -999.25  -86.37810   -5.46570   30.06950
 4250.00000    -999.25    -999.25    9.49680    9.49680   70.30420    -999.25    -999.25    -999.25    -999.25    -999.25   14.22390   92.86320   92.86320    -999.25    -999.25  150.13030  150.13030   14.22390   14.63080   28.09380   14.63080    -999.25    -999.25    -999.25  -85.39500   -4.78960   28.09380
 4300.00000    -999.25    -999.25   10.66260   10.66260  157.38860    -999.25    -999.25    -999.25    -999.25    -999.25    6.35370   85.18520   85.18520    -999.25    -999.25   84.13850   84.13850    6.35370    6.09540    7.16150    6.09540    -999.25    -999.25    -999.25  -87.63130   -8.19790    7.16150
 4350.00000    -999.25    -999.25   10.21680   10.21680  172.26530    -999.25    -999.25    -999.25    -999.25    -999.25    5.80500   84.85300   84.85300    -999.25    -999.25   89.34550   89.34550    5.80500    5.47370    7.40810    5.47370    -999.25    -999.25    -999.25  -86.13250   -7.87100    7.40810
 4400.00000    -999.25    -999.25   10.47850   10.47850  192.66710    -999.25    -999.25    -999.25    -999.25    -999.25    5.19030   92.45750   92.45750    -999.25    -999.25   86.23950   86.23950    5.19030    4.81640    5.58250    4.81640    -999.25    -999.25    -999.25  -86.03650   -8.94690    5.58250
 4450.00000    -999.25    -999.25    9.94020    9.94020  146.31540    -999.25    -999.25    -999.25    -999.25    -999.25    6.83500   82.24140   82.24140    -999.25    -999.25  100.01540  100.01540    6.83500    6.56690    8.60150    6.56690    -999.25    -999.25    -999.25  -85.94330  -10.03150    8.60150
 4500.00000    -999.25    -999.25   11.17340   11.17340  197.16870    -999.25    -999.25    -999.25    -999.25    -999.25    5.07180   90.06840   90.06840    -999.25    -999.25   91.71120   91.71120    5.07180    5.27360    5.87870    5.27360    -999.25    -999.25    -999.25  -84.03330   -9.28760    5.87870
 4550.00000    -999.25    -999.25   12.54630   12.54630  221.99040    -999.25    -999.25    -999.25    -999.25    -999.25    4.50470   93.77580   93.77580    -999.25    -999.25   97.28220   97.28220    4.50470    4.30340    5.31720    4.30340    -999.25    -999.25    -999.25  -82.40570   -8.83200    5.31720
 4600.00000    -999.25    -999.25   11.11150   11.11150  200.39280    -999.25    -999.25    -999.25    -999.25    -999.25    4.99020   90.84860   90.84860    -999.25    -999.25  117.00220  117.00220    4.99020    4.67310    6.46500    4.67310    -999.25    -999.25    -999.25  -83.45210  -11.05030    6.46500
 4650.00000    -999.25    -999.25   12.78980   12.78980  349.50370    -999.25    -999.25    -999.25    -999.25    -999.25    2.86120   95.78520   95.78520    -999.25    -999.25   87.69810   87.69810    2.86120    2.68910    3.73340    2.68910    -999.25    -999.25    -999.25  -80.10070   -8.87090    3.73340
 4700.00000    -999.25    -999.25   12.91210   12.91210  286.65450    -999.25    -999.25    -999.25    -999.25    -999.25    3.48860   93.00310   93.00310    -999.25    -999.25   93.80510   93.80510    3.48860    3.33760    4.18580    3.33760    -999.25    -999.25    -999.25  -80.77780  -10.72580    4.18580
 4750.00000    -999.25    -999.25   11.44540   11.44540  220.49740    -999.25    -999.25    -999.25    -999.25    -999.25    4.53520   91.30720   91.30720    -999.25    -999.25   86.04540   86.04540    4.53520    4.87720    5.18430    4.87720    -999.25    -999.25    -999.25  -81.25930  -12.37330    5.18430
