~Version ---------------------------------------------------
VERS. 2.0 : CWLS log ASCII Standard -VERSION 2.0
WRAP.  NO : ONE LINE PER DEPTH STEP
~Well ------------------------------------------------------
STRT.F                      1300.0 : START DEPTH
STOP.F                     12000.0 : STOP DEPTH
STEP.F                    50.00000 : STEP LENGTH
NULL.                      -999.25 : NULL VALUE
COMP. CENTRAL DEL RIO OILS LIMITED : COMPANY
WELL.     CDR GULF TONY 7-21-62-23 : WELL
FLD .                           WC : FIELD
LOC .                              : LOCATION
CTRY.                       CANADA : COUNTRY
SRVC.                 Schlumberger : SERVICE COMPANY
DATE.                  26-Feb-1970 : LOGDATE
PROV.                      Alberta : PROVINCE
UWI .             100072106223W500 : UNIQUE WELL ID
SLAT.WGS84                54.37491 : SURFACE LATITUDE
SLON.WGS84               -117.3829 : SURFACE LONGITUDE
~Curve Information -----------------------------------------
DEPT   .F                 : 
CALD   .IN   42 280 60 00 : CALIPER FROM DENSITY LOG
GRD    .GAPI 42 310 01 00 : GAMMA RAY FROM DENSITY LOG
NPOR_SS.DEC               : ENCHANCED THERMAL NEUTRON POROSITY IN SELECTED LITHOLOGY SANDSTONE
NPHI_DM.DEC  42 890 11 00 : NEUTRON POROSITY DOLOMITE MATRIX
NPHI_LS.DEC  42 890 10 00 : NEUTRON POROSITY LIMESTONE
ILD    .OHMM 07 120 46 00 : INDUCTION DEEP RESISTIVITY
ILM    .OHMM 07 120 44 00 : INDUCTION MEDIUM RESISTIVITY
LL8    .OHMM 07 220 08 00 : LATEROLOG 8
SPR    .MV   07 010 01 00 : SPONTANEOUS POTENTIAL FROM RESISTIVITY LOG
GRS    .GAPI 60 310 01 00 : GAMMA RAY FROM SONIC LOG
DT     .US/F 60 500 00 00 : DELTA-T (INTERVAL TRANSIT TIME)
CALS   .IN   60 280 50 00 : CALIPER FROM SONIC LOG
~Params ----------------------------------------------------
PD  .                     GL : PERMANENT DATUM
EPD .FT               2973.7 : ELEVATION PERMANENT DATUM
LMF .                     KB : LOG MEASURED FROM
DAPD.FT                 13.3 : FEET ABOVE PERMANENT DATUM
EKB .FT               2987.0 : KELLY BUSHING
EGL .FT               2973.7 : GROUND LEVEL
DATE.               02/26/70 : RUN DATE
RUN .                      1 : RUN NUMBER
DD  .FT                12050 : DEPTH DRILLER
DL  .FT                12048 : DEPTH LOGGER
BLI .FT                12044 : BOTTOM LOG INTERVAL
TLI .FT                 1302 : TOP LOG INTERVAL
CBD .FT                 1303 : CASING BOTTOM DRILLER
CBL .FT                 1302 : CASING BOTTOM LOGGER
BS  .IN                 8.75 : BIT SIZE
BSD .FT                12050 : BIT SIZE AT DEPTH
DFT .                 FGM CS : DRILLING FLUID TYPE
DFD .                    9.4 : DRILLING FLUID DENSITY
DFV .                     68 : DRILLING FLUID VISCOSITY
DFPH.                    9.5 : DRILLING FLUID PH
DFL .                   10.1 : DRILLING FLUID LOSS
MSS .               FLOWLINE : MUD SAMPLE SOURCE
RMS .OHMM               2.43 : RESISTIVITY MUD SAMPLE
MST .DEGF                 74 : MUD SAMPLE TEMPERATURE
RMF .OHMM               2.06 : RESISTIVITY MUD FILTRATE SAMPLE
MFST.DEGF                 74 : MUD FILTRATE SAMPLE TEMPERATURE
RMC .OHMM               2.57 : RESISTIVITY MUD CAKE
MCST.DEGF                 74 : MUD CAKE SAMPLE TEMPERATURE
TCS .HRS                3.25 : TIME CIRCULATED STOPPED
LUN .                   7502 : LOGGING UNIT NUMBER
LUL .                    EDM : LOGGING UNIT LOCATION
ENGI.                KERCHUM : RECORDING ENGINEER
WITN.          RONCO WHEELER : WITNESSED BY
CLNT.                A2DTECH : CLIENT CODE
ORIG.            2" 5" PRINT : ORIGIN OF DATA
UWI .       100072106223W500 : UNIQUE WELL ID
DICO. A2D Technologies, Inc. : DIGITIZING COMPANY
~Other -----------------------------------------------------
~ASCII -----------------------------------------------------
# ...
 4100.00000    -999.25    -999.25    -999.25    -999.25    -999.25    8.85730    6.90520    7.37280  -53.71000   95.45440   85.99680   10.50860
 4150.00000    -999.25    -999.25    -999.25    -999.25    -999.25    8.45670    6.70540    7.80760  -53.77480  103.43220   91.02740    9.83500
 4200.00000    -999.25    -999.25    -999.25    -999.25    -999.25   12.50220   10.27980   12.92720  -52.08490  109.95200   87.16480    9.26310
 4250.00000    -999.25    -999.25    -999.25    -999.25    -999.25   13.28500   10.73750   12.39920  -51.40450   99.30700   83.37070    9.79790
 4300.00000    -999.25    -999.25    -999.25    -999.25    -999.25   11.33490    9.21320    9.02280  -50.67680   92.28350   82.12500    9.81660
 4350.00000    -999.25    -999.25    -999.25    -999.25    -999.25    9.00940    7.47980    8.63200  -50.16490  104.58370   84.64040    9.83050
 4400.00000    -999.25    -999.25    -999.25    -999.25    -999.25    7.88560    6.58320    7.17830  -50.09150   88.77070   83.58960    9.94040
 4450.00000    -999.25    -999.25    -999.25    -999.25    -999.25    9.37710    7.37650    7.86160  -49.79500   83.91970   82.51480    9.75800
 4500.00000    -999.25    -999.25    -999.25    -999.25    -999.25    9.32170    7.33670    8.05690  -49.21530   93.54350   83.58020   10.22440
 4550.00000    -999.25    -999.25    -999.25    -999.25    -999.25    9.04550    7.72560    8.36570  -47.80920  105.82720   88.86250   10.37220
 4600.00000    -999.25    -999.25    -999.25    -999.25    -999.25    9.06340    7.37460    7.85200  -47.00560   99.21070   81.19080   10.94640
 4650.00000    -999.25    -999.25    -999.25    -999.25    -999.25    7.44160    6.16700    6.92100  -46.51300   98.99270   86.87670   10.74000
 4700.00000    -999.25    -999.25    -999.25    -999.25    -999.25    9.61350    8.49010    9.95860  -47.25030   95.65990   84.84720    9.98910
 4750.00000    -999.25    -999.25    -999.25    -999.25    -999.25   10.68670    8.33310    8.92390  -51.54530   88.30370   80.89580   10.64180
 4800.00000    -999.25    -999.25    -999.25    -999.25    -999.25   14.75710   11.93660   11.47490  -45.77000   95.77490   76.80840   10.04770
 4850.00000    -999.25    -999.25    -999.25    -999.25    -999.25   23.35500   17.33270   19.21730  -45.81920   76.79540   77.57400    9.65440
 4900.00000    -999.25    -999.25    -999.25    -999.25    -999.25   13.39810   11.52760   12.61490  -47.60240   92.38130   77.58560   10.01570
 4950.00000    -999.25    -999.25    -999.25    -999.25    -999.25   11.59280    9.68270   10.15100  -46.82440  107.92230   79.58470   10.19930
 5000.00000    -999.25    -999.25    -999.25    -999.25    -999.25    9.58860    8.02280    9.10730  -45.95720   96.54840  105.35990   10.48620
 5050.00000    -999.25    -999.25    -999.25    -999.25    -999.25   10.57250    8.77800    9.21090  -46.32090  101.33530   82.36690   10.27530
 5100.00000    -999.25    -999.25    -999.25    -999.25    -999.25    9.46280    7.95050    8.98040  -45.25310  118.78140   88.41330   11.02340
 5150.00000    -999.25    -999.25    -999.25    -999.25    -999.25   10.51600    9.12620   10.87630  -45.73700  113.37620   87.87090   10.94180
 5200.00000    -999.25    -999.25    -999.25    -999.25    -999.25   10.38940    9.30720   10.95770  -45.48680  116.83630   87.90720   10.97520
 5250.00000    -999.25    -999.25    -999.25    -999.25    -999.25   10.08640    8.84510   10.73290  -45.31950   98.63940   86.71950   10.80270
 5300.00000    -999.25    -999.25    -999.25    -999.25    -999.25   12.51440   10.82970   13.17620  -44.01630  108.96290   89.35770   10.43090
 5350.00000    -999.25    -999.25    -999.25    -999.25    -999.25   10.80160    9.37780   11.21850  -45.00810  102.58520   86.58650   10.12540
 5400.00000    -999.25    -999.25    -999.25    -999.25    -999.25   23.71570   21.22130   44.88920  -44.06100   92.91970   79.63960   10.62240
 5450.00000    -999.25    -999.25    -999.25    -999.25    -999.25   12.40510   10.56050   13.30840  -43.37070  107.63550   88.54480   10.14460
 5500.00000    -999.25    -999.25    -999.25    -999.25    -999.25   16.16170   14.12730   20.23370  -42.90050  121.27730  130.52600    9.82710
 5550.00000    -999.25    -999.25    -999.25    -999.25    -999.25   11.07910    9.18520    9.61970  -42.57050  101.09550   81.26880    9.90480
 5600.00000    -999.25    -999.25    -999.25    -999.25    -999.25   10.57340    9.24400    9.97110  -43.98840   84.05080   94.15820   10.72700
 5650.00000   11.59950  110.93160    0.25640    -999.25    -999.25    6.81590    5.86160    7.08920  -41.24510  103.49560   85.39280   10.54240
 5700.00000   11.99710  112.06600    0.31850    -999.25    -999.25    7.06070    5.77350    6.14330  -42.20680   98.26330   82.29380   10.96760
 5750.00000   11.29380   93.22790    0.14810    -999.25    -999.25   12.84940   11.09840   12.96480  -42.43840  100.08480   75.35010   10.55940
 5800.00000   11.41630  100.93500    0.27800    -999.25    -999.25    6.46850    5.58070    6.80160  -40.08280  103.42830   83.98670   10.56310
 5850.00000    -999.25    -999.25    -999.25    -999.25    -999.25    5.33940    4.69180    5.67720  -39.56220  100.58530   84.39000   10.22630
 5900.00000    -999.25    -999.25    -999.25    -999.25    -999.25    6.58380    5.71630    6.23700  -39.87000   94.20650   80.81030   10.18010
 5950.00000    -999.25    -999.25    -999.25    -999.25    -999.25    7.04460    6.38010    7.38440  -38.86760   99.85500   81.31530   10.21640
 6000.00000    -999.25    -999.25    -999.25    -999.25    -999.25    4.16690    3.62330    4.48670  -38.94240  119.10350   97.04630   10.18390
 6050.00000    -999.25    -999.25    -999.25    -999.25    -999.25    3.30210    2.93240    3.90440  -37.28330   94.88150   99.57930   10.88270
 6100.00000    -999.25    -999.25    -999.25    -999.25    -999.25    3.09900    2.46280    3.50670  -33.50240   98.13050   91.03350   11.83700
 6150.00000    -999.25    -999.25    -999.25    -999.25    -999.25    4.99170    4.42460    5.31320  -31.40100   98.84950   86.68100   12.10790
 6200.00000    -999.25    -999.25    -999.25    -999.25    -999.25    6.55590    5.66380    6.75660  -30.83030  104.97310   87.47900   11.51720
 6250.00000    -999.25    -999.25    -999.25    -999.25    -999.25   15.11450   14.08850   16.60400  -35.22780   64.62090   68.83870   10.52460
 6300.00000    -999.25    -999.25    -999.25    -999.25    -999.25   16.61970   20.03330   31.06750  -77.60960   23.52850   72.75820    8.99210
 6350.00000    -999.25    -999.25    -999.25    -999.25    -999.25    8.70280    7.36130    8.02720  -35.91030   81.10140   79.52390   10.64710
 6400.00000    -999.25    -999.25    -999.25    -999.25    -999.25   17.54990   15.00970   16.37180  -44.10320   51.10890   72.27810   11.89730
 6450.00000    -999.25    -999.25    -999.25    -999.25    -999.25   15.39500   14.04560   14.63130  -34.16530   69.39080   71.58130   10.18020
 6500.00000    -999.25    -999.25    -999.25    -999.25    -999.25   12.04530    8.59100    8.63080  -32.89740   79.73970   79.10600   11.12840
 6550.00000    -999.25    -999.25    -999.25    -999.25    -999.25   17.13370   14.13220   16.48880  -29.77780   80.81180   69.28870   11.30380
 6600.00000    -999.25    -999.25    -999.25    -999.25    -999.25   15.58740   12.87130   15.72050  -29.12840   82.50240   69.50910   11.23930
 6650.00000   11.44560   63.19500    0.14260    -999.25    -999.25   14.65170   12.74110   11.18200  -36.06770   54.30450   65.79100   10.90460
 6700.00000   12.84310   82.01140    0.25840    -999.25    -999.25   15.02780   14.35780   16.15310  -28.89310   84.53030   81.55440   10.82670
 6750.00000   10.29350   71.74420    0.18400    -999.25    -999.25   15.79530   13.48640   15.11840  -32.83230   68.51530   89.70120   10.69770
 6800.00000   10.34410   51.58810    0.15980    -999.25    -999.25   10.65800   11.26680   12.09880  -51.04790   55.65670   65.25010    9.93000
 6850.00000   10.79180   74.86530    0.21620    -999.25    -999.25   15.60370   14.09260   20.76840  -26.21560   63.87030   51.42850   10.57620
