~Version ---------------------------------------------------
VERS.      2.0 : CWLS log ASCII Standard -VERSION 2.0
WRAP.       NO : One line per depth step
CREA. 12/19/17 : LAS Creation Date
~Well ------------------------------------------------------
STRT.FT                            1200.0 : START DEPTH
STOP.FT                           10150.0 : STOP DEPTH
STEP.FT                          50.00000 : STEP LENGTH
NULL.                             -999.25 : NULL VALUE
COMP.               CANADIAN FINA OIL LTD : COMPANY
WELL. FINA PAN AM HB HEAVYSOUND 2-6-62-16 : WELL
FLD .                                     : FIELD
LOC .                                     : LOCATION
CTRY.                              CANADA : COUNTRY
SRVC.              Schlumberger of Canada : SERVICE COMPANY
DATE.                         03-Mar-1959 : LOGDATE
PROV.                             Alberta : PROVINCE
UWI .                    100020606216W500 : UNIQUE WELL ID
SLAT.WGS84                       54.32879 : SURFACE LATITUDE
SLON.WGS84                       -116.385 : SURFACE LONGITUDE
~Curve Information -----------------------------------------
DEPT  .FT         : Depth Curve
CALMED.IN         : CALIPER FROM ML LOG
CALWS .IN         : CALIPER [CALMED]
CILDED.MMHO       : CONDUCTIVITY FROM RESISTIVITY LOG
CONDWS.MMHO       : CONDUCTIVITY [1000/DRESWS]
DRESWS.OHMM       : DEEP RESISTIVITY [1000/CILDED IF ILDED < 4, ILDED]
DTED  .US/F       : SONIC FROM SONIC LOG
DTWS  .US/F       : COMPRESSIONAL SONIC [DTED]
GRSED .UgRa-Eq/T  : GAMMA RAY FROM SONIC LOG
GRWS  .GAPI       : GAMMA RAY [GRSED*16.5, Converting to API Unit]
ILDED .OHMM       : INDUCTION DEEP FROM RESISTIVITY LOG
LL7ED .OHMM       : LATEROLOG 7 FT FROM RESISTIVITY LOG
MLLED .OHMM       : LATEROLOG MICRO FROM ML LOG
SNED  .OHMM       : SHORT NORMAL FROM RESISTIVITY LOG
SPRED .MV         : SPONTANEOUS POTENTIAL FROM RESISTIVITY LOG
SPWS  .MV         : SPONTANEOUS POTENTIAL [BASELINE 0 MV, SPRED]
SRESWS.OHMM       : SHALLOW RESISTIVITY [SNED]
~Params ----------------------------------------------------
~Other -----------------------------------------------------
IEL-LL-ML-BCS LOG RUN
~ASCII -----------------------------------------------------
# ...
 7650.00000    9.49350    9.49350   14.25350   11.83610   84.48750   51.81470   51.81470    0.96450   15.91430   84.48750  446.46840  374.42750  100.13630 -139.68660  -72.59990  100.13630
 7700.00000    9.32580    9.32580    6.88120    4.38170  228.22080   50.51370   50.51370    0.99080   16.34820  228.22080  446.57710  179.88750  113.89410 -119.13140  -51.58750  113.89410
 7750.00000    9.67550    9.67550    5.83380    3.35200  298.33050   56.37560   56.37560    1.10030   18.15490  298.33050  664.40310   17.19170  125.16200 -146.82570  -78.82740  125.16200
 7800.00000    7.62700    7.62700   57.61590   55.95690   17.87090   55.67760   55.67760    0.90780   14.97870   17.87090  197.16730    9.15470   85.43440 -196.67300 -128.22110   85.43440
 7850.00000    9.35440    9.35440    9.09680    6.89650  145.00020   50.31810   50.31810    1.13000   18.64500  145.00020  543.51950   40.86410  102.57110 -153.59510  -84.68600  102.57110
 7900.00000    9.00370    9.00370   15.30080   13.52670   73.92800   52.92750   52.92750    1.02860   16.97190   73.92800  166.34550  371.72090   75.84770 -143.50460  -74.14100   75.84770
 7950.00000    9.50110    9.50110   12.84110   10.23240   97.72880   51.02200   51.02200    1.18670   19.58060   97.72880  192.75110   73.93930   79.17550 -138.36130  -68.54050   79.17550
 8000.00000    9.03610    9.03610    8.16710    6.40860  156.04110   50.73920   50.73920    1.10640   18.25560  156.04110  335.71800  242.30620   89.61090 -135.85280  -65.57760   89.61090
 8050.00000    9.47830    9.47830   15.69010   13.97700   71.54590   53.84780   53.84780    1.05140   17.34810   71.54590  235.85970  284.11840   99.91570 -173.03260 -102.30380   99.91570
 8100.00000    8.67540    8.67540   21.28770   19.14610   52.23000   53.37700   53.37700    0.88580   14.61570   52.23000  291.08310   98.77260  101.18590 -235.69670 -164.51070  101.18590
 8150.00000    8.82370    8.82370   34.66380   32.35600   30.90620   55.21570   55.21570    1.13630   18.74900   30.90620  317.59420   49.13230  100.09530 -246.08080 -174.44030  100.09530
 8200.00000    8.77030    8.77030   10.50040    9.75590  102.50260   54.20790   54.20790    1.12130   18.50140  102.50260  305.23610  187.86790   92.37400 -197.70300 -125.60530   92.37400
 8250.00000    8.69530    8.69530  116.48630  124.44310    8.03580   55.93120   55.93120    2.43190   40.12640    8.03580   20.06390  383.23680   18.96530 -168.52990  -95.97780   18.96530
 8300.00000    8.98600    8.98600    4.59670    2.35390  424.82380   52.45390   52.45390    1.31100   21.63150  424.82380 1427.60330  267.10690  115.69480 -198.99680 -125.99110  115.69480
 8350.00000    9.65470    9.65470   15.57240   13.25520   75.44190   52.07910   52.07910    2.08260   34.36290   75.44190  156.51600   14.84950   68.89640 -185.32530 -111.86240   68.89640
 8400.00000    9.50010    9.50010   29.97150   28.40810   35.20120   51.37060   51.37060    1.67390   27.61940   35.20120   72.23100   17.42220   39.81860 -176.73410 -102.81670   39.81860
 8450.00000    9.04760    9.04760   17.71090   15.17920   65.87970   55.27260   55.27260    2.44720   40.37880   65.87970  137.00750   95.30600   69.94810  -96.29160  -21.91700   69.94810
 8500.00000    9.02310    9.02310    8.57860    7.55140  132.42600   53.82260   53.82260    1.84090   30.37480  132.42600  383.97670  171.95510  111.33120 -102.60530  -27.77630  111.33120
 8550.00000    9.02550    9.02550   11.17610    9.65500  103.57340   53.90910   53.90910    2.17940   35.96010  103.57340  280.99250  374.90530   99.31110 -108.49360  -33.21100   99.31110
 8600.00000    9.02900    9.02900   12.35930   10.67440   93.68250   55.23160   55.23160    1.95400   32.24100   93.68250  180.64520  326.74040   80.81310 -107.15090  -31.41110   80.81310
 8650.00000    9.04640    9.04640   33.72200   32.74300   30.54090   58.50280   58.50280    2.69150   44.40980   30.54090   48.22360   62.01580   36.16190  -95.52420  -19.32990   36.16190
 8700.00000    9.33850    9.33850   68.93990   69.79490   14.32770   65.10030   65.10030    3.81050   62.87330   14.32770   17.05380   16.02140   18.19230  -89.68100  -13.02950   18.19230
 8750.00000    9.13470    9.13470  109.80780  119.65870    8.35710   68.41100   68.41100    4.38300   72.31950    8.35710   14.12660   15.56480   12.11000  -91.57510  -14.46920   12.11000
 8800.00000    9.02310    9.02310   68.75340   69.76520   14.33380   62.81430   62.81430    3.62950   59.88680   14.33380   21.04000   22.17690   18.80270  -96.76080  -19.20130   18.80270
 8850.00000    9.03670    9.03670   79.15900   84.75370   11.79890   65.40520   65.40520    3.70700   61.16550   11.79890   19.14940   20.28010   16.63660  -91.32650  -13.30980   16.63660
 8900.00000    9.13070    9.13070   83.42450   85.74340   11.66270   65.73940   65.73940    4.01900   66.31350   11.66270   18.75960   19.88220   15.91150  -90.00920  -11.53800   15.91150
 8950.00000    9.11500    9.11500   18.62460   16.40620   60.95250   70.35410   70.35410    4.86620   80.29230   60.95250  127.99000   96.18070   66.36910  -87.40400   -8.47560   66.36910
 9000.00000    9.32680    9.32680   47.53460   47.48000   21.06150   59.50480   59.50480    3.55830   58.71200   21.06150   32.09520   33.86810   26.97620  -81.29170   -1.90890   26.97620
 9050.00000   11.32500   11.32500  124.82240  139.66480    7.16000   74.62350   74.62350    4.99550   82.42570    7.16000   10.89590    4.71910   10.35160  -91.53200  -10.84300   10.35160
 9100.00000    9.44970    9.44970   78.50220   83.38960   11.99190   70.28280   70.28280    4.77410   78.77260   11.99190   16.49380   16.85580   15.79410  -93.52640  -11.25680   15.79410
 9150.00000    9.25160    9.25160   80.27200   83.16280   12.02460   66.10740   66.10740    4.80730   79.32040   12.02460   18.00500   16.60820   16.32030 -104.73830  -20.89760   16.32030
 9200.00000    9.17740    9.17740   78.98960   81.20310   12.31480   67.27990   67.27990    5.65670   93.33550   12.31480   19.92630   21.24950   17.37140 -111.76730  -26.34600   17.37140
 9250.00000    9.53700    9.53700   88.38850   91.83830   10.88870   67.58090   67.58090    4.96710   81.95710   10.88870   16.06430   15.00750   14.72120 -111.13360  -24.14120   14.72120
 9300.00000    9.07000    9.07000  100.42970  102.93470    9.71490   75.98800   75.98800    5.69660   93.99390    9.71490   15.67070   17.87210   13.99440  -99.83840  -11.27800   13.99440
 9350.00000    9.90600    9.90600   90.78100   95.41070   10.48100   69.40370   69.40370    5.42690   89.54380   10.48100   16.75190   14.19500   15.20680  -88.66630   -3.45060   15.20680
 9400.00000    9.49840    9.49840   99.41570  100.68160    9.93230   69.06920   69.06920    6.82640  112.63560    9.93230   18.49410   19.70790   15.66900  -89.52190   -9.54310   15.66900
 9450.00000    8.75040    8.75040    6.55670    5.25510  190.28970   63.78360   63.78360    5.53110   91.26320  190.28970 2255.82140  499.85760  147.17610  -91.12550  -16.41510  147.17610
 9500.00000    8.96660    8.96660    6.78920    5.06250  197.53260   72.14830   72.14830    9.48740  156.54210  197.53260 3195.47120  376.49590  155.93170  -70.51670   -1.04320  155.93170
 9550.00000    9.00180    9.00180    7.62610    6.18680  161.63330   69.48620   69.48620    6.43870  106.23860  161.63330  704.47330  415.36800  129.29710  -70.63320   -2.72290  129.29710
 9600.00000    9.02280    9.02280   15.27050   14.51640   68.88750   57.44940   57.44940    2.85280   47.07120   68.88750  142.16110  126.28400   71.36790  -68.25790   -1.75270   71.36790
 9650.00000    9.35500    9.35500   12.16000   10.77910   92.77200   56.62540   56.62540    2.32630   38.38390   92.77200  210.31870  120.82990   98.88830  -83.58440  -17.20270   98.88830
 9700.00000    9.00640    9.00640    5.11480    4.27030  234.17480   52.43050   52.43050    2.20580   36.39570  234.17480 1339.38430  498.61190  116.58540  -86.78790  -20.32840  116.58540
 9750.00000    8.95300    8.95300    4.16910    1.84090  543.19840   49.56530   49.56530    0.90700   14.96550  543.19840 5000.26860  500.00000  213.56930 -167.78300 -101.24620  213.56930
