~Version ---------------------------------------------------
VERS.      2.0 : CWLS log ASCII Standard -VERSION 2.0
WRAP.       NO : One line per depth step
CREA. 12/20/17 : LAS Creation Date
~Well ------------------------------------------------------
STRT.FT                              650.0 : START DEPTH
STOP.FT                             9600.0 : STOP DEPTH
STEP.FT                           50.00000 : STEP LENGTH
NULL.                              -999.25 : NULL VALUE
COMP.    CANADIAN OCCIDENTAL PETROLEUM LTD : COMPANY
WELL. CAN OXY ET AL VIRG HILLS 10-12-64-13 : WELL
FLD .                                      : FIELD
LOC .                                      : LOCATION
CTRY.                               CANADA : COUNTRY
SRVC.                         Schlumberger : SERVICE COMPANY
DATE.                          02-Apr-1975 : LOGDATE
PROV.                              Alberta : PROVINCE
UWI .                     100101206413W500 : UNIQUE WELL ID
SLAT.WGS84                        54.52636 : SURFACE LATITUDE
SLON.WGS84                       -115.8216 : SURFACE LONGITUDE
~Curve Information -----------------------------------------
DEPT  .FT    : Depth Curve
CALSED.IN    : CALIPER FROM SONIC LOG [ADJ. TO RESISTIVITY LOG]
CALWS .IN    : CALIPER [CALSED]
CILDED.MMHO  : CONDUCTIVITY FROM RESISTIVITY LOG
CONDWS.MMHO  : CONDUCTIVITY [1000/DRESWS]
DRESWS.OHMM  : DEEP RESISTIVITY [1000/CILDED IF ILDED <=5, ILDED]
DTED  .US/F  : DELTA-T FROM SONIC LOG [ADJ. TO RESISTIVITY LOG]
DTWS  .US/F  : COMPRESSIONAL SONIC [DTED]
GRSED .GAPI  : GAMMA RAY FROM SONIC LOG [ADJ. TO RESISTIVITY LOG]
GRWS  .GAPI  : GAMMA RAY [GRSED]
ILDED .OHMM  : DEEP INDUCTION RESISTIVITY FROM RESISTIVITY LOG
ILMED .OHMM  : MEDIUM INDUCTION RESISTIVITY FROM RESISTIVITY LOG
LL8ED .OHMM  : LATEROLOG 8 FROM RESISTIVITY LOG
MRESWS.OHMM  : MEDIUM RESISTIVITY [ILMED]
SPRED .MV    : SPONTANEOUS POTENTIAL FROM RESISTIVITY LOG
SPWS  .MV    : SPONTANEOUS POTENTIAL [BASELINE 0 MV, SPRED]
SRESWS.OHMM  : SHALLOW RESISTIVITY [LL8ED]
~Params ----------------------------------------------------
PD  .                     GL : PERMANENT DATUM
EPD .FT                 3713 : ELEVATION PERMANENT DATUM
LMF .                     KB : LOG MEASURED FROM
DAPD.FT                   14 : FEET ABOVE PERMANENT DATUM
EKB .FT                 3727 : KELLY BUSHING
EGL .FT                 3713 : GROUND LEVEL
DATE.               04/02/75 : RUN DATE
RUN .                      1 : RUN NUMBER
DD  .FT                 9629 : DEPTH DRILLER
DL  .FT                 9627 : DEPTH LOGGER
BLI .FT                 9621 : BOTTOM LOG INTERVAL
TLI .FT                  650 : TOP LOG INTERVAL
CBD .FT                  650 : CASING BOTTOM DRILLER
CBL .FT                  650 : CASING BOTTOM LOGGER
BS  .IN                7.875 : BIT SIZE
BSD .FT                 9629 : BIT SIZE AT DEPTH
DFT .               GEL CHEM : DRILLING FLUID TYPE
DFD .                    9.3 : DRILLING FLUID DENSITY
DFV .                     84 : DRILLING FLUID VISCOSITY
DFPH.                    9.5 : DRILLING FLUID PH
DFL .                   10.5 : DRILLING FLUID LOSS
MSS .               FLOWLINE : MUD SAMPLE SOURCE
RMS .OHMM               2.78 : RESISTIVITY MUD SAMPLE
MST .DEGF                 68 : MUD SAMPLE TEMPERATURE
RMF .OHMM               2.49 : RESISTIVITY MUD FILTRATE SAMPLE
MFST.DEGF                 62 : MUD FILTRATE SAMPLE TEMPERATURE
RMB .OHMM               0.76 : RESISTIVITY MUD AT BHT
TCS .HRS                   3 : TIME CIRCULATED STOPPED
LUN .                   7691 : LOGGING UNIT NUMBER
LUL .                    EDM : LOGGING UNIT LOCATION
ENGI.                  KOLLA : RECORDING ENGINEER
WITN.                   COTE : WITNESSED BY
CLNT.                A2DTECH : CLIENT CODE
ORIG.            2" 5" PRINT : ORIGIN OF DATA
UWI .       100101206413W500 : UNIQUE WELL ID
DICO. A2D Technologies, Inc. : DIGITIZING COMPANY
~Other -----------------------------------------------------
~ASCII -----------------------------------------------------
# ...
 4950.00000   10.89480   10.89480    -999.25  286.11080    3.49510   91.53010   91.53010   93.67220   93.67220    3.49510    3.69740    4.49920    3.69740  -35.58840   -1.37270    4.49920
 5000.00000    9.92030    9.92030    -999.25  199.99200    5.00020   84.15550   84.15550  101.18410  101.18410    5.00020    5.38380    7.35730    5.38380  -37.44770   -3.83420    7.35730
 5050.00000    9.60940    9.60940    -999.25  129.66300    7.71230   79.45440   79.45440   91.09120   91.09120    7.71230    8.13930    8.83850    8.13930  -37.00970   -4.06620    8.83850
 5100.00000   15.00000   15.00000    -999.25  823.65540    1.21410  198.86510  198.86510   39.53750   39.53750    1.21410    1.32020    2.41560    1.32020  -34.10110   -1.83210    2.41560
 5150.00000    9.31090    9.31090    -999.25  189.27920    5.28320   84.65700   84.65700   64.12000   64.12000    5.28320    6.06440    8.09150    6.06440  -45.78660  -14.18760    8.09150
 5200.00000   10.51240   10.51240    -999.25  179.30680    5.57720   82.81030   82.81030   80.35480   80.35480    5.57720    6.01610    6.61320    6.01610  -36.50570   -5.58120    6.61320
 5250.00000   10.95340   10.95340    -999.25  223.55360    4.47320   86.21120   86.21120   80.59870   80.59870    4.47320    5.99250   10.80620    5.99250  -38.91460   -8.66020   10.80620
 5300.00000   11.24320   11.24320    -999.25  101.27100    9.87450  123.33230  123.33230   38.35680   38.35680    9.87450   12.68210   20.07450   12.68210  -38.81440   -9.23000   20.07450
 5350.00000   10.10690   10.10690    -999.25  169.35370    5.90480   78.82120   78.82120   63.84420   63.84420    5.90480    6.42540    6.91290    6.42540  -30.08640   -1.17650    6.91290
 5400.00000   12.04780   12.04780    -999.25  196.46750    5.08990  128.85280  128.85280   74.67410   74.67410    5.08990    4.44550    9.65860    4.44550  -36.11590   -7.87610    9.65860
 5450.00000   10.79920   10.79920    -999.25  193.41400    5.17030   81.86060   81.86060   75.41960   75.41960    5.17030    6.19690   11.77270    6.19690  -74.48060  -46.91520   11.77270
 5500.00000   10.14590   10.14590    -999.25  146.95940    6.80460   82.97770   82.97770   50.24370   50.24370    6.80460    9.57490   18.71680    9.57490  -97.82800  -70.93270   18.71680
 5550.00000   10.68120   10.68120    -999.25  224.78480    4.44870   93.28310   93.28310   67.65360   67.65360    4.44870    4.97310    7.35720    4.97310  -48.82260  -22.59730    7.35720
 5600.00000    9.64790    9.64790    -999.25  176.95980    5.65100   74.55300   74.55300   74.74090   74.74090    5.65100    5.52270    7.37930    5.52270  -41.84690  -16.29610    7.37930
 5650.00000    9.86340    9.86340    -999.25  127.28150    7.85660   75.68390   75.68390   81.82920   81.82920    7.85660    8.16230   12.02830    8.16230  -30.37400   -5.49330   12.02830
 5700.00000   10.24210   10.24210    -999.25  179.98350    5.55630   78.59150   78.59150   76.83600   76.83600    5.55630    6.02070    7.72390    6.02070  -30.87300   -6.66670    7.72390
 5750.00000   11.51480   11.51480    -999.25  261.91040    3.81810  124.21560  124.21560   70.13360   70.13360    3.81810    4.29260    5.79500    4.29260  -26.75000   -3.21380    5.79500
 5800.00000    9.18940    9.18940    -999.25   42.69750   23.42060   64.71130   64.71130   38.65760   38.65760   23.42060   28.57930   46.32460   28.57930  -49.18970  -26.32350   46.32460
 5850.00000   10.01800   10.01800    -999.25  115.36150    8.66840   76.20100   76.20100  104.45870  104.45870    8.66840    9.24980    9.82580    9.24980  -34.17410  -11.98240    9.82580
 5900.00000    9.56840    9.56840    -999.25  132.42400    7.55150   82.33530   82.33530   86.93830   86.93830    7.55150    8.33230    9.04620    8.33230  -48.69160  -27.17000    9.04620
 5950.00000   12.15630   12.15630    -999.25  218.59220    4.57930   84.98880   84.98880   92.16070   92.16070    4.57930    5.22000    6.67520    5.22000  -24.59980   -3.75260    6.67520
 6000.00000    8.57680    8.57680    -999.25   12.34050   81.03370   69.80460   69.80460   82.12210   82.12210   81.03370  164.92920  412.95990  164.92920  -57.21840  -37.04130  412.95990
 6050.00000    9.30820    9.30820    -999.25   93.44400   10.70160   58.41270   58.41270   45.04420   45.04420   10.70160   12.30470   15.88200   12.30470  -71.78870  -52.28160   15.88200
 6100.00000    9.20400    9.20400    -999.25   34.07460   29.34740   54.10770   54.10770   28.49330   28.49330   29.34740   31.36580   40.68580   31.36580  -65.64650  -46.81390   40.68580
 6150.00000    9.22380    9.22380    -999.25  144.32510    6.92880   56.30710   56.30710   18.23360   18.23360    6.92880   11.14790   94.74060   11.14790 -162.93880 -144.77630   94.74060
 6200.00000    8.91060    8.91060    -999.25   29.60390   33.77970   54.58360   54.58360   14.65410   14.65410   33.77970   56.43030  385.43730   56.43030 -198.29410 -180.80600  385.43730
 6250.00000    9.01220    9.01220    -999.25   25.92860   38.56740   50.55630   50.55630   16.49610   16.49610   38.56740   85.07200  572.90530   85.07200 -168.23490 -151.41690  572.90530
 6300.00000    9.56440    9.56440    -999.25  293.02310    3.41270   66.66960   66.66960   58.00590   58.00590    3.41270    3.72940   10.12620    3.72940  -60.46330  -44.31540   10.12620
 6350.00000    9.11860    9.11860    -999.25  304.59950    3.28300   64.27940   64.27940   57.83050   57.83050    3.28300    4.85990   21.36760    4.85990 -100.67700  -85.20350   21.36760
 6400.00000    9.57470    9.57470    -999.25   57.56690   17.37110   53.28660   53.28660   21.87130   21.87130   17.37110   19.20680   59.00760   19.20680  -42.27850  -27.47510   59.00760
 6450.00000    8.70960    8.70960    -999.25   14.20390   70.47890   53.12760   53.12760   15.80580   15.80580   70.47890   98.81350  301.37190   98.81350  -65.93000  -51.80100  301.37190
 6500.00000    8.85420    8.85420    -999.25   19.01130   52.60040   53.09200   53.09200   26.85410   26.85410   52.60040   72.84280  142.43120   72.84280  -23.30430   -9.84540  142.43120
 6550.00000    8.46610    8.46610    -999.25   44.73250   22.35510   53.80160   53.80160   31.43890   31.43890   22.35510   24.59010   42.63470   24.59010  -30.38790  -17.59910   42.63470
 6600.00000    8.07740    8.07740    -999.25   22.49120   44.46190   54.09340   54.09340   21.59140   21.59140   44.46190   47.58850   80.71910   47.58850  -42.20940  -30.09500   80.71910
 6650.00000    8.13980    8.13980    -999.25   21.45350   46.61240   53.95210   53.95210   21.41340   21.41340   46.61240   50.98770   77.38620   50.98770  -37.23060  -25.78630   77.38620
 6700.00000    8.15480    8.15480    -999.25   33.66450   29.70990   56.16850   56.16850   36.74530   36.74530   29.70990   32.48220   43.41120   32.48220  -26.59750  -15.82770   43.41120
 6750.00000   10.77360   10.77360    -999.25  164.70670    6.07140   73.92250   73.92250   96.20730   96.20730    6.07140    6.35910    8.49480    6.35910  -13.96680   -3.86700    8.49480
 6800.00000   10.63390   10.63390    -999.25  193.36380    5.17160   79.65020   79.65020  113.60590  113.60590    5.17160    5.47810    7.23550    5.47810  -13.85530   -4.42560    7.23550
 6850.00000    9.93550    9.93550    -999.25   99.94600   10.00540   62.30650   62.30650   80.03380   80.03380   10.00540   10.50670   12.12090   10.50670  -18.60690   -9.85160   12.12090
 6900.00000    9.72270    9.72270    -999.25   14.60530   68.46820   52.46720   52.46720   29.44760   29.44760   68.46820   82.66660  140.15770   82.66660  -10.93420   -2.07450  140.15770
 6950.00000    9.42180    9.42180    -999.25    6.78970  148.35530   50.25190   50.25190   13.72990   13.72990  148.35530  227.90360  399.73880  227.90360  -76.45700  -67.37400  399.73880
 7000.00000    8.89960    8.89960    -999.25   10.20170   98.02290   50.53970   50.53970   15.16300   15.16300   98.02290  105.15220  153.67020  105.15220  -66.30280  -56.99790  153.67020
 7050.00000    8.97030    8.97030    -999.25    3.06470  326.29680   48.55700   48.55700   12.19870   12.19870  326.29680  699.21990 1362.39440  699.21990  -82.22480  -72.69810 1362.39440
