~Version ---------------------------------------------------
VERS.      2.0 : CWLS log ASCII Standard -VERSION 2.0
WRAP.       NO : One line per depth step
CREA. 11/15/17 : LAS Creation Date
~Well ------------------------------------------------------
STRT.FT                         300.0 : START DEPTH
STOP.FT                        9050.0 : STOP DEPTH
STEP.FT                      50.00000 : STEP LENGTH
NULL.                         -999.25 : NULL VALUE
COMP.      TEXACO EXPLORATION COMPANY : COMPANY
WELL. TEXACO C&E WIMBORNE 13-25-32-26 : WELL
FLD .                                 : FIELD
LOC .                                 : LOCATION
CTRY.                          CANADA : COUNTRY
SRVC.          Schlumberger of Canada : SERVICE COMPANY
DATE.                     20-Oct-1957 : LOGDATE
PROV.                         Alberta : PROVINCE
UWI .                100132503226W400 : UNIQUE WELL ID
SLAT.WGS84                   51.77784 : SURFACE LATITUDE
SLON.WGS84                  -113.5678 : SURFACE LONGITUDE
~Curve Information -----------------------------------------
DEPT  .FT         : Depth Curve
CALWS .IN         : CALIPER [MCALED]
CILDED.MMHO       : INDUCTION DEEP CONDUCTIVITY FROM RESISTIVITY LOG
CONDWS.MMHO       : CONDUCTIVITY [1000/DRESWS]
DRESWS.OHMM       : DEEP RESISTIVITY [1000/CILDED IF ILDED <5, ILDED]
GRNED .UgRa-Eq/T  : GAMMA RAY FROM GRN LOG
GRWS  .GAPI       : GAMMA RAY [GRNED*16.50]
ILDED .OHMM       : INDUCTION DEEP RESISTIVITY FROM RESISTIVITY LOG
MCALED.IN         : MLT (MICROLOG) CALIPER FROM MICROLOG
NEUTED.CPS        : NEUTRON FROM GRN LOG
NEUTWS.CPS        : NEUTRON [NEUTED]
SNED  .OHMM       : SHORT NORMAL RESISTIVITY FROM RESISTIVITY LOG
SPRED .MV         : SPONTANEOUS POTENTIAL FROM RESISTIVITY LOG
SPWS  .MV         : SPONTANEOUS POTENTIAL [SPRED]
SRESWS.OHMM       : SHALLOW RESISTIVITY [SNED]
~Params ----------------------------------------------------
LMF .                     KB : LOG MEASURED FROM
DMF .                     KB : DRILLING MEASURED FROM
EKB .FT                 3183 : KELLY BUSHING
EGL .FT                 3170 : GROUND LEVEL
DATE.               10/20/57 : RUN DATE
RUN .                      1 : RUN NUMBER
DD  .FT                 9085 : DEPTH DRILLER
DL  .FT                 9088 : DEPTH LOGGER
BLI .FT                 9083 : BOTTOM LOG INTERVAL
TLI .FT                 1204 : TOP LOG INTERVAL
CBD .FT                 1204 : CASING BOTTOM DRILLER
CBL .FT                 1204 : CASING BOTTOM LOGGER
BS  .IN                    9 : BIT SIZE
BSD .FT                 9085 : BIT SIZE AT DEPTH
DFT .               GYP BASE : DRILLING FLUID TYPE
DFD .                   10.3 : DRILLING FLUID DENSITY
DFV .                     80 : DRILLING FLUID VISCOSITY
DFPH.                      8 : DRILLING FLUID PH
DFL .                    5.6 : DRILLING FLUID LOSS
RMS .OHMM                1.3 : RESISTIVITY MUD SAMPLE
MST .DEGF                 77 : MUD SAMPLE TEMPERATURE
RMF .OHMM                0.8 : RESISTIVITY MUD FILTRATE SAMPLE
MFST.DEGF                 81 : MUD FILTRATE SAMPLE TEMPERATURE
RMC .OHMM                1.7 : RESISTIVITY MUD CAKE
MCST.DEGF                 79 : MUD CAKE SAMPLE TEMPERATURE
RMB .OHMM                0.6 : RESISTIVITY MUD AT BHT
TCS .HRS                   4 : TIME CIRCULATED STOPPED
LUN .                  15750 : LOGGING UNIT NUMBER
LUL .                     RD : LOGGING UNIT LOCATION
ENGI.                BOSWELL : RECORDING ENGINEER
WITN.                 GOTAAS : WITNESSED BY
CLNT.                A2DTECH : CLIENT CODE
ORIG.            2" 5" PRINT : ORIGIN OF DATA
UWI .       100132503226W400 : UNIQUE WELL ID
DICO. A2D Technologies, Inc. : DIGITIZING COMPANY
~Other -----------------------------------------------------
~ASCII -----------------------------------------------------
# ...
 2750.00000   11.03150  223.56180  223.56180    4.47300    5.20000   85.80000    4.02590   11.03150  188.26090  188.26090    5.36510  -75.50530   -2.07400    5.36510
 2800.00000   10.09970   53.17650   53.89700   18.55390    3.35480   55.35420   18.55390   10.09970  235.51670  235.51670   17.12810  -89.04930  -15.67850   17.12810
 2850.00000   10.34440   66.09830   70.17250   14.25060    3.47270   57.29960   14.25060   10.34440  237.72010  237.72010   14.48470  -81.75940   -8.44960   14.48470
 2900.00000   10.89770  236.92050  236.92050    4.22080    4.79800   79.16700    3.72940   10.89770  173.74680  173.74680    5.81700  -75.96670   -2.71740    5.81700
 2950.00000   10.76080  241.53330  241.53330    4.14020    4.62400   76.29600    3.78080   10.76080  193.98310  193.98310    5.86070  -77.71120   -4.52280    5.86070
 3000.00000    9.15550   45.81270   48.80520   20.48960    3.35210   55.30970   20.48960    9.15550  228.91800  228.91800   21.09230  -91.03110  -17.90320   21.09230
 3050.00000   11.81330  194.75500  194.75500    5.13470    4.73130   78.06650    4.72920   11.81330  180.10570  180.10570    5.97760  -77.99020   -4.92280    5.97760
 3100.00000    9.55470   74.32170   77.36470   12.92580    3.09950   51.14180   12.92580    9.55470  230.82080  230.82080   13.84710  -92.59470  -19.58830   13.84710
 3150.00000   11.48140  229.49570  229.49570    4.35740    4.75230   78.41290    3.91970   11.48140  180.50730  180.50730    5.61670  -77.01940   -4.07350    5.61670
 3200.00000   11.31350  180.92440  195.41940    5.11720    4.24110   69.97810    5.11720   11.31350  204.11830  204.11830    6.98230  -77.88620   -5.00120    6.98230
 3250.00000   11.91220  223.97560  223.97560    4.46480    4.93380   81.40770    4.07780   11.91220  179.82060  179.82060    5.57750  -77.05870   -4.23420    5.57750
 3300.00000   11.52060  196.78780  196.78780    5.08160    4.48150   73.94470    4.75250   11.52060  201.65550  201.65550    6.96930  -77.01180   -4.24780    6.96930
 3350.00000   10.26730   85.26050   88.00880   11.36250    3.68130   60.74140   11.36250   10.26730  220.31200  220.31200   11.87960  -87.53710  -14.89960   11.87960
 3400.00000   10.42450  110.33330  100.28680    9.97140    4.08140   67.34310    9.97140   10.42450  203.63600  203.63600   13.34570  -89.34210  -16.84350   13.34570
 3450.00000    -999.25  194.56760  194.56760    5.13960    4.40820   72.73530    4.81680    -999.25  187.60740  187.60740    6.20550  -77.04500   -4.68620    6.20550
 3500.00000    -999.25  266.21330  266.21330    3.75640    4.78450   78.94430    3.26810    -999.25  177.78310  177.78310    4.73620  -75.03870   -2.81880    4.73620
 3550.00000    -999.25  150.35770  158.74280    6.29950    6.05370   99.88600    6.29950    -999.25  173.52300  173.52300    7.72550  -77.45280   -5.37180    7.72550
 3600.00000    -999.25  138.93080  143.77320    6.95540    6.17370  101.86610    6.95540    -999.25  162.24700  162.24700    8.02640  -78.05160   -6.11050    8.02640
 3650.00000    -999.25  130.33150  133.73270    7.47760    6.43750  106.21880    7.47760    -999.25  179.50430  179.50430    8.59260  -77.67200   -5.86980    8.59260
 3700.00000    -999.25  129.94010  133.35470    7.49880    6.22890  102.77690    7.49880    -999.25  177.24800  177.24800    8.61600  -77.86590   -5.81890    8.61600
 3750.00000    -999.25  108.52610  110.73460    9.03060    6.29250  103.82630    9.03060    -999.25  185.11350  185.11350   10.68210  -77.93690   -5.62570   10.68210
 3800.00000    -999.25  118.61490  122.18070    8.18460    7.03900  116.14350    8.18460    -999.25  172.92200  172.92200    9.84530  -77.35380   -4.77830    9.84530
 3850.00000   11.31130  103.17050  106.71560    9.37070    7.31300  120.66450    9.37070   11.31130  172.11660  172.11660   12.14840  -76.50590   -3.66450   12.14840
 3900.00000   10.40970   41.80300   42.71610   23.41040    4.63130   76.41650   23.41040   10.40970  272.16780  272.16780   26.63620  -79.96320   -6.85750   26.63620
 3950.00000    -999.25  106.54780  110.98160    9.01050    6.89790  113.81540    9.01050    -999.25  172.10070  172.10070   10.50930  -77.81170   -4.44000   10.50930
 4000.00000    -999.25  129.00240  131.47860    7.60580    6.53180  107.77470    7.60580    -999.25  175.05610  175.05610    9.92510  -77.57230   -3.93640    9.92510
 4050.00000    -999.25  118.89710  123.42330    8.10220    5.99390   98.89930    8.10220    -999.25  167.51370  167.51370    8.86410  -78.03240   -4.56140    8.86410
 4100.00000    -999.25  146.35210  149.69610    6.68020    5.80300   95.74950    6.68020    -999.25  175.78480  175.78480    8.14850  -77.98510   -4.85600    8.14850
 4150.00000    -999.25  101.23120  102.10960    9.79340    5.66840   93.52860    9.79340    -999.25  187.64340  187.64340   10.65280  -78.88400   -6.09460   10.65280
 4200.00000    -999.25  104.75430  105.41630    9.48620    6.15340  101.53110    9.48620    -999.25  179.78070  179.78070   10.51860  -77.71240   -5.26490   10.51860
 4250.00000    -999.25  120.64600  125.89070    7.94340    6.31110  104.13320    7.94340    -999.25  183.53970  183.53970    9.56480  -77.22300   -5.11520    9.56480
 4300.00000    -999.25  156.05300  165.52730    6.04130    6.64740  109.68210    6.04130    -999.25  180.63520  180.63520    7.35950  -76.00280   -4.23470    7.35950
 4350.00000    -999.25  164.20220  173.49360    5.76390    6.78220  111.90630    5.76390    -999.25  175.99280  175.99280    6.98910  -76.54110   -5.11500    6.98910
 4400.00000    -999.25  107.18650  109.65270    9.11970    6.20670  102.41060    9.11970    -999.25  199.11140  199.11140    9.78990  -76.55580   -5.46940    9.78990
 4450.00000    -999.25  116.04830  116.56910    8.57860    6.50290  107.29790    8.57860    -999.25  195.23240  195.23240    9.95140  -76.15850   -5.41400    9.95140
 4500.00000    -999.25  120.28740  123.55590    8.09350    6.66980  110.05170    8.09350    -999.25  171.40570  171.40570    9.39020  -75.61610   -5.21130    9.39020
 4550.00000    -999.25  109.87940  114.38770    8.74220    6.77370  111.76600    8.74220    -999.25  178.83760  178.83760    8.99810  -74.88020   -4.81510    8.99810
 4600.00000    -999.25  115.74310  120.61850    8.29060    6.74270  111.25460    8.29060    -999.25  194.03510  194.03510    9.01350  -74.89290   -5.16970    9.01350
 4650.00000    -999.25  119.58780  124.34100    8.04240    6.45370  106.48610    8.04240    -999.25  177.83540  177.83540    9.05250  -74.16300   -4.77950    9.05250
 4700.00000    -999.25  119.11000  120.18800    8.32030    7.23750  119.41880    8.32030    -999.25  197.22420  197.22420    9.85260  -74.37190   -5.33040    9.85260
 4750.00000    -999.25  150.68270  156.67350    6.38270    6.41030  105.77000    6.38270    -999.25  179.31920  179.31920    8.00870  -73.04730   -4.28630    8.00870
 4800.00000    -999.25  116.59620  118.19630    8.46050    7.58650  125.17730    8.46050    -999.25  172.57550  172.57550   10.70280  -73.29480   -4.78080   10.70280
 4850.00000    -999.25   91.82240   93.56550   10.68770    7.64450  126.13420   10.68770    -999.25  164.97450  164.97450   13.44030  -71.93980   -3.67440   13.44030
 4900.00000    -999.25   63.69680   66.08640   15.13170    7.15870  118.11860   15.13170    -999.25  197.77100  197.77100   21.62510  -70.53190   -2.51350   21.62510
 4950.00000    -999.25  111.99510  113.93540    8.77690    7.77790  128.33540    8.77690    -999.25  171.93430  171.93430   11.50510  -72.80870   -6.10640   11.50510
 5000.00000    -999.25  118.87080  122.00920    8.19610    7.84480  129.43920    8.19610    -999.25  168.11910  168.11910   10.86780  -72.47130   -7.40270   10.86780
 5050.00000    -999.25   64.25780   65.70300   15.22000    9.62670  158.84060   15.22000    -999.25  177.36100  177.36100   20.71550  -69.07080   -5.63600   20.71550
 5100.00000    -999.25   84.72000   87.03600   11.48950    9.56150  157.76480   11.48950    -999.25  170.00290  170.00290   15.26420  -68.27530   -4.26140   15.26420
 5150.00000    -999.25   61.99990   65.41040   15.28810    8.27250  136.49630   15.28810    -999.25  217.90330  217.90330   18.97140  -70.23430   -5.21360   18.97140
