~Version ---------------------------------------------------
VERS.      2.0 : CWLS log ASCII Standard -VERSION 2.0
WRAP.       NO : One line per depth step
CREA. 08/01/17 : LAS Creation Date
~Well ------------------------------------------------------
STRT.FT                                     650.0 : START DEPTH
STOP.FT                                    9250.0 : STOP DEPTH
STEP.FT                                  50.00000 : STEP LENGTH
NULL.                                     -999.25 : NULL VALUE
COMP.                      CALIFORNIA STANDARD CO : COMPANY
WELL. CALIFORNIA STANDARD SOUTH MORNINGSIDE 14-20 : WELL
FLD .                                             : FIELD
LOC .                                             : LOCATION
CTRY.                                      CANADA : COUNTRY
SRVC.            Schlumberger Well Surveying Corp : SERVICE COMPANY
DATE.                                 10-Mar-1955 : LOGDATE
PROV.                                     Alberta : PROVINCE
UWI .                            100142004127W400 : UNIQUE WELL ID
SLAT.WGS84                               52.54859 : SURFACE LATITUDE
SLON.WGS84                              -113.8578 : SURFACE LONGITUDE
~Curve Information -----------------------------------------
DEPT   .FT         : Depth Curve
CALI1ED.IN         : CALIPER 1 FROM CALIPER LOG
CALIED .IN         : CALIPER FROM CALIPER LOG
CALWS  .IN         : CALIPER [CALIED]
CONDWS .MMHO       : CONDUCTIVITY [1000/DRESWS]
DRESWS .OHMM       : DEEP RESISTIVITY [LNED]
GRNED  .UgRa-Eq/T  : GAMMA RAY FROM GRN LOG
GRWS   .GAPI       : GAMMA RAY [GRNED*16.5 TO CONVERTED TO GAPI]
LATED  .OHMM       : LATERAL RESISTIVITY FROM EL LOG
LL7ED  .OHMM       : LATEROLOG-7 RESISTIVITY FROM MLL LOG
LNED   .OHMM       : LONG NORMAL RESISTIVITY FROM MLL LOG
MLLED  .OHMM       : MICRO-LATEROLOG RESISTIVITY
NEUTED .NAPI       : NEUTRON FROM GRN LOG
NEUTWS .NAPI       : NEUTRON [NEUTED]
SNED   .OHMM       : SHORT NORMAL RESISTIVITY FROM EL LOG
SPMED  .MV         : SPONTAEOUS POTENTIAL FROM MICRO LOG
SPR1ED .MV         : SPONTANEOUS POTENTIAL FROM MLL LOG
SPRED  .MV         : SPONTANEOUS POTENTIAL FROM EL LOG
SPWS   .MV         : SPONTANEOUS POTENTIAL [BASELINE 0 MV,SPRED]
SRESWS .OHMM       : SHALLOW RESISTIVIOTY [SNED]
~Params ----------------------------------------------------
PD  .                     KB : PERMANENT DATUM
EKB .FT                 3032 : KELLY BUSHING
DATE.               03/10/55 : RUN DATE
RUN .                      1 : RUN NUMBER
DD  .FT                 9259 : DEPTH DRILLER
DL  .FT                 9258 : DEPTH LOGGER
BLI .FT                 9259 : BOTTOM LOG INTERVAL
TLI .FT                 6326 : TOP LOG INTERVAL
CBD .FT                  623 : CASING BOTTOM DRILLER
CBL .FT                  624 : CASING BOTTOM LOGGER
BSD .FT                 6258 : BIT SIZE AT DEPTH
DFT .              LIME BASE : DRILLING FLUID TYPE
DFD .                   10.2 : DRILLING FLUID DENSITY
DFV .                     12 : DRILLING FLUID VISCOSITY
DFPH.                   12.5 : DRILLING FLUID PH
DFL .                    7.8 : DRILLING FLUID LOSS
RMS .OHMM               0.66 : RESISTIVITY MUD SAMPLE
MST .DEGF                 74 : MUD SAMPLE TEMPERATURE
RMB .OHMM                0.3 : RESISTIVITY MUD AT BHT
TCS .HRS                   4 : TIME CIRCULATED STOPPED
LUN .                   2741 : LOGGING UNIT NUMBER
LUL .                   STST : LOGGING UNIT LOCATION
ENGI.               JOHNKLAM : RECORDING ENGINEER
WITN.                 GEDDES : WITNESSED BY
CLNT.                A2DTECH : CLIENT CODE
ORIG.        2" 5" 25" PRINT : ORIGIN OF DATA
UWI .       100142004127W400 : UNIQUE WELL ID
DICO. A2D Technologies, Inc. : DIGITIZING COMPANY
~Other -----------------------------------------------------
~ASCII -----------------------------------------------------
  650.00000    -999.25    9.94540    9.94540   69.77930   14.37680    -999.25    -999.25    3.75000    -999.25   14.33090    -999.25    -999.25    -999.25    8.60240    -999.25    -999.25 -169.43370   -1.86800    8.54290
  700.00000    -999.25   10.79190   10.79190  120.37170    8.33480    -999.25    -999.25    5.01110    -999.25    8.30760    -999.25    -999.25    -999.25    4.87920    -999.25    -999.25 -169.53180   -1.99110    4.88720
  750.00000    -999.25    9.07100    9.07100   58.05780   17.22030    -999.25    -999.25   18.87650    -999.25   17.22420    -999.25    -999.25    -999.25   11.77340    -999.25    -999.25 -174.78060   -7.13390   11.67010
  800.00000    -999.25    9.80880    9.80880  111.04740    9.00880    -999.25    -999.25    8.77380    -999.25    9.00520    -999.25    -999.25    -999.25    6.55100    -999.25    -999.25 -169.49630   -1.74360    6.57030
  850.00000    -999.25    8.96180    8.96180   57.57420   17.36890    -999.25    -999.25    5.06020    -999.25   17.36890    -999.25    -999.25    -999.25   16.68170    -999.25    -999.25 -170.29560   -2.43620   16.68170
  900.00000    -999.25   10.24890   10.24890  202.83150    4.94150    -999.25    -999.25   10.05640    -999.25    4.93020    -999.25    -999.25    -999.25    4.91170    -999.25    -999.25 -168.54340   -0.57800    4.91800
  950.00000    -999.25    8.96180    8.96180  213.86710    4.72250    -999.25    -999.25    4.78920    -999.25    4.67580    -999.25    -999.25    -999.25    4.74680    -999.25    -999.25 -170.84560   -2.77350    4.81160
 1000.00000    -999.25    8.68850    8.68850  178.10070    5.63700    -999.25    -999.25    6.09960    -999.25    5.61480    -999.25    -999.25    -999.25    5.45990    -999.25    -999.25 -169.77720   -1.59690    5.48000
 1050.00000    -999.25    8.66120    8.66120  112.17130    8.86940    -999.25    -999.25   12.57800    -999.25    8.92300    -999.25    -999.25    -999.25    7.21580    -999.25    -999.25 -170.23210   -1.91150    7.18230
 1100.00000    -999.25    8.90710    8.90710  514.42980    1.94390    -999.25    -999.25   51.95780    -999.25    1.94390    -999.25    -999.25    -999.25   11.35210    -999.25    -999.25 -171.96390   -3.50220   11.35210
 1150.00000    -999.25    7.21310    7.21310   53.81990   18.54430    -999.25    -999.25   25.55480    -999.25   18.58050    -999.25    -999.25    -999.25   22.43820    -999.25    -999.25 -189.77800  -21.17600   22.30530
 1200.00000    -999.25   10.18100   10.18100  123.57580    8.08980    -999.25    -999.25   11.71960    -999.25    8.09220    -999.25    -999.25    -999.25    6.57640    -999.25    -999.25 -170.74910   -2.00600    6.50950
 1250.00000    -999.25    9.12570    9.12570  101.98460    9.84250    -999.25    -999.25   11.20270    -999.25    9.80540    -999.25    -999.25    -999.25    8.45390    -999.25    -999.25 -171.60240   -2.71900    8.41970
 1300.00000    -999.25    9.94070    9.94070  138.25490    7.22430    -999.25    -999.25    8.93890    -999.25    7.23330    -999.25    -999.25    -999.25    4.80010    -999.25    -999.25 -169.80380   -1.26680    4.78800
 1350.00000    -999.25    9.01640    9.01640  118.25220    8.45650    -999.25    -999.25   11.66140    -999.25    8.45650    -999.25    -999.25    -999.25    6.47380    -999.25    -999.25 -170.06920   -2.01160    6.47380
 1400.00000    -999.25    7.81420    7.81420  165.08190    6.11190    -999.25    -999.25    6.49250    -999.25    6.05760    -999.25    -999.25    -999.25    6.04240    -999.25    -999.25 -168.99440   -1.41300    6.09070
 1450.00000    -999.25    8.03280    8.03280   90.28610   11.17380    -999.25    -999.25    9.19600    -999.25   11.07590    -999.25    -999.25    -999.25   10.60130    -999.25    -999.25 -170.60840   -3.50630   10.74930
 1500.00000    -999.25    8.36070    8.36070   68.65540   14.53670    -999.25    -999.25    8.90060    -999.25   14.56550    -999.25    -999.25    -999.25   12.47710    -999.25    -999.25 -171.96390   -5.21030   12.49360
 1550.00000    -999.25    9.01640    9.01640  140.37080    7.15750    -999.25    -999.25    1.99820    -999.25    7.12720    -999.25    -999.25    -999.25    5.26390    -999.25    -999.25 -167.02410   -0.50100    5.21480
 1600.00000    -999.25    8.85250    8.85250   90.28610   11.07590    -999.25    -999.25   12.79210    -999.25   11.07590    -999.25    -999.25    -999.25   11.76700    -999.25    -999.25 -175.59720   -9.30620   11.76700
 1650.00000    -999.25    8.63390    8.63390  115.88160    8.64050    -999.25    -999.25    1.83630    -999.25    8.62950    -999.25    -999.25    -999.25    6.17090    -999.25    -999.25 -167.71690   -1.65640    6.18230
 1700.00000    -999.25    8.19670    8.19670  182.80870    5.47020    -999.25    -999.25    5.67550    -999.25    5.47020    -999.25    -999.25    -999.25    5.01810    -999.25    -999.25 -167.86390   -2.03550    5.03890
 1750.00000    -999.25   10.24890   10.24890  177.84420    5.62540    -999.25    -999.25    5.18400    -999.25    5.62290    -999.25    -999.25    -999.25    4.08000    -999.25    -999.25 -166.41390   -0.81600    4.08900
 1800.00000    -999.25    9.61750    9.61750  140.89070    7.09770    -999.25    -999.25    6.08810    -999.25    7.09770    -999.25    -999.25    -999.25    6.22740    -999.25    -999.25 -166.54220   -1.17480    6.23190
 1850.00000    -999.25    9.78140    9.78140  108.05320    9.25470    -999.25    -999.25    5.19570    -999.25    9.25470    -999.25    -999.25    -999.25    8.77030    -999.25    -999.25 -166.90360   -1.76830    8.77030
 1900.00000    -999.25    9.56280    9.56280  123.57580    8.09220    -999.25    -999.25    4.91340    -999.25    8.09220    -999.25    -999.25    -999.25    4.99500    -999.25    -999.25 -166.14170   -1.23690    5.01320
 1950.00000    -999.25   10.11310   10.11310  133.64340    7.48500    -999.25    -999.25    9.08130    -999.25    7.48260    -999.25    -999.25    -999.25    5.18500    -999.25    -999.25 -165.87390   -1.20120    5.17100
 2000.00000    -999.25    9.34430    9.34430  179.83670    5.54690    -999.25    -999.25    8.71990    -999.25    5.56060    -999.25    -999.25    -999.25    5.28930    -999.25    -999.25 -166.81740   -2.37520    5.26910
 2050.00000    -999.25    9.83610    9.83610  106.60300    9.38520    -999.25    -999.25   14.63550    -999.25    9.38070    -999.25    -999.25    -999.25   10.26220    -999.25    -999.25 -166.22340   -2.01170   10.26220
 2100.00000    -999.25    9.56280    9.56280  101.00500    9.90050    -999.25    -999.25    0.40660    -999.25    9.90050    -999.25    -999.25    -999.25    8.00180    -999.25    -999.25 -166.98640   -3.00680    8.00180
 2150.00000    -999.25    7.59560    7.59560   66.52650   15.37690    -999.25    -999.25    6.92940    -999.25   15.03160    -999.25    -999.25    -999.25    8.09220    -999.25    -999.25 -166.47270   -2.72360    8.09220
 2200.00000    -999.25    8.03280    8.03280  163.01510    6.12040    -999.25    -999.25    7.45480    6.82640    6.13440    8.07030    -999.25    -999.25    6.07970  -51.39870  -37.04820 -164.73490   -1.21790    6.07590
 2250.00000    -999.25    7.97810    7.97810  243.07830    4.29470    -999.25    -999.25   11.97950   10.53350    4.11390    2.79530    -999.25    -999.25   10.05880  -52.30460  -37.77110 -166.58520   -3.28840   10.21950
 2300.00000    -999.25    9.01640    9.01640  100.48400    9.94180    -999.25    -999.25   19.02070   10.14920    9.95210   42.81670    -999.25    -999.25    7.09250  -54.27560  -38.29450 -164.81570   -1.69700    7.11160
 2350.00000    -999.25    9.39890    9.39890  145.45240    6.87510    -999.25    -999.25   10.13000    6.01530    6.87510    6.24810    -999.25    -999.25    6.70590  -53.86020  -38.28600 -166.54220   -3.60280    6.70590
 2400.00000    -999.25    9.18030    9.18030  192.12660    5.20370    -999.25    -999.25    3.93070    3.63500    5.20490    2.93480    -999.25    -999.25    4.45750  -55.37070  -35.77160 -164.96590   -2.20470    4.49590
 2450.00000    -999.25   10.11310   10.11310  184.33180    5.43400    -999.25    -999.25    5.54610    4.95710    5.42500    2.93060    -999.25    -999.25    4.47560  -49.95990  -36.04130 -165.79990   -3.21800    4.47560
