~Version ---------------------------------------------------
VERS.      2.0 : CWLS log ASCII Standard -VERSION 2.0
WRAP.       NO : One line per depth step
CREA. 12/01/17 : LAS Creation Date
~Well ------------------------------------------------------
STRT.FT                       1000.0 : START DEPTH
STOP.FT                       9450.0 : STOP DEPTH
STEP.FT                     50.00000 : STEP LENGTH
NULL.                        -999.25 : NULL VALUE
COMP.          TEXACO CANADA LIMITED : COMPANY
WELL. TEXCAN FINA SUNSET 10-13-69-20 : WELL
FLD .                                : FIELD
LOC .                                : LOCATION
CTRY.                         CANADA : COUNTRY
SRVC.                  Dresser Atlas : SERVICE COMPANY
DATE.                    24-Dec-1969 : LOGDATE
PROV.                        Alberta : PROVINCE
UWI .               100101306920W500 : UNIQUE WELL ID
SLAT.WGS84                  54.97681 : SURFACE LATITUDE
SLON.WGS84                 -116.9067 : SURFACE LONGITUDE
~Curve Information -----------------------------------------
DEPT  .FT    : Depth Curve
ACED  .US/F  : DELTA TIME (ACOUSTIC) FROM SONIC LOG [ADJ. TO RESISTIVITY LOG]
CALSED.IN    : CALIPER FROM SONIC LOG [ADJ. TO RESISTIVITY LOG]
CALWS .IN    : CALIPER [CALSED]
CONDWS.MMHO  : CONDUCTIVITY [1000/DRESWS]
DRESWS.OHMM  : DEEP RESISTIVITY [ILDED]
DTWS  .US/F  : COMPRESIONAL SONIC [ACED]
GRSED .GAPI  : GAMMA RAY FROM SONIC LOG [ADJ. TO RESISTIVITY LOG]
GRWS  .GAPI  : GAMMA RAY [GRSED]
ILDED .OHMM  : DEEP INDUCTION RESISTIVITY FROM RESISTIVITY LOG
ILMED .OHMM  : MEDIUM INDUCTION RESISTIVITY FROM RESISTIVITY LOG
MRESWS.OHMM  : MEDIUM RESISTIVITY [ILMED]
SFLED .OHMM  : SPHERICALLY FOCUSED RESISTIVITY FROM RESISTIVITY LOG
SPRED .MV    : SPONTANEOUS POTENTIAL FROM RESISTIVITY LOG
SPWS  .MV    : SPONTANEOUS POTENTIAL [BASELINE 0 MV, SPRED]
SRESWS.OHMM  : SHALLOW RESISTIVITY [SFLED]
~Params ----------------------------------------------------
PD  .                     GL : PERMANENT DATUM
EPD .FT                 2371 : ELEVATION PERMANENT DATUM
LMF .                     KB : LOG MEASURED FROM
DAPD.FT                   14 : FEET ABOVE PERMANENT DATUM
DMF .                     KB : DRILLING MEASURED FROM
EKB .FT                 2385 : KELLY BUSHING
EGL .FT                 2371 : GROUND LEVEL
DATE.               12/24/69 : RUN DATE
RUN .                      1 : RUN NUMBER
DD  .FT                 9457 : DEPTH DRILLER
DL  .FT                 9460 : DEPTH LOGGER
BLI .FT                 9458 : BOTTOM LOG INTERVAL
TLI .FT                  982 : TOP LOG INTERVAL
CS  .IN                8.625 : CASING SIZE
CBD .FT                  982 : CASING BOTTOM DRILLER
CBL .FT                  982 : CASING BOTTOM LOGGER
BS  .IN                7.875 : BIT SIZE
BSD .FT                 9457 : BIT SIZE AT DEPTH
DFT .                MUD GEL : DRILLING FLUID TYPE
DFD .                    9.5 : DRILLING FLUID DENSITY
DFV .                     90 : DRILLING FLUID VISCOSITY
DFPH.                    9.5 : DRILLING FLUID PH
DFL .                    8.3 : DRILLING FLUID LOSS
MSS .                   CIRC : MUD SAMPLE SOURCE
RMS .OHMM               1.85 : RESISTIVITY MUD SAMPLE
MST .DEGF                 68 : MUD SAMPLE TEMPERATURE
RMF .OHMM                1.5 : RESISTIVITY MUD FILTRATE SAMPLE
MFST.DEGF                 68 : MUD FILTRATE SAMPLE TEMPERATURE
RMC .OHMM                2.2 : RESISTIVITY MUD CAKE
MCST.DEGF                 68 : MUD CAKE SAMPLE TEMPERATURE
MFSS.                   MEAS : MUD FILTRATE SAMPLE SOURCE
MCSS.                   MEAS : MUD CAKE SAMPLE SOURCE
RMB .OHMM               0.62 : RESISTIVITY MUD AT BHT
TCS .HRS                   3 : TIME CIRCULATED STOPPED
LUN .                   6002 : LOGGING UNIT NUMBER
LUL .                     VV : LOGGING UNIT LOCATION
ENGI.       OFFORD KOWALCHUK : RECORDING ENGINEER
WITN.                BEATTIE : WITNESSED BY
CLNT.                A2DTECH : CLIENT CODE
ORIG.            2" 5" PRINT : ORIGIN OF DATA
UWI .       100101306920W500 : UNIQUE WELL ID
DICO. A2D Technologies, Inc. : DIGITIZING COMPANY
~Other -----------------------------------------------------
DIL-SFL-BHC LOG RUN
~ASCII -----------------------------------------------------
# ...
 5600.00000   58.64850    8.49010    8.49010  134.06260    7.45920   58.64850   44.82540   42.60780    7.45920   10.58080   10.58080   47.01070 -109.08000  -56.60460   47.01070
 5650.00000   73.23790    8.18240    8.18240  569.99540    1.75440   73.23790   44.16600   35.26250    1.75440    3.17880    3.17880   14.12650 -146.72640  -93.85840   14.12650
 5700.00000   57.64220    8.53140    8.53140   39.40410   25.40690   57.64220   33.32160   39.90180   25.40690   26.77870   26.77870   49.84720  -95.90480  -42.64160   49.84720
 5750.00000   81.32020    9.29590    9.29590  116.58000    8.57780   81.32020   97.47900   88.67930    8.57780    8.85900    8.85900    9.67320  -57.53320   -3.79290    9.67320
 5800.00000   62.61630    8.39450    8.39450  153.34840    6.52110   62.61630   27.20290   27.46210    6.52110   11.37740   11.37740   59.27800 -171.06280 -113.71900   59.27800
 5850.00000   59.42400    8.33090    8.33090   95.58580   10.46180   59.42400   23.94120   25.11590   10.46180   17.96600   17.96600   85.25070 -167.11410 -106.14310   85.25070
 5900.00000   57.07340    8.47860    8.47860   65.02080   15.37970   57.07340   21.82370   20.74830   15.37970   24.70270   24.70270   99.14860 -163.88910  -99.31460   99.14860
 5950.00000   58.43800    9.19430    9.19430   84.50550   11.95750   58.43800   63.83550   37.35990   11.95750   13.48930   13.48930   53.45260 -100.37800  -32.17630   53.45260
 6000.00000   79.50080    9.00000    9.00000  336.49640    2.97180   79.50080   86.29540   88.95500    2.97180    3.82720    3.82720    5.59370  -81.89780  -15.47910    5.59370
 6050.00000   72.34150    8.78240    8.78240  228.49830    4.37640   72.34150   84.34070   89.53010    4.37640    4.99200    4.99200    9.35150  -99.14840  -36.06490    9.35150
 6100.00000   72.47800   10.40930   10.40930  132.21920    7.56320   72.47800   87.59220   76.29710    7.56320    8.09660    8.09660   12.68580  -68.48000   -8.75350   12.68580
 6150.00000   63.65750    9.17120    9.17120   68.58240   14.58100   63.65750   49.30580   51.96120   14.58100   15.50630   15.50630   19.23160  -70.32420  -13.93290   19.23160
 6200.00000   61.20140    8.53090    8.53090   43.67690   22.90260   61.20140   42.24900   42.50100   22.90260   24.04390   24.04390   31.89940  -67.93170  -14.89750   31.89940
 6250.00000   57.90930    8.31500    8.31500   30.81170   32.45520   57.90930   51.48870   47.86310   32.45520   33.71370   33.71370   66.24660  -72.05990  -22.36080   66.24660
 6300.00000   58.37830    8.29000    8.29000   22.70260   44.04780   58.37830   34.55350   61.50390   44.04780   39.53750   39.53750   87.48880  -71.05880  -24.69480   87.48880
 6350.00000   61.51090    8.35320    8.35320   28.15150   35.52210   61.51090   61.68800   58.71390   35.52210   33.33980   33.33980   38.47400  -58.97910  -15.97220   38.47400
 6400.00000   55.54910    8.71530    8.71530   27.19110   36.77680   55.54910   23.79450   25.36480   36.77680   37.46930   37.46930   66.72520 -107.21210  -67.54030   66.72520
 6450.00000   56.91380    7.89190    7.89190    7.91060  126.43020   56.91380   38.71060   36.74550  126.43020  105.60710  105.60710  139.63840  -60.15630  -23.84160  139.63840
 6500.00000   56.35280    7.92330    7.92330    4.99530  200.18630   56.35280   38.35370   38.75500  200.18630  153.16560  153.16560  189.78120  -44.89260  -11.91300  189.78120
 6550.00000   63.82890    8.33500    8.33500   35.48450   28.18130   63.82890   69.52950   64.63610   28.18130   29.72130   29.72130   35.36100  -40.17270  -10.52830   35.36100
 6600.00000   54.36150    8.27320    8.27320   10.73440   93.15840   54.36150   43.93200   53.92560   93.15840   86.28210   86.28210   97.90520  -42.06530  -15.70300   97.90520
 6650.00000   52.37530    8.44080    8.44080    3.61490  276.63080   52.37530   28.57380   30.57520  276.63080  189.19380  189.19380  304.77560  -48.56300  -24.41660  304.77560
 6700.00000   52.02840    7.94360    7.94360    0.32650 3062.67420   52.02840   20.19020   20.91680 3062.67420  177.59730  177.59730  242.31910  -93.73300  -69.43020  242.31910
 6750.00000   51.49030    7.88520    7.88520    0.33180 3014.29540   51.49030   23.22330   23.43560 3014.29540  313.54060  313.54060  268.87290  -62.99020  -38.53210  268.87290
 6800.00000   51.41950    8.00980    8.00980    0.32410 3085.10860   51.41950   22.68270   23.89930 3085.10860  285.39620  285.39620  264.26770 -103.31060  -78.69730  264.26770
 6850.00000   51.36900    8.05200    8.05200    0.32730 3055.48560   51.36900   25.65090   24.18820 3055.48560  228.01710  228.01710  286.66380 -106.28620  -81.51650  286.66380
 6900.00000   50.60410    8.02480    8.02480    0.33330 3000.00000   50.60410   23.33950   22.51620 3000.00000  399.29760  399.29760  491.06310 -138.18180 -113.25680  491.06310
 6950.00000   53.43490    8.02520    8.02520   19.92110   50.20800   53.43490   16.22000   17.90610   50.20800   52.58590   52.58590  136.10840 -156.49390 -131.41260  136.10840
 7000.00000   54.54510    7.35420    7.35420   34.10280   29.32310   54.54510   21.62540   20.12190   29.32310   48.88930   48.88930  224.35100 -168.47900 -143.24240  224.35100
 7050.00000   51.06810    7.88100    7.88100    4.40910  226.80210   51.06810   22.20460   20.19120  226.80210  115.28120  115.28120  143.89270 -128.83490 -103.44300  143.89270
 7100.00000   51.50080    8.07690    8.07690    2.29030  436.62570   51.50080   22.34010   21.79280  436.62570  121.72600  121.72600  165.63470 -117.98760  -92.43940  165.63470
 7150.00000   49.87660    7.91020    7.91020    0.33280 3004.68160   49.87660   19.72620   21.63240 3004.68160  149.62120  149.62120  186.40880 -111.74220  -86.03870  186.40880
 7200.00000   49.84090    8.12730    8.12730    0.33550 2984.39580   49.84090   23.69760   24.69090 2984.39580  201.83880  201.83880  624.15000 -101.29820  -75.43840  624.15000
 7250.00000   50.63830    7.66880    7.66880    0.33330 3000.00000   50.63830   20.28210   21.68320 3000.00000  547.77640  547.77640  445.89380 -124.66280  -98.64770  445.89380
 7300.00000   51.50030    7.78910    7.78910    9.27570  107.80910   51.50030   19.19670   19.61800  107.80910   92.65940   92.65940  101.71050 -150.86810 -124.69770  101.71050
 7350.00000   52.82610    7.94730    7.94730   43.92880   22.76410   52.82610   26.42980   23.30940   22.76410   30.56380   30.56380  130.92590 -175.86270 -149.53600  130.92590
 7400.00000   47.27610    8.16270    8.16270   10.30190   97.06950   47.27610   25.94980   26.34690   97.06950   71.05330   71.05330   76.85060 -126.73550 -100.25350   76.85060
 7450.00000   57.22070    7.73320    7.73320  141.09930    7.09070   57.22070   38.35030   56.53570    7.09070   10.22740   10.22740   27.53210 -131.44200 -104.80370   27.53210
 7500.00000   49.27160    7.91790    7.91790    9.90060  101.00420   49.27160   20.00310   22.37250  101.00420  102.43600  102.43600  153.47230 -135.77810 -108.98450  153.47230
 7550.00000   51.07610    8.21690    8.21690    8.26500  120.99190   51.07610   22.48190   21.20020  120.99190  107.72640  107.72640  165.08700 -146.96750 -120.01860  165.08700
 7600.00000   53.38530    8.29600    8.29600  100.73330    9.92720   53.38530   37.14060   40.97230    9.92720   12.08780   12.08780   13.70480 -119.58650  -92.48130   13.70480
 7650.00000   54.70950    8.69300    8.69300   14.29370   69.96110   54.70950   53.99530   46.36310   69.96110   67.04070   67.04070   61.02570  -66.20740  -38.94690   61.02570
 7700.00000   51.42870    8.55470    8.55470    0.38560 2635.68540   51.42870   23.77710   24.33620 2635.68540  376.69540  376.69540  416.85540  -61.79760  -34.38080  416.85540
 7750.00000   55.08310    9.47920    9.47920   25.44050   39.30740   55.08310   53.80660   39.18550   39.30740   42.66170   42.66170   43.27280  -50.33870  -22.76660   43.27280
 7800.00000   64.47520    8.81330    8.81330   54.11690   18.47850   64.47520   71.24160   61.42440   18.47850   18.89610   18.89610   17.21080  -40.69850  -14.73590   17.21080
 7850.00000   70.45070   10.49440   10.49440   89.50390   11.17270   70.45070   95.91170   75.40840   11.17270   11.73710   11.73710   14.88330  -53.85650  -31.19920   14.88330
