~Version ---------------------------------------------------
VERS.      2.0 : CWLS log ASCII Standard -VERSION 2.0
WRAP.       NO : One line per depth step
CREA. 01/04/18 : LAS Creation Date
~Well ------------------------------------------------------
STRT.FT                   1250.0 : START DEPTH
STOP.FT                  10000.0 : STOP DEPTH
STEP.FT                 50.00000 : STEP LENGTH
NULL.                    -999.25 : NULL VALUE
COMP. PHILLIPS PETROLEUM COMPANY : COMPANY
WELL. PHILLIPS KAYBOB 12-9-64-19 : WELL
FLD .                     KAYBOB : FIELD
LOC .                            : LOCATION
CTRY.                     CANADA : COUNTRY
SRVC.               Schlumberger : SERVICE COMPANY
DATE.                25-Oct-1959 : LOGDATE
PROV.                    Alberta : PROVINCE
UWI .           100120906419W500 : UNIQUE WELL ID
SLAT.WGS84              54.52519 : SURFACE LATITUDE
SLON.WGS84               -116.82 : SURFACE LONGITUDE
~Curve Information -----------------------------------------
DEPT  .FT    : Depth Curve
CALMED.IN    : CALIPER FROM MICROLOG (ADJ TO RES.)
CALWS .IN    : CALIPER (CALMED)
CONDWS.MMHO  : CONDUCTIVITY (1000/DRESWS)
DRESWS.OHMM  : DEEP RESISTIVITY (LAT9ED)
GRNED .CPS   : GAMMA RAY GRN/NEUTRON (ADJ TO RES.)
GRWS  .CPS   : GAMMA RAY (GRNED)
LAT9ED.OHMM  : LATERAL 9'
LT16ED.OHMM  : LATERAL 16'
NEUTED.CPS   : NEUTRON GR/NEUTRON LOG (ADJ TO RES.)
NEUTWS.CPS   : NEUTRON (NEUTED)
SNED  .OHMM  : SHORT NORMAL 16"
SPRED .MV    : Spontaneous Potential  ELOG
SPWS  .MV    : SPONTANEOUS POTENTIAL BASELINE 0 MV (SPRED)
SRESWS.OHMM  : SHALLOW RESISTIVITY (SNED)
~Params ----------------------------------------------------
PD  .                         SCF : PERMANENT DATUM
LMF .                          KB : LOG MEASURED FROM
DAPD.FT                        16 : FEET ABOVE PERMANENT DATUM
DMF .                          KB : DRILLING MEASURED FROM
EKB .FT                      2554 : KELLY BUSHING
EDF .FT                      2552 : DRILLING FLOOR
EGL .FT                      2538 : GROUND LEVEL
DATE.                    10/25/59 : RUN DATE
RUN .                           1 : RUN NUMBER
DD  .FT                     10025 : DEPTH DRILLER
DL  .FT                     10014 : DEPTH LOGGER
BLI .FT                     10013 : BOTTOM LOG INTERVAL
TLI .FT                      1257 : TOP LOG INTERVAL
CS  .IN                     9.625 : CASING SIZE
CBD .FT                      1256 : CASING BOTTOM DRILLER
CBL .FT                      1257 : CASING BOTTOM LOGGER
BS  .IN                     7.875 : BIT SIZE
BSD .FT                     10025 : BIT SIZE AT DEPTH
DFT . OIL EMULSION GEL CAUSTIC QX : DRILLING FLUID TYPE
DFD .                        10.6 : DRILLING FLUID DENSITY
DFV .                          68 : DRILLING FLUID VISCOSITY
DFPH.                        10.5 : DRILLING FLUID PH
DFL .                         5.9 : DRILLING FLUID LOSS
MSS .                  CIRCULATED : MUD SAMPLE SOURCE
RMS .OHMM                    2.18 : RESISTIVITY MUD SAMPLE
MST .DEGF                      64 : MUD SAMPLE TEMPERATURE
RMF .OHMM                    1.96 : RESISTIVITY MUD FILTRATE SAMPLE
MFST.DEGF                      66 : MUD FILTRATE SAMPLE TEMPERATURE
RMC .OHMM                    3.54 : RESISTIVITY MUD CAKE
MCST.DEGF                      64 : MUD CAKE SAMPLE TEMPERATURE
RMB .OHMM                    0.67 : RESISTIVITY MUD AT BHT
ENGI.                      FOWLER : RECORDING ENGINEER
WITN.             TIBBITTS HUNTER : WITNESSED BY
CLNT.                     A2DTECH : CLIENT CODE
ORIG.                 2" 5" PRINT : ORIGIN OF DATA
UWI .            100120906419W500 : UNIQUE WELL ID
DICO.      A2D Technologies, Inc. : DIGITIZING COMPANY
~Other -----------------------------------------------------
~ASCII -----------------------------------------------------
# ...
 6150.00000   11.26320   11.26320   76.47890   13.07550  102.14040  102.14040   13.07550   17.30850  401.27150  401.27150   17.04030  -51.06460  -27.69650   17.04030
 6200.00000   10.27120   10.27120   44.85600   22.29390   75.06890   75.06890   22.29390   17.44820  444.89520  444.89520   20.91200  -75.04940  -49.49260   20.91200
 6250.00000   10.12960   10.12960   26.00040   38.46100  109.01600  109.01600   38.46100   32.91710  447.59870  447.59870   23.91900  -67.63270  -39.90900   23.91900
 6300.00000    8.44700    8.44700   25.40310   39.36530   34.94210   34.94210   39.36530   29.69750  590.45150  590.45150   50.91840 -165.33280 -135.43140   50.91840
 6350.00000    9.23650    9.23650    9.12220  109.62270   47.25420   47.25420  109.62270   85.21760  542.32870  542.32870   82.16530  -87.44490  -55.36570   82.16530
 6400.00000    7.69460    7.69460    1.92950  518.27360   32.79220   32.79220  518.27360  246.46440  467.34120  467.34120   51.42460 -170.65430 -136.39740   51.42460
 6450.00000    9.18160    9.18160    4.74740  211.19090   35.51300   35.51300  211.19090  108.01950  705.57340  705.57340  210.49280  -79.44670  -43.00110  210.49280
 6500.00000    9.25840    9.25840   14.03940   71.22790   74.36800   74.36800   71.22790  109.81840  549.71410  549.71410   62.99090  -43.47370   -4.86130   62.99090
 6550.00000    9.24030    9.24030    3.71490  269.18690   49.40580   49.40580  269.18690  428.85860  472.37410  472.37410   11.60070 -135.42840  -94.63820   11.60070
 6600.00000    9.49020    9.49020   21.84790   45.77100   47.80380   47.80380   45.77100   16.00600  511.79430  511.79430   21.51670  -92.86450  -49.89650   21.51670
 6650.00000    9.81740    9.81740   26.26570   38.07250   43.67650   43.67650   38.07250   34.00420  569.32780  569.32780   44.33350  -80.71300  -35.56730   44.33350
 6700.00000    9.84800    9.84800    6.17630  161.91490   32.74580   32.74580  161.91490  148.47490  606.61090  606.61090  120.22020 -126.42000  -79.08560  120.22020
 6750.00000    9.71530    9.71530    3.70210  270.11840   27.98340   27.98340  270.11840  302.96850  654.40810  654.40810  104.80410 -183.44090 -133.93970  104.80410
 6800.00000    9.90170    9.90170    4.04190  247.40630   28.16520   28.16520  247.40630  353.81620  608.47460  608.47460  126.00000 -176.59640 -124.91740  126.00000
 6850.00000    9.30900    9.30900   67.58950   14.79520  102.97920  102.97920   14.79520   33.57030  394.55870  394.55870   12.35610  -71.45590  -17.59920   12.35610
 6900.00000   11.08450   11.08450  296.63030    3.37120   75.12540   75.12540    3.37120    5.24390  398.35950  398.35950    5.76070 -112.06900  -56.03450    5.76070
 6950.00000    8.74100    8.74100  104.77920    9.56620   75.18030   75.18030    9.56620   12.66310  518.65930  518.65930   22.35880  -74.67830  -16.45520   22.35880
 7000.00000    9.89430    9.89430   14.31290   69.86700   50.25810   50.25810   69.86700   72.39090  583.72090  583.72090   56.73880  -46.27410    9.80800   56.73880
 7050.00000    9.76460    9.76460    2.71060  368.91940   35.08590   35.08590  368.91940  192.30600  676.38650  676.38650  112.10460  -46.41490    7.44920  112.10460
 7100.00000    8.80570    8.80570    6.74430  148.27390   40.95190   40.95190  148.27390  243.41340  640.57560  640.57560   94.82860  -34.92370   16.72240   94.82860
 7150.00000    9.08930    9.08930    2.68470  372.48010   38.13990   38.13990  372.48010  416.23520  683.51310  683.51310  132.89940  -37.00660   12.42140  132.89940
 7200.00000    8.26010    8.26010    8.17050  122.39190   64.10260   64.10260  122.39190  118.32670  598.61700  598.61700   66.30940  -20.03270   27.16620   66.30940
 7250.00000    8.27270    8.27270    9.64120  103.72190   60.35180   60.35180  103.72190   84.86760  589.04620  589.04620   57.68150  -17.65780   27.33420   57.68150
 7300.00000    8.23380    8.23380    5.42260  184.41490   58.58000   58.58000  184.41490  187.22550  626.69450  626.69450  105.65490   -8.67090   34.10300  105.65490
 7350.00000    8.21170    8.21170    3.36310  297.34590   42.66710   42.66710  297.34590  519.58650  704.65340  704.65340  235.30620   -8.05010   32.50580  235.30620
 7400.00000    8.45480    8.45480    8.23270  121.46660   64.50890   64.50890  121.46660  114.51610  586.77350  586.77350   66.77630  -28.23440   10.10340   66.77630
 7450.00000    9.29050    9.29050   14.48310   69.05130   39.73280   39.73280   69.05130   89.59600  629.20380  629.20380  112.18960  -27.38500    8.72380  112.18960
 7500.00000    9.30850    9.30850    2.99050  334.39610   25.39190   25.39190  334.39610   86.43370  708.19310  708.19310  311.94310  -20.81600  -19.97020  311.94310
 7550.00000    9.37800    9.37800    1.89350  528.13400   28.97960   28.97960  528.13400 1317.71950  748.66470  748.66470  201.22630  -77.98910  -76.47030  201.22630
 7600.00000    8.72510    8.72510    1.79750  556.34060   34.81170   34.81170  556.34060  952.98440  770.59350  770.59350  233.20300  -70.01500  -67.82310  233.20300
 7650.00000    8.75050    8.75050    1.76840  565.49770   28.79260   28.79260  565.49770  923.37890  742.21080  742.21080  270.58310  -98.74620  -95.88120  270.58310
 7700.00000    8.95470    8.95470    1.49100  670.72850   29.32030   29.32030  670.72850 1170.00590  734.93930  734.93930  220.02460  -85.41220  -81.87080  220.02460
 7750.00000    8.71440    8.71440    2.24890  444.65880   30.71130   30.71130  444.65880  770.46900  759.78760  759.78760  247.27580  -82.80620  -78.59510  247.27580
 7800.00000    8.76970    8.76970    2.47390  404.21980   25.50500   25.50500  404.21980  879.60330  689.03300  689.03300  287.25000 -114.88080 -109.99670  287.25000
 7850.00000    8.57640    8.57640    4.34600  230.09420   29.95280   29.95280  230.09420  369.52990  725.61400  725.61400  112.47350 -123.04670 -117.48950  112.47350
 7900.00000    8.61720    8.61720    3.21320  311.21220   26.26420   26.26420  311.21220  493.26190  705.75930  705.75930  156.71290 -125.88130 -119.65100  156.71290
 7950.00000    8.39480    8.39480    2.26740  442.02150   28.82390   28.82390  442.02150 1082.44360  737.05380  737.05380  116.54170 -107.30530 -100.39860  116.54170
 8000.00000    8.73330    8.73330    3.59660  278.04060   31.59730   31.59730  278.04060  493.47450  707.96910  707.96910  166.70340  -94.00690  -86.43050  166.70340
 8050.00000    8.69520    8.69520    2.08710  479.12440   30.06640   30.06640  479.12440  881.00930  725.46620  725.46620  255.48040 -122.98860 -114.73920  255.48040
 8100.00000    8.30630    8.30630    2.27110  440.32350   26.51090   26.51090  440.32350  810.94150  768.68870  768.68870   97.46930 -160.64250 -151.72000   97.46930
 8150.00000    9.20950    9.20950    9.61230  104.03300   29.72560   29.72560  104.03300  137.28040  731.87590  731.87590  106.54140 -179.06520 -169.46960  106.54140
 8200.00000    9.01240    9.01240    2.58610  386.70340   32.15170   32.15170  386.70340  447.38490  692.67660  692.67660  107.55670 -250.11340 -239.84140  107.55670
 8250.00000    8.44960    8.44960    2.72500  366.97270   44.05630   44.05630  366.97270  351.99180  532.67250  532.67250   27.89160 -183.59230 -172.65060   27.89160
 8300.00000    9.12430    9.12430    5.22590  191.35470   33.96020   33.96020  191.35470  244.42800  551.67610  551.67610   94.90440 -232.11050 -220.49570   94.90440
 8350.00000    8.81290    8.81290    5.47780  182.55520   42.50620   42.50620  182.55520  244.28760  555.37130  555.37130   50.83920 -269.52280 -257.23500   50.83920
 8400.00000    8.33790    8.33790    3.87770  257.88190   43.39020   43.39020  257.88190   96.60000  664.48410  664.48410  165.95590 -205.68000 -192.71910  165.95590
 8450.00000    8.43590    8.43590    2.68640  372.79390   37.71160   37.71160  372.79390  408.45260  727.81010  727.81010  274.57240 -184.83720 -171.19990  274.57240
 8500.00000    8.62860    8.62860    3.38770  295.18700   60.81620   60.81620  295.18700  425.03930  539.29050  539.29050   80.33010 -154.00370 -139.69670   80.33010
 8550.00000    8.59220    8.59220    7.10080  140.82950   57.15350   57.15350  140.82950  153.79700  527.61790  527.61790   63.43050 -159.00470 -144.02460   63.43050
