~Version ---------------------------------------------------
VERS.      2.0 : CWLS log ASCII Standard -VERSION 2.0
WRAP.       NO : One line per depth step
CREA. 08/04/17 : LAS Creation Date
~Well ------------------------------------------------------
STRT.FT                      550.0 : START DEPTH
STOP.FT                    12450.0 : STOP DEPTH
STEP.FT                   50.00000 : STEP LENGTH
NULL.                      -999.25 : NULL VALUE
COMP.       CALIFORNIA STANDARD CO : COMPANY
WELL. STANDARD CYNTHIA 16-21-49-13 : WELL
FLD .                           WC : FIELD
LOC .                              : LOCATION
CTRY.                       CANADA : COUNTRY
SRVC.                 Schlumberger : SERVICE COMPANY
DATE.                  28-Dec-1957 : LOGDATE
PROV.                      Alberta : PROVINCE
UWI .             100162104913W500 : UNIQUE WELL ID
SLAT.WGS84                53.24881 : SURFACE LATITUDE
SLON.WGS84               -115.8321 : SURFACE LONGITUDE
~Curve Information -----------------------------------------
DEPT  .FT         : Depth Curve
CALMED.IN         : CALIPER FROM FROM MLL LOG
CALWS .IN         : CALIPER [MCALED]
CILDED.MMHO       : DEEP INDUCTION CONDUCTIVITY FROM IL LOG [ADJ. TO SPRED]
CONDWS.MMHO       : CONDUCTIVITY [1000/DRESWS]
DRESWS.OHMM       : DEEP RESISTIVITY [LNED]
GRNED .UgRa-Eq/T  : GAMMA RAY FROM GRN LOG
GRWS  .GAPI       : GAMMA RAY[GRNED*16.5]
ILDED .OHMM       : DEEP INDUCTION RESISTIVITY FROM IL LOG [ADJ. TO SPRED]
LL7ED .OHMM       : LATEROLOG 7 FROM LL LOG
LNED  .OHMM       : LONG NORMAL RESISTIVITY FROM EL LOG
LT18ED.OHMM       : LATERAL 18' FROM EL LOG
MCALED.IN         : MLT (MICROLOG) CALIPER FROM ML LOG
MLLED .OHMM       : MICRO FOCUSED LATEROLOG RESISTIVITY FROM MLL LOG
MRESWS.OHMM       : MEDIUM RESISTIVITY [LL7ED]
NEUTED.CPS        : NEUTRON FROM GRN LOG
NEUTWS.CPS        : NEUTRON [NEUTED]
SNED  .OHMM       : SHORT NORMAL RESISTIVITY FROM EL LOG
SPR1ED.MV         : SPONTANEOUS POTENTIAL FROM IL LOG [ADJ. TO SPRED]
SPR2ED.MV         : SPONTANEOUS POTENTIAL FROM LL LOG
SPRED .MV         : SPONTANEOUS POTENTIAL FROM EL LOG
SPWS  .MV         : SPONTANEOUS POTENTIAL [SPR1ED SPL. TO SPRED @644']
SRESWS.OHMM       : SHALLOW RESISTIVITY [SNED]
~Params ----------------------------------------------------
PD  .                        : PERMANENT DATUM
EPD .FT                    0 : ELEVATION PERMANENT DATUM
LMF .                     KB : LOG MEASURED FROM
DAPD.FT                    0 : FEET ABOVE PERMANENT DATUM
DMF .                     KB : DRILLING MEASURED FROM
EKB .FT                 3297 : KELLY BUSHING
EDF .FT                    0 : DRILLING FLOOR
EGL .FT                    0 : GROUND LEVEL
DATE.               12/28/57 : RUN DATE
RUN .                      4 : RUN NUMBER
DD  .FT                12492 : DEPTH DRILLER
DL  .FT                12492 : DEPTH LOGGER
BLI .FT                12491 : BOTTOM LOG INTERVAL
TLI .FT                 8904 : TOP LOG INTERVAL
CS  .IN                    0 : CASING SIZE
CBD .FT                  616 : CASING BOTTOM DRILLER
CBL .FT                  616 : CASING BOTTOM LOGGER
BS  .IN                    9 : BIT SIZE
BSD .FT                12492 : BIT SIZE AT DEPTH
DFT .               OIL EMUL : DRILLING FLUID TYPE
DFD .                   10.7 : DRILLING FLUID DENSITY
DFV .                    140 : DRILLING FLUID VISCOSITY
DFPH.                     13 : DRILLING FLUID PH
DFL .                    3.6 : DRILLING FLUID LOSS
MSS .                        : MUD SAMPLE SOURCE
RMS .OHMM                1.1 : RESISTIVITY MUD SAMPLE
MST .DEGF                 50 : MUD SAMPLE TEMPERATURE
RMF .OHMM                  0 : RESISTIVITY MUD FILTRATE SAMPLE
MFST.DEGF                  0 : MUD FILTRATE SAMPLE TEMPERATURE
RMC .OHMM                  0 : RESISTIVITY MUD CAKE
MCST.DEGF                  0 : MUD CAKE SAMPLE TEMPERATURE
MFSS.                        : MUD FILTRATE SAMPLE SOURCE
MCSS.                        : MUD CAKE SAMPLE SOURCE
RMB .OHMM               0.28 : RESISTIVITY MUD AT BHT
TCS .HRS                   3 : TIME CIRCULATED STOPPED
TLAB.HRS                   0 : TIME LOGGER AT BOTTOM
LUN .                   1749 : LOGGING UNIT NUMBER
LUL .                     DV : LOGGING UNIT LOCATION
ENGI.                  GOETZ : RECORDING ENGINEER
WITN.             CHARLESTON : WITNESSED BY
CLNT.                A2DTECH : CLIENT CODE
ORIG.            2" 5" PRINT : ORIGIN OF DATA
UWI .       100162104913W500 : UNIQUE WELL ID
DICO. A2D Technologies, Inc. : DIGITIZING COMPANY
OS  .                        : OTHER SERVICES
PWI .                        : PRIMARY WELL IDENTIFIER
R1  .                        : REMARKS 1
R2  .                        : REMARKS 2
LSRV.                        : LOG MNEMONIC
~Other -----------------------------------------------------
~ASCII -----------------------------------------------------
# ...
 10150.00000    -999.25    8.97490    -999.25    4.28270  233.50480    1.88530   31.10670    -999.25  172.64200  233.50480  382.43920    8.97490    -999.25  172.64200  407.25510  407.25510   51.88690    -999.25 -151.59420 -154.68740 -119.75950   51.88690
 10200.00000    -999.25   11.35590    -999.25    2.26470  441.55270    2.69560   44.47740    -999.25  689.72840  441.55270  522.27680   11.35590    -999.25  689.72840  315.40870  315.40870   57.10130    -999.25 -145.75470 -148.05990 -112.25030   57.10130
 10250.00000    -999.25    9.29270    -999.25    4.59940  217.42550    4.49650   74.19150    -999.25  246.57760  217.42550  525.84280    9.29270    -999.25  246.57760  365.15600  365.15600   47.05690    -999.25 -131.14690 -131.71950  -94.65440   47.05690
 10300.00000    -999.25    9.54600    -999.25    5.17650  193.18240    4.88600   80.61980    -999.25   91.49490  193.18240  720.85150    9.54600    -999.25   91.49490  348.51280  348.51280   40.18130    -999.25 -107.71200 -109.25140  -71.46070   40.18130
 10350.00000    -999.25    9.97430    -999.25   17.95050   55.70860    6.35120  104.79480    -999.25   38.70470   55.70860  119.98630    9.97430    -999.25   38.70470  293.52980  293.52980   25.16820    -999.25 -100.53250 -102.57950  -63.79270   25.16820
 10400.00000    -999.25   11.91750    -999.25   30.96310   32.29660    5.98770   98.79710    -999.25   21.44900   32.29660   76.29670   11.91750    -999.25   21.44900  247.48540  247.48540   16.40700    -999.25 -102.34600 -106.02150  -66.42260   16.40700
 10450.00000    -999.25    9.55700    -999.25    6.08570  164.31830    3.69600   60.98400    -999.25  490.95670  164.31830   80.49190    9.55700    -999.25  490.95670  376.08610  376.08610   53.90710    -999.25 -105.78880 -107.63580  -66.74490   53.90710
 10500.00000    -999.25   10.25930    -999.25   15.96010   62.71710    3.28480   54.19960    -999.25   17.88410   62.71710  227.10900   10.25930    -999.25   17.88410  356.96210  356.96210   22.42300    -999.25  -71.62480  -74.39920  -32.66700   22.42300
 10550.00000    -999.25   10.23480    -999.25    5.49720  181.91080    2.36700   39.05470    -999.25  215.26710  181.91080  320.19770   10.23480    -999.25  215.26710  404.44240  404.44240   52.77600    -999.25  -66.31900  -67.81990  -25.34980   52.77600
 10600.00000    -999.25    9.50160    -999.25   48.91270   20.44460    6.05720   99.94380    -999.25   13.67790   20.44460   28.52910    9.50160    -999.25   13.67790  269.75990  269.75990   11.61770    -999.25  -47.07280  -49.02000   -5.63850   11.61770
 10650.00000    -999.25   11.08620    -999.25   95.67130   10.45300    7.62630  125.83400    -999.25    -999.25   10.45300   15.68520   11.08620    -999.25    -999.25  222.42900  222.42900    7.91850    -999.25    -999.25  -47.16450   -2.99370    7.91850
 10700.00000    -999.25   11.10070    -999.25   72.59580   13.77490    6.77930  111.85850    -999.25    -999.25   13.77490   14.17440   11.10070    -999.25    -999.25  259.83170  259.83170   11.04580    -999.25    -999.25  -56.73340  -13.50710   11.04580
 10750.00000    -999.25   11.11520    -999.25   78.48600   12.74420    7.36870  121.58280    -999.25    -999.25   12.74420   15.32480   11.11520    -999.25    -999.25  225.07470  225.07470    8.80150    -999.25    -999.25  -55.39550  -12.85470    8.80150
 10800.00000    -999.25   11.12970    -999.25   72.47270   13.79830    6.92950  114.33680    -999.25    -999.25   13.79830   18.45080   11.12970    -999.25    -999.25  244.53120  244.53120   11.45800    -999.25    -999.25  -50.21790   -8.60480   11.45800
 10850.00000    -999.25   11.14420    -999.25   80.46540   12.42770    7.55040  124.58160    -999.25    -999.25   12.42770   23.55660   11.14420    -999.25    -999.25  218.52970  218.52970    8.43690    -999.25    -999.25  -45.73170   -5.15890    8.43690
 10900.00000    -999.25   11.15860    -999.25   64.73830   15.44890    7.52440  124.15180    -999.25    -999.25   15.44890   15.65320   11.15860    -999.25    -999.25  258.59590  258.59590   12.71020    -999.25    -999.25  -47.41290   -7.47950   12.71020
 10950.00000    -999.25   11.17320    -999.25   82.28620   12.15270    6.77330  111.75950    -999.25    -999.25   12.15270   17.86680   11.17320    -999.25    -999.25  234.51240  234.51240   10.01880    -999.25    -999.25  -47.84880   -8.91330   10.01880
 11000.00000    -999.25   11.18760    -999.25   30.09270   33.24410    4.11430   67.88510    -999.25    -999.25   33.24410   19.97530   11.18760    -999.25    -999.25  314.59840  314.59840   21.53410    -999.25    -999.25  -48.52340  -10.27530   21.53410
 11050.00000    -999.25   11.20210    -999.25   71.60550   13.96540    7.36740  121.56290    -999.25    -999.25   13.96540   18.13760   11.20210    -999.25    -999.25  242.25280  242.25280   10.95410    -999.25    -999.25  -40.42090   -3.11600   10.95410
 11100.00000    -999.25   11.21660    -999.25   84.75870   11.79820    6.08910  100.47020    -999.25    -999.25   11.79820   15.57330   11.21660    -999.25    -999.25  219.51230  219.51230    9.38720    -999.25    -999.25  -41.43460   -4.97820    9.38720
 11150.00000    -999.25   11.23110    -999.25   66.58240   15.01970    7.10650  117.25800    -999.25    -999.25   15.01970   16.06770   11.23110    -999.25    -999.25  219.06200  219.06200    7.95950    -999.25    -999.25  -43.69230   -8.09670    7.95950
 11200.00000    -999.25    9.45420    -999.25   45.84820   21.81110    6.30130  103.97150    -999.25   17.66970   21.81110   30.44460    9.45420    -999.25   17.66970  262.04350  262.04350   14.78020    -999.25  -44.83430  -46.10140  -11.29290   14.78020
 11250.00000    -999.25    9.23640    -999.25    8.83750  113.17060    5.73200   94.57840    -999.25  110.25990  113.17060  246.11050    9.23640    -999.25  110.25990  311.85780  311.85780   40.30900    -999.25  -47.95930  -48.47060  -14.59070   40.30900
 11300.00000    -999.25   10.81150    -999.25   12.60500   79.33370   10.68910  176.37020    -999.25   34.42220   79.33370   97.48540   10.81150    -999.25   34.42220  226.71560  226.71560   24.45820    -999.25  -52.49210  -51.54420  -18.54760   24.45820
 11350.00000    -999.25   15.05510    -999.25   34.85960   28.68650    8.10650  133.75730    -999.25   24.72620   28.68650   50.30570   15.05510    -999.25   24.72620  177.91440  177.91440    9.93540    -999.25  -63.05860  -61.96830  -29.90040    9.93540
 11400.00000    -999.25   13.80080    -999.25   50.25020   19.90180    8.83560  145.78820    -999.25   14.43390   19.90180   21.38000   13.80080    -999.25   14.43390  156.90930  156.90930    8.93060    -999.25  -70.61910  -70.33110  -39.18970    8.93060
 11450.00000    -999.25    9.81850    -999.25   10.94940   91.32910    2.69850   44.52530    -999.25   61.02690   91.32910  133.59280    9.81850    -999.25   61.02690  300.83820  300.83820   31.30540    -999.25  -74.50280  -74.47520  -44.22200   31.30540
 11500.00000    -999.25    9.78050    -999.25   28.03280   35.68160    3.75340   61.93150    -999.25   27.85620   35.68160   31.06570    9.78050    -999.25   27.85620  237.80420  237.80420   16.57840    -999.25  -67.95870  -69.20820  -39.77030   16.57840
 11550.00000    -999.25   10.64490    -999.25    6.97630  143.34190    1.98520   32.75500    -999.25  364.19550  143.34190   86.31240   10.64490    -999.25  364.19550  301.91120  301.91120   50.57100    -999.25  -72.35940  -72.94660  -44.25820   50.57100
 11600.00000    -999.25    9.58970    -999.25   15.56200   64.25890    5.10960   84.30840    -999.25   35.00420   64.25890  146.09590    9.58970    -999.25   35.00420  215.24520  215.24520   23.13760    -999.25  -61.69270  -61.34270  -33.45810   23.13760
 11650.00000    -999.25    9.19810    -999.25   12.93550   77.30700    4.49490   74.16500    -999.25   69.20190   77.30700  114.84180    9.19810    -999.25   69.20190  243.46130  243.46130   32.88520    -999.25  -49.91040  -50.02690  -23.05380   32.88520
 11700.00000    -999.25    9.12470    -999.25    4.75990  210.08890    3.60770   59.52700    -999.25  287.11800  210.08890  345.62420    9.12470    -999.25  287.11800  279.05150  279.05150   48.57650    -999.25  -37.61250  -39.08190  -13.01200   48.57650
