~Version ---------------------------------------------------
VERS.      2.0 : CWLS log ASCII Standard -VERSION 2.0
WRAP.       NO : One line per depth step
CREA. 11/10/17 : LAS Creation Date
~Well ------------------------------------------------------
STRT.FT                       1250.0 : START DEPTH
STOP.FT                      11950.0 : STOP DEPTH
STEP.FT                     50.00000 : STEP LENGTH
NULL.                        -999.25 : NULL VALUE
COMP.       DEVON CANADA CORPORATION : COMPANY
WELL. HOME PACIFIC EDSON 10-28-52-16 : WELL
FLD .                             WC : FIELD
LOC .                                : LOCATION
CTRY.                         CANADA : COUNTRY
SRVC.                   Schlumberger : SERVICE COMPANY
DATE.                    01-Nov-1962 : LOGDATE
PROV.                        Alberta : PROVINCE
UWI .               100102805216W500 : UNIQUE WELL ID
SLAT.WGS84             53.5208008195 : SURFACE LATITUDE
SLON.WGS84           -116.2964055425 : SURFACE LONGITUDE
~Curve Information -----------------------------------------
DEPT  .FT    : Depth Curve
CALWS .IN    : CALIPER [MCALED]
CILDED.MMHO  : CONDUCTIVITY FROM RESISTIVITY LOG
CONDWS.MMHO  : CONDCUTIVITY [1000/DRESWS]
DRESWS.OHMM  : DEEP RESISTIVITY [1000/CILDED IF ILDED <=1, ILDED]
DT1ED .US/F  : DELTA-T (1' SPACING)  FROM SONIC LOG
DTED  .US/F  : DELTA-T (3' SPACING) FROM SONIC LOG
DTWS  .US/F  : COMPRESSIONAL SONIC [DTED]
GRSED .GAPI  : GAMMA RAY FROM SONIC LOG
GRWS  .GAPI  : GAMMA RAY [GRSED]
ILDED .OHMM  : DEEP INDUCTION FROM RESISTIVITY LOG
MCALED.IN    : CALIPER FROM MICROLOG
SNED  .OHMM  : SHORT NORMAL FROM RESISTIVITY LOG
SPRED .MV    : SPONTANEOUS POTENTIAL FROM RESISTIVITY LOG
SPWS  .MV    : SPONTANEOUS POTENTIAL [BASELINE 0 MV, SPRED]
SRESWS.OHMM  : SHALLOE RESISTIVITY [SNED]
~Params ----------------------------------------------------
PD  .                     GL : PERMANENT DATUM
EPD .FT               3083.7 : ELEVATION PERMANENT DATUM
LMF .                     KB : LOG MEASURED FROM
DAPD.FT                 13.4 : FEET ABOVE PERMANENT DATUM
EKB .FT               3097.1 : KELLY BUSHING
EGL .FT               3083.7 : GROUND LEVEL
DATE.               11/01/62 : RUN DATE
RUN .                      2 : RUN NUMBER
DD  .FT                11979 : DEPTH DRILLER
DL  .FT                 5878 : DEPTH LOGGER
BLI .FT                11978 : BOTTOM LOG INTERVAL
TLI .FT                 6100 : TOP LOG INTERVAL
CBD .FT                 1249 : CASING BOTTOM DRILLER
BS  .IN                    9 : BIT SIZE
BSD .FT                11979 : BIT SIZE AT DEPTH
DFT .          XP20 SPERSENE : DRILLING FLUID TYPE
DFD .                   10.6 : DRILLING FLUID DENSITY
DFV .                    105 : DRILLING FLUID VISCOSITY
DFPH.                     11 : DRILLING FLUID PH
DFL .                      5 : DRILLING FLUID LOSS
RMS .OHMM               0.83 : RESISTIVITY MUD SAMPLE
MST .DEGF                 55 : MUD SAMPLE TEMPERATURE
RMF .OHMM               0.59 : RESISTIVITY MUD FILTRATE SAMPLE
MFST.DEGF                 58 : MUD FILTRATE SAMPLE TEMPERATURE
RMC .OHMM               1.01 : RESISTIVITY MUD CAKE
MCST.DEGF                 60 : MUD CAKE SAMPLE TEMPERATURE
RMB .OHMM               0.23 : RESISTIVITY MUD AT BHT
TCS .HRS                 2.5 : TIME CIRCULATED STOPPED
LUN .                   1576 : LOGGING UNIT NUMBER
LUL .                     DV : LOGGING UNIT LOCATION
ENGI.                NORQUAY : RECORDING ENGINEER
WITN.           DAWSON GROVE : WITNESSED BY
CLNT.                A2DTECH : CLIENT CODE
ORIG.            2" 5" PRINT : ORIGIN OF DATA
UWI .       100102805216W500 : UNIQUE WELL ID
DICO. A2D Technologies, Inc. : DIGITIZING COMPANY
~Other -----------------------------------------------------
~ASCII -----------------------------------------------------
# ...
 8150.00000    8.85570   34.79050   27.79460   35.97820    -999.25   65.66620   65.66620   58.87200   58.87200   35.97820    8.85570   25.50630 -165.64730  -15.81340   25.50630
 8200.00000   10.12540   47.52180   39.22860   25.49160    -999.25   87.25950   87.25950   77.05930   77.05930   25.49160   10.12540   19.40360 -153.31750   -2.49390   19.40360
 8250.00000    9.49400   35.19940   27.86490   35.88750    -999.25   64.77550   64.77550   78.53820   78.53820   35.88750    9.49400   22.00570 -160.54820   -8.74130   22.00570
 8300.00000    9.61090   59.47190   53.23420   18.78490    -999.25   66.33550   66.33550   41.95810   41.95810   18.78490    9.61090   17.86280 -188.42760  -35.63750   17.86280
 8350.00000   10.36410  143.94420  118.72250    8.42300    -999.25   80.33620   80.33620   90.33170   90.33170    8.42300   10.36410   10.64460 -155.98340   -2.20360   10.64460
 8400.00000    7.69830   21.12770   15.93720   62.74610   61.39410   60.89630   60.89630   41.13580   41.13580   62.74610    7.69830   42.61540 -198.21710  -46.71010   42.61540
 8450.00000    8.48080    3.96890    1.45590  686.87560   59.00450   59.42630   59.42630   22.33200   22.33200  686.87560    8.48080   82.76920 -181.07380  -34.05150   82.76920
 8500.00000    8.32850    3.08360    1.44660  691.28650   58.61660   58.48650   58.48650   36.33170   36.33170  691.28650    8.32850   96.45730 -177.19500  -34.62820   96.45730
 8550.00000    8.54420   13.55410    6.99590  142.94010   76.40500   76.81000   76.81000  239.93540  239.93540  142.94010    8.54420   58.49850 -183.66910  -45.55770   58.49850
 8600.00000    7.52600  219.05080  193.67830    5.16320   62.10820   62.88400   62.88400   31.72540   31.72540    5.16320    7.52600   13.42210 -222.12020  -88.49360   13.42210
 8650.00000    7.71370   48.05800   39.68330   25.19950   63.64160   64.67750   64.67750   32.70780   32.70780   25.19950    7.71370   27.51310 -209.60460  -80.43340   27.51310
 8700.00000    8.54010   12.72720    8.22410  121.59370   56.76190   56.69020   56.69020   52.18280   52.18280  121.59370    8.54010   59.41140 -167.45920  -42.77270   59.41140
 8750.00000    8.87200    2.13370    1.44680  691.20130   53.62030   53.73800   53.73800   15.19880   15.19880  691.20130    8.87200  109.54710 -150.29170  -30.06070  109.54710
 8800.00000    8.37270    3.96330    1.44290  693.05350   52.68810   52.64900   52.64900   23.49890   23.49890  693.05350    8.37270  100.10110 -198.74820  -82.97260  100.10110
 8850.00000    8.64690    8.48550    2.66760  374.86320   52.00620   52.07750   52.07750   18.11710   18.11710  374.86320    8.64690   61.83660 -183.89460  -72.60380   61.83660
 8900.00000    8.30220   25.00030   20.89850   47.85040   59.33320   59.63100   59.63100   59.73040   59.73040   47.85040    8.30220   31.33230 -146.33500  -39.49960   31.33230
 8950.00000    8.37900   19.00200   13.37600   74.76080   58.66740   58.63300   58.63300   37.71730   37.71730   74.76080    8.37900   32.77550 -119.57560  -16.19740   32.77550
 9000.00000    8.67310   46.45700   38.65940   25.86690   58.85990   58.89200   58.89200   48.64090   48.64090   25.86690    8.67310   24.06660 -161.35920  -57.05090   24.06660
 9050.00000    8.80780   44.61530   39.97120   25.01800   68.37740   67.81870   67.81870   24.20890   24.20890   25.01800    8.80780   29.84270 -152.97300  -47.73460   29.84270
 9100.00000    8.35070   27.20920   22.41200   44.61900   61.70410   61.52180   61.52180   48.25430   48.25430   44.61900    8.35070   34.59640 -108.30220   -1.96620   34.59640
 9150.00000    8.39960   23.63740   19.04090   52.51860   58.27750   58.49150   58.49150   49.31110   49.31110   52.51860    8.39960   34.16600 -152.64970  -42.93200   34.16600
 9200.00000    8.49570   29.18730   24.29870   41.15450   59.60510   59.71900   59.71900   50.54700   50.54700   41.15450    8.49570   28.57250 -137.34280  -24.22120   28.57250
 9250.00000    8.50630   17.02530   12.54790   79.69470   59.83540   59.60730   59.60730   55.17920   55.17920   79.69470    8.50630   38.67200 -124.10010   -7.59680   38.67200
 9300.00000    8.39520   13.50890    9.01700  110.90160   54.08070   54.27600   54.27600   36.18180   36.18180  110.90160    8.39520   51.97710 -132.30640  -12.42140   51.97710
 9350.00000    8.43110    7.42550    3.80940  262.50920   59.87400   59.79850   59.79850   52.77250   52.77250  262.50920    8.43110   54.79920 -145.91090  -22.62190   54.79920
 9400.00000    8.31120   14.08420    9.33530  107.12020   72.92870   72.87500   72.87500  239.89430  239.89430  107.12020    8.31120   71.60400 -154.40450  -31.04340   71.60400
 9450.00000   10.43940    2.19160    1.44990  689.72040   49.17980   49.15570   49.15570   23.62050   23.62050  689.72040   10.43940  124.81330 -167.11800  -47.28960  124.81330
 9500.00000   10.09910    4.81970    1.45470  687.44390   50.23850   50.29350   50.29350   23.40340   23.40340  687.44390   10.09910  113.50000 -184.11210  -67.79320  113.50000
 9550.00000   11.73110    2.12200    1.44360  692.70390   51.10740   50.89300   50.89300   18.56430   18.56430  692.70390   11.73110  106.15390 -179.55780  -66.74850  106.15390
 9600.00000   14.33010    5.33500    1.49180  670.34470   49.98970   50.14570   50.14570   24.97090   24.97090  670.34470   14.33010   82.99170 -165.42350  -56.14680   82.99170
 9650.00000    8.50920    2.20170    1.44640  691.38650   54.68900   54.66300   54.66300   21.21990   21.21990  691.38650    8.50920   99.39410 -188.22720  -82.46010   99.39410
 9700.00000   12.96150    1.72860    2.89620  345.28050   51.66440   51.53450   51.53450   25.21010   25.21010  345.28050   12.96150   95.47700 -191.33580  -89.10130   95.47700
 9750.00000   11.66380    2.73930    1.44460  692.23850   52.99780   53.09380   53.09380   19.49470   19.49470  692.23850   11.66380   90.24000 -165.35310  -66.62810   90.24000
 9800.00000   11.67760    2.52810    1.44890  690.18710   54.19100   54.13600   54.13600   22.04230   22.04230  690.18710   11.67760  100.06320 -175.49840  -80.28300  100.06320
 9850.00000   12.49120    5.38320    1.45440  687.54740   51.99060   51.54070   51.54070   19.70540   19.70540  687.54740   12.49120   86.81740 -200.35780 -108.67500   86.81740
 9900.00000   14.49330    2.64210    1.44140  693.78020   51.92660   51.64530   51.64530   25.12330   25.12330  693.78020   14.49330   86.71710 -187.89730  -99.72410   86.71710
 9950.00000   14.49970    5.60420    1.65880  602.85390   52.16430   52.15300   52.15300   22.09840   22.09840  602.85390   14.49970   75.69550 -170.36740  -85.72680   75.69550
 10000.00000   11.41550   21.98760   18.10780   55.22470   48.08550   47.94070   47.94070   23.56140   23.56140   55.22470   11.41550   64.08170 -206.80690 -125.67590   64.08170
 10050.00000    9.91380    9.97620    3.92920  254.50650   51.10860   50.87720   50.87720   22.11410   22.11410  254.50650    9.91380   82.00160 -166.70270  -89.08120   82.00160
 10100.00000    9.79600    4.05890    1.49580  668.53330   50.79200   50.62300   50.62300   22.94820   22.94820  668.53330    9.79600   64.46760 -154.20160  -80.11280   64.46760
 10150.00000    8.15150   13.62280    9.90780  100.93050   49.46440   49.45150   49.45150   31.99660   31.99660  100.93050    8.15150   67.27160 -175.64670 -105.06740   67.27160
 10200.00000    8.90400    3.27340    1.45020  689.54170   50.58490   50.40980   50.40980   31.21350   31.21350  689.54170    8.90400   71.09780 -140.32650  -73.27990   71.09780
 10250.00000   12.70720    4.81070    1.45290  688.25630   50.86160   50.42320   50.42320   28.29440   28.29440  688.25630   12.70720   57.64220 -162.22810  -98.69100   57.64220
 10300.00000    8.66040    7.29080    1.77340  563.88990   52.80360   52.97330   52.97330   35.80120   35.80120  563.88990    8.66040   68.04160  -77.49790  -17.47040   68.04160
 10350.00000    8.27410   16.99210   12.80020   78.12390   55.59350   55.54120   55.54120   46.43590   46.43590   78.12390    8.27410   38.14690  -96.78450  -38.86120   38.14690
 10400.00000    8.26320   27.18840   22.35580   44.73110   57.43740   57.46850   57.46850   51.22620   51.22620   44.73110    8.26320   30.00280  -89.75750  -33.15050   30.00280
