~Version ---------------------------------------------------
VERS.      2.0 : CWLS log ASCII Standard -VERSION 2.0
WRAP.       NO : One line per depth step
CREA. 08/02/13 : LAS Creation Date
~Well ------------------------------------------------------
STRT.FT                      2600.0 : START DEPTH
STOP.FT                     12600.0 : STOP DEPTH
STEP.FT                    50.00000 : STEP LENGTH
NULL.                       -999.25 : NULL VALUE
COMP. AMOCO CANADA COMPANY LIMITED. : COMPANY
WELL.        AMOCO NIPAC 6-20-50-15 : WELL
FLD .                               : FIELD
LOC .                               : LOCATION
CTRY.                        CANADA : COUNTRY
SRVC.                  Schlumberger : SERVICE COMPANY
DATE.                   07-Aug-1978 : LOGDATE
PROV.                       Alberta : PROVINCE
UWI .              100062005015W500 : UNIQUE WELL ID
SLAT.WGS84                 53.32816 : SURFACE LATITUDE
SLON.WGS84                -116.1619 : SURFACE LONGITUDE
~Curve Information -----------------------------------------
DEPT   .FT     : DEPTH FEET
CALD   .MM     : CALIPER [CAL SPL. TO CALD_1 @ 10900'] FROM DENSITY LOG
CALS   .MM     : CALIPER FROM SONIC LOG
DCORED .KG/M3  : DENSITY CORRECTION FROM DENSITY LOG [ADJ. TO RESISTIVITY LOG]
DPHI_LS.dec    : DENSITY POROSITY LIMESTONE [M=2.71,F=1.0] FROM DENSITY LOG
DPHI_SS.dec    : DENSITY POROSITY SANDSTONE [M=2.65,F=1.0] FROM DENSITY LOG
DT     .US/F   : DELTA-T FROM SONIC LOG
GRD    .GAPI   : GAMMA RAY FROM DENSITY LOG
GRS    .GAPI   : GAMMA RAY  [GRS_1 SPL. TO GRS @ 10900']FRPM SONIC LOG
ILD    .OHMM   : DEEP INDUCTION RESISTIVITY FROM RESISTIVITY LOG
ILM    .OHMM   : MEDIUM INDUCTION RESISTIVITY FROM RESISTIVITY LOG
LL8    .OHMM   : LATEROLOG 8 RESISTIVITY FROM RESISTIVITY LOG
NPHI_LS.dec    : NEUTRON POROSITY LIMESTONE FROM DENSITY LOG
NPHI_SS.dec    : NEUTRON POROSITY SANDSTONE FROM DENSITY LOG
RHOB   .KG/M3  : BULK DENSITY  [RHOB SPL. TO RHOB_1 @ 10900']FROM DENSITY LOG
SFL    .OHMM   : SPHERICALLY FOCUSED RESISTIVITY FROM RESISTIVITY LOG
SPR    .MV     : SPONTANEOUS POTENTIAL FROM RESISTIVITY LOG
~Params ----------------------------------------------------
PD  .                     GL : PERMANENT DATUM
EPD .FT               101.84 : ELEVATION PERMANENT DATUM
LMF .                     KB : LOG MEASURED FROM
DAPD.FT                 6.22 : FEET ABOVE PERMANENT DATUM
DMF .                     KB : DRILLING MEASURED FROM
EKB .FT              1017.06 : KELLY BUSHING
EGL .FT              1010.84 : GROUND LEVEL
DATE.               08/07/78 : RUN DATE
RUN .                      3 : RUN NUMBER
DD  .FT               3846.6 : DEPTH DRILLER
DL  .FT                 3846 : DEPTH LOGGER
BLI .FT                 3845 : BOTTOM LOG INTERVAL
TLI .FT                 3290 : TOP LOG INTERVAL
CBD .FT                 2742 : CASING BOTTOM DRILLER
CBL .FT                 2741 : CASING BOTTOM LOGGER
BS  .MM                  216 : BIT SIZE
BSD .FT               3846.6 : BIT SIZE AT DEPTH
RMF .OHMM               1.36 : RESISTIVITY MUD FILTRATE SAMPLE
MFST.DEGF               22.2 : MUD FILTRATE SAMPLE TEMPERATURE
RMC .OHMM               0.94 : RESISTIVITY MUD CAKE
MCST.DEGF               24.4 : MUD CAKE SAMPLE TEMPERATURE
LUN .                   7809 : LOGGING UNIT NUMBER
LUL .                    EDM : LOGGING UNIT LOCATION
ENGI.            GUNN DRONEN : RECORDING ENGINEER
WITN.                CULSHAW : WITNESSED BY
CLNT.                A2DTECH : CLIENT CODE
ORIG.            2" 5" PRINT : ORIGIN OF DATA
UWI .       100062005015W500 : UNIQUE WELL ID
DICO. A2D Technologies, Inc. : DIGITIZING COMPANY
~Other -----------------------------------------------------
~ASCII -----------------------------------------------------
# ...
 9050.00000  225.27010  220.83520   -0.45000    0.07970    -999.25   56.65630   14.43920   13.38730  933.03510 1406.99730    -999.25    0.02380    -999.25 2558.70000  624.16450  -92.64860
 9100.00000  222.25000  218.22660   64.60000    0.06960    -999.25   56.11930   26.68970   19.44300  326.34850 1446.55700    -999.25    0.03340    -999.25 2612.90000  810.24220  -57.99610
 9150.00000  225.92280  216.60870  -17.20000    0.10170    -999.25   59.66860  300.17710  283.20300 1022.95820 1330.90250    -999.25    0.11360    -999.25 2509.20000 1019.56240  -85.98470
 9200.00000  228.54670  221.11460  179.20000    0.06330    -999.25   51.87850   28.33610   36.51560   73.43350  505.20160    -999.25    0.02780    -999.25 2720.90000  118.15520  -72.70620
 9250.00000  223.65460  225.81870  -10.60000   -0.09020    -999.25   53.92430   15.38120   16.09180   36.06140   43.52240    -999.25    0.02920    -999.25 2894.70000   56.66350  -89.21580
 9300.00000  245.36400  239.71760   13.60000   -0.05220    -999.25   55.30890   33.89850   41.69850   40.16780   31.71290    -999.25    0.05660    -999.25 2795.90000   75.57880  -53.32560
 9350.00000  285.39190  244.05840   10.45000   -0.16120    -999.25   51.58990    8.72290    3.57630 1103.26250  354.48020    -999.25   -0.00860    -999.25 2967.70000 1438.77250  -70.34630
 9400.00000  225.55710  232.12550   43.70000   -0.08760    -999.25   49.43160   15.36110   12.03130  933.52550 1443.54240    -999.25    0.01300    -999.25 2816.90000 1440.17910  -93.98980
 9450.00000  224.01020  228.11230  -22.60000    0.02230    -999.25   49.80960    7.62370    6.13820  170.96780  303.45280    -999.25    0.00860    -999.25 2669.80000  322.25630  -74.73330
 9500.00000  226.90330  223.73080   -0.20000   -0.05030    -999.25   56.43980   89.77920   80.58910   30.33890   36.95860    -999.25    0.11890    -999.25 2775.20000   49.47090    -999.25
 9550.00000  227.68560  228.26730   -1.42500   -0.05820    -999.25   50.02340   32.25650   30.38980   84.32880   85.65690    -999.25    0.04110    -999.25 2791.30000   92.89990  -51.76610
 9600.00000  230.24590  221.76740   14.80000   -0.01970    -999.25   56.91360   77.69840   74.80400   23.64700   26.60030    -999.25    0.09860    -999.25 2757.80000   29.93670  -11.45890
 9650.00000  229.28070  228.02340    3.40000   -0.00180    -999.25   56.72630   34.63290   30.94830   11.83510   12.94120    -999.25    0.07690    -999.25 2725.10000   16.90680    -999.25
 9700.00000  226.31650  223.02720   -2.30000   -0.01640    -999.25   52.31330   29.05860   19.18930   47.73840   86.52700    -999.25    0.04330    -999.25 2733.50000  214.48980   -6.14780
 9750.00000  227.22590  218.88700   -2.80000    0.00090    -999.25   55.42560   42.37760   46.07780   46.68340   60.17270    -999.25    0.05130    -999.25 2716.40000   78.73520  -10.68570
 9800.00000  225.47330  218.37140    0.50000   -0.00030    -999.25   56.20260   47.77540   46.56860   45.68260   55.75710    -999.25    0.05640    -999.25 2724.40000   66.65830   -8.15960
 9850.00000  225.15580  220.96220   -3.20000    0.00420    -999.25   55.34160   51.25360   46.22440   34.93880   43.90360    -999.25    0.06410    -999.25 2707.10000   51.96280   -6.49590
 9900.00000  227.70850  222.44810    4.65000   -0.00880    -999.25   59.25520   60.02580   62.58680   26.72610   31.80480    -999.25    0.09340    -999.25 2710.80000   40.01070   -0.32450
 9950.00000  225.58500  218.17840   -0.80000   -0.01280    -999.25   53.78590   48.38140   40.01840  102.93590  195.16480    -999.25    0.03390    -999.25 2728.40000  213.35770   -1.64100
 10000.00000  227.24110  222.02900  129.10000    0.00620    -999.25   58.14950   97.35200  116.34890   41.13710   45.86910    -999.25    0.07820    -999.25 2700.10000   39.92380    -999.25
 10050.00000  252.57000  227.93960  172.15000    0.01810    -999.25   48.97170    9.93810   10.93210 1423.59860 1587.84050    -999.25    0.00540    -999.25 2710.90000 1445.35120  -50.10670
 10100.00000  275.87960  235.30810  161.45000    0.14470    -999.25   48.10620    9.65300    9.04980 1244.25100 1360.43250    -999.25    0.00610    -999.25 2416.30000 1442.94740  -51.68000
 10150.00000  282.89250  233.13640  123.20000    0.10100    -999.25   47.91770    9.77340   10.36350  735.56650  460.14170    -999.25    0.00720    -999.25 2563.90000 1415.02080  -74.30330
 10200.00000  262.91790  231.14510   83.40000    0.07370    -999.25   49.28660    9.53140    8.33290   71.09500  244.81350    -999.25    0.00400    -999.25 2595.90000 1298.56560 -110.05030
 10250.00000  320.48200  236.02440  124.30000    0.20100    -999.25   50.93210   13.60710   11.40050  238.36870  257.83300    -999.25    0.01560    -999.25 2383.30000 1318.70590  -42.79610
 10300.00000  335.32060  236.90830    6.40000    0.26630    -999.25   49.72950    7.63680    7.57090  742.55440  295.80670    -999.25    0.00890    -999.25 2234.80000 1147.38600  -44.62410
 10350.00000  266.71020  233.17960  164.00000   -0.00790    -999.25   52.44460    8.11640    6.09400   31.78770   43.67900    -999.25    0.01390    -999.25 2692.70000  112.08760  -65.64870
 10400.00000  321.04580  238.01320   39.40000    0.13880    -999.25   51.24550    9.95300    9.12110 1394.94240  583.52300    -999.25    0.00340    -999.25 2490.70000 1439.45980    -999.25
 10450.00000  331.16270  241.95530  105.40000    0.19720    -999.25   49.92340   11.59400   12.69380 1339.37990  278.77010    -999.25    0.02100    -999.25 2404.40000 1432.03110    -999.25
 10500.00000  296.97430  236.33940   93.50000    0.31180    -999.25   51.78400   10.74910    8.15600  207.87630   74.53140    -999.25    0.03660    -999.25 2178.00000  128.25710  -58.48280
 10550.00000  220.35770  223.57840   11.50000   -0.12010    -999.25   49.17610    7.21730    7.20910  807.34950  270.51980    -999.25    0.01700    -999.25 2904.30000 1428.95120  -59.13720
 10600.00000  213.31940  214.24900   18.10000    0.02110    -999.25   54.47950    7.07450    5.94620   16.52280   28.69120    -999.25    0.09920    -999.25 2693.60000  116.18130 -147.31050
 10650.00000  221.93000  221.47780   -8.40000   -0.06160    -999.25   49.44180    6.78550   18.05690  617.65370 1489.06380    -999.25    0.00880    -999.25 2901.70000  829.48670  -76.06960
 10700.00000  227.23600  222.41000   57.30000    0.01370    -999.25   54.22190   59.03490   64.41990   30.91830   32.79040    -999.25    0.07210    -999.25 2695.90000   37.13160    -999.25
 10750.00000  307.37300  236.58580   97.50000    0.11040    -999.25   51.31850   16.07180   12.86350  166.76890   78.26530    -999.25    0.07560    -999.25 2519.10000  163.99520  -91.97410
 10800.00000  318.95290  220.76160   73.25000    0.27400    -999.25   52.79770   20.64310   12.83500  114.75390  177.79040    -999.25    0.09190    -999.25 2236.40000  197.07190  -78.88020
 10850.00000  219.70240  233.30920  119.21100   -0.03100    -999.25   54.63950   14.61270   15.23510   71.79450   68.06560    -999.25    0.11060    -999.25 2758.50000   86.62070  -58.50900
 10900.00000  223.19490  215.94320   30.52710   -0.00040    -999.25   44.88180   10.12780   11.46980    7.58080   10.12270    -999.25    0.14540    -999.25 2678.80000   25.52460  -96.34930
 10950.00000  216.73660  215.47980   81.35430    0.00240    -999.25  136.37180   10.91560   12.03190   20.47180   30.58900    -999.25    0.14920    -999.25 2705.28170   70.42910 -149.27960
 11000.00000  226.17750  210.35460   -7.24480   -0.03270    -999.25  122.02500   13.83620   14.28580   29.98080   44.85320    -999.25    0.08110    -999.25 2757.52470   85.15820 -158.32930
 11050.00000  222.90440  210.37080    7.92730    0.03750    -999.25  124.87840   15.48550   12.80520   15.66270   22.97940    -999.25    0.15760    -999.25 2733.34110   43.50690 -147.71750
 11100.00000  233.31570  212.95210   -1.38490   -0.01060    -999.25  127.74030   13.12640   13.27650   32.89580   36.60660    -999.25    0.08470    -999.25 2719.01250   69.65050 -139.62860
 11150.00000  288.83630  238.29420  149.33170    0.01910    -999.25  127.44680   33.96280   37.79370   85.95730   76.49650    -999.25    0.01410    -999.25 2696.45310  201.67830  -75.84270
