~Version ---------------------------------------------------
VERS.      2.0 : CWLS log ASCII Standard -VERSION 2.0
WRAP.       NO : One line per depth step
CREA. 11/03/17 : LAS Creation Date
~Well ------------------------------------------------------
STRT.FT                         1550.0 : START DEPTH
STOP.FT                        12000.0 : STOP DEPTH
STEP.FT                       50.00000 : STEP LENGTH
NULL.                          -999.25 : NULL VALUE
COMP. AMOCO CANADA PETROLEUM CO., LTD. : COMPANY
WELL.  AMOCO C-2 WASKAHIGAN 7-22-63-24 : WELL
FLD .                       WASKAHIGAN : FIELD
LOC .                                  : LOCATION
CTRY.                           CANADA : COUNTRY
SRVC.                          Unknown : SERVICE COMPANY
DATE.                      14-Dec-1976 : LOGDATE
PROV.                          Alberta : PROVINCE
UWI .                 100072206324W500 : UNIQUE WELL ID
SLAT.WGS84                    54.46349 : SURFACE LATITUDE
SLON.WGS84                   -117.5411 : SURFACE LONGITUDE
~Curve Information -----------------------------------------
DEPT    .FT    : Depth Curve
CALDED  .IN    : CALIPER FROM DENSITY LOG [ADJ. TO RESISTIVITY LOG]
CALSED  .IN    : CALIPER FROM SONIC LOG [ADJ. TO RESISTIVITY LOG]
CALWS   .IN    : CALIPER [CALDED]
CONDWS  .MMHO  : CONDUCTIVITY [1000/DRESWS]
DCORED  .G/C3  : DENSITY CORRECTION FROM DENSITY LOG [ADJ. TO RESISTIVITY LOG]
DCORWS  .G/C3  : DENSITY CORRECTION [DCORED]
DENWS   .G/C3  : FORMATION BULK DENSITY [RHOBED]
DPHILSED.V/V   : DENSITY POROSITY LIMESTONE [M=2.71, F=1.00 ASSUMED] FROM DENSITY LOG [ADJ. TO RESISTIVITY LOG]
DPHISSED.V/V   : DENSITY POROSITY SANDSTONE [M=2.65, F=1.00 ASSUMED] FROM DENSITY LOG [ADJ. TO RESISTIVITY LOG]
DPOLSWS .V/V   : DENSITY POROSITY LIMESTONE [CALC FROM DENWS, M=2710,F=1000 ASSUMED]
DRESWS  .OHMM  : DEEP RESISTIVITY [ILDED]
DTED    .US/F  : DELTA TIME FROM SONIC LOG [ADJ. TO RESISTIVITY LOG]
DTWS    .US/F  : COMPRESSIONAL SONIC [DTED]
GRDED   .GAPI  : GAMMA RAY FROM DENSITY LOG [ADJ. TO RESISTIVITY LOG]
GRSED   .GAPI  : GAMMA RAY FROM SONIC LOG [ADJ. TO RESISTIVITY LOG]
GRSRED  .GAPI  : GAMMA RAY (REPEAT SECTION) FROM SONIC LOG [ADJ. TO RESISTIVITY LOG]
GRWS    .GAPI  : GAMMA RAY [GRDED SPL. TO GRSRED @ 11982']
ILDED   .OHMM  : DEEP INDUCTION LOG RESISTIVITY FROM RESISTIVITY LOG
ILMED   .OHMM  : MEDIUM INDUCTION LOG RESISTIVITY FROM RESISTIVITY LOG
LL8ED   .OHMM  : 8 INCH LATEROLOG RESISTIVITY FROM RESISTIVITY LOG
MRESWS  .OHMM  : MEDIUM RESISTIVITY [ILMED]
NPHILSED.V/V   : NEUTRON POROSITY LIMESTONE FROM DENSITY LOG [ADJ. TO RESISTIVITY LOG]
NPHISSED.V/V   : NEUTRON POROSITY SANDSTONE FROM DENSITY LOG [ADJ. TO RESISTIVITY LOG]
NPOLSWS .V/V   : NEUTRON POROSITY LIMESTONE [SCHL. NPHISSED MATRIX CONVERSION FOR LIMESTONE, SPL. TO NPHILSED @ 7464']
RHOBED  .G/C3  : BULK DENSITY FROM DENSITY LOG [ADJ. TO RESISTIVITY LOG]
SPRED   .MV    : SPONTANEOUS POTENTIAL FROM RESISTIVITY LOG
SPWS    .MV    : SPONTANEOUS POTENTIAL [BASELINE 0 MV, SPRED]
SRESWS  .OHMM  : SHALLOW RESISTIVITY [LL8ED]
~Params ----------------------------------------------------
PD  .                     GL : PERMANENT DATUM
EPD .FT               2789.5 : ELEVATION PERMANENT DATUM
LMF .                     KB : LOG MEASURED FROM
DAPD.FT                 20.5 : FEET ABOVE PERMANENT DATUM
EKB .FT               2810.0 : KELLY BUSHING
EGL .FT               2789.5 : GROUND LEVEL
DATE.               12/14/76 : RUN DATE
RUN .                      1 : RUN NUMBER
DD  .FT                12005 : DEPTH DRILLER
DL  .FT                12008 : DEPTH LOGGER
BLI .FT                12002 : BOTTOM LOG INTERVAL
TLI .FT                 1519 : TOP LOG INTERVAL
CBD .FT                 1519 : CASING BOTTOM DRILLER
CBL .FT                 1519 : CASING BOTTOM LOGGER
BS  .IN                  8.5 : BIT SIZE
BSD .FT                12005 : BIT SIZE AT DEPTH
DFT .                    GEL : DRILLING FLUID TYPE
DFD .                    9.0 : DRILLING FLUID DENSITY
DFV .                     75 : DRILLING FLUID VISCOSITY
DFPH.                    9.5 : DRILLING FLUID PH
DFL .                   12.2 : DRILLING FLUID LOSS
MSS .               FLOWLINE : MUD SAMPLE SOURCE
RMS .OHMM               2.89 : RESISTIVITY MUD SAMPLE
MST .DEGF                 44 : MUD SAMPLE TEMPERATURE
RMF .OHMM               2.32 : RESISTIVITY MUD FILTRATE SAMPLE
MFST.DEGF                 62 : MUD FILTRATE SAMPLE TEMPERATURE
TCS .HRS                   4 : TIME CIRCULATED STOPPED
LUN .                   7635 : LOGGING UNIT NUMBER
LUL .                    EDM : LOGGING UNIT LOCATION
ENGI.                 PAQUIN : RECORDING ENGINEER
WITN.       MACDONALD FARLEY : WITNESSED BY
CLNT.                A2DTECH : CLIENT CODE
ORIG.            2" 5" PRINT : ORIGIN OF DATA
UWI .       100072206324W500 : UNIQUE WELL ID
DICO. A2D Technologies, Inc. : DIGITIZING COMPANY
~Other -----------------------------------------------------
DIL-CNFD-BCS TOOL RUN
GAPS IN DT AS PER IMAGE SPLICED
~ASCII -----------------------------------------------------
# ...
 9050.00000   10.65560    9.30120   10.65560   30.62920    0.22980    0.22980    2.58010    0.07290    -999.25    0.07600   32.64860   57.31040   57.31040   69.96470   69.32910    -999.25   69.96470   32.64860   36.19050   65.19850   36.19050    0.12400    -999.25    0.12400    2.58010 -117.87180  -59.36540   65.19850
 9100.00000   11.28600    9.10010   11.28600    1.87950    0.22380    0.22380    2.46880    0.13940    -999.25    0.14110  532.06980   51.34900   51.34900   19.26450   20.70010    -999.25   19.26450  532.06980  402.94440  660.37570  402.94440    0.04360    -999.25    0.04360    2.46880 -123.22460  -67.05450  660.37570
 9150.00000    9.21600    8.89570    9.21600   16.06150    0.07680    0.07680    2.65440    0.01800    -999.25    0.03250   62.26070   54.30350   54.30350   40.55500   37.00440    -999.25   40.55500   62.26070   64.90320   99.72490   64.90320    0.07970    -999.25    0.07970    2.65440 -110.01390  -56.18020   99.72490
 9200.00000    9.29960    8.85090    9.29960   18.01380    0.05450    0.05450    2.62860    0.05430    -999.25    0.04760   55.51310   52.68290   52.68290   50.28090   52.14560    -999.25   50.28090   55.51310   69.73670  229.86950   69.73670    0.09820    -999.25    0.09820    2.62860 -108.69340  -57.19600  229.86950
 9250.00000    8.87670    8.70830    8.87670   10.61520   -0.00680   -0.00680    2.68340    0.01550    -999.25    0.01560   94.20440   54.78500   54.78500   55.98220   57.90740    -999.25   55.98220   94.20440  102.06890  156.90080  102.06890    0.06660    -999.25    0.06660    2.68340 -111.15420  -61.99320  156.90080
 9300.00000    8.72030    8.68750    8.72030   13.69580   -0.00490   -0.00490    2.69970    0.00310    -999.25    0.00600   73.01530   55.29310   55.29310   68.46240   71.45030    -999.25   68.46240   73.01530   69.23490   96.12400   69.23490    0.07900    -999.25    0.07900    2.69970  -89.68830  -42.86360   96.12400
 9350.00000    8.70290    8.69840    8.70290    3.74800   -0.00200   -0.00200    2.68410    0.01770    -999.25    0.01510  266.81190   55.44570   55.44570   63.81080   65.67460    -999.25   63.81080  266.81190  463.72060  418.77310  463.72060    0.07080    -999.25    0.07080    2.68410 -108.32530  -63.83700  418.77310
 9400.00000    8.85380    8.71190    8.85380   12.33650    0.20490    0.20490    2.59930    0.04880    -999.25    0.06470   81.06010   68.40640   68.40640  112.80140  120.84880    -999.25  112.80140   81.06010  101.60200  119.05760  101.60200    0.16030    -999.25    0.16030    2.59930  -83.97290  -41.82090  119.05760
 9450.00000    9.03130    9.04750    9.03130   34.34660    0.25060    0.25060    2.51210    0.09550    -999.25    0.11570   29.11500   70.44930   70.44930  163.15280  163.94800    -999.25  163.15280   29.11500   48.45080   69.59590   48.45080    0.24970    -999.25    0.24970    2.51210 -108.48920  -68.67360   69.59590
 9500.00000    8.66250    8.53730    8.66250    8.54780    0.01460    0.01460    2.39750    0.18720    -999.25    0.18270  116.98970   76.93910   76.93910  299.57980  299.02810    -999.25  299.57980  116.98970  729.85150 1488.68620  729.85150    0.27420    -999.25    0.27420    2.39750  -85.97380  -48.49450 1488.68620
 9550.00000    9.75430    8.75100    9.75430    0.71480    0.13980    0.13980    2.73600   -0.01590    -999.25   -0.01520 1398.99710   49.10950   49.10950   19.97870   16.93350    -999.25   19.97870 1398.99710 1337.92990 1530.52500 1337.92990    0.00870    -999.25    0.00870    2.73600  -86.22870  -51.08580 1530.52500
 9600.00000   10.31270    9.02860   10.31270    0.81570    0.22630    0.22630    2.60410    0.06680    -999.25    0.06190 1226.01490   48.99270   48.99270   23.57220   23.03280    -999.25   23.57220 1226.01490 1364.89330 1523.47250 1364.89330    0.00340    -999.25    0.00340    2.60410  -78.28120  -44.20450 1523.47250
 9650.00000   10.27640    9.06170   10.27640    1.30100    0.17210    0.17210    2.65130    0.03890    -999.25    0.03430  768.66720   49.61030   49.61030   18.52140   14.91270    -999.25   18.52140  768.66720 1368.71480 1248.16980 1368.71480    0.00410    -999.25    0.00410    2.65130  -82.78380  -48.22110 1248.16980
 9700.00000   10.52930    9.05000   10.52930    1.81750    0.25160    0.25160    2.58870    0.07860    -999.25    0.07090  550.19200   49.76420   49.76420   17.72490   16.23660    -999.25   17.72490  550.19200  572.60570  738.12710  572.60570    0.00600    -999.25    0.00600    2.58870 -120.37060  -85.32190  738.12710
 9750.00000   10.54480    9.11360   10.54480    0.73490    0.25140    0.25140    2.68040    0.01760    -999.25    0.01730 1360.71940   48.90310   48.90310   18.66140   15.78640    -999.25   18.66140 1360.71940 1528.88420 1520.92130 1528.88420    0.00080    -999.25    0.00080    2.68040  -66.02840  -30.49360 1520.92130
 9800.00000   10.52960    8.98310   10.52960    2.23620    0.25000    0.25000    2.46000    0.15080    -999.25    0.14620  447.17830   49.75390   49.75390   11.73410   12.54280    -999.25   11.73410  447.17830 1123.69870  779.92850 1123.69870    0.00340    -999.25    0.00340    2.46000 -113.27310  -77.25230  779.92850
 9850.00000   10.53780    9.09860   10.53780    0.91400    0.20270    0.20270    2.59380    0.07050    -999.25    0.06800 1094.13310   49.03240   49.03240   16.15060   19.66560    -999.25   16.15060 1094.13310 1352.53820 1539.13640 1352.53820    0.00170    -999.25    0.00170    2.59380  -82.33220  -45.82530 1539.13640
 9900.00000   10.78870    9.16440   10.78870    2.51020    0.25150    0.25150    2.57950    0.07260    -999.25    0.07630  398.38170   49.29040   49.29040   18.51520   21.65830    -999.25   18.51520  398.38170  546.60940  571.80620  546.60940    0.00890    -999.25    0.00890    2.57950  -75.27550  -38.28260  571.80620
 9950.00000   10.03440    8.76540   10.03440    4.39160    0.25470    0.25470    2.70080    0.01790    -999.25    0.00540  227.70500   49.38350   49.38350   17.71410   17.48160    -999.25   17.71410  227.70500  273.64870  344.04040  273.64870    0.00780    -999.25    0.00780    2.70080  -90.33600  -52.85710  344.04040
 10000.00000   10.68590    8.87190   10.68590    1.20760    0.25000    0.25000    2.53660    0.10380    -999.25    0.10140  828.05800   48.74860   48.74860   18.61900   15.07260    -999.25   18.61900  828.05800  547.76140 1247.97240  547.76140    0.00640    -999.25    0.00640    2.53660  -69.77410  -31.80910 1247.97240
 10050.00000   10.51550    9.13200   10.51550    1.43140    0.22860    0.22860    2.69280    0.00350    -999.25    0.01010  698.63900   48.95120   48.95120   18.46650   19.12750    -999.25   18.46650  698.63900 1128.59070 1527.82690 1128.59070    0.00570    -999.25    0.00570    2.69280 -115.66400  -77.21300 1527.82690
 10100.00000   10.44020    9.15970   10.44020    1.39180    0.24410    0.24410    2.68010    0.01630    -999.25    0.01750  718.50310   49.22330   49.22330   12.34200   12.95920    -999.25   12.34200  718.50310  290.30400  482.86160  290.30400    0.00290    -999.25    0.00290    2.68010  -95.59560  -56.65860  482.86160
 10150.00000   10.30690    9.22760   10.30690    0.60620    0.18920    0.18920    2.61620    0.05210    -999.25    0.05490 1649.57730   48.62930   48.62930   16.85580   16.16100    -999.25   16.85580 1649.57730 1398.57700 1552.46700 1398.57700    0.00680    -999.25    0.00680    2.61620  -88.85680  -49.43370 1552.46700
 10200.00000    9.03980    8.74260    9.03980    4.70260   -0.00830   -0.00830    2.68440    0.01800    -999.25    0.01500  212.64610   48.63460   48.63460   18.63980   17.65110    -999.25   18.63980  212.64610  226.48450  273.45750  226.48450    0.00800    -999.25    0.00800    2.68440 -143.29690 -103.38780  273.45750
 10250.00000    8.78020    8.74010    8.78020   48.85630    0.00810    0.00810    2.73860   -0.01770    -999.25   -0.01670   20.46820   52.21620   52.21620   49.25460   44.75330    -999.25   49.25460   20.46820   23.60160   34.91290   23.60160    0.13110    -999.25    0.13110    2.73860 -108.56980  -68.17470   34.91290
