~Version ---------------------------------------------------
VERS.      2.0 : CWLS log ASCII Standard -VERSION 2.0
WRAP.       NO : One line per depth step
CREA. 08/22/14 : LAS Creation Date
~Well ------------------------------------------------------
STRT.FT                 1143.82546 : START DEPTH
STOP.FT                11159.82546 : STOP DEPTH
STEP.FT                    0.50000 : STEP LENGTH
NULL.                      -999.25 : NULL VALUE
COMP.            TRIAD OIL CO. LTD : COMPANY
WELL. TRIAD PAN AM ANTE 2-27-66-25 : WELL
FLD .                              : FIELD
LOC .                              : LOCATION
CTRY.                       CANADA : COUNTRY
SRVC.                   Lane Wells : SERVICE COMPANY
DATE.                  15-Aug-1967 : LOGDATE
PROV.                      Alberta : PROVINCE
UWI .             100022706625W500 : UNIQUE WELL ID
SLAT.WGS84                54.73614 : SURFACE LATITUDE
SLON.WGS84                 -117.69 : SURFACE LONGITUDE
~Curve Information -----------------------------------------
DEPT.FT    : DEPTH FEET
CALS.IN    : CALIPER FROM SONIC LOG
DT  .US/F  : DELTA TIME FROM SONIC LOG
GRS .GAPI  : GAMMA RAY FROM SONIC LOG
ILD .OHMM  : INDUCTION LOG DEEP RESISTIVITY
SN  .OHMM  : 16 INCH SHORT NORMAL RESISTIVITY FROM IEL
SPR .MV    : SPONTANEOUS POTENTIAL FROM RESISTIVITY LOG
~Params ----------------------------------------------------
PD  .                     GL : PERMANENT DATUM
EPD .FT               2399.7 : ELEVATION PERMANENT DATUM
LMF .                     KB : LOG MEASURED FROM
DAPD.FT                   15 : FEET ABOVE PERMANENT DATUM
DMF .                     KB : DRILLING MEASURED FROM
EKB .FT               2414.7 : KELLY BUSHING
EGL .FT               2399.7 : GROUND LEVEL
DATE.               08/15/67 : RUN DATE
RUN .                      1 : RUN NUMBER
DD  .FT                11172 : DEPTH DRILLER
DL  .FT                11160 : DEPTH LOGGER
BLI .FT                11156 : BOTTOM LOG INTERVAL
TLI .FT                 1144 : TOP LOG INTERVAL
CS  .IN                9.625 : CASING SIZE
CBD .FT                 1145 : CASING BOTTOM DRILLER
CBL .FT                 1144 : CASING BOTTOM LOGGER
BS  .IN                7.625 : BIT SIZE
BSD .FT                11172 : BIT SIZE AT DEPTH
DFT .                MUD GEL : DRILLING FLUID TYPE
DFD .                    9.9 : DRILLING FLUID DENSITY
DFV .                     89 : DRILLING FLUID VISCOSITY
DFPH.                      9 : DRILLING FLUID PH
DFL .                    7.2 : DRILLING FLUID LOSS
MSS .                   CIRC : MUD SAMPLE SOURCE
RMS .OHMM                3.0 : RESISTIVITY MUD SAMPLE
MST .DEGF                 86 : MUD SAMPLE TEMPERATURE
RMF .OHMM                2.4 : RESISTIVITY MUD FILTRATE SAMPLE
MFST.DEGF                 86 : MUD FILTRATE SAMPLE TEMPERATURE
RMC .OHMM                3.2 : RESISTIVITY MUD CAKE
MCST.DEGF                 86 : MUD CAKE SAMPLE TEMPERATURE
MFSS.                   MEAS : MUD FILTRATE SAMPLE SOURCE
MCSS.                   MEAS : MUD CAKE SAMPLE SOURCE
RMB .OHMM                1.2 : RESISTIVITY MUD AT BHT
TCS .HRS                   6 : TIME CIRCULATED STOPPED
LUN .                   1256 : LOGGING UNIT NUMBER
LUL .                    EDM : LOGGING UNIT LOCATION
ENGI.      KOWALCHUK DOMSTAD : RECORDING ENGINEER
WITN.            DANIELEWICZ : WITNESSED BY
CLNT.                A2DTECH : CLIENT CODE
ORIG.            2" 5" PRINT : ORIGIN OF DATA
UWI .       100022706625W500 : UNIQUE WELL ID
DICO. A2D Technologies, Inc. : DIGITIZING COMPANY
~Other -----------------------------------------------------
~ASCII -----------------------------------------------------
# ...
 7117.82546    8.85020   56.49260   38.64490  130.59360  211.77510  -67.96430
 7118.32546    8.87900   61.65000   31.33300  137.59600  206.13300  -70.40700
 7118.82546    8.91370   61.43670   29.32660  138.54160  204.57250  -71.35100
 7119.32546    8.99890   61.33450   25.59330  133.09470  199.11990  -72.51830
 7119.82546    9.04310   60.51040   24.99300  128.93070  195.31360  -72.03800
 7120.32546    9.10470   56.92340   26.10950  121.01250  187.38410  -69.79290
 7120.82546    9.13310   53.87530   27.31800  117.05460  183.46370  -67.51800
 7121.32546    9.18770   54.12070   30.94360  110.18800  177.55500  -62.52260
 7121.82546    9.18160   56.43860   33.35070  108.50310  176.16050  -60.63390
 7122.32546    9.14270   61.05230   39.88570  106.45820  174.27430  -57.35690
 7122.82546    9.11080   60.99910   44.45450  105.41320  173.74530  -55.72370
 7123.32546    9.01360   59.71170   54.57370  102.63610  174.04710  -53.20350
 7123.82546    8.95970   59.43110   59.26940   99.76960  174.54300  -52.93250
 7124.32546    8.85060   60.65280   62.47040   91.85410  175.52420  -53.40350
 7124.82546    8.80200   60.75360   58.37180   87.57110  175.68860  -53.63140
 7125.32546    8.76530   58.65070   45.82910   78.63080  174.77260  -54.09550
 7125.82546    8.77800   59.65000   36.86100   73.36100  173.17500  -54.09800
 7126.32546    8.78240   59.81170   33.77480   76.16440  172.43080  -53.96190
 7126.82546    8.79500   60.45000   31.91800   81.25600  170.79200  -53.66000
 7127.32546    8.80090   58.75830   34.46810   83.27900  170.08560  -53.53060
 7127.82546    8.82100   55.08000   43.30500   88.10600  168.41400  -53.22300
 7128.32546    8.82890   53.32340   46.03030   90.05060  167.71590  -53.10010
 7128.82546    8.85000   53.95300   47.21200   93.55200  164.77900  -52.78500
 7129.32546    8.85800   56.39150   46.15960   90.36080  163.37920  -52.66940
 7129.82546    8.87680   59.64450   43.64430   79.08140  157.50270  -52.38260
 7130.32546    8.87450   58.81400   42.53070   70.72260  153.77800  -52.23890
 7130.82546    8.86190   56.37530   43.02080   50.73730  146.25800  -51.95060
 7131.32546    8.85530   55.61400   44.92430   45.98520  142.52490  -51.80570
 7131.82546    8.84140   55.17320   51.53420   41.67120  137.56230  -51.54290
 7132.32546    8.83990   56.87180   55.54440   40.64040  136.64280  -51.62750
 7132.82546    8.84250   59.42390   63.57850   40.49180  136.84740  -53.31470
 7133.32546    8.84420   59.08000   67.63280   41.09210  137.52720  -54.75660
 7133.82546    8.84740   58.79070   68.42970   46.76560  140.44080  -55.74260
 7134.32546    8.84870   58.17870   64.10560   53.73040  142.59600  -55.04580
 7134.82546    8.85210   56.44220   53.30680   72.11310  147.01540  -53.21990
 7135.32546    8.85370   56.72080   50.46210   80.66110  149.21380  -52.51380
 7135.82546    8.85630   55.47790   51.04550   92.57300  153.61630  -51.38950
 7136.32546    8.85400   50.50600   53.68300  100.91200  158.12800  -51.24100
 7136.82546    8.84590   49.66250   55.00370  104.67930  160.20760  -51.85750
 7137.32546    8.82700   50.15000   52.70000  112.34800  164.84100  -53.17400
 7137.82546    8.81930   51.03610   48.13090  110.55460  166.24870  -53.45870
 7138.32546    8.80100   57.34200   38.25000  102.84300  164.29600  -53.61600
 7138.82546    8.79370   59.19130   35.10990   99.22490  162.84360  -53.20680
 7139.32546    8.79500   58.35000   28.35900   89.91400  159.09900  -52.24400
 7139.82546    8.81770   54.65710   27.84520   86.47480  157.73000  -52.85650
 7140.32546    8.87330   51.60210   27.40770   83.25800  154.32240  -54.61940
 7140.82546    8.90180   52.93960   29.49620   83.05940  152.59310  -55.56670
 7141.32546    8.95150   55.30040   34.47190   82.61490  149.85590  -57.31550
 7141.82546    8.92870   55.13200   37.09230   82.45440  148.71820  -57.73400
 7142.32546    8.85460   54.33910   39.52140   81.99320  146.43760  -58.11270
 7142.82546    8.82000   54.33720   38.12200   81.68220  145.29500  -57.94700
 7143.32546    8.75200   54.89740   35.51570   79.78900  143.01150  -56.34510
 7143.82546    8.75750   55.02550   35.08620   78.18140  141.86940  -54.89760
 7144.32546    8.81780   55.81810   36.41340   74.68780  139.58370  -51.62500
 7144.82546    8.84770   56.00180   38.07920   72.92600  138.44060  -49.97820
 7145.32546    8.90740   57.31920   41.03720   69.40790  136.15830  -47.34230
 7145.82546    8.92000   57.65070   42.06550   67.65390  135.01050  -46.49970
 7146.32546    8.89450   57.54930   44.91010   64.86020  133.34570  -45.13560
 7146.82546    8.84900   60.35000   49.96000   65.88300  132.26800  -43.73700
 7147.32546    8.83040   57.91220   51.44420   66.46750  131.77450  -43.08500
 7147.82546    8.83200   53.65000   54.14300   67.85300  131.35100  -41.68100
 7148.32546    8.84020   57.44500   55.22690   68.75060  132.75650  -42.20420
 7148.82546    8.85900   61.87700   53.98800   70.98100  136.12900  -43.54800
 7149.32546    8.86620   60.38690   51.54810   72.02380  137.44590  -44.08670
 7149.82546    8.85720   56.48370   46.32600   75.21440  140.54610  -45.35310
 7150.32546    8.82980   54.27650   44.90290   77.94250  142.10100  -46.00360
 7150.82546    8.76680   51.81250   43.71310   83.83610  145.17770  -46.88340
 7151.32546    8.73580   52.89710   44.29550   86.85720  146.32550  -47.13240
 7151.82546    8.68620   53.34140   46.98120   91.01060  145.79630  -47.58080
 7152.32546    8.68140   53.32920   50.29590   92.03820  144.87710  -47.80480
 7152.82546    8.68450   51.53670   57.88700   93.70780  143.16700  -48.25310
 7153.32546    8.68630   50.21770   61.20100   94.55690  142.34140  -48.47730
 7153.82546    8.68950   50.21510   59.81630   93.72890  136.97000  -48.92660
 7154.32546    8.69120   50.66950   53.84310   90.46070  132.20590  -49.15130
 7154.82546    8.69440   51.25820   40.01420   76.86520  121.72340  -49.59310
 7155.32546    8.69610   52.35260   36.39110   69.85310  116.74000  -49.60960
 7155.82546    8.71570   53.37710   37.14230   54.77270  107.14920  -48.73200
 7156.32546    8.73910   51.50780   39.34000   48.70260  102.30730  -48.02250
 7156.82546    8.77870   48.93330   47.38270   43.10560   93.98740  -46.61040
 7157.32546    8.74500   55.57000   56.76300   37.76200   88.38000  -45.15300
 7157.82546    8.72960   58.15030   59.23220   35.76500   86.04970  -44.48820
 7158.32546    8.72400   61.15000   64.53400   31.73600   81.97500  -42.99700
 7158.82546    8.72580   59.91340   66.63920   30.55560   81.00110  -42.36940
 7159.32546    8.73000   57.25000   72.53400   29.97100   80.33600  -41.13600
 7159.82546    8.73170   60.90750   72.16440   30.33010   80.68730  -41.13210
 7160.32546    8.73650   62.49100   68.94560   31.92430   85.04350  -42.14690
 7160.82546    8.73390   62.49810   67.08840   34.36920   88.45510  -43.15030
 7161.32546    8.71350   61.60130   64.37150   39.04890   95.46390  -45.29290
 7161.82546    8.69970   58.94160   63.07700   40.66600   98.97300  -46.00440
 7162.32546    8.67290   55.62870   58.95270   51.40090  105.99300  -46.79540
 7162.82546    8.65930   55.07310   55.65030   57.21740  109.49120  -47.36820
 7163.32546    8.63570   53.18280   47.29110   64.41840  114.78360  -48.77380
 7163.82546    8.62640   53.77820   42.77340   65.81380  115.68280  -49.55430
 7164.32546    8.61010   56.41000   36.01880   65.64310  116.03220  -51.84400
 7164.82546    8.60180   54.61740   34.61130   65.38060  115.69650  -53.23590
 7165.32546    8.58410   49.82430   34.54520   66.02240  114.40070  -56.02550
 7165.82546    8.58000   49.12380   35.74380   66.32900  112.78730  -57.13940
 7166.32546    8.58000   49.08630   38.17470   66.47040  108.20540  -58.60820
 7166.82546    8.58000   49.87460   38.88140   64.02520  105.86490  -59.19840
 7167.32546    8.57230   52.55000   39.19040   55.49890  101.02800  -60.31960
 7167.82546    8.54200   52.55000   38.62400   46.21200   95.77400  -60.17300
 7168.32546    8.52600   49.96940   39.89890   43.22160   92.47390  -59.68080
 7168.82546    8.48900   48.85000   41.96700   36.15600   85.40100  -57.30100
