~Version ---------------------------------------------------
VERS.      2.0 : CWLS log ASCII Standard -VERSION 2.0
WRAP.       NO : One line per depth step
CREA. 12/13/17 : LAS Creation Date
~Well ------------------------------------------------------
STRT.FT                          650.0 : START DEPTH
STOP.FT                         5850.0 : STOP DEPTH
STEP.FT                       50.00000 : STEP LENGTH
NULL.                          -999.25 : NULL VALUE
COMP.   APACHE EXPLORATION CORPORATION : COMPANY
WELL. APACHE ET AL ATIKAMEG 7-32-78-10 : WELL
FLD .                                  : FIELD
LOC .                                  : LOCATION
CTRY.                           CANADA : COUNTRY
SRVC.                     Schlumberger : SERVICE COMPANY
DATE.                      04-Feb-1973 : LOGDATE
PROV.                          Alberta : PROVINCE
UWI .                 100073207810W500 : UNIQUE WELL ID
SLAT.WGS84                    55.80063 : SURFACE LATITUDE
SLON.WGS84                   -115.5085 : SURFACE LONGITUDE
~Curve Information -----------------------------------------
DEPT  .FT    : Depth Curve
CALSED.IN    : CALIPER FROM SONIC LOG [ADJ. TO RESISTIVITY LOG]
CALWS .IN    : CALIPER [CALSED]
CILDED.MMHO  : DEEP INDUCTION CONDUCTIVITY FROM RESISTIVITY LOG
CONDWS.MMHO  : CONDUCTIVITY [1000/DRESWS]
DRESWS.OHMM  : DEEP RESISTIVITY [1000/CILDED,IF ILDED<2,ILDED]
DTED  .US/F  : DELTA TIME FROM SONIC LOG [ADJ. TO RESISTIVITY LOG]
DTWS  .US/F  : COMPRESSIONAL SONIC [DTED]
GRSED .GAPI  : GAMMA RAY FROM SONIC LOG [ADJ. TO RESISTIVITY LOG]
GRWS  .GAPI  : GAMMA RAY [GRSED]
ILDED .OHMM  : DEEP INDUCTION RESISTIVITY FROM RESISTIVITY LOG
SNED  .OHMM  : 16 INCH  SHORT NORMAL RESISTIVITY FROM RESISTIVITY LOG
SPRED .MV    : SPONTANEOUS POTENTIAL FROM RESISTIVITY LOG
SPWS  .MV    : SPONTANEOUS POTENTIAL [BASELINE 0 MV SPRED]
SRESWS.OHMM  : SHALLOW RESISTIVITY [SNED]
~Params ----------------------------------------------------
PD  .                     GL : PERMANENT DATUM
EPD .FT               2132.3 : ELEVATION PERMANENT DATUM
LMF .                     KB : LOG MEASURED FROM
DAPD.FT                 11.7 : FEET ABOVE PERMANENT DATUM
EKB .FT                 2144 : KELLY BUSHING
EGL .FT               2132.3 : GROUND LEVEL
DATE.               02/04/73 : RUN DATE
RUN .                      1 : RUN NUMBER
DD  .FT                 5897 : DEPTH DRILLER
DL  .FT                 5902 : DEPTH LOGGER
BLI .FT                 5895 : BOTTOM LOG INTERVAL
TLI .FT                  682 : TOP LOG INTERVAL
CBD .FT                  680 : CASING BOTTOM DRILLER
CBL .FT                  682 : CASING BOTTOM LOGGER
BS  .IN                7.875 : BIT SIZE
BSD .FT                 5897 : BIT SIZE AT DEPTH
DFT .               GEL CHEM : DRILLING FLUID TYPE
DFD .                    9.5 : DRILLING FLUID DENSITY
DFV .                     95 : DRILLING FLUID VISCOSITY
DFPH.                    9.5 : DRILLING FLUID PH
DFL .                   10.5 : DRILLING FLUID LOSS
RMS .OHMM               1.16 : RESISTIVITY MUD SAMPLE
MST .DEGF                 52 : MUD SAMPLE TEMPERATURE
RMF .OHMM               0.78 : RESISTIVITY MUD FILTRATE SAMPLE
MFST.DEGF                 60 : MUD FILTRATE SAMPLE TEMPERATURE
RMC .OHMM                1.6 : RESISTIVITY MUD CAKE
MCST.DEGF                 60 : MUD CAKE SAMPLE TEMPERATURE
RMB .OHMM               0.53 : RESISTIVITY MUD AT BHT
TCS .HRS                   5 : TIME CIRCULATED STOPPED
LUN .                   7636 : LOGGING UNIT NUMBER
LUL .                    EDM : LOGGING UNIT LOCATION
ENGI.                 CALVIN : RECORDING ENGINEER
WITN.   CAMPBELL DANIELEWICZ : WITNESSED BY
CLNT.                A2DTECH : CLIENT CODE
ORIG.            2" 5" PRINT : ORIGIN OF DATA
UWI .       100073207810W500 : UNIQUE WELL ID
DICO. A2D Technologies, Inc. : DIGITIZING COMPANY
~Other -----------------------------------------------------
~ASCII -----------------------------------------------------
# ...
 3100.00000    9.64380    9.64380   59.35190   55.97660   17.86460   87.95200   87.95200   63.49320   63.49320   17.86460    3.46750  -79.00510  -18.95290    3.46750
 3150.00000   10.91870   10.91870   81.79320   77.11170   12.96820   77.97800   77.97800  145.10500  145.10500   12.96820    2.07810  -83.34430  -23.99480    2.07810
 3200.00000    8.41810    8.41810   16.84430   14.30710   69.89550   57.93200   57.93200   50.02280   50.02280   69.89550   31.23670  -88.91940  -30.27730   31.23670
 3250.00000    8.19100    8.19100   13.80290   10.94890   91.33300   58.53600   58.53600   45.59110   45.59110   91.33300   87.92850 -156.06360  -98.12420   87.92850
 3300.00000    8.38970    8.38970   17.76510   16.05450   62.31490   56.57400   56.57400   43.24740   43.24740   62.31490   50.39350 -122.54490  -65.30820   50.39350
 3350.00000    8.33820    8.33820   12.92200   10.36070   96.51870   52.25200   52.25200   40.02890   40.02890   96.51870  113.21360 -141.13520  -84.60580  113.21360
 3400.00000    8.33670    8.33670   12.45290    9.95820  100.41960   55.76400   55.76400   43.36720   43.36720  100.41960  129.27460 -158.95450 -103.12780  129.27460
 3450.00000    8.20800    8.20800   13.10100   10.81340   92.47780   58.63600   58.63600   43.55040   43.55040   92.47780  101.07180 -181.96390 -126.84450  101.07180
 3500.00000    8.14250    8.14250   12.29910   10.27900   97.28530   58.65600   58.65600   41.22880   41.22880   97.28530   99.73740 -183.64040 -129.22370   99.73740
 3550.00000    8.17670    8.17670   13.05220   11.44920   87.34510   55.15200   55.15200   42.20250   42.20250   87.34510  106.39190 -159.17980 -105.46580  106.39190
 3600.00000    8.17800    8.17800   15.35970   13.25800   75.42630   61.05200   61.05200   38.55230   38.55230   75.42630   61.90380 -170.37690 -117.37030   61.90380
 3650.00000    8.26460    8.26460   11.43770    9.53610  104.86510   53.44800   53.44800   41.07740   41.07740  104.86510  136.85140 -136.56790  -84.26400  136.85140
 3700.00000    8.25720    8.25720   12.16840   10.22630   97.78710   55.26400   55.26400   43.42410   43.42410   97.78710  139.85260 -135.17390  -83.57730  139.85260
 3750.00000    8.26480    8.26480   12.51830   10.03500   99.65130   53.80800   53.80800   39.25700   39.25700   99.65130  120.94960 -136.10340  -85.20950  120.94960
 3800.00000    8.06880    8.06880   11.50850    9.74670  102.59850   56.22400   56.22400   40.69890   40.69890  102.59850  130.49210 -141.10230  -90.91110  130.49210
 3850.00000    8.17480    8.17480   12.20940    9.32980  107.18360   54.03600   54.03600   38.67020   38.67020  107.18360  191.39200 -142.30870  -92.82480  191.39200
 3900.00000    8.14230    8.14230   10.73530    8.88800  112.51150   53.12400   53.12400   39.03980   39.03980  112.51150  200.02010 -142.92450  -94.14330  200.02010
 3950.00000    7.98680    7.98680   13.87000   10.59330   94.39920   57.27600   57.27600   41.19550   41.19550   94.39920  100.72070 -151.50700 -103.43320  100.72070
 4000.00000    8.05800    8.05800   13.14000   10.60540   94.29200   54.61600   54.61600   41.79970   41.79970   94.29200   99.28910 -158.11330 -110.74220   99.28910
 4050.00000    7.94970    7.94970   13.21430   11.08170   90.31160   54.26500   54.26500   41.72840   41.72840   90.31160   85.43790 -151.90930 -105.24090   85.43790
 4100.00000    8.22640    8.22640   20.78800   16.54550   60.43950   58.10400   58.10400   54.73870   54.73870   60.43950   14.69490 -108.25030  -62.28920   14.69490
 4150.00000    7.96550    7.96550   15.36260   13.25030   75.46980   54.29200   54.29200   55.13260   55.13260   75.46980   32.17370 -146.84510 -101.58670   32.17370
 4200.00000    8.01770    8.01770   12.49030   10.67900   93.64150   53.10400   53.10400   51.54490   51.54490   93.64150   49.59620 -133.50490  -88.95380   49.59620
 4250.00000    7.95370    7.95370   12.28000    8.98620  111.28170   51.13200   51.13200   41.80080   41.80080  111.28170   96.66530 -143.11260  -99.26420   96.66530
 4300.00000    7.96800    7.96800   11.39540    8.70480  114.88610   49.73600   49.73600   41.76360   41.76360  114.88610  198.92100 -163.18430 -120.03860  198.92100
 4350.00000    8.07320    8.07320   24.04430   21.84550   45.77610   55.18000   55.18000   56.07420   56.07420   45.77610   17.22440 -111.48710  -69.04870   17.22440
 4400.00000    8.15170    8.15170   56.28180   48.11020   20.78560   57.41000   57.41000   54.10260   54.10260   20.78560   36.94730  -78.27210  -36.53640   36.94730
 4450.00000   12.32410   12.32410  228.86990  213.10600    4.69250   85.48000   85.48000   81.66190   81.66190    4.69250    3.06550  -88.98610  -47.95780    3.06550
 4500.00000   15.33820   15.33820  253.55860  227.98780    4.38620  107.33000  107.33000   85.17180   85.17180    4.38620    1.76850  -97.43130  -57.10570    1.76850
 4550.00000   15.50440   15.50440  439.92830  385.09260    2.59700  127.69500  127.69500   89.97270   89.97270    2.59700    1.65110  -94.59170  -54.96880    1.65110
 4600.00000   13.83460   13.83460  367.65060  327.39650    3.05440   95.70000   95.70000   93.45330   93.45330    3.05440    1.89350  -99.08840  -60.17280    1.89350
 4650.00000   13.74190   13.74190  350.16890  309.65500    3.22940   94.42000   94.42000   90.17350   90.17350    3.22940    1.93530  -97.29690  -59.08400    1.93530
 4700.00000   14.33360   14.33360  369.19190  334.72800    2.98750   97.76000   97.76000   83.10010   83.10010    2.98750    1.79790  -98.40510  -60.89950    1.79790
 4750.00000   12.09650   12.09650  289.98390  266.07770    3.75830   92.96000   92.96000   94.35460   94.35460    3.75830    2.64800  -98.12280  -61.31990    2.64800
 4800.00000   10.98590   10.98590  247.42280  228.62120    4.37410   94.11500   94.11500   87.31610   87.31610    4.37410    3.34110  -98.23730  -62.13710    3.34110
 4850.00000   12.70780   12.70780  284.61800  259.26210    3.85710   88.85000   88.85000   86.19790   86.19790    3.85710    2.84560 -102.74800  -67.35520    2.84560
 4900.00000   12.83420   12.83420  293.14590  266.06360    3.75850   89.32000   89.32000   96.34910   96.34910    3.75850    2.54110  -95.41940  -60.72930    2.54110
 4950.00000   13.89200   13.89200  332.24490  302.48950    3.30590   91.80000   91.80000   87.11270   87.11270    3.30590    2.11310  -91.60870  -57.62590    2.11310
 5000.00000   14.94470   14.94470  356.76230  327.95490    3.04920   94.40000   94.40000   92.94740   92.94740    3.04920    1.86590  -82.42210  -49.14200    1.86590
 5050.00000   15.35000   15.35000  369.05790  327.61990    3.05290   95.49000   95.49000   90.72300   90.72300    3.05290    1.95070  -68.04800  -35.47060    1.95070
 5100.00000   13.73250   13.73250  370.13220  324.78080    3.07900   90.07000   90.07000   92.92900   92.92900    3.07900    2.43650  -57.86390  -25.99380    2.43650
 5150.00000    8.68940    8.68940   96.42560   90.43230   11.05800   65.16000   65.16000   65.02890   65.02890   11.05800   10.29430  -59.63250  -28.46510   10.29430
 5200.00000    9.07250    9.07250  119.02460  109.58660    9.12520   66.91000   66.91000   75.84710   75.84710    9.12520    9.48080  -62.71880  -32.25880    9.48080
 5250.00000    9.23480    9.23480  132.38660  118.50590    8.43840   69.32000   69.32000   82.69230   82.69230    8.43840    8.76510  -67.29050  -37.53320    8.76510
 5300.00000   13.36670   13.36670  357.69720  327.09780    3.05720  101.60000  101.60000  110.94760  110.94760    3.05720    2.36190  -84.76870  -55.71410    2.36190
 5350.00000    9.63020    9.63020  103.03640   94.18060   10.61790   70.07600   70.07600   78.07770   78.07770   10.61790    8.47380  -57.97900  -29.63170    8.47380
 5400.00000    8.58550    8.58550   30.31710   31.14070   32.11230   70.96000   70.96000   68.16080   68.16080   32.11230   39.76270  -48.44920  -20.80460   39.76270
 5450.00000    9.39360    9.39360  129.28530  115.61760    8.64920   65.50000   65.50000   66.69760   66.69760    8.64920    8.09480  -48.91890  -21.98160    8.09480
 5500.00000    9.42030    9.42030  173.75750  146.54160    6.82400   73.05200   73.05200   81.02860   81.02860    6.82400    7.81410  -42.43040  -16.19580    7.81410
