~Version ---------------------------------------------------
VERS.      2.0 : CWLS log ASCII Standard -VERSION 2.0
WRAP.       NO : One line per depth step
CREA. 12/14/17 : LAS Creation Date
~Well ------------------------------------------------------
STRT.FT                          1000.0 : START DEPTH
STOP.FT                          9450.0 : STOP DEPTH
STEP.FT                        50.00000 : STEP LENGTH
NULL.                           -999.25 : NULL VALUE
COMP.      CANADIAN HOMESTEAD OILS LTD. : COMPANY
WELL. HOMESTEAD ET AL SNIPE 11-28-68-19 : WELL
FLD .                                   : FIELD
LOC .                                   : LOCATION
CTRY.                            CANADA : COUNTRY
SRVC.                      Schlumberger : SERVICE COMPANY
DATE.                       25-Dec-1972 : LOGDATE
PROV.                           Alberta : PROVINCE
UWI .                  100112806819W500 : UNIQUE WELL ID
SLAT.WGS84                     54.91868 : SURFACE LATITUDE
SLON.WGS84                    -116.8396 : SURFACE LONGITUDE
~Curve Information -----------------------------------------
DEPT    .FT    : Depth Curve
CALDED  .IN    : CALIPER FROM DENSITY LOG [ADJ. TO GRSED]
CALSED  .IN    : CALIPER FROM SONIC LOG
CALWS   .IN    : CALIPER [CALSED]
CONDWS  .MMHO  : CONDUCTIVITY [1000/DRESWS]
DRESWS  .OHMM  : DEEP RESISTIVITY [ILDED]
DTED    .US/F  : DELTA TIME FROM SONIC LOG
DTWS    .US/F  : COMPRESSIONAL SONIC [DTED]
GRDED   .GAPI  : GAMMA RAY FROM DENSITY LOG [ADJ. TO GRSED]
GRSED   .GAPI  : GAMMA RAY FROM SONIC LOG
GRWS    .GAPI  : GAMMA RAY [GRSED]
ILDED   .OHMM  : DEEP INDUCTION RESISTIVITY FROM RESISTIVITY LOG
ILMED   .OHMM  : MEDIUM INDUCTION  RESISTIVITY FROM RESISTIVITY LOG
LL8ED   .OHMM  : LATEROLOG 8 FROM RESISTIVITY LOG
MRESWS  .OHMM  : MEDIUM RESISTIVITY [ILMED]
NPHILSED.V/V   : NEUTRON POROSITY LIMESTONE FROM DENSITY LOG
NPHISSED.V/V   : NEUTRON POROSITY SANDSTONE FROM DENSITY LOG
NPOLSWS .V/V   : NEUTRON POROSITY LIMESTONE [NPHISSED MATRIX CONVERSION FOR LIMESTONE, SPL. TO NPHILSED @ 5498']
SPHILSED.V/V   : SONIC POROSITY LIMESTONE [DTM=55.6, DTF=189] FROM SONIC LOG
SPHISSED.V/V   : SONIC POROSITY SANDSTONE [DTM=47.6, DTF=189]  FROM SONIC LOG
SPOWS   .V/V   : SONIC POROSITY [SPHISSED SPL. TO SPHILSED @ 5403']
SPRED   .MV    : SPONTANEOUS POTENTIAL FROM RESISTIVITY LOG
SPWS    .MV    : SPONTANEOUS POTENTIAL [BASELINE 0, MV SPRED]
SRESWS  .OHMM  : SHALLOW RESISTIVITY [LL8ED]
~Params ----------------------------------------------------
PD  .                     GL : PERMANENT DATUM
EPD .FT                 2594 : ELEVATION PERMANENT DATUM
LMF .                     KB : LOG MEASURED FROM
DAPD.FT                   16 : FEET ABOVE PERMANENT DATUM
EKB .FT                 2610 : KELLY BUSHING
EGL .FT                 2594 : GROUND LEVEL
DATE.               12/25/72 : RUN DATE
RUN .                      1 : RUN NUMBER
DD  .FT                 9485 : DEPTH DRILLER
DL  .FT                 9485 : DEPTH LOGGER
BLI .FT                 9479 : BOTTOM LOG INTERVAL
TLI .FT                  972 : TOP LOG INTERVAL
CBD .FT                  972 : CASING BOTTOM DRILLER
CBL .FT                  972 : CASING BOTTOM LOGGER
BS  .IN                7.875 : BIT SIZE
BSD .FT                 9485 : BIT SIZE AT DEPTH
DFT .                    FGM : DRILLING FLUID TYPE
DFD .                    9.1 : DRILLING FLUID DENSITY
DFV .                     75 : DRILLING FLUID VISCOSITY
DFPH.                    9.5 : DRILLING FLUID PH
DFL .                      8 : DRILLING FLUID LOSS
MSS .               MEASURED : MUD SAMPLE SOURCE
RMS .OHMM               2.13 : RESISTIVITY MUD SAMPLE
MST .DEGF                 44 : MUD SAMPLE TEMPERATURE
RMF .OHMM                1.3 : RESISTIVITY MUD FILTRATE SAMPLE
MFST.DEGF                 75 : MUD FILTRATE SAMPLE TEMPERATURE
RMC .OHMM               2.06 : RESISTIVITY MUD CAKE
MCST.DEGF                 52 : MUD CAKE SAMPLE TEMPERATURE
CLNT.                A2DTECH : CLIENT CODE
ORIG.            2" 5" PRINT : ORIGIN OF DATA
UWI .       100112806819W500 : UNIQUE WELL ID
DICO. A2D Technologies, Inc. : DIGITIZING COMPANY
~Other -----------------------------------------------------
DIL-CNL-SLC LOG RUN
CALD/GRD DEPTH SHIFTED TO GRSED
~ASCII -----------------------------------------------------
# ...
 4100.00000    8.24730    8.54110    8.54110  247.86220    4.03450   88.79660   88.79660   73.21260   78.44780   78.44780    4.03450    4.15110    6.12660    4.15110    -999.25    0.30140    0.25740    -999.25    0.25330    0.25330 -114.04120  -16.55870    6.12660
 4150.00000    7.93480    7.87510    7.87510  136.99160    7.30030   83.35300   83.35300   29.82250   32.66910   32.66910    7.30030   10.20140   16.15830   10.20140    -999.25    0.26060    0.21660    -999.25    0.21120    0.21120 -162.09580  -65.73250   16.15830
 4200.00000    9.24140    8.68650    8.68650  197.63630    5.05980   83.73230   83.73230   67.01530   62.63970   62.63970    5.05980    5.40930    7.46480    5.40930    -999.25    0.22650    0.18280    -999.25    0.21810    0.21810 -108.36850  -13.13570    7.46480
 4250.00000    8.66660    8.25770    8.25770  220.03650    4.54470   82.78050   82.78050   62.89210   57.97330   57.97330    4.54470    5.76070   11.96070    5.76070    -999.25    0.28280    0.23880    -999.25    0.21230    0.21230 -137.00940  -40.94670   11.96070
 4300.00000    9.59070    8.93260    8.93260  236.72340    4.22440   85.85470   85.85470   78.82510   69.79290   69.79290    4.22440    4.06130    5.51670    4.06130    -999.25    0.24910    0.20520    -999.25    0.23050    0.23050 -102.47340   -4.58290    5.51670
 4350.00000    7.68400    7.92320    7.92320  225.27090    4.43910   80.51410   80.51410   48.99260   49.41050   49.41050    4.43910    7.26740   16.77580    7.26740    -999.25    0.27470    0.23070    -999.25    0.19610    0.19610 -175.74860  -77.69170   16.77580
 4400.00000   10.08900    9.43190    9.43190  246.37080    4.06850   91.27750   91.27750   73.38350   71.90230   71.90230    4.06850    4.59380    4.96620    4.59380    -999.25    0.29520    0.25120    -999.25    0.27370    0.27370 -109.62480  -11.89560    4.96620
 4450.00000    8.34430    8.00260    8.00260  253.62040    3.94290   77.65040   77.65040   43.76810   40.84190   40.84190    3.94290    5.75890   16.33780    5.75890    -999.25    0.24850    0.20460    -999.25    0.17680    0.17680 -167.95820  -70.56000   16.33780
 4500.00000    8.91860    8.43520    8.43520  247.44510    4.04130   85.24510   85.24510   80.24480   76.71580   76.71580    4.04130    4.33020    5.87590    4.33020    -999.25    0.25790    0.21400    -999.25    0.22820    0.22820 -102.21450   -5.14560    5.87590
 4550.00000    8.23980    7.80930    7.80930  378.31210    2.64350   79.99340   79.99340   41.63380   42.74500   42.74500    2.64350    3.87740   12.39890    3.87740    -999.25    0.25270    0.20880    -999.25    0.19330    0.19330 -162.46460  -67.10970   12.39890
 4600.00000    8.23780    7.88760    7.88760  227.35540    4.39840   75.69760   75.69760   51.11020   57.17920   57.17920    4.39840    6.05190   23.64580    6.05190    -999.25    0.25690    0.21300    -999.25    0.15620    0.15620 -154.82080  -61.27110   23.64580
 4650.00000    8.33420    8.27370    8.27370  190.32550    5.25420   82.31180   82.31180   76.24590   75.33370   75.33370    5.25420    5.49440    7.95950    5.49440    -999.25    0.31360    0.26960    -999.25    0.20720    0.20720 -100.75350   -8.99110    7.95950
 4700.00000    8.55930    8.28150    8.28150  218.67960    4.57290   86.48180   86.48180   84.84930   88.16000   88.16000    4.57290    4.91180    6.80630    4.91180    -999.25    0.30190    0.25790    -999.25    0.23920    0.23920  -96.13750   -6.18040    6.80630
 4750.00000   10.37050   10.45240   10.45240  336.11190    2.97520   99.28890   99.28890   85.49720   91.87160   91.87160    2.97520    2.54550    3.77240    2.54550    -999.25    0.37390    0.33060    -999.25    0.32130    0.32130  -96.17200   -8.01120    3.77240
 4800.00000    8.89350    8.37090    8.37090  117.93430    8.47980   76.18370   76.18370   80.31970   73.54050   73.54050    8.47980    8.93680   13.12520    8.93680    -999.25    0.17150    0.12850    -999.25    0.16390    0.16390 -101.42660  -13.35160   13.12520
 4850.00000   11.76710    9.80600    9.80600  211.30480    4.73250   91.69820   91.69820   85.70620   82.32070   82.32070    4.73250    4.88500    7.61420    4.88500    -999.25    0.39960    0.35670    -999.25    0.27630    0.27630  -94.41270   -5.31650    7.61420
 4900.00000    8.03040    7.92770    7.92770  116.60780    8.57590   73.36080   73.36080   44.67110   44.97750   44.97750    8.57590   11.56610   24.66110   11.56610    -999.25    0.19340    0.15010    -999.25    0.14050    0.14050 -129.10130  -42.62970   24.66110
 4950.00000   12.22460    9.65420    9.65420  302.36140    3.30730   84.75150   84.75150   81.32010   78.87550   78.87550    3.30730    3.71940    4.18910    3.71940    -999.25    0.32530    0.28140    -999.25    0.22520    0.22520  -93.03270   -9.28740    4.18910
 5000.00000    -999.25   12.15570   12.15570  469.48360    2.13000   97.27310   97.27310   83.61640   78.27260   78.27260    2.13000    1.99720    3.33180    1.99720    -999.25    0.41010    0.36740    -999.25    0.31260    0.31260  -88.19980   -7.15500    3.33180
 5050.00000    9.06060    8.45630    8.45630   59.12010   16.94210   93.01930   93.01930  100.48210   98.82750   98.82750   16.94210   18.17280   29.92930   18.17280    -999.25    0.25310    0.20920    -999.25    0.28150    0.28150  -83.63200   -5.27040   29.92930
 5100.00000    8.79390    8.39190    8.39190   32.81320   30.47550  100.43150  100.43150  146.16010  149.60700  149.60700   30.47550   32.71150   49.98660   32.71150    -999.25    0.30470    0.26070    -999.25    0.32640    0.32640  -87.22190   -8.38380   49.98660
 5150.00000    8.64340    8.17320    8.17320    4.99720  200.27540   74.60040   74.60040  206.81930  188.34080  188.34080  200.27540  215.14490  284.41480  215.14490    -999.25    0.17170    0.12870    -999.25    0.14730    0.14730 -112.09270  -27.93960  284.41480
 5200.00000    8.14070    7.78070    7.78070  302.25180    3.30850   73.33830   73.33830   61.01630   57.80350   57.80350    3.30850    5.22610   20.51680    5.22610    -999.25    0.18650    0.14330    -999.25    0.14230    0.14230 -164.07730  -74.55580   20.51680
 5250.00000    8.37180    7.91160    7.91160  407.96340    2.45120   73.75340   73.75340   60.58610   58.51770   58.51770    2.45120    3.98270   15.04490    3.98270    -999.25    0.17930    0.13620    -999.25    0.14520    0.14520 -167.55780  -72.69460   15.04490
 5300.00000    9.03710    8.58530    8.58530  348.58090    2.86890   69.31050   69.31050   66.38460   66.24370   66.24370    2.86890    3.64180   11.81880    3.64180    -999.25    0.13850    0.09610    -999.25    0.11050    0.11050 -139.24600  -39.06780   11.81880
 5350.00000    8.14120    7.80520    7.80520  489.54810    2.04270   66.93570   66.93570   59.12820   54.15450   54.15450    2.04270    2.80250   16.87940    2.80250    -999.25    0.23010    0.18630    -999.25    0.08760    0.08760 -181.71820  -78.98820   16.87940
 5400.00000    7.49080    7.88030    7.88030 1030.71780    0.97020   68.52940   68.52940   14.57970   11.02170   11.02170    0.97020    1.50430   15.79160    1.50430    -999.25    -999.25    0.24300    -999.25    0.14450    0.14450 -216.20390 -117.19910   15.79160
 5450.00000    7.75350    7.76410    7.76410  140.92450    7.09600   51.63890   51.63890   22.63970   19.66180   19.66180    7.09600    8.74450   63.68620    8.74450    0.14840    -999.25    0.14840    0.03290    -999.25    0.03290 -209.02940 -113.78730   63.68620
 5500.00000    8.52870    8.17600    8.17600   88.47130   11.30310   54.09740   54.09740   30.88370   28.50250   28.50250   11.30310   11.33540   23.91790   11.33540    0.07080    -999.25    0.07080    0.05220    -999.25    0.05220 -134.34890  -42.85080   23.91790
 5550.00000    8.98910    8.13340    8.13340  174.44800    5.73570   56.18130   56.18130   38.61850   39.60380   39.60380    5.73570    6.10630   26.58130    6.10630    0.11480    -999.25    0.11480    0.07720    -999.25    0.07720 -138.80000  -51.02720   26.58130
 5600.00000    8.44740    8.42400    8.42400  541.82920    1.84560   76.07130   76.07130   24.50710   26.18630   26.18630    1.84560    3.21150   19.17980    3.21150    0.25150    -999.25    0.25150    0.19540    -999.25    0.19540 -179.88940  -95.87930   19.17980
