~Version ---------------------------------------------------
VERS.      2.0 : CWLS log ASCII Standard -VERSION 2.0
WRAP.       NO : One line per depth step
CREA. 11/20/17 : LAS Creation Date
~Well ------------------------------------------------------
STRT.FT                          850.0 : START DEPTH
STOP.FT                         9050.0 : STOP DEPTH
STEP.FT                       50.00000 : STEP LENGTH
NULL.                          -999.25 : NULL VALUE
COMP.      BLUEMOUNT RESOURCES LIMITED : COMPANY
WELL. BLUEMOUNT WHITECOURT 10-36-59-13 : WELL
FLD .                                  : FIELD
LOC .                                  : LOCATION
CTRY.                           CANADA : COUNTRY
SRVC.                          Unknown : SERVICE COMPANY
DATE.                      30-Jan-1973 : LOGDATE
PROV.                          Alberta : PROVINCE
UWI .                 100103605913W500 : UNIQUE WELL ID
SLAT.WGS84                    54.14792 : SURFACE LATITUDE
SLON.WGS84                   -115.8081 : SURFACE LONGITUDE
~Curve Information -----------------------------------------
DEPT    .FT    : Depth Curve
CALDED  .IN    : CALIPER FROM DENSITY LOG [ADJ. TO RESISTIVITY LOG]
CALSED  .IN    : CALIPER FROM SONIC LOG [ADJ. TO RESISTIVITY LOG]
CALWS   .IN    : CALIPER [CALSED SPL. TO CALDED @ 2283']
CONDWS  .MMHO  : CONDUCTIVITY [1000/DRESWS]
DCORED  .G/C3  : DENSITY CORRECTION FROM DENSITY LOG [ADJ. TO RESISTIVITY LOG]
DCORWS  .G/C3  : DENSITY CORRECTION [DCORED]
DENWS   .G/C3  : FORMATION BULK DENSITY [CALC. FROM DPOLSWS, M=2.71, F=1.00]
DPHILSED.V/V   : DENSITY POROSITY LIMESTONE [M=2.71, F=1.00] FROM DENSITY LOG [ADJ. TO RESISTIVITY LOG]
DPOLSWS .V/V   : DENSITY POROSITY LIMESTONE [DPHILSED]
DRESWS  .OHMM  : DEEP RESISTIVITY [ILDED]
DTED    .US/F  : DELTA-T FROM SONIC LOG [ADJ. TO RESISTIVITY LOG]
DTWS    .US/F  : COMPRESSIONAL SONIC [DTED]
GRDED   .GAPI  : GAMMA RAY FROM DENSITY LOG [ADJ. TO RESISTIVITY LOG]
GRSED   .GAPI  : GAMMA RAY FROM SONIC LOG [ADJ. TO RESISTIVITY LOG]
GRWS    .GAPI  : GAMMA RAY [GRSED SPL. TO GRDED @ 2280'] GRSED IN CSG TOP-914' ADDED 40 GAPI
ILDED   .OHMM  : DEEP INDUCTION RESISTIVITY FROM RESISTIVITY LOG
ILMED   .OHMM  : MEDIUM INDUCTION RESISTIVITY FROM RESISTIVITY LOG
LL8ED   .OHMM  : LATEROLOG 8 RESISTIVITY FROM RESISTIVITY LOG
MRESWS  .OHMM  : MEDIUM RESISTIVITY [ILMED]
NPHILSED.V/V   : NEUTRON POROSITY LIMESTONE FROM DENSITY LOG [ADJ. TO RESISTIVITY LOG]
NPOLSWS .V/V   : NEUTRON POROSITY LIMESTONE [NPHILSED]
RHOBED  .G/C3  : BULK DENSITY FROM DENSITY LOG [ADJ. TO RESISTIVITY LOG]
SPRED   .MV    : SPONTANEOUS POTENTIAL FROM RESISTIVITY LOG
SPWS    .MV    : SPONTANEOUS POTENTIAL [BASELINE 0 MV, SPRED]
SRESWS  .OHMM  : SHALLOW RESISTIVITY [LL8ED]
~Params ----------------------------------------------------
PD  .                     GL : PERMANENT DATUM
EPD .FT                 2542 : ELEVATION PERMANENT DATUM
LMF .                     KB : LOG MEASURED FROM
DAPD.FT                 17.3 : FEET ABOVE PERMANENT DATUM
EKB .FT               2559.3 : KELLY BUSHING
EGL .FT                 2542 : GROUND LEVEL
DATE.               01/30/73 : RUN DATE
RUN .                      1 : RUN NUMBER
DD  .FT                 9060 : DEPTH DRILLER
DL  .FT                 9056 : DEPTH LOGGER
BLI .FT                 9053 : BOTTOM LOG INTERVAL
TLI .FT                  911 : TOP LOG INTERVAL
CBD .FT                  912 : CASING BOTTOM DRILLER
CBL .FT                  911 : CASING BOTTOM LOGGER
BS  .IN                 8.75 : BIT SIZE
BSD .FT                 9060 : BIT SIZE AT DEPTH
DFT .               GEL CHEM : DRILLING FLUID TYPE
DFD .                    9.2 : DRILLING FLUID DENSITY
DFV .                     80 : DRILLING FLUID VISCOSITY
DFPH.                   10.5 : DRILLING FLUID PH
DFL .                    8.8 : DRILLING FLUID LOSS
MSS .             CIRCULATED : MUD SAMPLE SOURCE
RMS .OHMM               1.83 : RESISTIVITY MUD SAMPLE
MST .DEGF                 76 : MUD SAMPLE TEMPERATURE
RMF .OHMM               1.59 : RESISTIVITY MUD FILTRATE SAMPLE
MFST.DEGF                 57 : MUD FILTRATE SAMPLE TEMPERATURE
RMC .OHMM                3.6 : RESISTIVITY MUD CAKE
MCST.DEGF                 76 : MUD CAKE SAMPLE TEMPERATURE
RMB .OHMM                0.9 : RESISTIVITY MUD AT BHT
TCS .HRS                   4 : TIME CIRCULATED STOPPED
LUN .                   5671 : LOGGING UNIT NUMBER
LUL .                    EDM : LOGGING UNIT LOCATION
ENGI.                 CALVIN : RECORDING ENGINEER
WITN.         SCHWAB DRYDALE : WITNESSED BY
CLNT.                A2DTECH : CLIENT CODE
ORIG.            2" 5" PRINT : ORIGIN OF DATA
UWI .       100103605913W500 : UNIQUE WELL ID
DICO. A2D Technologies, Inc. : DIGITIZING COMPANY
~Other -----------------------------------------------------
DI-LL-CNFD-SONIC LOG RUN
RHOBED & DCORED FROM 2" LOG
~ASCII -----------------------------------------------------
# ...
 7850.00000    8.33610    9.37690    8.33610  142.94900    0.20620    0.20620    2.65190    0.03400    0.03400    6.99550   73.09750   73.09750   85.79520  105.26360   85.79520    6.99550    7.70000   14.80700    7.70000    0.26240    0.26240    2.66310  -48.09290  -15.69350   14.80700
 7900.00000    8.06500    8.75110    8.06500   99.61550    0.01830    0.01830    2.74490   -0.02040   -0.02040   10.03860   65.15980   65.15980   64.97980   89.10400   64.97980   10.03860   11.14680   18.05800   11.14680    0.17120    0.17120    2.73670  -33.57350   -1.68700   18.05800
 7950.00000    8.06560    8.65290    8.06560   98.42910    0.01180    0.01180    2.75200   -0.02450   -0.02450   10.16060   66.85250   66.85250   88.70600  113.93340   88.70600   10.16060   11.55830   17.85160   11.55830    0.18550    0.18550    2.75130  -33.79590   -2.42480   17.85160
 8000.00000    8.06480    8.79060    8.06480   94.64860   -0.00650   -0.00650    2.72470   -0.00860   -0.00860   10.56540   66.58420   66.58420   76.85200  104.98900   76.85200   10.56540   11.93760   18.13090   11.93760    0.18260    0.18260    2.72310  -32.68080   -1.81990   18.13090
 8050.00000    8.03900    8.60430    8.03900   51.77030    0.00580    0.00580    2.72850   -0.01080   -0.01080   19.31610   60.61330   60.61330   60.20410   74.85870   60.20410   19.31610   21.83990   33.02570   21.83990    0.13230    0.13230    2.73010  -34.90060   -4.55260   33.02570
 8100.00000    8.13560    8.72370    8.13560  143.23570   -0.00350   -0.00350    2.73000   -0.01170   -0.01170    6.98150   68.43420   68.43420   84.72990  115.96020   84.72990    6.98150    7.80820   13.80680    7.80820    0.20310    0.20310    2.73120  -36.24200   -6.40680   13.80680
 8150.00000    8.09960    8.40460    8.09960  103.82170   -0.00570   -0.00570    2.71650   -0.00380   -0.00380    9.63190   69.07130   69.07130   85.40930  120.57040   85.40930    9.63190   10.58730   16.36330   10.58730    0.20300    0.20300    2.71900  -31.29840   -1.97610   16.36330
 8200.00000    8.09290    8.75570    8.09290   82.51970   -0.00910   -0.00910    2.70360    0.00370    0.00370   12.12680   61.73350   61.73350   63.28960   78.43160   63.28960   12.12680   14.43470   25.84870   14.43470    0.13560    0.13560    2.71190  -32.54310   -3.73610   25.84870
 8250.00000    8.33040    8.79220    8.33040  123.58040    0.08940    0.08940    2.65180    0.03400    0.03400    8.09190   70.73620   70.73620   90.89660  124.97500   90.89660    8.09190    9.00410   14.87010    9.00410    0.21330    0.21330    2.66730  -32.71920   -4.42250   14.87010
 8300.00000    8.12930    8.77630    8.12930  123.56510   -0.00440   -0.00440    2.69220    0.01040    0.01040    8.09290   69.18200   69.18200   77.66380  109.41490   77.66380    8.09290    8.95260   14.51170    8.95260    0.19150    0.19150    2.69230  -29.28140   -1.49760   14.51170
 8350.00000    8.05750    8.71280    8.05750  142.43190   -0.00600   -0.00600    2.72470   -0.00860   -0.00860    7.02090   71.60710   71.60710   88.63530  119.05110   88.63530    7.02090    7.80780   12.86850    7.80780    0.22260    0.22260    2.72890  -31.91820   -4.64720   12.86850
 8400.00000    8.11790    8.70930    8.11790  133.50600    0.00230    0.00230    2.71020   -0.00010   -0.00010    7.49030   69.86410   69.86410   83.02010  110.46800   83.02010    7.49030    8.19950   13.51660    8.19950    0.19070    0.19070    2.71800  -30.51220   -3.07350   13.51660
 8450.00000    8.20080    8.65400    8.20080   23.52980   -0.00400   -0.00400    2.70440    0.00320    0.00320   42.58400   60.54330   60.54330   50.17410   57.54970   50.17410   42.58400   51.93660  107.23920   51.93660    0.09960    0.09960    2.70520  -34.54160   -6.61250  107.23920
 8500.00000    8.13070    8.71900    8.13070   79.24430    0.00230    0.00230    2.63780    0.04220    0.04220   12.61920   74.27660   74.27660   86.94760  113.06180   86.94760   12.61920   13.61730   23.40310   13.61730    0.19690    0.19690    2.64230  -30.06580   -1.65110   23.40310
 8550.00000    8.31520    8.94840    8.31520  139.43700    0.06530    0.06530    2.66430    0.02670    0.02670    7.17170   76.05120   76.05120   98.90100  130.92450   98.90100    7.17170    8.16280   13.10630    8.16280    0.22670    0.22670    2.66780  -38.62870   -9.72610   13.10630
 8600.00000    8.11900    8.76250    8.11900    8.30780   -0.02360   -0.02360    2.72850   -0.01080   -0.01080  120.36920   53.84910   53.84910   14.11060   29.35480   14.11060  120.36920  122.97020  232.42210  122.97020    0.03910    0.03910    2.71840  -92.63460  -63.31230  232.42210
 8650.00000    7.99310    8.81570    7.99310   11.80810   -0.02200   -0.02200    2.66760    0.02480    0.02480   84.68750   51.00510   51.00510   10.58900   12.10710   10.58900   84.68750   95.87240  160.11970   95.87240    0.02520    0.02520    2.68100 -151.88120 -122.55890  160.11970
 8700.00000    8.02000    8.64540    8.02000    1.86320   -0.01130   -0.01130    2.72270   -0.00740   -0.00740  538.35200   49.31600   49.31600   11.36550   11.55590   11.36550  538.35200  461.48190  487.74460  461.48190    0.00940    0.00940    2.73100 -120.79230  -91.47000  487.74460
 8750.00000    7.97880    8.69200    7.97880    0.72550    0.00050    0.00050    2.68470    0.01480    0.01480 1378.30300   50.79110   50.79110   16.78260   21.32230   16.78260 1378.30300 1420.00340  837.26510 1420.00340    0.01800    0.01800    2.68150 -116.15700  -86.83470  837.26510
 8800.00000    7.77130    8.67050    7.77130   64.91440    0.01210    0.01210    2.66310    0.02740    0.02740   15.40490   52.03420   52.03420    9.12810   11.51980    9.12810   15.40490   21.76170  168.33820   21.76170    0.04740    0.04740    2.66610 -160.43130 -131.10900  168.33820
 8850.00000    7.96660    8.69860    7.96660    0.73010   -0.00460   -0.00460    2.71190   -0.00110   -0.00110 1369.76340   48.49940   48.49940   14.38530   15.78580   14.38530 1369.76340 1421.82180 1501.59480 1421.82180    0.01140    0.01140    2.72100 -130.00840 -100.68610 1501.59480
 8900.00000    7.98320    8.75280    7.98320    0.72510   -0.00820   -0.00820    2.69100    0.01110    0.01110 1379.08250   51.21810   51.21810   14.37590   20.39780   14.37590 1379.08250 1446.07180 1501.48520 1446.07180    0.01740    0.01740    2.69800 -128.00310  -98.68080 1501.48520
 8950.00000    7.98850    8.76400    7.98850    2.03730   -0.02420   -0.02420    2.72780   -0.01040   -0.01040  530.31990   50.39990   50.39990   14.94180   22.27040   14.94180  530.31990  695.68580 1158.11220  695.68580    0.02520    0.02520    2.72540 -145.86510 -116.54280 1158.11220
 9000.00000    8.20020    8.74830    8.20020   31.38340   -0.01670   -0.01670    2.64290    0.03920    0.03920   31.86400   58.81810   58.81810  120.96920  159.31390  120.96920   31.86400   47.15050  111.60270   47.15050    0.12750    0.12750    2.64650  -33.07250   -3.75020  111.60270
 9050.00000    7.93630    8.56540    7.93630   61.99700    0.00400    0.00400    2.74390   -0.01980   -0.01980   16.12980   61.01880   61.01880  159.47460  118.31450  159.47460   16.12980   18.50170   75.92710   18.50170    0.09510    0.09510    2.69450  -53.46110  -24.13880   75.92710
