~Version ---------------------------------------------------
VERS.      2.0 : CWLS log ASCII Standard -VERSION 2.0
WRAP.       NO : One line per depth step
CREA. 11/22/17 : LAS Creation Date
~Well ------------------------------------------------------
STRT.FT                       1500.0 : START DEPTH
STOP.FT                      10400.0 : STOP DEPTH
STEP.FT                     50.00000 : STEP LENGTH
NULL.                        -999.25 : NULL VALUE
COMP.   MERLAND EXPLORATIONS LIMITED : COMPANY
WELL. MERLAND ET AL GIROUXLUX 10-11- : WELL
FLD .                                : FIELD
LOC .                                : LOCATION
CTRY.                         CANADA : COUNTRY
SRVC.                        Unknown : SERVICE COMPANY
DATE.                    26-Feb-1978 : LOGDATE
PROV.                        Alberta : PROVINCE
UWI .               100101106622W500 : UNIQUE WELL ID
SLAT.WGS84                  54.70081 : SURFACE LATITUDE
SLON.WGS84                 -117.2093 : SURFACE LONGITUDE
~Curve Information -----------------------------------------
DEPT    .FT    : Depth Curve
CALDED  .IN    : CALIPER FROM DENSITY LOG [ADJ. TO RESISTIVITY LOG]
CALSED  .IN    : CALIPER FROM SONIC LOG [ADJ. TO RESISTIVITY LOG]
CALWS   .IN    : CALIPER [CALDED SPL. TO CALSED @ 8272']
CONDWS  .MMHO  : CONDUCTIVITY [1000/DRESWS]
DCORED  .G/C3  : DENSITY CORRECTION FROM DENSITY LOG [ADJ. TO RESISTIVITY LOG]SMALL SCALE
DCORWS  .G/C3  : DENSITY CORRECTION [DCORED]
DENWS   .G/C3  : FORMATION BULK DENSITY [CALC FROM DPOLSWS, M=2.71, F=1.0]
DPHILSED.V/V   : DENSITY POROSITY LIMESTONE [M=2.71,F=1.0] FROM DENSITY LOG [ADJ. TO RESISTIVITY LOG]
DPHISSED.V/V   : DENSITY POROSITY SANDSTONE [M=2.65,F=1.0] FROM DENSITY LOG [ADJ. TO RESISTIVITY LOG]
DPOLSWS .V/V   : DENSITY POROSITY LIMESTONE [DPHISSED CONVERTED TO LIMESTONE MATRIX, M=2.71, F=1.00 SPL.TO DPHILSED @ 5906']
DRESWS  .OHMM  : DEEP RESISTIVITY [ILDED]
DTED    .US/F  : DELTA-T FROM SONIC LOG [ADJ. TO RESISTIVITY LOG]
DTWS    .US/F  : COMPRESSIONAL SONIC [DTED]
GRDED   .GAPI  : GAMMA RAY FROM DENSITY LOG [ADJ. TO RESISTIVITY LOG]
GRSED   .GAPI  : GAMMA RAY FROM SONIC LOG [ADJ. TO RESISTIVITY LOG]
GRWS    .GAPI  : GAMMA RAY [GRDED SPL. TO GRSED @ 8262.5']
ILDED   .OHMM  : DEEP INDUCTION RESISTIVITY FROM RESISTIVITY LOG
ILMED   .OHMM  : MEDIUM INDUCTION RESISTIVITY FROM RESISTIVITY LOG
LL8ED   .OHMM  : LATEROLOG 8 FROM RESISTIVITY LOG
MRESWS  .OHMM  : MEDIUM RESISTIVITY [ILMED]
NPHILSED.V/V   : NEUTRON POROSITY LIMESTONE FROM DENSITY LOG [ADJ. TO RESISTIVITY LOG]
NPHISSED.V/V   : NEUTRON POROSITY SANDSTONE FROM DENSITY LOG [ADJ. TO RESISTIVITY LOG]
NPOLSWS .V/V   : NEUTRON POROSITY LIMESTONE [NPHISSED MATRIX (SLB) CONVERSION FOR LIMESTONE, SPL.TO NPHILSED @ 5914']
RHOBED  .G/C3  : BULK DENSITY FROM DENSITY LOG [ADJ. TO RESISTIVITY LOG] SMALL SCALE
SPRED   .MV    : SPONTANEOUS POTENTIAL FROM RESISTIVITY LOG
SPWS    .MV    : SPONTANEOUS POTENTIAL [BASELINE 0 MV, SPRED]
SRESWS  .OHMM  : SHALLOW RESISTIVITY [LL8ED]
~Params ----------------------------------------------------
PD  .                     GL : PERMANENT DATUM
EPD .FT                 2391 : ELEVATION PERMANENT DATUM
LMF .                     KB : LOG MEASURED FROM
DAPD.FT                   16 : FEET ABOVE PERMANENT DATUM
DMF .                     KB : DRILLING MEASURED FROM
EKB .FT                 2407 : KELLY BUSHING
EGL .FT                 2391 : GROUND LEVEL
DATE.               02/26/78 : RUN DATE
RUN .                      2 : RUN NUMBER
DD  .FT                10409 : DEPTH DRILLER
DL  .FT                10410 : DEPTH LOGGER
BLI .FT                10404 : BOTTOM LOG INTERVAL
TLI .FT                 8200 : TOP LOG INTERVAL
CBD .FT                 1515 : CASING BOTTOM DRILLER
CBL .FT                 1514 : CASING BOTTOM LOGGER
BS  .IN                 8.75 : BIT SIZE
BSD .FT                10409 : BIT SIZE AT DEPTH
DFT .               GEL CHEM : DRILLING FLUID TYPE
DFD .                    9.3 : DRILLING FLUID DENSITY
DFV .                     75 : DRILLING FLUID VISCOSITY
DFPH.                    9.5 : DRILLING FLUID PH
DFL .                    9.2 : DRILLING FLUID LOSS
MSS .               FLOWLINE : MUD SAMPLE SOURCE
RMS .OHMM               2.47 : RESISTIVITY MUD SAMPLE
MST .DEGF                 51 : MUD SAMPLE TEMPERATURE
RMF .OHMM               3.21 : RESISTIVITY MUD FILTRATE SAMPLE
MFST.DEGF                 60 : MUD FILTRATE SAMPLE TEMPERATURE
RMB .OHMM               1.02 : RESISTIVITY MUD AT BHT
TCS .HRS                 3.5 : TIME CIRCULATED STOPPED
LUN .                   7730 : LOGGING UNIT NUMBER
LUL .                    EDM : LOGGING UNIT LOCATION
ENGI.               ACKERMAN : RECORDING ENGINEER
WITN.                  GAWNE : WITNESSED BY
CLNT.                A2DTECH : CLIENT CODE
ORIG.            2" 5" PRINT : ORIGIN OF DATA
UWI .       100101106622W500 : UNIQUE WELL ID
DICO. A2D Technologies, Inc. : DIGITIZING COMPANY
~Other -----------------------------------------------------
~ASCII -----------------------------------------------------
# ...
 8000.00000    8.70960    9.50430    8.70960    1.95240    0.01910    0.01910    2.70140    0.00500    -999.25    0.00500  512.19510   47.23750   47.23750   12.11370   14.44490   12.11370  512.19510  474.94580  776.44460  474.94580    0.00410    -999.25    0.00410    2.69780  -14.98160  -99.98300  776.44460
 8050.00000   10.53460   10.00310   10.53460    2.85410    0.23250    0.23250    2.48050    0.13420    -999.25    0.13420  350.36910   48.13740   48.13740    8.56830   13.26480    8.56830  350.36910  567.17550  794.67910  567.17550   -0.00100    -999.25   -0.00100    2.49480  -28.24420 -112.04550  794.67910
 8100.00000    8.72800    9.50460    8.72800   22.11030    0.06420    0.06420    2.69140    0.01090    -999.25    0.01090   45.66270   48.95970   48.95970   10.76320   13.18610   10.76320   45.66270   37.79070   69.85110   37.79070    0.01700    -999.25    0.01700    2.68610  -17.25250  -99.84760   69.85110
 8150.00000    8.84570    9.54570    8.84570    5.39330    0.10500    0.10500    2.70850    0.00090    -999.25    0.00090  185.41410   49.42080   49.42080    9.93790   11.94630    9.93790  185.41410  167.41600  167.68860  167.41600    0.00770    -999.25    0.00770    2.70490  -15.99810  -97.39900  167.68860
 8200.00000    9.16400    9.81000    9.16400    1.13340    0.17430    0.17430    2.65960    0.02950    -999.25    0.02950  887.65760   48.78180   48.78180   11.91340   14.84590   11.91340  887.65760  572.25000  595.87480  572.25000    0.00220    -999.25    0.00220    2.65740  -33.94800 -114.14270  595.87480
 8250.00000    8.94020    9.78640    8.94020    0.95960    0.12960    0.12960    2.63970    0.04110    -999.25    0.04110 1042.14380   49.18940   49.18940   14.70670   19.86070   14.70670 1042.14380  915.01190  713.77550  915.01190    0.00420    -999.25    0.00420    2.63540  -20.60540  -99.60600  713.77550
 8300.00000    -999.25    9.39410    9.39410    1.13570    -999.25    -999.25    -999.25    -999.25    -999.25    -999.25  880.50820   48.78330   48.78330    -999.25   14.82700   14.82700  880.50820  539.25760 1226.74870  539.25760    -999.25    -999.25    -999.25    -999.25  -61.45050 -139.25090 1226.74870
 8350.00000    -999.25    9.03050    9.03050    1.36710    -999.25    -999.25    -999.25    -999.25    -999.25    -999.25  732.26660   47.63190   47.63190    -999.25   16.10420   16.10420  732.26660  422.30540  925.11800  422.30540    -999.25    -999.25    -999.25    -999.25  -83.15510 -159.74930  925.11800
 8400.00000    -999.25    9.11160    9.11160    1.30960    -999.25    -999.25    -999.25    -999.25    -999.25    -999.25  763.57860   47.97360   47.97360    -999.25   16.23250   16.23250  763.57860  614.97840 1004.60000  614.97840    -999.25    -999.25    -999.25    -999.25 -136.38560 -211.78570 1004.60000
 8450.00000    -999.25    8.92470    8.92470   12.16090    -999.25    -999.25    -999.25    -999.25    -999.25    -999.25   82.65140   49.51430   49.51430    -999.25   16.92160   16.92160   82.65140  146.28650  289.34420  146.28650    -999.25    -999.25    -999.25    -999.25 -136.73050 -210.92430  289.34420
 8500.00000    -999.25    9.29470    9.29470   20.72290    -999.25    -999.25    -999.25    -999.25    -999.25    -999.25   48.25570   48.02840   48.02840    -999.25   22.34400   22.34400   48.25570   69.55430  224.47130   69.55430    -999.25    -999.25    -999.25    -999.25 -120.60910 -193.60880  224.47130
 8550.00000    -999.25    8.48420    8.48420  158.32050    -999.25    -999.25    -999.25    -999.25    -999.25    -999.25    6.31630   52.54100   52.54100    -999.25   34.44690   34.44690    6.31630    6.75990   26.08920    6.75990    -999.25    -999.25    -999.25    -999.25 -136.87540 -208.67490   26.08920
 8600.00000    -999.25    8.19040    8.19040  200.12870    -999.25    -999.25    -999.25    -999.25    -999.25    -999.25    4.99880   57.17750   57.17750    -999.25   38.12010   38.12010    4.99880    6.77650   54.86870    6.77650    -999.25    -999.25    -999.25    -999.25 -136.89750 -207.49080   54.86870
 8650.00000    -999.25    9.07780    9.07780   22.32400    -999.25    -999.25    -999.25    -999.25    -999.25    -999.25   44.79490   52.54330   52.54330    -999.25   36.30660   36.30660   44.79490   40.06900   44.22360   40.06900    -999.25    -999.25    -999.25    -999.25 -136.91940 -206.31850   44.22360
 8700.00000    -999.25    8.97510    8.97510    7.43490    -999.25    -999.25    -999.25    -999.25    -999.25    -999.25  134.53330   52.18120   52.18120    -999.25   26.22140   26.22140  134.53330  207.46560  162.10860  207.46560    -999.25    -999.25    -999.25    -999.25 -136.94140 -205.13440  162.10860
 8750.00000    -999.25    8.86260    8.86260   11.26710    -999.25    -999.25    -999.25    -999.25    -999.25    -999.25   88.75370   50.24000   50.24000    -999.25   38.80970   38.80970   88.75370   68.48600   62.28790   68.48600    -999.25    -999.25    -999.25    -999.25 -135.71170 -202.71050   62.28790
 8800.00000    -999.25    8.76360    8.76360   42.02670    -999.25    -999.25    -999.25    -999.25    -999.25    -999.25   23.79440   52.48260   52.48260    -999.25   63.72140   63.72140   23.79440   26.10260   26.57890   26.10260    -999.25    -999.25    -999.25    -999.25 -104.19910 -169.99770   26.57890
 8850.00000    -999.25    8.83750    8.83750   34.81960    -999.25    -999.25    -999.25    -999.25    -999.25    -999.25   28.73170   58.22540   58.22540    -999.25  103.95360  103.95360   28.73170   31.03580   58.56510   31.03580    -999.25    -999.25    -999.25    -999.25  -34.32120  -98.91360   58.56510
 8900.00000    -999.25   10.77030   10.77030  105.63120    -999.25    -999.25    -999.25    -999.25    -999.25    -999.25    9.46690   68.06660   68.06660    -999.25   88.23660   88.23660    9.46690   10.92270   14.38960   10.92270    -999.25    -999.25    -999.25    -999.25  -13.28440  -76.68260   14.38960
 8950.00000    -999.25   11.14850   11.14850  133.62330    -999.25    -999.25    -999.25    -999.25    -999.25    -999.25    7.48460   67.33900   67.33900    -999.25   74.44240   74.44240    7.48460    7.76530    9.73550    7.76530    -999.25    -999.25    -999.25    -999.25   -7.56500  -69.75700    9.73550
 9000.00000    -999.25    9.23960    9.23960   65.67450    -999.25    -999.25    -999.25    -999.25    -999.25    -999.25   15.22660   59.01500   59.01500    -999.25   63.35080   63.35080   15.22660   16.33540   21.51790   16.33540    -999.25    -999.25    -999.25    -999.25   21.15130  -39.84660   21.51790
 9050.00000    -999.25   10.97850   10.97850  126.47660    -999.25    -999.25    -999.25    -999.25    -999.25    -999.25    7.90660   67.59140   67.59140    -999.25   82.28750   82.28750    7.90660    8.56140   11.05790    8.56140    -999.25    -999.25    -999.25    -999.25   18.86790  -40.92980   11.05790
 9100.00000    -999.25    9.11530    9.11530   65.93810    -999.25    -999.25    -999.25    -999.25    -999.25    -999.25   15.16580   60.19340   60.19340    -999.25   56.51870   56.51870   15.16580   15.68790   22.19510   15.68790    -999.25    -999.25    -999.25    -999.25   34.82780  -23.76370   22.19510
 9150.00000    -999.25    8.99010    8.99010   75.31990    -999.25    -999.25    -999.25    -999.25    -999.25    -999.25   13.27670   65.44380   65.44380    -999.25   68.36840   68.36840   13.27670   14.87590   23.61900   14.87590    -999.25    -999.25    -999.25    -999.25   42.47070  -14.92660   23.61900
 9200.00000    -999.25    8.98930    8.98930   24.12580    -999.25    -999.25    -999.25    -999.25    -999.25    -999.25   41.55360   62.91770   62.91770    -999.25   60.06920   60.06920   41.55360   49.23010   71.25630   49.23010    -999.25    -999.25    -999.25    -999.25   24.86380  -31.32730   71.25630
 9250.00000    -999.25    9.88600    9.88600  101.64050    -999.25    -999.25    -999.25    -999.25    -999.25    -999.25    9.83860   62.60940   62.60940    -999.25   58.24460   58.24460    9.83860   10.59100   12.73280   10.59100    -999.25    -999.25    -999.25    -999.25   25.41240  -29.58460   12.73280
