~Version ---------------------------------------------------
VERS.      2.0 : CWLS log ASCII Standard -VERSION 2.0
WRAP.       NO : One line per depth step
CREA. 10/27/17 : LAS Creation Date
~Well ------------------------------------------------------
STRT.FT                          950.0 : START DEPTH
STOP.FT                         9950.0 : STOP DEPTH
STEP.FT                       50.00000 : STEP LENGTH
NULL.                          -999.25 : NULL VALUE
COMP. AMOCO CANADA PETROLEUM CO., LTD. : COMPANY
WELL.  AMOCO HBOG WINDFALL 16-29-61-16 : WELL
FLD .                                  : FIELD
LOC .                                  : LOCATION
CTRY.                           CANADA : COUNTRY
SRVC.                     Schlumberger : SERVICE COMPANY
DATE.                      22-Dec-1976 : LOGDATE
PROV.                          Alberta : PROVINCE
UWI .                 100162906116W500 : UNIQUE WELL ID
SLAT.WGS84                    54.30881 : SURFACE LATITUDE
SLON.WGS84                   -116.3532 : SURFACE LONGITUDE
~Curve Information -----------------------------------------
DEPT    .FT    : Depth Curve
CALDED  .IN    : CALIPER FROM DENSITY LOG [ADJ. TO RESISTIVITY LOG]
CALSED  .IN    : CALIPER FROM SONIC LOG [ADJ. TO RESISTIVITY LOG]
CALWS   .IN    : CALIPER [CALDED]
CONDWS  .MMHO  : CONDUCTIVITY [1000/DRESWS]
DCORWS  .G/C3  : DENSITY CORRECTION [DRHOED]
DENWS   .G/C3  : FORMATION BULK DENSITY [RHOBED]
DPHILSED.V/V   : DENSITY POROSITY LIMESTONE [M=2.71, F=1.00] FROM DENSITY LOG [ADJ. TO RESISTIVITY LOG]
DPHISSED.V/V   : DENSITY POROSITY SANDSTONE [M=2.65, F=1.00] FROM DENSITY LOG [ADJ. TO RESISTIVITY LOG]
DPOLSWS .V/V   : DENSITY POROSITY LIMESTONE [CALC. FROM DENWS M=2.71, F=1.00]
DRESWS  .OHMM  : DEEP RESISTIVITY [ILDED]
DRHOED  .G/C3  : DENSITY CORRECTION FROM DENSITY LOG [ADJ. TO RESISTIVITY LOG/DPHISSED/DPHILSED]
DTED    .US/F  : DELTA TIME FROM SONIC LOG [ADJ. TO RESISTIVITY LOG]
DTWS    .US/F  : COMPRESSIONAL SONIC [DTED]
GRDED   .GAPI  : GAMMA RAY FROM DENSITY LOG [ADJ. TO RESISTIVITY LOG]
GRSED   .GAPI  : GAMMA RAY FROM SONIC LOG [ADJ. TO RESISTIVITY LOG]
GRWS    .GAPI  : GAMMA RAY [GRSED]
ILDED   .OHMM  : DEEP INDUCTION FROM RESISTIVITY LOG
ILMED   .OHMM  : MEDIUM INDUCTION FROM RESISTIVITY LOG
LL8ED   .OHMM  : 8 INCH LATEROLOG FROM RESISTIVITY LOG
MRESWS  .OHMM  : MEDIUM RESISTIVITY [ILMED]
NPHILSED.V/V   : NEUTRON POROSITY LIMESTONE FROM DENSITY LOG [ADJ. TO RESISTIVITY LOG]
NPHISSED.V/V   : NEUTRON POROSITY SANDSTONE FROM DENSITY LOG [ADJ. TO RESISTIVITY LOG]
NPOLSWS .V/V   : NEUTRON POROSITY LIMESTONE [NPHISSED MATRIX CONVERSION FOR LIMESTONE, SPL. TO NPHILSED @ 6250']
RHOBED  .G/C3  : BULK DENSITY FROM DENSITY LOG [ADJ. TO RESISTIVITY LOG/DPHISSED/DPHILSED]
SPRED   .MV    : SPONTANEOUS POTENTIAL FROM RESISTIVITY LOG
SPWS    .MV    : SPONTANEOUS POTENTIAL [BASELINE 0 MV, SPRED]
SRESWS  .OHMM  : SHALLOW RESISTIVITY [LL8ED]
~Params ----------------------------------------------------
PD  .                     GL : PERMANENT DATUM
EPD .FT                 2851 : ELEVATION PERMANENT DATUM
LMF .                     KB : LOG MEASURED FROM
DAPD.FT                   14 : FEET ABOVE PERMANENT DATUM
DMF .                     KB : DRILLING MEASURED FROM
EKB .FT                 2875 : KELLY BUSHING
EGL .FT                 2861 : GROUND LEVEL
DATE.               12/22/76 : RUN DATE
RUN .                      1 : RUN NUMBER
DD  .FT                 9966 : DEPTH DRILLER
DL  .FT                 9964 : DEPTH LOGGER
BLI .FT                 9958 : BOTTOM LOG INTERVAL
TLI .FT                 1029 : TOP LOG INTERVAL
CBD .FT                 1030 : CASING BOTTOM DRILLER
CBL .FT                 1029 : CASING BOTTOM LOGGER
BS  .IN                 8.75 : BIT SIZE
BSD .FT                 9966 : BIT SIZE AT DEPTH
DFT .               GEL CHEM : DRILLING FLUID TYPE
DFD .                    9.3 : DRILLING FLUID DENSITY
DFV .                     70 : DRILLING FLUID VISCOSITY
DFPH.                      9 : DRILLING FLUID PH
DFL .                      9 : DRILLING FLUID LOSS
MSS .             CIRCULATED : MUD SAMPLE SOURCE
RMF .OHMM               2.16 : RESISTIVITY MUD FILTRATE SAMPLE
MFST.DEGF                 74 : MUD FILTRATE SAMPLE TEMPERATURE
RMC .OHMM               2.83 : RESISTIVITY MUD CAKE
MCST.DEGF                 68 : MUD CAKE SAMPLE TEMPERATURE
LUN .                   7772 : LOGGING UNIT NUMBER
LUL .                    EDM : LOGGING UNIT LOCATION
ENGI.                   BIGG : RECORDING ENGINEER
WITN.                  LENTZ : WITNESSED BY
CLNT.                A2DTECH : CLIENT CODE
ORIG.            2" 5" PRINT : ORIGIN OF DATA
UWI .       100162906116W500 : UNIQUE WELL ID
DICO. A2D Technologies, Inc. : DIGITIZING COMPANY
~Other -----------------------------------------------------
DIL-LL-CNFD-BHC LOG RUN
~ASCII -----------------------------------------------------
# ...
 3550.00000   11.53440   12.77620   11.53440   92.16080    0.13030    2.56350    -999.25    0.04540    0.08570   10.85060    0.13030   84.39700   84.39700  132.82370   92.61130   92.61130   10.85060   11.35530   13.34200   11.35530    -999.25    0.27010    0.22610    2.56350  -52.21450   -7.59380   13.34200
 3600.00000   11.03410   12.66080   11.03410  132.69860    0.07480    2.39260    -999.25    0.15460    0.18560    7.53600    0.07480   89.44190   89.44190  136.76600   97.46460   97.46460    7.53600    7.87130    9.29840    7.87130    -999.25    0.31010    0.26620    2.39260  -51.27340   -7.01500    9.29840
 3650.00000   11.01700   12.38040   11.01700  101.78430    0.25280    2.31500    -999.25    0.20160    0.23100    9.82470    0.25280   82.03300   82.03300  114.85300   79.81740   79.81740    9.82470   10.26790   11.37250   10.26790    -999.25    0.27010    0.22610    2.31500  -52.56550   -8.66580   11.37250
 3700.00000   10.31860   12.85800   10.31860  169.90500    0.07080    2.46360    -999.25    0.11170    0.14410    5.88560    0.07080   87.88960   87.88960  131.07690   89.39100   89.39100    5.88560    6.14550    6.44600    6.14550    -999.25    0.33370    0.28990    2.46360  -51.67670   -8.13940    6.44600
 3750.00000   11.41320   14.13130   11.41320  125.52560    0.06970    2.57460    -999.25    0.04160    0.07920    7.96650    0.06970   83.15010   83.15010  124.63990   81.90430   81.90430    7.96650    8.38340    8.78120    8.38340    -999.25    0.25240    0.20850    2.57460  -52.99080   -9.81210    8.78120
 3800.00000   11.52730   13.73570   11.52730  130.96030    0.05420    2.51210    -999.25    0.08420    0.11570    7.63590    0.05420   87.13280   87.13280  123.82910   81.60320   81.60320    7.63590    7.97730    8.33730    7.97730    -999.25    0.28880    0.24480    2.51210  -51.45050   -8.63230    8.33730
 3850.00000   10.81640   13.77790   10.81640  158.63110    0.06460    2.49470    -999.25    0.09480    0.12590    6.30400    0.06460   90.03710   90.03710  133.84380   93.38870   93.38870    6.30400    6.58440    6.85920    6.58440    -999.25    0.32320    0.27930    2.49470  -51.64120   -9.18530    6.85920
 3900.00000   10.86970   14.52210   10.86970  174.75190    0.07400    2.48630    -999.25    0.09510    0.13080    5.72240    0.07400   88.66100   88.66100  137.81120   95.99360   95.99360    5.72240    5.97540    6.80650    5.97540    -999.25    0.35570    0.31210    2.48630  -51.01340   -8.91630    6.80650
 3950.00000   10.74230   12.82400   10.74230  151.17060    0.05730    2.50760    -999.25    0.08950    0.11840    6.61540    0.05730   88.69470   88.69470  136.21630   89.35740   89.35740    6.61540    6.91880    7.21000    6.91880    -999.25    0.33320    0.28940    2.50760  -50.12540   -8.39060    7.21000
 4000.00000   10.71560   13.35960   10.71560  137.86070    0.06100    2.48170    -999.25    0.10120    0.13350    7.25370    0.06100   88.10390   88.10390  141.71220   94.33680   94.33680    7.25370    7.54150    7.86240    7.54150    -999.25    0.31150    0.26760    2.48170  -49.57090   -8.19480    7.86240
 4050.00000   11.40490   14.53320   11.40490  158.68990    0.08250    2.45700    -999.25    0.11290    0.14800    6.30160    0.08250   90.58960   90.58960  132.17480   92.96630   92.96630    6.30160    6.84310    6.82900    6.84310    -999.25    0.35860    0.31510    2.45700  -49.67260   -8.65700    6.82900
 4100.00000   10.96240   13.80640   10.96240  124.91870    0.24070    2.48810    -999.25    0.08160    0.12980    8.00550    0.24070   89.01250   89.01250  128.03160   84.59340   84.59340    8.00550    8.36830    9.61250    8.36830    -999.25    0.30660    0.26260    2.48810  -49.55560   -8.90230    9.61250
 4150.00000   11.79260   13.40310   11.79260  128.11970    0.04100    2.45860    -999.25    0.11490    0.14700    7.80520    0.04100   85.93700   85.93700  137.49620   88.26730   88.26730    7.80520    8.16640    8.45150    8.16640    -999.25    0.29870    0.25470    2.45860  -48.39770   -8.10310    8.45150
 4200.00000   11.71230   13.28810   11.71230  128.64950    0.06070    2.54950    -999.25    0.06150    0.09390    7.77370    0.06070   83.80810   83.80810  136.05600  101.27050  101.27050    7.77370    8.14050    8.31010    8.14050    -999.25    0.29060    0.24660    2.54950  -47.32790   -7.39570    8.31010
 4250.00000   12.01760   13.48760   12.01760  138.11200    0.06480    2.48650    -999.25    0.09900    0.13070    7.24050    0.06480   87.61090   87.61090  140.62180   96.42200   96.42200    7.24050    7.43400    7.66120    7.43400    -999.25    0.31600    0.27210    2.48650  -46.85760   -7.28410    7.66120
 4300.00000   12.63690   13.92460   12.63690  150.69090    0.08340    2.50610    -999.25    0.08510    0.11920    6.63610    0.08340   88.11810   88.11810  140.44670  104.12070  104.12070    6.63610    6.92880    8.39670    6.92880    -999.25    0.31800    0.27410    2.50610  -45.10140   -5.88840    8.39670
 4350.00000   11.64420   13.03510   11.64420  141.65400    0.09330    2.39520    -999.25    0.15280    0.18410    7.05990    0.09330   93.02220   93.02220  148.15120  104.70510  104.70510    7.05990    7.39240    8.98660    7.39240    -999.25    0.36690    0.32340    2.39520  -43.98070   -5.13000    8.98660
 4400.00000   11.35630   13.48090   11.35630  137.99570    0.25050    2.31080    -999.25    0.20780    0.23350    7.24660    0.25050   94.17210   94.17210  157.11100  105.75640  105.75640    7.24660    7.56910    9.43410    7.56910    -999.25    0.38310    0.33990    2.31080  -43.48930   -4.99730    9.43410
 4450.00000    9.73230   12.34120    9.73230  121.50510    0.03720    2.48310    -999.25    0.09880    0.13270    8.23020    0.03720   93.72140   93.72140  165.92280  112.22370  112.22370    8.23020    8.59650   11.26820    8.59650    -999.25    0.36860    0.32520    2.48310  -42.46550   -4.33580   11.26820
 4500.00000   10.11580   12.53890   10.11580  102.46950   -0.00190    2.50040    -999.25    0.09030    0.12260    9.75900   -0.00190   89.44680   89.44680  172.12570  121.13470  121.13470    9.75900   10.76170   16.95960   10.76170    -999.25    0.35830    0.31480    2.50040  -42.12350   -4.35250   16.95960
 4550.00000    9.92340   12.61320    9.92340  104.83500    0.16050    2.55040    -999.25    0.05850    0.09330    9.53880    0.16050   85.65500   85.65500  143.22810   96.11720   96.11720    9.53880   10.23070   14.45280   10.23070    -999.25    0.32630    0.28240    2.55040  -42.40680   -4.99640   14.45280
 4600.00000    9.73430   12.28610    9.73430   97.38240    0.00250    2.36410    -999.25    0.17210    0.20230   10.26880    0.00250  103.56730  103.56730  200.98550  134.14770  134.14770   10.26880   11.71540   19.93540   11.71540    -999.25    0.43280    0.39070    2.36410  -40.43060   -3.38250   19.93540
 4650.00000   10.33130   13.47600   10.33130  155.03640    0.11710    2.50940    -999.25    0.08390    0.11730    6.45010    0.11710   89.65800   89.65800  123.04420   77.56950   77.56950    6.45010    6.73440    8.04360    6.73440    -999.25    0.29320    0.24920    2.50940  -42.19520   -5.50580    8.04360
 4700.00000   11.01080   12.82630   11.01080  198.60310    0.17130    2.44220    -999.25    0.12630    0.15660    5.03520    0.17130   89.03800   89.03800  140.41360   94.69620   94.69620    5.03520    5.25810    6.66180    5.25810    -999.25    0.32010    0.27630    2.44220  -40.26330   -3.93610    6.66180
 4750.00000   11.53070   13.09690   11.53070  215.19720    0.14830    2.50830    -999.25    0.11910    0.11800    4.64690    0.14830   90.64680   90.64680  146.48890   95.67450   95.67450    4.64690    4.86780    5.68680    4.86780    -999.25    0.35960    0.31610    2.50830  -40.37580   -4.40740    5.68680
 4800.00000   11.55620   13.93870   11.55620  181.58380    0.16010    2.49890    -999.25    0.09730    0.12350    5.50710    0.16010   86.25210   86.25210  132.85350   90.71130   90.71130    5.50710    5.76240    6.98530    5.76240    -999.25    0.31760    0.27370    2.49890  -39.15330   -3.54540    6.98530
