~Version ---------------------------------------------------
VERS.      2.0 : CWLS log ASCII Standard -VERSION 2.0
WRAP.       NO : One line per depth step
CREA. 07/27/17 : LAS Creation Date
~Well ------------------------------------------------------
STRT.FT                1200.0 : START DEPTH
STOP.FT               11450.0 : STOP DEPTH
STEP.FT              50.00000 : STEP LENGTH
NULL.                 -999.25 : NULL VALUE
COMP. TRIAD OIL COMPANY, LTD. : COMPANY
WELL.   TRIAD ANTE 11-2-66-25 : WELL
FLD .                         : FIELD
LOC .                         : LOCATION
CTRY.                  CANADA : COUNTRY
SRVC.  Schlumberger of Canada : SERVICE COMPANY
DATE.             07-Apr-1966 : LOGDATE
PROV.                 Alberta : PROVINCE
UWI .        100110206625W500 : UNIQUE WELL ID
SLAT.WGS84           54.68518 : SURFACE LATITUDE
SLON.WGS84           -117.671 : SURFACE LONGITUDE
~Curve Information -----------------------------------------
DEPT  .FT    : Depth Curve
CALWS .IN    : CALIPER [MCALED]
CILDED.MMHO  : DEEP INDUCTION CONDUCTIVITYFROM RESISTIVITY LOG
CONDWS.MMHO  : CONDUCTIVITY [1000/DRESWS]
DRESWS.OHMM  : DEEP RESISTIVITY [1000/CILDED IF ILDED<1.5, ILDED]
DTED  .US/F  : DELTA-T FROM SONIC LOG
DTWS  .US/F  : COMPRESSIONAL SONIC [DTED]
GRSED .GAPI  : GAMMA RAY FROM SONIC LOG
GRWS  .GAPI  : GAMMA RAY [GRSED]
ILDED .OHMM  : DEEP INDUCTIONFROM RESISTIVITY LOG
MCALED.IN    : CALIPER MICROLOG
SNED  .OHMM  : 16 INCH SHORT NORMAL RESISTIVITY FROM IEL
SPRED .MV    : SPONTANEOUS POTENTIALFROM RESISTIVITY LOG
SPWS  .MV    : SPONTANEOUS POTENTIAL [BASELINE 0 MV, SPRED]
SRESWS.OHMM  : SHALLOW RESISTIVITY [SNED]
~Params ----------------------------------------------------
PD  .                     GL : PERMANENT DATUM
EPD .FT               2586.5 : ELEVATION PERMANENT DATUM
LMF .                     KB : LOG MEASURED FROM
DAPD.FT                 13.5 : FEET ABOVE PERMANENT DATUM
EKB .FT               2600.3 : KELLY BUSHING
EGL .FT               2586.5 : GROUND LEVEL
DATE.               04/07/66 : RUN DATE
RUN .                      2 : RUN NUMBER
DD  .FT                11487 : DEPTH DRILLER
DL  .FT                11346 : DEPTH LOGGER
BLI .FT                11488 : BOTTOM LOG INTERVAL
TLI .FT                11485 : TOP LOG INTERVAL
CBD .FT                 1162 : CASING BOTTOM DRILLER
CBL .FT                 1158 : CASING BOTTOM LOGGER
BS  .IN                8.625 : BIT SIZE
BSD .FT                11487 : BIT SIZE AT DEPTH
DFT .               GEL CHEM : DRILLING FLUID TYPE
DFD .                    9.4 : DRILLING FLUID DENSITY
DFV .                     11 : DRILLING FLUID VISCOSITY
DFPH.                    8.5 : DRILLING FLUID PH
DFL .                     11 : DRILLING FLUID LOSS
RMS .OHMM                0.6 : RESISTIVITY MUD SAMPLE
MST .DEGF                 60 : MUD SAMPLE TEMPERATURE
RMF .OHMM               0.41 : RESISTIVITY MUD FILTRATE SAMPLE
MFST.DEGF                 63 : MUD FILTRATE SAMPLE TEMPERATURE
RMC .OHMM               0.66 : RESISTIVITY MUD CAKE
MCST.DEGF                 62 : MUD CAKE SAMPLE TEMPERATURE
RMB .OHMM              0.095 : RESISTIVITY MUD AT BHT
TCS .HRS                 3.5 : TIME CIRCULATED STOPPED
LUN .                   3705 : LOGGING UNIT NUMBER
LUL .                    EDM : LOGGING UNIT LOCATION
ENGI.              BLACKBURN : RECORDING ENGINEER
WITN.                  GOGAL : WITNESSED BY
CLNT.                A2DTECH : CLIENT CODE
ORIG.            2" 5" PRINT : ORIGIN OF DATA
UWI .       100110206625W500 : UNIQUE WELL ID
DICO. A2D Technologies, Inc. : DIGITIZING COMPANY
~Other -----------------------------------------------------
~ASCII -----------------------------------------------------
# ...
 3650.00000    -999.25  134.56650  124.63850    8.02320   87.46790   87.46790   82.64510   82.64510    8.02320    -999.25   10.80270  -70.52620   -6.19880   10.80270
 3700.00000    -999.25  131.94580  121.80770    8.21010   86.53230   86.53230   84.01270   84.01270    8.21010    -999.25   10.37970  -70.90170   -6.50440   10.37970
 3750.00000    -999.25  172.52290  153.60510    6.51020   84.13460   84.13460   80.23850   80.23850    6.51020    -999.25    8.45930  -68.95070   -4.48440    8.45930
 3800.00000    -999.25  181.51840  163.52160    6.11540   88.74850   88.74850   78.09400   78.09400    6.11540    -999.25    8.16890  -69.13940   -4.60390    8.16890
 3850.00000    -999.25  188.82890  166.71390    5.99830   85.46080   85.46080   82.25960   82.25960    5.99830    -999.25    8.31070  -68.36650   -3.76130    8.31070
 3900.00000    -999.25  213.64630  187.96640    5.32010   95.13050   95.13050  100.69930  100.69930    5.32010    -999.25    8.27240  -69.79440   -5.12000    8.27240
 3950.00000    -999.25  209.42280  184.54390    5.41890   93.80830   93.80830   90.93730   90.93730    5.41890    -999.25    8.52460  -70.14060   -5.39630    8.52460
 4000.00000    -999.25  150.75830  137.19490    7.28890   97.46570   97.46570   96.41750   96.41750    7.28890    -999.25   10.66820  -72.61140   -7.79810   10.66820
 4050.00000    -999.25  183.90780  165.92000    6.02700   91.95530   91.95530   86.00930   86.00930    6.02700    -999.25    9.44060  -70.74650   -5.86400    9.44060
 4100.00000    -999.25  210.48970  194.18980    5.14960   94.88440   94.88440   84.65390   84.65390    5.14960    -999.25    8.52540  -70.78220   -5.83000    8.52540
 4150.00000    -999.25  182.59500  163.07100    6.13230   92.91850   92.91850   84.73020   84.73020    6.13230    -999.25   10.07270  -74.37330   -9.35190   10.07270
 4200.00000   11.24710  158.39520  143.08200    6.98930  102.90400  102.90400  116.49760  116.49760    6.98930   11.24710   12.57880  -78.40340  -13.31210   12.57880
 4250.00000   12.85150  188.94530  167.27160    5.97830   94.28690   94.28690   92.41370   92.41370    5.97830   12.85150   10.09110  -73.12390   -7.96360   10.09110
 4300.00000   11.21980  229.02950  198.19250    5.04560  102.39790  102.39790   98.01210   98.01210    5.04560   11.21980    9.27510  -71.51500   -6.28550    9.27510
 4350.00000   10.89240  175.89060  157.67150    6.34230   86.89520   86.89520   80.36430   80.36430    6.34230   10.89240    9.59920  -70.76910   -5.46990    9.59920
 4400.00000   10.62930  182.49560  162.55930    6.15160   84.58820   84.58820   77.62350   77.62350    6.15160   10.62930    8.60770  -66.31510   -0.94670    8.60770
 4450.00000   10.88010  325.22740  266.89820    3.74730   92.77240   92.77240   81.65910   81.65910    3.74730   10.88010    5.90310  -66.69720   -1.25890    5.90310
 4500.00000    9.30090  125.10910  118.60000    8.43170   82.42950   82.42950   32.85880   32.85880    8.43170    9.30090   15.09270  -93.17010  -27.89850   15.09270
 4550.00000   10.34790  105.14550   98.87580   10.11370   79.28770   79.28770   56.84710   56.84710   10.11370   10.34790   15.54630  -85.78060  -20.80540   15.54630
 4600.00000   12.07460  222.55400  192.01230    5.20800   78.15520   78.15520   70.58830   70.58830    5.20800   12.07460    8.40290  -75.93660  -11.25980    8.40290
 4650.00000   12.25580  339.29750  272.13850    3.67460   87.61760   87.61760   95.14320   95.14320    3.67460   12.25580    5.65840  -72.28900   -7.90860    5.65840
 4700.00000   12.98030  295.25950  247.98580    4.03250   84.01210   84.01210   82.47840   82.47840    4.03250   12.98030    6.23800  -71.76120   -7.68010    6.23800
 4750.00000   13.70050  243.15110  203.11170    4.92340   83.00160   83.00160   82.83540   82.83540    4.92340   13.70050    7.03340  -72.47570   -8.69010    7.03340
 4800.00000   15.21370  216.04420  189.46210    5.27810   83.22240   83.22240   81.97290   81.97290    5.27810   15.21370    7.55860  -72.59270   -9.10350    7.55860
 4850.00000   16.80100  446.61370  345.29190    2.89610  101.74940  101.74940  165.64640  165.64640    2.89610   16.80100    4.60410  -71.56270   -8.37180    4.60410
 4900.00000   17.74180  302.35300  254.27180    3.93280  101.57600  101.57600  204.75730  204.75730    3.93280   17.74180    4.81420  -69.48820   -6.97320    4.81420
 4950.00000   17.15020  554.94870  406.94560    2.45740  100.43020  100.43020   92.93290   92.93290    2.45740   17.15020    3.37200  -71.60630   -9.94540    3.37200
 5000.00000   17.16980  535.24270  392.20300    2.54970   93.98730   93.98730   90.02610   90.02610    2.54970   17.16980    3.86050  -69.88670   -9.06860    3.86050
 5050.00000   17.36430  142.46500  131.92790    7.57990   81.52040   81.52040   77.35520   77.35520    7.57990   17.36430    8.22930  -72.56580  -12.59340    8.22930
 5100.00000   15.20380  437.22940  343.87900    2.90800   97.93770   97.93770   83.26120   83.26120    2.90800   15.20380    4.69040  -66.96170   -7.84050    4.69040
 5150.00000   13.48310  130.65160  121.34450    8.24100   74.94890   74.94890   73.66990   73.66990    8.24100   13.48310   12.02540  -76.49200  -18.21650   12.02540
 5200.00000   13.21770  180.74750  159.64000    6.26410   83.28340   83.28340   62.27430   62.27430    6.26410   13.21770    9.24720  -61.91640   -4.49490    9.24720
 5250.00000   13.15900  142.89960  139.57120    7.16480   76.89720   76.89720   60.76780   60.76780    7.16480   13.15900    9.56230  -67.25350  -10.99980    9.56230
 5300.00000   11.07990   62.12320   59.07580   16.92740   69.02980   69.02980   50.11860   50.11860   16.92740   11.07990   18.54000  -79.29780  -24.33860   18.54000
 5350.00000   12.61640  267.44090  218.21200    4.58270   86.79570   86.79570   43.20080   43.20080    4.58270   12.61640    6.13610  -67.73200  -14.07590    6.13610
 5400.00000   11.48400  154.89970  139.74090    7.15610   74.01230   74.01230   52.67010   52.67010    7.15610   11.48400    9.46160  -70.34120  -17.97970    9.46160
 5450.00000   12.04550   87.62440   84.16450   11.88150   72.77990   72.77990   56.80530   56.80530   11.88150   12.04550   16.79290  -79.96970  -28.91560   16.79290
 5500.00000   12.13510  285.24880  235.11710    4.25320   85.08300   85.08300   68.90180   68.90180    4.25320   12.13510    7.98050  -66.61330  -16.84940    7.98050
 5550.00000   10.27850   75.74060   73.27080   13.64800   61.34390   61.34390   24.66960   24.66960   13.64800   10.27850   26.89150  -94.25250  -45.78320   26.89150
 5600.00000   12.52690  112.24440  106.54170    9.38600   72.02780   72.02780   62.10810   62.10810    9.38600   12.52690   15.11530  -80.97610  -33.80980   15.11530
 5650.00000    9.89880   94.29480   89.78430   11.13780   72.58490   72.58490   53.77080   53.77080   11.13780    9.89880   20.92670  -93.75430  -47.88260   20.92670
 5700.00000   13.37840   55.61480   57.99540   17.45520   94.12570   94.12570   55.29780   55.29780   17.45520   13.37840   26.23740  -76.65230  -32.08800   26.23740
 5750.00000   11.24070   88.62320   88.19510   11.33850   66.97890   66.97890   46.84800   46.84800   11.33850   11.24070   17.71050  -79.23600  -35.96200   17.71050
 5800.00000   11.94170  121.76050  113.91210    8.77870  102.06390  102.06390   52.92850   52.92850    8.77870   11.94170   17.39740  -73.86800  -31.88850   17.39740
 5850.00000   11.51400  137.55040  126.30090    7.91760   71.41150   71.41150   59.50890   59.50890    7.91760   11.51400   11.14920  -68.40420  -27.72780   11.14920
 5900.00000   12.39480  107.52670  100.63800    9.93660   67.40390   67.40390   43.05080   43.05080    9.93660   12.39480   15.91690  -77.00730  -37.62550   15.91690
 5950.00000    9.98400  144.43330  132.22150    7.56310   73.03620   73.03620   46.90850   46.90850    7.56310    9.98400   15.22790  -84.73140  -46.65700   15.22790
 6000.00000   12.16950  120.37810  106.62570    9.37860   73.76620   73.76620   57.13470   57.13470    9.37860   12.16950   12.91480  -63.49990  -26.71570   12.91480
 6050.00000   11.91260  129.86700  120.92190    8.26980   73.96200   73.96200   60.46370   60.46370    8.26980   11.91260   12.60220  -59.11760  -23.62800   12.60220
