~Version ---------------------------------------------------
VERS.      2.0 : CWLS log ASCII Standard -VERSION 2.0
WRAP.       NO : One line per depth step
CREA. 11/21/17 : LAS Creation Date
~Well ------------------------------------------------------
STRT.FT                       1200.0 : START DEPTH
STOP.FT                      14950.0 : STOP DEPTH
STEP.FT                     50.00000 : STEP LENGTH
NULL.                        -999.25 : NULL VALUE
COMP.           PETROFINA CANADA LTD : COMPANY
WELL. PC FINA GULF ERITH 15-10-49-19 : WELL
FLD .                             WC : FIELD
LOC .                                : LOCATION
CTRY.                         CANADA : COUNTRY
SRVC.                   Schlumberger : SERVICE COMPANY
DATE.                    25-May-1972 : LOGDATE
PROV.                        Alberta : PROVINCE
UWI .               100151004919W500 : UNIQUE WELL ID
SLAT.WGS84                  53.21922 : SURFACE LATITUDE
SLON.WGS84                  -116.691 : SURFACE LONGITUDE
~Curve Information -----------------------------------------
DEPT    .FT    : Depth Curve
CALDED  .IN    : CALIPER FROM DENSITY LOG  [ADJ. TO RESISTIVITY LOG]
CALSED  .IN    : CALIPER FROM SONIC LOG
CALWS   .IN    : CALIPER [CALSED]
CILDED  .MMHO  : CONDUCTIVITY FROM RESISTIVITY LOG
CONDWS  .MMHO  : CONDUCTIVITY [1000/DRESWS]
DCORED  .G/C3  : DENSITY CORRECTION FROM DENSITY LOG  [ADJ. TO RESISTIVITY LOG]
DCORWS  .G/C3  : DENSITY CORRECTION [DCORED]
DENWS   .G/C3  : FORMATION BULK DENSITY [CALC. FROM DPOLSWS, M=2.71, F=1.00]
DPHILSED.V/V   : DENSITY POROSITY [M=2.71, F=1.00] FROM DENSITY LOG  [ADJ. TO RESISTIVITY LOG]
DPOLSWS .V/V   : DENSITY POROSITY LIMESTONE [DPHILSED]
DRESWS  .OHMM  : DEEP RESISTIVITY [1000/CILDED IF ILDED < 1, ILDED SPL. ILD @ 8190.5']
DTED    .US/F  : DELTA TIME FROM SONIC LOG
DTWS    .US/F  : COMPRESSIONAL SONIC [DTED]
GRDED   .GAPI  : GAMMA RAY FROM DENSITY LOG [ADJ. TO RESISTIVITY LOG]
GRNED   .GAPI  : GAMMA RAY FROM NEUTRON LOG [ADJ. TO RESISTIVITY LOG]
GRSED   .GAPI  : GAMMA RAY FROM SONIC LOG
GRWS    .GAPI  : GAMMA RAY [GRSED]
ILDED   .MMHO  : DEEP INDUCTION LOG  RESISTIVITY FROM RESISTIVITY LOG
ILMED   .OHMM  : MEDIUM INDUCTION LOG  RESISTIVITY FROM RESISTIVITY LLOG
LL8ED   .OHMM  : 8 INCH LATEROLOG RESISTIVITY FROM RESISTIVITY LOG
MRESWS  .OHMM  : MEDIUM RESISTIVITY [ILMED]
NEUTED  .NAPI  : NEUTRON FROM NEUTRON LOG [ADJ. TO SONIC LOG]
NEUTWS  .NAPI  : NEUTRON [NEUTED]
NPHILSED.V/V   : NEUTRON POROSITY LIMESTONE FROM DENSITY LOG [ADJ. TO RESISTIVITY LOG]
NPOLSWS .V/V   : NEUTRON POROSITY LIMESTONE [NPHILSED]
RHOBED  .G/C3  : BULK DENSITY FROM DENSITY LOG  [ADJ. TO RESISTIVITY LOG]
SPRED   .MV    : SPONTANEOUS POTENTIAL FROM RESISTIVITY LOG
SPWS    .MV    : SPONTANEOUS POTENTIAL [BASELINE 0 MV, SPRED]
SRESWS  .OHMM  : SHALLOW RESISTIVITY [LL8ED]
~Params ----------------------------------------------------
PD  .                     GL : PERMANENT DATUM
EPD .FT                 3706 : ELEVATION PERMANENT DATUM
LMF .                     KB : LOG MEASURED FROM
DAPD.FT                 17.5 : FEET ABOVE PERMANENT DATUM
EKB .FT               3723.5 : KELLY BUSHING
EGL .FT                 3706 : GROUND LEVEL
DATE.               06/07/72 : RUN DATE
RUN .                      3 : RUN NUMBER
DD  .FT                14975 : DEPTH DRILLER
DL  .FT                14971 : DEPTH LOGGER
BLI .FT                14966 : BOTTOM LOG INTERVAL
TLI .FT                14400 : TOP LOG INTERVAL
CBD .FT                11336 : CASING BOTTOM DRILLER
CBL .FT                11343 : CASING BOTTOM LOGGER
BS  .IN                  8.5 : BIT SIZE
BSD .FT                14975 : BIT SIZE AT DEPTH
DFT .       GEL CHEM POLYMER : DRILLING FLUID TYPE
DFD .                   13.5 : DRILLING FLUID DENSITY
DFV .                     55 : DRILLING FLUID VISCOSITY
DFPH.                   11.5 : DRILLING FLUID PH
DFL .                     15 : DRILLING FLUID LOSS
RMF .OHMM               0.28 : RESISTIVITY MUD FILTRATE SAMPLE
MFST.DEGF                 67 : MUD FILTRATE SAMPLE TEMPERATURE
RMB .OHMM               0.07 : RESISTIVITY MUD AT BHT
TCS .HRS                   6 : TIME CIRCULATED STOPPED
LUN .                  OSU-C : LOGGING UNIT NUMBER
LUL .               1123 EDM : LOGGING UNIT LOCATION
ENGI.                HACKNEY : RECORDING ENGINEER
WITN.               ROTA LEE : WITNESSED BY
CLNT.                A2DTECH : CLIENT CODE
ORIG.            2" 5" PRINT : ORIGIN OF DATA
UWI .       100151004919W500 : UNIQUE WELL ID
DICO. A2D Technologies, Inc. : DIGITIZING COMPANY
~Other -----------------------------------------------------
~ASCII -----------------------------------------------------
# ...
 8700.00000    -999.25   12.99990   12.99990    -999.25   91.78520    -999.25    -999.25    -999.25    -999.25    -999.25   10.89500   73.70410   73.70410    -999.25    -999.25   93.80310   93.80310   10.89500    8.13520    9.55450    8.13520    -999.25    -999.25    -999.25    -999.25    -999.25   53.46670   -6.29320    9.55450
 8750.00000    -999.25   12.84000   12.84000    -999.25   84.26590    -999.25    -999.25    -999.25    -999.25    -999.25   11.86720   73.26500   73.26500    -999.25    -999.25   93.04760   93.04760   11.86720    8.74380   10.39400    8.74380    -999.25    -999.25    -999.25    -999.25    -999.25   53.16480   -6.85980   10.39400
 8800.00000    -999.25   12.80670   12.80670    -999.25   92.30290    -999.25    -999.25    -999.25    -999.25    -999.25   10.83390   79.04630   79.04630    -999.25    -999.25   96.65250   96.65250   10.83390    6.60750    8.77950    6.60750    -999.25    -999.25    -999.25    -999.25    -999.25   54.95780   -5.33290    8.77950
 8850.00000    -999.25   13.03610   13.03610    -999.25   95.36250    -999.25    -999.25    -999.25    -999.25    -999.25   10.48630   87.77090   87.77090    -999.25    -999.25  107.22250  107.22250   10.48630    6.97320    8.66640    6.97320    -999.25    -999.25    -999.25    -999.25    -999.25   54.77270   -5.78410    8.66640
 8900.00000    -999.25   12.32700   12.32700    -999.25   71.83700    -999.25    -999.25    -999.25    -999.25    -999.25   13.92040   83.46250   83.46250    -999.25    -999.25  104.20290  104.20290   13.92040    8.87160   11.37540    8.87160    -999.25    -999.25    -999.25    -999.25    -999.25   51.12920   -9.69370   11.37540
 8950.00000    -999.25   12.36130   12.36130    -999.25   73.93930    -999.25    -999.25    -999.25    -999.25    -999.25   13.52460   81.28240   81.28240    -999.25    -999.25   97.69310   97.69310   13.52460    8.66340   11.41290    8.66340    -999.25    -999.25    -999.25    -999.25    -999.25   50.64590  -10.44440   11.41290
 9000.00000    -999.25   12.76500   12.76500    -999.25   76.27880    -999.25    -999.25    -999.25    -999.25    -999.25   13.10980   85.06640   85.06640    -999.25    -999.25  100.54960  100.54960   13.10980    8.13350   10.62300    8.13350    -999.25    -999.25    -999.25    -999.25    -999.25   51.00970  -10.34540   10.62300
 9050.00000    -999.25   12.88170   12.88170    -999.25   75.64530    -999.25    -999.25    -999.25    -999.25    -999.25   13.21960   84.32920   84.32920    -999.25    -999.25  100.67530  100.67530   13.21960    8.86520   11.98650    8.86520    -999.25    -999.25    -999.25    -999.25    -999.25   57.21530   -4.40590   11.98650
 9100.00000    -999.25   13.92350   13.92350    -999.25   96.14830    -999.25    -999.25    -999.25    -999.25    -999.25   10.40060   82.37450   82.37450    -999.25    -999.25   98.77750   98.77750   10.40060    6.73200    9.28000    6.73200    -999.25    -999.25    -999.25    -999.25    -999.25   60.72170   -1.43500    9.28000
 9150.00000    -999.25   12.77150   12.77150    -999.25  116.83330    -999.25    -999.25    -999.25    -999.25    -999.25    8.55920   82.44750   82.44750    -999.25    -999.25  106.12910  106.12910    8.55920    7.81630   12.23240    7.81630    -999.25    -999.25    -999.25    -999.25    -999.25   56.08960   -6.83220   12.23240
 9200.00000    -999.25   12.92770   12.92770    -999.25   78.76500    -999.25    -999.25    -999.25    -999.25    -999.25   12.69600   89.26590   89.26590    -999.25    -999.25  106.94950  106.94950   12.69600    9.21760   13.66150    9.21760    -999.25    -999.25    -999.25    -999.25    -999.25   56.17270   -7.51800   13.66150
 9250.00000    -999.25   12.44200   12.44200    -999.25   85.89740    -999.25    -999.25    -999.25    -999.25    -999.25   11.64180   62.36870   62.36870    -999.25    -999.25   72.50920   72.50920   11.64180    7.62670   14.01750    7.62670    -999.25    -999.25    -999.25    -999.25    -999.25   57.11300   -7.33890   14.01750
 9300.00000    -999.25   12.41590   12.41590    -999.25  123.07540    -999.25    -999.25    -999.25    -999.25    -999.25    8.12510   83.43060   83.43060    -999.25    -999.25   99.39580   99.39580    8.12510    7.57340   10.75600    7.57340    -999.25    -999.25    -999.25    -999.25    -999.25   56.71650   -8.50050   10.75600
 9350.00000    -999.25   13.60570   13.60570    -999.25  159.16470    -999.25    -999.25    -999.25    -999.25    -999.25    6.28280   77.70670   77.70670    -999.25    -999.25  104.85790  104.85790    6.28280    4.79030    9.63710    4.79030    -999.25    -999.25    -999.25    -999.25    -999.25   57.87140   -8.11070    9.63710
 9400.00000    -999.25   13.48660   13.48660    -999.25  112.73960    -999.25    -999.25    -999.25    -999.25    -999.25    8.87000  101.14340  101.14340    -999.25    -999.25  148.48120  148.48120    8.87000   11.24300   13.68370   11.24300    -999.25    -999.25    -999.25    -999.25    -999.25   59.27010   -7.47710   13.68370
 9450.00000    -999.25   13.42230   13.42230    -999.25  132.85680    -999.25    -999.25    -999.25    -999.25    -999.25    7.52690   80.42420   80.42420    -999.25    -999.25   89.20010   89.20010    7.52690    4.97250    6.32140    4.97250    -999.25    -999.25    -999.25    -999.25    -999.25   62.44550   -5.07060    6.32140
 9500.00000    -999.25   12.94620   12.94620    -999.25  115.45480    -999.25    -999.25    -999.25    -999.25    -999.25    8.66140   76.97910   76.97910    -999.25    -999.25   83.77980   83.77980    8.66140    5.67080    6.99390    5.67080    -999.25    -999.25    -999.25    -999.25    -999.25   61.43660   -6.84070    6.99390
 9550.00000    -999.25   12.41150   12.41150    -999.25  105.88960    -999.25    -999.25    -999.25    -999.25    -999.25    9.44380   76.21850   76.21850    -999.25    -999.25   94.23210   94.23210    9.44380    4.98000    7.01990    4.98000    -999.25    -999.25    -999.25    -999.25    -999.25   57.97520  -11.06720    7.01990
 9600.00000    -999.25   13.12330   13.12330    -999.25   94.49470    -999.25    -999.25    -999.25    -999.25    -999.25   10.58260  117.30670  117.30670    -999.25    -999.25   91.68940   91.68940   10.58260   43.81810    7.79270   43.81810    -999.25    -999.25    -999.25    -999.25    -999.25   59.58840  -10.21900    7.79270
 9650.00000    -999.25   13.25640   13.25640    -999.25  104.88450    -999.25    -999.25    -999.25    -999.25    -999.25    9.53430   75.50440   75.50440    -999.25    -999.25   99.77500   99.77500    9.53430   10.71870    6.80890   10.71870    -999.25    -999.25    -999.25    -999.25    -999.25   60.01610  -10.55640    6.80890
 9700.00000    -999.25   13.62470   13.62470    -999.25  112.21330    -999.25    -999.25    -999.25    -999.25    -999.25    8.91160   71.16550   71.16550    -999.25    -999.25  101.07930  101.07930    8.91160    9.37890    7.33390    9.37890    -999.25    -999.25    -999.25    -999.25    -999.25   62.07830   -9.26310    7.33390
 9750.00000    -999.25   13.25750   13.25750    -999.25  112.03850    -999.25    -999.25    -999.25    -999.25    -999.25    8.92550   73.00820   73.00820    -999.25    -999.25   94.02710   94.02710    8.92550    5.72600    6.61470    5.72600    -999.25    -999.25    -999.25    -999.25    -999.25   66.94750   -5.15520    6.61470
 9800.00000    -999.25   13.45020   13.45020    -999.25  113.95360    -999.25    -999.25    -999.25    -999.25    -999.25    8.77550  104.64970  104.64970    -999.25    -999.25   96.22890   96.22890    8.77550    5.56450    7.58020    5.56450    -999.25    -999.25    -999.25    -999.25    -999.25   67.65490   -5.21280    7.58020
 9850.00000    -999.25   13.17360   13.17360    -999.25  128.85930    -999.25    -999.25    -999.25    -999.25    -999.25    7.76040   70.15770   70.15770    -999.25    -999.25  124.23110  124.23110    7.76040    7.02270   10.55060    7.02270    -999.25    -999.25    -999.25    -999.25    -999.25   63.50160  -10.13120   10.55060
 9900.00000    -999.25   14.03860   14.03860    -999.25  246.65780    -999.25    -999.25    -999.25    -999.25    -999.25    4.05420   63.33440   63.33440    -999.25    -999.25   97.57810   97.57810    4.05420    3.37680    6.23710    3.37680    -999.25    -999.25    -999.25    -999.25    -999.25   70.20600   -4.19190    6.23710
