~Version ---------------------------------------------------
VERS.      2.0 : CWLS log ASCII Standard -VERSION 2.0
WRAP.       NO : One line per depth step
CREA. 10/09/14 : LAS Creation Date
~Well ------------------------------------------------------
STRT.M                            300.0 : START DEPTH
STOP.M                           2900.0 : STOP DEPTH
STEP.M                         50.00000 : STEP LENGTH
NULL.                           -999.25 : NULL VALUE
COMP. PLACER C.E.G.O. PETROLEUM LIMITED : COMPANY
WELL.     CEGO ET AL MAHASKA 6-27-57-13 : WELL
FLD .                                   : FIELD
LOC .                                   : LOCATION
CTRY.                            CANADA : COUNTRY
SRVC.                      Schlumberger : SERVICE COMPANY
DATE.                       16-Apr-1979 : LOGDATE
PROV.                           Alberta : PROVINCE
UWI .                  100062705713W500 : UNIQUE WELL ID
SLAT.WGS84                     53.95296 : SURFACE LATITUDE
SLON.WGS84                    -115.8507 : SURFACE LONGITUDE
~Curve Information -----------------------------------------
DEPT    .M      : DEPTH METER
CALDED  .MM     : CALIPER FROM DENSITY LOG [ADJ. TO RESISTIVITY LOG]
CALSED  .MM     : CALIPER FROM SONIC LOG [ADJ. TO RESISTIVITY LOG]
CALWS   .MM     : CALIPER [CALDED]
CONDWS  .MMHO   : CONDUCTIVITY [1000/DRESWS]
DCORWS  .KG/M3  : DENSITY CORRECTION [DRHOED]
DENWS   .KG/M3  : FORMATION BULK DENSITY [RHOBED]
DPHILSED.V/V    : DENSITY POROSITY LIMESTONE FROM DENSITY LOG [ADJ. TO RESISTIVITY LOG]
DPHISSED.V/V    : DENSITY POROSITY SANDSTONE  FROM DENSITY LOG [ADJ. TO RESISTIVITY LOG]
DPOLSWS .V/V    : DENSITY POROSITY LIMESTONE [CALC. FROM DENWS M=2710,F=1000]
DRESWS  .OHMM   : DEEP RESISTIVITY [ILDED]
DRHOED  .KG/M3  : BULK DENSITY CORRECTION  FROM DENSITY LOG [ADJ. TO RESISTIVITY LOG]
DTED    .US/M   : DELTA-TIME FROM SONIC LOG [ADJ. TO RESISTIVITY LOG]
DTWS    .US/M   : COMPRESSIONAL SONIC [DTED]
GRDED   .GAPI   : GAMMA RAY FROM DENSITY LOG  FROM DENSITY LOG [ADJ. TO RESISTIVITY LOG]
GRSED   .GAPI   : GAMMA RAY FROM SONIC LOG [ADJ. TO RESISTIVITY LOG]
GRWS    .GAPI   : GAMMA RAY [GRDED]
ILDED   .OHMM   : DEEP INDUCTION  RESISTIVITY  FROM RESISTIVITY LOG
ILMED   .OHMM   : MEDIUM INDUCTION  RESISTIVITY  FROM RESISTIVITY LOG
MRESWS  .OHMM   : MEDIUM RESISTIVITY [ILMED]
NPHILSED.V/V    : NEUTRON POROSITY LIMESTONE  FROM DENSITY LOG [ADJ. TO RESISTIVITY LOG]
NPHISSED.V/V    : NEUTRON POROSITY SANDSTONE  FROM DENSITY LOG [ADJ. TO RESISTIVITY LOG]
NPOLSWS .V/V    : NEUTRON POROSITY LIMESTONE [NPHISSED MATRIX CONVERSION FOR LIMESTONE FROM SCHLUMBERGER (CNL), SPL. TO NPHILSED @ 1800M]
RHOBED  .KG/M3  : BULK DENSITY  FROM DENSITY LOG [ADJ. TO RESISTIVITY LOG/DPHISSED/DPHILSED]
SFLED   .OHMM   : SPHERICALLY FOCUSED LOG  FROM RESISTIVITY LOG
SPRED   .MV     : SPONTANEOUS POTENTIAL FROM RESISTIVITY LOG
SPWS    .MV     : SPONTANEOUS POTENTIAL [BASELINE 0 MV, SPRED]
SRESWS  .OHMM   : SHALLOW RESISTIVITY [SFLED]
TENDED  .N      : TENSION FROM DENSITY LOG [ADJ. TO RESISTIVITY LOG] [TENDED*4.44822162]
TENSED  .N      : TENSION FROM SONIC LOG [ADJ. TO RESISTIVITY LOG] [TENSED*4.44822162]
~Params ----------------------------------------------------
PD  .                         GL : PERMANENT DATUM
EPD .M                    759.63 : ELEVATION PERMANENT DATUM
LMF .                         KB : LOG MEASURED FROM
DAPD.M                      4.51 : FEET ABOVE PERMANENT DATUM
DMF .                         KB : DRILLING MEASURED FROM
EKB .M                    764.14 : KELLY BUSHING
EGL .M                    759.63 : GROUND LEVEL
DATE.                   04/16/79 : RUN DATE
RUN .                          1 : RUN NUMBER
DD  .M                      2892 : DEPTH DRILLER
DL  .M                    2893.5 : DEPTH LOGGER
BLI .M                    2892.5 : BOTTOM LOG INTERVAL
TLI .M                     311.3 : TOP LOG INTERVAL
CS  .MM                      245 : CASING SIZE
CBD .M                    311.76 : CASING BOTTOM DRILLER
CBL .M                     311.3 : CASING BOTTOM LOGGER
BS  .MM                      222 : BIT SIZE
BSD .M                      2892 : BIT SIZE AT DEPTH
DFT .                   GEL CHEM : DRILLING FLUID TYPE
DFD .                        115 : DRILLING FLUID DENSITY
DFV .                       2130 : DRILLING FLUID VISCOSITY
DFPH.                         11 : DRILLING FLUID PH
DFL .                          9 : DRILLING FLUID LOSS
MSS .                CIRCULATION : MUD SAMPLE SOURCE
RMS .OHMM                   1.59 : RESISTIVITY MUD SAMPLE
MST .DEGC                   13.8 : MUD SAMPLE TEMPERATURE
RMF .OHMM                   1.28 : RESISTIVITY MUD FILTRATE SAMPLE
MFST.DEGC                   12.7 : MUD FILTRATE SAMPLE TEMPERATURE
RMC .OHMM                   1.98 : RESISTIVITY MUD CAKE
MCST.DEGC                   11.6 : MUD CAKE SAMPLE TEMPERATURE
MFSS.                       CIRC : MUD FILTRATE SAMPLE SOURCE
TCS .HRS                    2330 : TIME CIRCULATED STOPPED
LUN .                       7809 : LOGGING UNIT NUMBER
LUL .                        EDM : LOGGING UNIT LOCATION
ENGI.                GRAY BOUTIN : RECORDING ENGINEER
WITN.                    SPRAGUE : WITNESSED BY
CLNT.                    A2DTECH : CLIENT CODE
ORIG. 6.5"/100M 16.5"/100M PRINT : ORIGIN OF DATA
UWI .           100062705713W500 : UNIQUE WELL ID
DICO.     A2D Technologies, Inc. : DIGITIZING COMPANY
~Other -----------------------------------------------------
CNFD-DILSFL-SONIC LOG RUN
~ASCII -----------------------------------------------------
# ...
 1550.00000  224.94380  237.17210  224.94380   76.27590   85.63730 2527.61720    -999.25    0.07140    0.10670   13.11030   85.63730  225.54580  225.54580   38.17130   47.31680   38.17130   13.11030   16.20100   16.20100    -999.25    0.14790    0.10540 2527.61720   25.09630 -106.54840  -39.83020   25.09630 24918.63990 21232.51300
 1600.00000  286.46510  334.17370  286.46510   65.28220   51.41540 2582.53370    -999.25    0.03500    0.07450   15.31810   51.41540  258.20300  258.20300   84.82120   99.08370   84.82120   15.31810   14.13710   14.13710    -999.25    0.29510    0.25110 2582.53370   14.68320  -78.23540  -14.88100   14.68320 25997.47290 22079.83600
 1650.00000  271.34650  327.71950  271.34650   76.66240   50.45500 2665.44510    -999.25   -0.02470    0.02610   13.04420   50.45500  222.57360  222.57360   60.68140   67.37310   60.68140   13.04420   12.40140   12.40140    -999.25    0.21780    0.17420 2665.44510   16.43850  -79.91000  -19.91950   16.43850 26221.95370 22260.96670
 1700.00000  268.25020  305.43710  268.25020  159.13940   38.30700 2548.12740    -999.25    0.05480    0.09470    6.28380   38.30700  234.11020  234.11020   57.18060   58.56780   57.18060    6.28380    8.16130    8.16130    -999.25    0.22090    0.17720 2548.12740   13.68460 -101.23650  -44.60980   13.68460 26423.36610 22619.36970
 1750.00000  271.19310  278.63150  271.19310  114.24650  122.13150 2404.94410    -999.25    0.13660    0.17840    8.75300  122.13150  262.07050  262.07050   85.33240   88.93190   85.33240    8.75300    6.64100    6.64100    -999.25    0.27950    0.23550 2404.94410   12.20510  -57.43040   -4.16750   12.20510 27004.73620 23738.24520
 1800.00000  261.98180  271.95210  261.98180   94.58950   64.45840 2580.88840    0.08090    0.06760    0.07550   10.57200   64.45840  226.12090  226.12090   57.92650   63.29350   57.92650   10.57200   11.11170   11.11170    0.12840    0.16740    0.12840 2580.88840   14.02850  -80.77200  -29.14850   14.02850 27909.88440 24150.88710
 1850.00000  234.37880  234.11440  234.37880    4.61430   23.04120 2582.09860    0.06820    -999.25    0.07480  216.71530   23.04120  193.44540  193.44540   75.30460   74.76840   75.30460  216.71530  165.47390  165.47390    0.08850    -999.25    0.08850 2582.09860  440.52570 -100.32390  -48.57100  440.52570 28320.63450 15401.50030
 1900.00000  246.85510  248.40320  246.85510  222.10380   25.40210 2668.29370    0.01700    -999.25    0.02440    4.50240   25.40210  197.77790  197.77790   57.51610   66.76000   57.51610    4.50240    4.79210    4.79210    0.13820    -999.25    0.13820 2668.29370    7.55030 -111.57870  -59.69630    7.55030 28936.16380 15847.98210
 1950.00000  239.83940  243.86590  239.83940   24.82690   12.83760 2697.00490   -0.00500    -999.25    0.00760   40.27890   12.83760  184.00560  184.00560   49.10260   59.22550   49.10260   40.27890   41.84530   41.84530    0.03870    -999.25    0.03870 2697.00490   59.04120  -68.05210  -16.04030   59.04120 29861.11370 17252.19540
 2000.00000  237.73060  236.99320  237.73060   39.68190   43.75930 2749.53710   -0.02690    -999.25   -0.02310   25.20040   43.75930  185.56180  185.56180   47.72470   53.78420   47.72470   25.20040   26.16640   26.16640    0.05160    -999.25    0.05160 2749.53710   33.10400  -62.67460  -10.53340   33.10400 30442.67510 17596.57180
 2050.00000  238.03200  239.83900  238.03200   21.62390   39.02240 2715.93750   -0.01550    -999.25   -0.00350   46.24520   39.02240  193.86450  193.86450   67.86890   73.44350   67.86890   46.24520   48.36450   48.36450    0.06270    -999.25    0.06270 2715.93750   66.24700  -53.86340   -1.59280   66.24700 30906.01780 18015.61160
 2100.00000  245.68640  243.71620  245.68640    8.13620   37.81850 2729.79170   -0.02550    -999.25   -0.01160  122.90700   37.81850  164.82210  164.82210   15.06830   18.07570   15.06830  122.90700   93.84350   93.84350    0.01360    -999.25    0.01360 2729.79170  189.02270 -129.83790  -76.29850  189.02270 31224.11770 19249.66620
 2150.00000  247.93410  241.81150  247.93410    1.66770   48.87840 2706.68800   -0.00860    -999.25    0.00190  599.64110   48.87840  159.49650  159.49650   16.90200   22.38610   16.90200  599.64110  694.31040  694.31040    0.00240    -999.25    0.00240 2706.68800 1383.14810 -149.51160  -94.58530 1383.14810 31933.93510 19951.35350
 2200.00000  255.94140  249.55600  255.94140    4.57900   89.87310 2726.04030   -0.02290    -999.25   -0.00940  218.38670   89.87310  162.04520  162.04520   13.06770   17.97230   13.06770  218.38670   99.66840   99.66840    0.00190    -999.25    0.00190 2726.04030  292.45140 -173.06610 -116.75290  292.45140 32548.69320 20080.69940
 2250.00000  230.15140  238.11160  230.15140   17.73370   47.35900 2735.18480   -0.02230    -999.25   -0.01470   56.38980   47.35900  158.84900  158.84900   13.57510   18.40450   13.57510   56.38980   72.51890   72.51890    0.00810    -999.25    0.00810 2735.18480  188.51910 -200.00000 -142.29990  188.51910 33095.02280 21019.17850
 2300.00000  229.97510  224.54320  229.97510   18.79730   31.82550 2802.37210   -0.06750    -999.25   -0.05400   53.19920   31.82550  157.35770  157.35770   19.68590   26.30950   19.68590   53.19920   73.85360   73.85360    0.03930    -999.25    0.03930 2802.37210  143.85430 -172.37430 -113.28720  143.85430 34194.05300 21815.92480
 2350.00000  236.69700  235.27460  236.69700   11.39010   13.50550 2717.32760   -0.02250    -999.25   -0.00430   87.79580   13.50550  172.13830  172.13830   33.26120   37.23580   33.26120   87.79580   96.84700   96.84700    0.03340    -999.25    0.03340 2717.32760  162.18240  -89.20340  -28.72940  162.18240 34379.46640 22347.42990
 2400.00000  245.30010  242.79700  245.30010   68.17420   30.96930 2659.16770    0.02440    -999.25    0.02970   14.66830   30.96930  199.49920  199.49920   58.96960   65.12210   58.96960   14.66830   15.14670   15.14670    0.14660    -999.25    0.14660 2659.16770   16.54790  -76.72530  -14.86440   16.54790 36725.14760 22316.66470
 2450.00000  233.50200  231.55740  233.50200   26.28250   40.38090 2640.60600    0.02850    -999.25    0.04060   38.04810   40.38090  226.84450  226.84450   89.20500   98.01140   89.20500   38.04810   44.20440   44.20440    0.21620    -999.25    0.21620 2640.60600   63.81420  -65.12050   -2.10710   63.81420 36194.03480 23286.58120
 2500.00000  252.24490  237.39720  252.24490   56.93820  215.72410 2757.13750   -0.04260    -999.25   -0.02760   17.56290  215.72410  199.69370  199.69370   57.65600   58.72240   57.65600   17.56290   21.06700   21.06700    0.09300    -999.25    0.09300 2757.13750   35.81000  -71.66320   -9.75780   35.81000 39622.27340 23312.06100
 2550.00000  247.62870  235.96400  247.62870   73.75880  105.19240 2759.93680   -0.04490    -999.25   -0.02920   13.55770  105.19240  202.59840  202.59840   80.87880   82.11870   80.87880   13.55770   14.83860   14.83860    0.15750    -999.25    0.15750 2759.93680   20.71170  -68.97880   -8.18130   20.71170 37171.29040 24660.34330
 2600.00000  234.87950  246.03990  234.87950  102.90500   46.65580 2728.17260   -0.02050    -999.25   -0.01060    9.71770   46.65580  223.40190  223.40190  104.22610  102.30780  104.22610    9.71770   10.45720   10.45720    0.18870    -999.25    0.18870 2728.17260   14.49190  -63.39320   -3.74390   14.49190 38139.64730 25112.61130
 2650.00000  231.60530  239.82020  231.60530  130.11520   24.40250 2685.30050    0.00530    -999.25    0.01440    7.68550   24.40250  231.02460  231.02460   96.53460  112.43910   96.53460    7.68550    8.27140    8.27140    0.22210    -999.25    0.22210 2685.30050   11.33430  -63.21070   -5.72830   11.33430 38850.79390 25160.60090
 2700.00000  239.36160  237.13870  239.36160   40.11830   28.20960 2695.87400   -0.00250    -999.25    0.00830   24.92630   28.20960  189.73390  189.73390   57.32050   66.52060   57.32050   24.92630   26.78580   26.78580    0.13290    -999.25    0.13290 2695.87400   36.33180  -62.10950   -6.79410   36.33180 39060.49020 26118.34580
 2750.00000  235.53680  236.83150  235.53680   12.25500   30.99580 2766.56450   -0.04400    -999.25   -0.03310   81.59910   30.99580  176.58350  176.58350   46.39350   52.16500   46.39350   81.59910  101.90180  101.90180    0.09890    -999.25    0.09890 2766.56450  142.08950  -50.01900   -4.71260  142.08950 39120.38010 25836.13990
