~Version ---------------------------------------------------
VERS.      2.0 : CWLS log ASCII Standard -VERSION 2.0
WRAP.       NO : One line per depth step
CREA. 12/21/17 : LAS Creation Date
~Well ------------------------------------------------------
STRT.FT                       650.0 : START DEPTH
STOP.FT                     10100.0 : STOP DEPTH
STEP.FT                    50.00000 : STEP LENGTH
NULL.                       -999.25 : NULL VALUE
COMP.        CALIFORNIA STANDARD CO : COMPANY
WELL. CALSTAN B A KAYBOB 2-27-63-19 : WELL
FLD .                               : FIELD
LOC .                               : LOCATION
CTRY.                        CANADA : COUNTRY
SRVC.                       Unknown : SERVICE COMPANY
DATE.                   05-Jul-1959 : LOGDATE
PROV.                       Alberta : PROVINCE
UWI .              100022706319W500 : UNIQUE WELL ID
SLAT.WGS84                  54.4744 : SURFACE LATITUDE
SLON.WGS84                -116.7821 : SURFACE LONGITUDE
~Curve Information -----------------------------------------
DEPT  .FT    : Depth Curve
CALWS .IN    : CALIPER [MCALED]
CILDED.MMHO  : CONDUCTIVITY FROM IE RESISTIVITY LOG
CONDWS.MMHO  : CONDUCTIVITY [1000/DRESWS]
DRESWS.OHMM  : DEEP RESISTIVITY [ILDED]
GRED  .CU    : GAMMA RAY FROM CASED HOLE GAMMA RAY LOG
GRNED .CU    : GAMMA RAY FROM CASED HOLE NEUTRON GAMMA RAY LOG
GRWS  .GAPI  : GAMMA RAY [GRNED, IN PSEUDO API UNIT]
ILDED .OHMM  : INDUCTION LOG DEEP RESISTIVITY FROM IEL
MCALED.IN    : CALIPER MICROLOG
NEUTED.CU    : NEUTRON FROM CASED HOLE NEUTRON GAMMA RAY LOG
NEUTWS.CU    : NEUTRON [NEUTED]
SNED  .OHMM  : 16 INCH SHORT NORMAL RESISTIVITY FROM IEL
SPRED .MV    : SPONTANEOUS POTENTIAL FROM RESISTIVITY LOG
SPWS  .MV    : SPONTANEOUS POTENTIAL [BASELINE 0 MV] [SPRED]
SRESWS.OHMM  : SHALLOW RESISTIVITY [SNED]
~Params ----------------------------------------------------
PD  .                     GL : PERMANENT DATUM
LMF .                     KB : LOG MEASURED FROM
DAPD.FT                   11 : FEET ABOVE PERMANENT DATUM
DMF .                     KB : DRILLING MEASURED FROM
EKB .FT                 2611 : KELLY BUSHING
EGL .FT                 2600 : GROUND LEVEL
DATE.               07/05/59 : RUN DATE
RUN .                      1 : RUN NUMBER
DD  .FT                10111 : DEPTH DRILLER
DL  .FT                10113 : DEPTH LOGGER
BLI .FT                10108 : BOTTOM LOG INTERVAL
TLI .FT                  633 : TOP LOG INTERVAL
CBD .FT                636.6 : CASING BOTTOM DRILLER
CBL .FT                  633 : CASING BOTTOM LOGGER
BS  .IN                6.125 : BIT SIZE
BSD .FT                10111 : BIT SIZE AT DEPTH
DFT .       GEL OIL EMULSION : DRILLING FLUID TYPE
DFD .                   10.4 : DRILLING FLUID DENSITY
DFV .                    122 : DRILLING FLUID VISCOSITY
DFPH.                    9.5 : DRILLING FLUID PH
DFL .                      7 : DRILLING FLUID LOSS
RMS .OHMM               2.13 : RESISTIVITY MUD SAMPLE
MST .DEGF                 83 : MUD SAMPLE TEMPERATURE
RMF .OHMM               1.99 : RESISTIVITY MUD FILTRATE SAMPLE
MFST.DEGF                 73 : MUD FILTRATE SAMPLE TEMPERATURE
RMC .OHMM               2.87 : RESISTIVITY MUD CAKE
MCST.DEGF                 72 : MUD CAKE SAMPLE TEMPERATURE
TCS .HRS                 3.5 : TIME CIRCULATED STOPPED
LUN .                  1573C : LOGGING UNIT NUMBER
LUL .                     WC : LOGGING UNIT LOCATION
ENGI.              HAUSEGGER : RECORDING ENGINEER
WITN.                  SMITH : WITNESSED BY
CLNT.                A2DTECH : CLIENT CODE
ORIG.            2" 5" PRINT : ORIGIN OF DATA
UWI .       100022706319W500 : UNIQUE WELL ID
DICO. A2D Technologies, Inc. : DIGITIZING COMPANY
~Other -----------------------------------------------------
ALL CURVES FROM IEL ARE FROM THE LINEAR SCALE OF 5" LOG IMAGE
CU=COMPANY UNIT (NO UNIT FOR GR & GRN CURVES IN THE LOG)
~ASCII -----------------------------------------------------
# ...
 7550.00000    8.56610   61.82860   57.51820   17.38580    -999.25    -999.25    -999.25   17.38580    8.56610    -999.25    -999.25   27.97560 -111.23530  -63.36910   27.97560
 7600.00000    8.79060    7.60980    3.81980  261.79200    -999.25    -999.25    -999.25  261.79200    8.79060    -999.25    -999.25  172.94600  -97.25980  -51.51100  172.94600
 7650.00000    8.60180   11.57050    7.11600  140.52910    -999.25    -999.25    -999.25  140.52910    8.60180    -999.25    -999.25  151.72700  -96.91970  -53.28840  151.72700
 7700.00000    9.39270   12.95940    9.25580  108.04000    -999.25    -999.25    -999.25  108.04000    9.39270    -999.25    -999.25  160.62350 -150.62740 -109.11350  160.62350
 7750.00000    9.67650   10.74190    6.85970  145.77830    -999.25    -999.25    -999.25  145.77830    9.67650    -999.25    -999.25  123.11400 -164.09220 -124.69570  123.11400
 7800.00000   10.39890   14.22240   10.25370   97.52580    -999.25    -999.25    -999.25   97.52580   10.39890    -999.25    -999.25  125.54550 -164.80670 -127.52760  125.54550
 7850.00000   13.97300   17.04310   13.36120   74.84360    -999.25    -999.25    -999.25   74.84360   13.97300    -999.25    -999.25  112.35890 -204.95610 -169.79450  112.35890
 7900.00000    9.90460   19.25180   15.46100   64.67880    -999.25    -999.25    -999.25   64.67880    9.90460    -999.25    -999.25   98.92480 -232.88030 -199.83610   98.92480
 7950.00000   12.16730   12.44170    7.99660  125.05350    -999.25    -999.25    -999.25  125.05350   12.16730    -999.25    -999.25   89.45670 -188.22520 -157.29840   89.45670
 8000.00000   12.29880    8.47710    5.60420  178.43650    -999.25    -999.25    -999.25  178.43650   12.29880    -999.25    -999.25  122.17040 -200.58440 -171.77510  122.17040
 8050.00000   11.46980    7.60140    4.91590  203.42230    -999.25    -999.25    -999.25  203.42230   11.46980    -999.25    -999.25  122.80740 -206.77470 -180.08280  122.80740
 8100.00000   10.72760    9.87630    5.43950  183.83970    -999.25    -999.25    -999.25  183.83970   10.72760    -999.25    -999.25  119.32130 -220.76190 -196.18740  119.32130
 8150.00000   10.67890    9.05740    6.84770  146.03340    -999.25    -999.25    -999.25  146.03340   10.67890    -999.25    -999.25   87.55950 -207.51210 -185.05500   87.55950
 8200.00000    9.96910   21.23360   16.73710   59.74760    -999.25    -999.25    -999.25   59.74760    9.96910    -999.25    -999.25   63.13950 -191.75370 -171.41410   63.13950
 8250.00000    7.55190   57.65650   54.88440   18.22010    -999.25    -999.25    -999.25   18.22010    7.55190    -999.25    -999.25   64.98580 -293.05780 -274.83560   64.98580
 8300.00000   10.76830    9.08560    6.03150  165.79730    -999.25    -999.25    -999.25  165.79730   10.76830    -999.25    -999.25   94.15320 -245.11160 -229.00680   94.15320
 8350.00000    8.80650   16.83710   12.46590   80.21900    -999.25    -999.25    -999.25   80.21900    8.80650    -999.25    -999.25   93.25550 -223.09010 -209.10280   93.25550
 8400.00000    9.02310   14.14380   10.57390   94.57250    -999.25    -999.25    -999.25   94.57250    9.02310    -999.25    -999.25   92.15520 -253.65410 -241.78420   92.15520
 8450.00000   10.62750   26.96580   25.25410   39.59760    -999.25    -999.25    -999.25   39.59760   10.62750    -999.25    -999.25   36.42590 -233.96150 -224.20900   36.42590
 8500.00000   10.71640    8.64840    5.20000  192.30610    -999.25    -999.25    -999.25  192.30610   10.71640    -999.25    -999.25   84.39440 -257.02570 -249.39060   84.39440
 8550.00000   10.54130   15.05210   11.28370   88.62320    -999.25    -999.25    -999.25   88.62320   10.54130    -999.25    -999.25   79.96640    -999.25    -999.25   79.96640
 8600.00000    9.07870    5.70170   12.26720   81.51800    -999.25    -999.25    -999.25   81.51800    9.07870    -999.25    -999.25   84.40480 -212.43180 -209.03160   84.40480
 8650.00000    9.55310   21.13400   17.52340   57.06650    -999.25    -999.25    -999.25   57.06650    9.55310    -999.25    -999.25   74.32560 -170.55730 -169.27450   74.32560
 8700.00000    9.75740   50.79800   49.09280   20.36960    -999.25    -999.25    -999.25   20.36960    9.75740    -999.25    -999.25   28.55430 -131.56150 -132.39620   28.55430
 8750.00000   10.46680   94.67490   96.65200   10.34640    -999.25    -999.25    -999.25   10.34640   10.46680    -999.25    -999.25   16.91650  -99.70220 -102.65430   16.91650
 8800.00000   11.22320   97.38590  100.62590    9.93780    -999.25    -999.25    -999.25    9.93780   11.22320    -999.25    -999.25   14.77090 -134.21890 -139.28840   14.77090
 8850.00000    9.28590   50.00290   46.94570   21.30120    -999.25    -999.25    -999.25   21.30120    9.28590    -999.25    -999.25   29.51930 -127.24010 -134.42710   29.51930
 8900.00000    9.64830   93.02660   96.34840   10.37900    -999.25    -999.25    -999.25   10.37900    9.64830    -999.25    -999.25   17.27600 -123.00360 -132.30800   17.27600
 8950.00000    9.10650   72.46340   72.62270   13.76980   26.96640    -999.25    -999.25   13.76980    9.10650    -999.25    -999.25   24.27260 -131.02850 -142.45030   24.27260
 9000.00000    9.12940  116.62370  117.32410    8.52340   44.13760    -999.25    -999.25    8.52340    9.12940    -999.25    -999.25   13.49220 -134.34550 -147.88470   13.49220
 9050.00000   13.80360  223.28010  228.53490    4.37570   52.71550    -999.25    -999.25    4.37570   13.80360    -999.25    -999.25    6.62910 -146.69980 -162.35650    6.62910
 9100.00000   14.59530  225.77110  225.87640    4.42720   51.11400    -999.25    -999.25    4.42720   14.59530    -999.25    -999.25    6.52590 -162.20920 -179.98330    6.52590
 9150.00000   14.91060  178.27950  182.39850    5.48250   50.97150    -999.25    -999.25    5.48250   14.91060    -999.25    -999.25    7.63720 -187.55630 -207.44780    7.63720
 9200.00000   15.80010  229.59790  228.16460    4.38280   49.73340    -999.25    -999.25    4.38280   15.80010    -999.25    -999.25    6.11030 -152.96080 -174.96980    6.11030
 9250.00000    9.04840   79.27590   79.90220   12.51530   38.63140    -999.25    -999.25   12.51530    9.04840    -999.25    -999.25   19.05530  -92.76860 -116.89500   19.05530
 9300.00000    9.08160   91.77270   93.03450   10.74870   53.63590    -999.25    -999.25   10.74870    9.08160    -999.25    -999.25   16.48920 -162.73970 -188.98350   16.48920
 9350.00000    9.05950   68.33030   63.96150   15.63440   47.50180    -999.25    -999.25   15.63440    9.05950    -999.25    -999.25   22.00720 -172.14000 -200.50120   22.00720
 9400.00000    9.20500  135.40710  136.44050    7.32920   65.01360    -999.25    -999.25    7.32920    9.20500    -999.25    -999.25   11.67140 -101.53880 -132.01750   11.67140
 9450.00000    9.04370  109.42840  115.23920    8.67760   56.89550    -999.25    -999.25    8.67760    9.04370  103.45810  103.45810   13.22050  -59.68730  -92.28340   13.22050
 9500.00000   10.23560  130.38310  131.10110    7.62770   64.67240    -999.25    -999.25    7.62770   10.23560   87.46610   87.46610   12.21390   21.21840  -13.49510   12.21390
 9550.00000    9.12020  122.94380  124.31630    8.04400   48.91410    -999.25    -999.25    8.04400    9.12020  118.00380  118.00380   12.52260  -12.76330  -48.49320   12.52260
 9600.00000    8.82150    7.85900    3.06060  326.73120   69.85120   90.05790   90.05790  326.73120    8.82150  139.09100  139.09100  148.79180  -17.92200  -53.65190  148.79180
 9650.00000    8.77080   13.11610   10.76230   92.91670   60.54130   87.05920   87.05920   92.91670    8.77080  140.83240  140.83240   89.35540  -45.21510  -80.94500   89.35540
 9700.00000    8.96960   23.64390   17.76030   56.30530   32.42860   42.68710   42.68710   56.30530    8.96960  126.92820  126.92820   80.89320   -2.34090  -38.07080   80.89320
 9750.00000   10.78060  109.72360  112.36970    8.89920   61.87520   74.36660   74.36660    8.89920   10.78060   29.31980   29.31980   15.15380  -53.21600  -88.94590   15.15380
 9800.00000    8.97650   19.41110   16.28580   61.40330   21.25750   39.73520   39.73520   61.40330    8.97650  122.54710  122.54710   81.15270  -27.09680  -62.82670   81.15270
