~Version ---------------------------------------------------
VERS.      2.0 : CWLS log ASCII Standard -VERSION 2.0
WRAP.       NO : One line per depth step
CREA. 12/11/17 : LAS Creation Date
~Well ------------------------------------------------------
STRT.FT                          1000.0 : START DEPTH
STOP.FT                         10450.0 : STOP DEPTH
STEP.FT                        50.00000 : STEP LENGTH
NULL.                           -999.25 : NULL VALUE
COMP.     CANADIAN SUPERIOR OIL COMPANY : COMPANY
WELL. CDN-SUP CEGO FOX CR 10-11SH-62-18 : WELL
FLD .                                   : FIELD
LOC .                                   : LOCATION
CTRY.                            CANADA : COUNTRY
SRVC.                      Schlumberger : SERVICE COMPANY
DATE.                       29-Mar-1977 : LOGDATE
PROV.                           Alberta : PROVINCE
UWI .                  102101106218W500 : UNIQUE WELL ID
SLAT.WGS84                     54.35151 : SURFACE LATITUDE
SLON.WGS84                    -116.5828 : SURFACE LONGITUDE
~Curve Information -----------------------------------------
DEPT    .FT    : Depth Curve
CALDED  .IN    : CALIPER) FROM DENSITY LOG [ADJ. TO RESISTIVITY LOG]
CALSED  .IN    : CALIPER) FROM SONIC LOG [ADJ. TO RESISTIVITY LOG]
CALWS   .IN    : CALIPER [CALDED]
CILDED  .MMHO  : CONDUCTIVITY FROM RESISTIVITY LOG
CONDWS  .MMHO  : CONDUCIVITY [1000/DRESWS]
DCORED  .G/C3  : DENSITY CORRECTION FROM DENSITY LOG [ADJ. TO RESISTIVITY LOG]
DCORWS  .G/C3  : DENSITY CORRECTION [DCORED]
DENWS   .G/C3  : FORMATION BULK DENSITY [RHOBED]
DPOLSWS .V/V   : DENSITY POROSITY LIMESTONE [CALC. FROM DENWS M=2.71, F=1.00]
DPORLSED.V/V   : DENSITY POROSITY LIMESTONE [M=2.71, F=1.00] FROM DENSITY LOG [ADJ. TO RESISTIVITY LOG]
DPORSSED.V/V   : DENSITY POROSITY SANDSTONE [M=2.65, F=1.00] FROM DENSITY LOG [ADJ. TO RESISTIVITY LOG]
DRESWS  .OHMM  : DEEP RESISTIVITY [ILDED]
DTED    .US/F  : DELTA-T FROM SONIC LOG [ADJ. TO RESISTIVITY LOG]
DTWS    .US/F  : COMPRESSIONAL SONIC [DTED]
GRDED   .GAPI  : GAMMA RAY FROM DENSITY LOG [ADJ. TO RESISTIVITY LOG]
GRSED   .GAPI  : GAMMA RAY FROM SONIC LOG [ADJ. TO RESISTIVITY LOG]
GRWS    .GAPI  : GAMMA RAY [GRSED SPL. TO GRDED @ 1070']
ILDED   .OHMM  : DEEP INDUCTION FROM RESISTIVITY LOG
ILMED   .OHMM  : MEDIUM INDUCTION FROM RESISTIVITY LOG
LL8ED   .OHMM  : LATEROLOG-8 FROM RESISTIVITY LOG
MRESWS  .OHMM  : MEDIUM RESISTIVITY [ILMED]
NPOLSWS .V/V   : NEUTRON POROSITY LIMESTONE [NPHISSED MATRIX CONVERSION FOR LIMESTONE, SPL. TO NPHILSED @ 6496']
NPORLSED.V/V   : NEUTRON POROSITY LIMESTONE FROM DENISTY LOG [ADJ. TO RESISTIVITY LOG]
NPORSSED.V/V   : NEUTRON POROSITY SANDSTONE FROM DENSITY LOG [ADJ. TO RESISTIVITY LOG]
RHOBED  .G/C3  : BULK DENSITY FROM DENSITY LOG [ADJ. TO RESISTIVITY LOG]
SPRED   .MV    : SPONTANEOUS POTENTIAL FROM RESISTIVITY LOG
SPWS    .MV    : SPONTANEOUS POTENTIAL [BASELINE 0 MV, SPRED]
SRESWS  .OHMM  : SHALLOW RESISTIVITY [LL8ED]
~Params ----------------------------------------------------
PD  .                     GL : PERMANENT DATUM
EPD .FT                 2963 : ELEVATION PERMANENT DATUM
LMF .                     KB : LOG MEASURED FROM
DAPD.FT                   13 : FEET ABOVE PERMANENT DATUM
EKB .FT                 2976 : KELLY BUSHING
EGL .FT                 2963 : GROUND LEVEL
DATE.               03/29/77 : RUN DATE
RUN .                      1 : RUN NUMBER
DD  .FT                10475 : DEPTH DRILLER
DL  .FT                10478 : DEPTH LOGGER
BLI .FT                10472 : BOTTOM LOG INTERVAL
TLI .FT                 1071 : TOP LOG INTERVAL
CBD .FT                 1070 : CASING BOTTOM DRILLER
CBL .FT                 1071 : CASING BOTTOM LOGGER
BS  .IN                 8.75 : BIT SIZE
BSD .FT                10475 : BIT SIZE AT DEPTH
DFT .               GEL CHEM : DRILLING FLUID TYPE
DFD .                    9.2 : DRILLING FLUID DENSITY
DFV .                     81 : DRILLING FLUID VISCOSITY
DFPH.                    9.5 : DRILLING FLUID PH
DFL .                      8 : DRILLING FLUID LOSS
MSS .             CIRCULATED : MUD SAMPLE SOURCE
RMS .OHMM                1.1 : RESISTIVITY MUD SAMPLE
MST .DEGF                 62 : MUD SAMPLE TEMPERATURE
RMF .OHMM               0.76 : RESISTIVITY MUD FILTRATE SAMPLE
MFST.DEGF                 62 : MUD FILTRATE SAMPLE TEMPERATURE
TCS .HRS                   4 : TIME CIRCULATED STOPPED
LUN .                   7690 : LOGGING UNIT NUMBER
LUL .                    EDM : LOGGING UNIT LOCATION
ENGI.                WOROWUK : RECORDING ENGINEER
WITN.                  KELLY : WITNESSED BY
CLNT.                A2DTECH : CLIENT CODE
ORIG.            2" 5" PRINT : ORIGIN OF DATA
UWI .       102101106218W500 : UNIQUE WELL ID
DICO. A2D Technologies, Inc. : DIGITIZING COMPANY
~Other -----------------------------------------------------
DIL-BHC-CNL-FDC LOG RUN
SCH(CNL-NPHI) USED FOR NEUTRON MATRIX CONVERSION
CILD DIG'ED FROM 2" LINEAR LOG
~ASCII -----------------------------------------------------
# ...
 7250.00000    9.30390    9.28130    9.30390    -999.25   84.53090    0.10940    0.10940    2.75150   -0.02430   -0.01680    -999.25   11.83000   62.92360   62.92360   82.26440   59.23070   82.26440   11.83000   11.19770   15.35200   11.19770    0.12550    0.12550    -999.25    2.75150  -99.16100   -6.25750   15.35200
 7300.00000   10.50350    9.56720   10.50350    -999.25   73.37300    0.04710    0.04710    2.70140    0.00500    0.00870    -999.25   13.62900   53.68870   53.68870   29.87300   18.12540   29.87300   13.62900   16.27020   41.13210   16.27020    0.04940    0.04940    -999.25    2.70140  -97.22830  -11.91010   41.13210
 7350.00000    9.19010    9.27570    9.19010    -999.25   12.15800    0.02040    0.02040    2.64770    0.03640    0.02640    -999.25   82.25010   54.47860   54.47860   34.24230   21.97880   34.24230   82.25010   88.97980  142.99750   88.97980    0.02770    0.02770    -999.25    2.64770  -85.95980   -5.57140  142.99750
 7400.00000   11.70310    9.89620   11.70310    -999.25   11.31070    0.16960    0.16960    2.61360    0.05640    0.05380    -999.25   88.41200   51.00830   51.00830   12.70620    8.77020   12.70620   88.41200  109.76440  279.03160  109.76440    0.00710    0.00710    -999.25    2.61360  -89.22040   -8.02500  279.03160
 7450.00000    8.93030    8.97010    8.93030    -999.25    7.37260    0.01230    0.01230    2.67230    0.02200    0.02090    -999.25  135.63770   52.17300   52.17300   19.86390   14.59950   19.86390  135.63770  152.79890  240.08220  152.79890    0.01410    0.01410    -999.25    2.67230 -114.58670  -32.57890  240.08220
 7500.00000    8.93260    8.92600    8.93260    -999.25    9.19460    0.04630    0.04630    2.71030   -0.00020   -0.00300    -999.25  108.75890   53.02080   53.02080   20.07880   15.71940   20.07880  108.75890  116.73050  172.19360  116.73050    0.01540    0.01540    -999.25    2.71030 -115.06000  -32.24510  172.19360
 7550.00000    8.93670    8.94480    8.93670    -999.25    9.73380    0.03240    0.03240    2.69650    0.00790    0.00740    -999.25  102.73500   52.39180   52.39180   21.79030   12.51120   21.79030  102.73500  102.68110  155.77170  102.68110    0.01510    0.01510    -999.25    2.69650 -120.01400  -36.39210  155.77170
 7600.00000    8.93050    8.90090    8.93050    -999.25    7.77950    0.03150    0.03150    2.70470    0.00310   -0.00440    -999.25  128.54280   52.82710   52.82710   26.15840   16.67100   26.15840  128.54280  136.04660  275.51450  136.04660    0.01560    0.01560    -999.25    2.70470 -117.09410  -32.65980  275.51450
 7650.00000    8.93380    8.81060    8.93380    -999.25    2.39920    0.02360    0.02360    2.69560    0.00840    0.00330    -999.25  416.81250   50.93000   50.93000   18.75940   13.05440   18.75940  416.81250  617.55400 1401.65380  617.55400    0.00840    0.00840    -999.25    2.69560 -133.61850  -48.37710 1401.65380
 7700.00000    8.97400    8.87970    8.97400    -999.25    8.05510    0.01640    0.01640    2.65740    0.03080    0.03130    -999.25  124.14470   55.61420   55.61420   42.84010   29.45440   42.84010  124.14470  125.31630  340.18340  125.31630    0.02940    0.02940    -999.25    2.65740  -99.44420  -13.39050  340.18340
 7750.00000    9.16640    9.05540    9.16640    -999.25   11.70940    0.02490    0.02490    2.68940    0.01200    0.00570    -999.25   85.40140   57.02720   57.02720   57.79110   40.88040   57.79110   85.40140   91.11740  155.87800   91.11740    0.05880    0.05880    -999.25    2.68940 -107.81800  -20.95720  155.87800
 7800.00000    8.97140    8.96250    8.97140    -999.25    5.19130    0.04090    0.04090    2.72280   -0.00750   -0.02330    -999.25  192.62890   67.79850   67.79850  196.09430  178.04810  196.09430  192.62890 1876.35890 1412.46570 1876.35890    0.00610    0.00610    -999.25    2.72280 -107.54640  -20.30140 1412.46570
 7850.00000   10.36190    8.98120   10.36190    -999.25    2.59010    0.16410    0.16410    2.65260    0.03360    0.03170    -999.25  386.07910   50.73420   50.73420   11.57470    7.56330   11.57470  386.07910  405.55110 1356.62230  405.55110    0.00160    0.00160    -999.25    2.65260 -163.98370  -78.15720 1356.62230
 7900.00000   10.42310    9.04880   10.42310    -999.25    1.95910    0.24740    0.24740    2.70700    0.00180    0.00750    -999.25  510.44380   48.80910   48.80910   13.22040    9.31500   13.22040  510.44380  471.70790 1404.16850  471.70790    0.00150    0.00150    -999.25    2.70700 -159.23200  -74.81480 1404.16850
 7950.00000   10.98560    9.40930   10.98560    -999.25    2.48130    0.25000    0.25000    2.66290    0.02750    0.03110    -999.25  403.01480   49.41920   49.41920   11.37700    9.12750   11.37700  403.01480  235.79060 1366.31920  235.79060    0.00070    0.00070    -999.25    2.66290 -171.78520  -88.78660 1366.31920
 8000.00000   11.99790    9.31060   11.99790    -999.25    2.81510    0.23200    0.23200    2.66990    0.02340    0.01950    -999.25  355.22500   49.72120   49.72120    9.94020    6.02840    9.94020  355.22500  177.54170  553.96200  177.54170    0.00020    0.00020    -999.25    2.66990 -174.22320  -92.63380  553.96200
 8050.00000   11.93430    9.45570   11.93430    -999.25    2.39660    0.25000    0.25000    2.58200    0.07490    0.07370    -999.25  417.25440   48.51770   48.51770   10.95170    6.03250   10.95170  417.25440  162.73790  760.95230  162.73790    0.00350    0.00350    -999.25    2.58200 -179.35720  -99.17710  760.95230
 8100.00000   12.57140    9.44830   12.57140    -999.25    2.45060    0.23520    0.23520    2.54690    0.09540    0.09360    -999.25  408.05710   49.62450   49.62450    8.71430    6.51740    8.71430  408.05710  119.81180  902.21960  119.81180    0.00030    0.00030    -999.25    2.54690 -187.98450 -109.22300  902.21960
 8150.00000    9.45830    9.22460    9.45830    -999.25    3.90800    0.20030    0.20030    2.74580   -0.02090   -0.02630    -999.25  255.88720   48.83900   48.83900    7.83590    4.09530    7.83590  255.88720   93.70840  671.10990   93.70840   -0.00060   -0.00060    -999.25    2.74580 -175.55580  -98.20350  671.10990
 8200.00000   11.40100    9.45290   11.40100    -999.25    3.87920    0.23590    0.23590    2.59250    0.06870    0.06620    -999.25  257.78580   48.23230   48.23230    9.74670    5.67040    9.74670  257.78580   94.39090  260.94070   94.39090    0.00040    0.00040    -999.25    2.59250 -172.85250  -96.91880  260.94070
 8250.00000   11.99840    9.47180   11.99840    -999.25    1.39280    0.25000    0.25000    2.48530    0.13140    0.13060    -999.25  717.97940   49.29430   49.29430   12.21100    8.50190   12.21100  717.97940  231.27570  690.62520  231.27570    0.00560    0.00560    -999.25    2.48530 -171.63840  -97.11400  690.62520
 8300.00000   12.08060    9.44560   12.08060    -999.25    3.19430    0.23460    0.23460    2.49020    0.12850    0.13090    -999.25  313.05560   49.18530   49.18530   13.57720    9.46770   13.57720  313.05560  147.31900  683.00740  147.31900    0.00560    0.00560    -999.25    2.49020 -170.14350  -97.02830  683.00740
 8350.00000   12.23030    9.43260   12.23030    -999.25    2.42570    0.25000    0.25000    2.53010    0.10520    0.10060    -999.25  412.25270   52.14220   52.14220   10.69880    6.57240   10.69880  412.25270  526.15250  402.65090  526.15250   -0.00030   -0.00030    -999.25    2.53010 -175.00480 -103.30820  402.65090
 8400.00000   10.98110    9.26040   10.98110    -999.25   21.83000    0.20870    0.20870    2.67480    0.02060    0.01920    -999.25   45.80850   50.30510   50.30510   10.25690    5.20870   10.25690   45.80850   47.59940  101.43490   47.59940    0.00830    0.00830    -999.25    2.67480 -178.63810 -108.35080  101.43490
 8450.00000    9.68930    9.09820    9.68930    -999.25    9.42900    0.04580    0.04580    2.67780    0.01880    0.01260    -999.25  106.05550   48.99460   48.99460    9.33920    5.97480    9.33920  106.05550   89.31410  129.58950   89.31410    0.00550    0.00550    -999.25    2.67780 -163.79660  -94.92780  129.58950
