~Version ---------------------------------------------------
VERS. 2.0 : CWLS log ASCII Standard -VERSION 2.0
WRAP.  NO : ONE LINE PER DEPTH STEP
~Well ------------------------------------------------------
STRT.F                                950.0 : START DEPTH
STOP.F                               9500.0 : STOP DEPTH
STEP.F                             50.00000 : STEP LENGTH
NULL.                               -999.25 : NULL VALUE
COMP.                 TEXACO CANADA LIMITED : COMPANY
WELL. TEXACO AMERADA SNIPE LAKE 14-29-69-19 : WELL
FLD .                                       : FIELD
LOC .                                       : LOCATION
CTRY.                                CANADA : COUNTRY
SRVC.                Schlumberger of Canada : SERVICE COMPANY
DATE.                           13-Mar-1960 : LOGDATE
PROV.                               Alberta : PROVINCE
UWI .                      100142906919W500 : UNIQUE WELL ID
SLAT.WGS84                         55.00866 : SURFACE LATITUDE
SLON.WGS84                        -116.8632 : SURFACE LONGITUDE
~Curve Information -----------------------------------------
DEPT .F                 : 
NEUT .NAPI 35 330 01 00 : NEUTRON
GRN  .GAPI 35 310 01 00 : GAMMA RAY FROM GRN LOG
MCAL .IN   15 280 01 00 : MLT (MICROLOG) CALIPER
DT   .US/F 60 500 33 00 : DELTA-T (INTERVAL TRANSIT TIME)
CILD .MMHO 05 110 46 00 : INDUCTION DEEP CONDUCTIVITY
ILD  .OHMM 05 120 46 00 : INDUCTION DEEP RESISTIVITY
SN   .OHMM 05 040 16 00 : SHORT NORMAL RESISTIVITY
SPR  .MV   05 010 01 00 : SPONTANEOUS POTENTIAL FROM RESISTIVITY LOG
GRN1 .GAPI 15 310 01 00 : GAMMA RAY FROM MICROLOG
NEUT1.DEC  35 330 01 00 : NEUTRON POROSITY IN SELECTED LITHOLOGY SANDSTONE
GR   .GAPI 30 310 01 00 : GAMMA RAY
~Params ----------------------------------------------------
LMF .                     KB : LOG MEASURED FROM
DMF .                     KB : DRILLING MEASURED FROM
EKB .FT                 2397 : KELLY BUSHING
DATE.               03/13/60 : RUN DATE
RUN .                      1 : RUN NUMBER
DD  .FT                 9513 : DEPTH DRILLER
DL  .FT                 9508 : DEPTH LOGGER
BLI .FT                 9503 : BOTTOM LOG INTERVAL
TLI .FT                  945 : TOP LOG INTERVAL
CBD .FT                  948 : CASING BOTTOM DRILLER
CBL .FT                  945 : CASING BOTTOM LOGGER
BS  .IN                    9 : BIT SIZE
BSD .FT                 9513 : BIT SIZE AT DEPTH
DFT .                    GEL : DRILLING FLUID TYPE
DFD .                   10.6 : DRILLING FLUID DENSITY
DFV .                    110 : DRILLING FLUID VISCOSITY
DFPH.                   10.5 : DRILLING FLUID PH
DFL .                    5.2 : DRILLING FLUID LOSS
RMS .OHMM                  3 : RESISTIVITY MUD SAMPLE
MST .DEGF                 60 : MUD SAMPLE TEMPERATURE
RMF .OHMM                1.3 : RESISTIVITY MUD FILTRATE SAMPLE
MFST.DEGF                 70 : MUD FILTRATE SAMPLE TEMPERATURE
RMC .OHMM                3.1 : RESISTIVITY MUD CAKE
MCST.DEGF                 70 : MUD CAKE SAMPLE TEMPERATURE
RMB .OHMM               0.95 : RESISTIVITY MUD AT BHT
TCS .HRS                   4 : TIME CIRCULATED STOPPED
LUN .                   2742 : LOGGING UNIT NUMBER
LUL .                     VV : LOGGING UNIT LOCATION
ENGI.                    GAU : RECORDING ENGINEER
WITN.                  IRVIN : WITNESSED BY
CLNT.                A2DTECH : CLIENT CODE
ORIG.            2" 5" PRINT : ORIGIN OF DATA
UWI .       100142906919W500 : UNIQUE WELL ID
DICO. A2D Technologies, Inc. : DIGITIZING COMPANY
~Other -----------------------------------------------------
~ASCII -----------------------------------------------------
# ...
 4000.00000    -999.25    -999.25    9.05330  113.05760  155.21020    6.95980    9.21890 -195.54710    -999.25    -999.25    -999.25
 4050.00000    -999.25    -999.25    8.46250   86.41750  158.30250    6.72090   15.73740 -257.36880    -999.25    -999.25    -999.25
 4100.00000    -999.25    -999.25    9.65330   92.30660  203.27780    4.92390    6.01340 -204.21410    -999.25    -999.25    -999.25
 4150.00000    -999.25    -999.25    9.15980   78.37620  124.87210    8.74470   14.19000 -242.62320    -999.25    -999.25    -999.25
 4200.00000    -999.25    -999.25    9.61340   87.36440  176.97080    5.85970    8.45040 -244.88040    -999.25    -999.25    -999.25
 4250.00000    -999.25    -999.25    9.71000   89.89840  196.63350    5.12470    6.41390 -215.36560   70.59040    -999.25    -999.25
 4300.00000    -999.25    -999.25   10.03970   91.65340  212.28260    4.65470    5.83430 -202.98600   72.31380  194.55580    -999.25
 4350.00000    -999.25    -999.25    9.82050   97.91860  218.20020    4.76360    5.82440 -195.56990   62.17330  143.94720    -999.25
 4400.00000    -999.25    -999.25    9.32060   85.12860  101.67030   10.78120   14.67940 -192.58930   63.79550  241.95300   61.01930
 4450.00000    -999.25    -999.25    9.24320   80.46370  115.20010    9.48950   13.30910 -204.74620   73.88600  179.22670   81.31830
 4500.00000    -999.25    -999.25    9.09530   76.27860   75.27520   16.30040   27.10660 -230.07390   45.63960  238.88690   40.23510
 4550.00000    -999.25    -999.25    9.56580   85.67050  138.55450    7.74330   11.43870 -190.18980  133.64800  194.27290  128.87910
 4600.00000    -999.25    -999.25   11.16810  110.54840  355.43070    2.60020    4.14210 -162.05440   77.58610  153.06140   80.51850
 4650.00000    -999.25    -999.25    9.18470  113.07380   40.83250   40.35490   54.89250 -152.08580  102.10820  228.64050  107.94630
 4700.00000    -999.25    -999.25    9.22880   94.51930   50.93200   30.00270   50.61360 -159.06850  144.95830  295.26500  141.77550
 4750.00000    -999.25    -999.25    9.12400   90.10920   23.54070  132.64230  107.77870 -193.04430  178.16530  247.11570  159.52130
 4800.00000    -999.25    -999.25    8.84040   75.71580  165.77550    6.38270   12.43570 -193.94540  112.45610  215.13520    -999.25
 4850.00000    -999.25    -999.25    8.56820   81.13680  213.39080    4.68720   12.99570 -213.75720   71.03430  211.34760    -999.25
 4900.00000    -999.25    -999.25    9.29370   72.54800  218.25180    4.62920    8.04350 -160.47470   59.60670  296.46210    -999.25
 4950.00000    -999.25    -999.25    8.45760   74.74620 1127.19180    0.79140    6.81470 -251.70620    -999.25    -999.25    -999.25
 5000.00000    -999.25    -999.25    8.33610   83.32500  818.78190    1.06900    4.95310 -257.63640    -999.25    -999.25    -999.25
 5050.00000    -999.25    -999.25    8.14700   63.68780  208.00090    4.86400    9.38820 -184.91080    -999.25    -999.25    -999.25
 5100.00000    -999.25    -999.25    8.40850   52.92920   79.21410   16.12920   49.24390 -266.13240    -999.25    -999.25    -999.25
 5150.00000    -999.25    -999.25    8.41770   59.95000   93.90240   12.20010   44.62320 -237.10000    -999.25    -999.25    -999.25
 5200.00000    -999.25    -999.25    9.17780   53.74900   28.46060   85.78330   69.94710 -194.25700    -999.25    -999.25    -999.25
 5250.00000    -999.25    -999.25    9.16620   56.33270   32.01450   66.27240   80.56280 -196.05980    -999.25    -999.25    -999.25
 5300.00000    -999.25    -999.25    9.94410   58.41230  104.91790   12.52760   19.90930 -121.85720    -999.25    -999.25    -999.25
 5350.00000    -999.25    -999.25    9.12700   60.66410   49.75500   28.07840   36.79090 -128.78910    -999.25    -999.25    -999.25
 5400.00000    -999.25    -999.25    9.20660   64.04770   64.11990   19.21860   27.13430 -120.72160    -999.25    -999.25    -999.25
 5450.00000    -999.25    -999.25    9.46030   65.90860  245.90850    4.24330   10.87980 -158.74800    -999.25    -999.25    -999.25
 5500.00000    -999.25    -999.25    9.31910   55.34950   64.81980   24.10340   32.47270 -179.64670    -999.25    -999.25    -999.25
 5550.00000    -999.25    -999.25    9.77970   60.89110   63.42670   19.75780   29.60040 -143.98900    -999.25    -999.25    -999.25
 5600.00000    -999.25    -999.25    9.73330   63.66600   61.63460   22.59590   25.43470 -134.86260    -999.25    -999.25    -999.25
 5650.00000    -999.25    -999.25    9.01680   62.50740  107.31720   10.10340   47.66640 -260.02680    -999.25    -999.25    -999.25
 5700.00000    -999.25    -999.25    9.49360   61.39680   88.97740   13.08600   43.90290 -245.07310    -999.25    -999.25    -999.25
 5750.00000    -999.25    -999.25   10.35800   56.16630   28.30360   71.32760   54.73800 -218.34120    -999.25    -999.25    -999.25
 5800.00000    -999.25    -999.25   10.37870   55.57360   35.61210   46.79430   60.06360 -233.71080    -999.25    -999.25    -999.25
 5850.00000    -999.25    -999.25   11.46810   76.51080  435.56190    2.10860    3.16470 -169.61290    -999.25    -999.25    -999.25
 5900.00000    -999.25    -999.25   10.61790   72.84660  292.80610    3.39170    6.75240 -146.13520    -999.25    -999.25    -999.25
 5950.00000    -999.25    -999.25   11.65650   70.92010  153.51720    6.89910   10.57840 -108.93330    -999.25    -999.25    -999.25
 6000.00000    -999.25    -999.25    9.97660   55.47070   31.85690   67.70300   44.60000 -118.67170    -999.25    -999.25    -999.25
 6050.00000    -999.25    -999.25   10.09410   54.80030   22.27040  118.57410   81.77950 -133.76440    -999.25    -999.25    -999.25
 6100.00000    -999.25    -999.25    9.24520   55.57640   29.99230   68.12030   63.36140 -136.99970    -999.25    -999.25    -999.25
 6150.00000    -999.25    -999.25    9.31210   63.31630   66.24810   19.32670   23.01060 -110.61310    -999.25    -999.25    -999.25
 6200.00000    -999.25    -999.25    9.09340   60.86230   57.18150   23.63120   30.33450 -114.14370    -999.25    -999.25    -999.25
 6250.00000    -999.25    -999.25    9.07730   55.80160   41.18860   38.15600   52.14380 -140.55540    -999.25    -999.25    -999.25
 6300.00000    -999.25    -999.25    9.18720   60.78070   56.04300   24.70240   33.23710 -141.18540    -999.25    -999.25    -999.25
 6350.00000    -999.25    -999.25    9.13100   58.27020   31.97080   56.15780   56.54840 -142.56010    -999.25    -999.25    -999.25
 6400.00000    -999.25    -999.25    9.38790   64.17890   65.12140   19.68610   24.58450 -130.33580    -999.25    -999.25    -999.25
 6450.00000    -999.25    -999.25    9.27500   64.49050   60.51230   21.32690   27.82810 -123.74520    -999.25    -999.25    -999.25
 6500.00000    -999.25    -999.25    9.64370   68.62530  131.25820    8.35080   11.19890 -127.07820    -999.25    -999.25    -999.25
 6550.00000    -999.25    -999.25    9.14480   52.45540   24.37280  120.83050   90.20720 -129.79070    -999.25    -999.25    -999.25
 6600.00000    -999.25    -999.25    9.19920   53.10420   21.08950  126.60070   87.03520 -178.91400    -999.25    -999.25    -999.25
 6650.00000    -999.25    -999.25    9.16610   52.20300   17.56020  241.21550  131.12970 -164.10880    -999.25    -999.25    -999.25
 6700.00000    -999.25    -999.25    9.21300   51.93030   18.12570  234.60590  111.05430 -173.56890    -999.25    -999.25    -999.25
 6750.00000    -999.25    -999.25    9.18720   51.49390   18.60030  157.65550   88.46830 -168.54320    -999.25    -999.25    -999.25
 6800.00000    -999.25    -999.25    9.10690   53.16170   25.23560   93.18380   88.53440 -208.70160    -999.25    -999.25    -999.25
 6850.00000    -999.25    -999.25    9.20280   50.49780   19.41950  197.25000  111.55090 -232.12410    -999.25    -999.25    -999.25
 6900.00000    -999.25    -999.25    9.20630   51.77970   19.82140  187.12390   96.91020 -243.35800    -999.25    -999.25    -999.25
 6950.00000    -999.25    -999.25    9.22950   51.13570   14.76670  500.72220  135.31920 -199.05870    -999.25    -999.25    -999.25
 7000.00000    -999.25    -999.25    9.22730   52.88190   23.39310  118.53020   68.58410 -195.07070    -999.25    -999.25    -999.25
