~Version ---------------------------------------------------
VERS.      2.0 : CWLS log ASCII Standard -VERSION 2.0
WRAP.       NO : ONE LINE PER DEPTH STEP
CREA. 08/27/13 : LAS CREATION DATE
~Well ------------------------------------------------------
STRT.M                             350.0 : START DEPTH
STOP.M                            3450.0 : STOP DEPTH
STEP.M                          50.00000 : STEP LENGTH
NULL.                            -999.25 : NULL VALUE
COMP. CANADIAN NATURAL RESOURCES LIMITED : COMPANY
WELL.          RAX WASKAHIGAN 3-32-63-22 : WELL
FLD .                                 WC : FIELD
LOC .                                    : LOCATION
CTRY.                             CANADA : COUNTRY
SRVC.                       Schlumberger : SERVICE COMPANY
DATE.                        20-Aug-1985 : LOGDATE
PROV.                            Alberta : PROVINCE
UWI .                   100033206322W500 : UNIQUE WELL ID
SLAT.WGS84                      54.49004 : SURFACE LATITUDE
SLON.WGS84                     -117.2927 : SURFACE LONGITUDE
~Curve Information -----------------------------------------
DEPT    .M      : DEPTH METERS
C2ED    .MM     : CALIPER 2 FROM DENSITY LOG, DEPTH ADJUSTED WITH [GRRED]
CALDED  .MM     : CALIPER FROM DENSITY LOG, DEPTH ADJUSTED WITH [GRRED]
CALRED  .MM     : CALIPER FROM RESISTIVITY LOG
CALWS   .MM     : CALIPER [CALRED]
CONDWS  .MMHO   : CONDUCTIVITY [1000/DRESWS]
DCORWS  .KG/M3  : DENSITY CORRECTION {DRHOED]
DENWS   .KG/M3  : BULK DENSITY [RHOBED]
DPHILSED.V/V    : DENSITY POROSITY [M=2710 F=1000] FROM DENSITY LOG, DEPTH ADJUSTED WITH [GRRED]
DPHISSED.V/V    : DENSITY POROSITY [M=2650 F=1000] FROM DENSITY LOG, DEPTH ADJUSTED WITH [GRRED]
DPOLSWS .V/V    : DENSITY POROSITY LIMESTONE [CALCULATED FROM DENWS]
DRESWS  .OHMM   : DEEP RESISTIVITY [ILDED]
DRHOED  .KG/M3  : DENSITY CORRECTION FROM DENSITY LOG, DEPTH ADJUSTED WITH [GRRED]
DTED    .US/M   : DELTA TIME FROM SONIC LOG
DTWS    .US/M   : DELTA TIME [DTED]
GRDED   .GAPI   : GAMMA RAY FROM DENSITY LOG, DEPTH ADJUSTED WITH [GRRED]
GRRED   .GAPI   : GAMMA RAY FROM RESISTIVITY LOG
GRWS    .GAPI   : GAMMA RAY [GRRED]
ILDED   .OHMM   : INDUCTION LOG DEEP RESISTIVITY
ILMED   .OHMM   : INDUCTION LOG MEDIUM RESISTIVITY
MRESWS  .OHMM   : MEDIUM RESISTIVITY [ILMED]
NPHILSED.V/V    : NEUTRON POROSITY LIMESTONE FROM DENSITY LOG, DEPTH ADJUSTED WITH [GRRED]
NPHISSED.V/V    : NEUTRON POROSITY SANDSTONE FROM DENSITY LOG, DEPTH ADJUSTED WITH [GRRED]
NPOLSWS .V/V    : NEUTRON POROSITY LIMESTONE [NPHILSED]<2128> MATRIX CONVERTED [NPHISSED] TO LIMESTONE
PEFED   .B/E    : PHOTOELECTRIC FACTOR FROM DENSITY LOG, DEPTH ADJUSTED WITH [GRRED]
PEFWS   .B/E    : PHOTOELECTRIC FACTOR [PEFED]
RHOBED  .KG/M3  : BULK DENSITY FROM DENSITY LOG, DEPTH ADJUSTED WITH [GRRED]
SFLUED  .OHMM   : SPHERICALLY FOCUSED LOG RESISTIVITY
SPRED   .MV     : SPONTANEOUS POTENTIAL FROM RESISTIVITY LOG
SPWS    .MV     : SPONTANEOUS POTENTIAL [BASELINE 0 MV] [SPRED]
SRESWS  .OHMM   : SHALLOW RESISTIVITY [SFLUED]
TENDED  .N      : TENSION FROM DENSITY LOG , DEPTH ADJUSTED WITH [GRRED]
TENRED  .N      : TENSION FROM RESISTIVITY LOG
~Params ----------------------------------------------------
PD  .                     GL : PERMANENT DATUM
EPD .M                 821.2 : ELEVATION PERMANENT DATUM
LMF .                     KB : LOG MEASURED FROM
DAPD.M                   6.4 : FEET ABOVE PERMANENT DATUM
DMF .                     KB : DRILLING MEASURED FROM
EKB .M                 827.6 : KELLY BUSHING
EDF .M                 827.2 : DRILLING FLOOR
EGL .M                 821.2 : GROUND LEVEL
DATE.               08/20/85 : RUN DATE
RUN .                      1 : RUN NUMBER
DD  .M                  3450 : DEPTH DRILLER
DL  .M                3454.7 : DEPTH LOGGER
BLI .M                  3454 : BOTTOM LOG INTERVAL
TLI .M                 444.5 : TOP LOG INTERVAL
CS  .MM                244.5 : CASING SIZE
CBD .M                   444 : CASING BOTTOM DRILLER
CBL .M                   444 : CASING BOTTOM LOGGER
BS  .MM                  222 : BIT SIZE
BSD .M                  3450 : BIT SIZE AT DEPTH
DFT .               GEL CHEM : DRILLING FLUID TYPE
DFD .                   1125 : DRILLING FLUID DENSITY
DFV .                    135 : DRILLING FLUID VISCOSITY
DFPH.                   10.5 : DRILLING FLUID PH
DFL .                    8.2 : DRILLING FLUID LOSS
MSS .               FLOWLINE : MUD SAMPLE SOURCE
RMS .OHMM                1.9 : RESISTIVITY MUD SAMPLE
MST .DEGC               18.0 : MUD SAMPLE TEMPERATURE
RMF .OHMM               1.76 : RESISTIVITY MUD FILTRATE SAMPLE
MFST.DEGC               18.0 : MUD FILTRATE SAMPLE TEMPERATURE
RMC .OHMM               1.59 : RESISTIVITY MUD CAKE
MCST.DEGC               19.0 : MUD CAKE SAMPLE TEMPERATURE
MFSS.                   MEAS : MUD FILTRATE SAMPLE SOURCE
MCSS.                   MEAS : MUD CAKE SAMPLE SOURCE
RMB .OHMM              0.528 : RESISTIVITY MUD AT BHT
TCS .HRS                1030 : TIME CIRCULATED STOPPED
TLAB.HRS                2100 : TIME LOGGER AT BOTTOM
LUN .                   8204 : LOGGING UNIT NUMBER
LUL .                     GP : LOGGING UNIT LOCATION
ENGI.          HOWELL MACKAY : RECORDING ENGINEER
WITN.         SALAZAR SHARPE : WITNESSED BY
CLNT.                A2DTECH : CLIENT CODE
ORIG.       6.5" 16.5" PRINT : ORIGIN OF DATA
UWI .       100033206322W500 : UNIQUE WELL ID
DICO. A2D Technologies, Inc. : DIGITIZING COMPANY
~Other -----------------------------------------------------
~ASCII -----------------------------------------------------
  350.00000    -999.25    -999.25    -999.25    -999.25    -999.25    -999.25    -999.25    -999.25    -999.25    -999.25    -999.25    -999.25    -999.25    -999.25    -999.25   43.64010   63.64010    -999.25    -999.25    -999.25    -999.25    -999.25    -999.25    -999.25    -999.25    -999.25    -999.25    -999.25    -999.25    -999.25    -999.25    -999.25
  400.00000    -999.25    -999.25    -999.25    -999.25    -999.25    -999.25    -999.25    -999.25    -999.25    -999.25    -999.25    -999.25    -999.25    -999.25    -999.25   46.01800   66.01800    -999.25    -999.25    -999.25    -999.25    -999.25    -999.25    -999.25    -999.25    -999.25    -999.25    -999.25    -999.25    -999.25    -999.25    -999.25
  450.00000  283.02550  295.76110  252.51680  252.51680  230.29270    -999.25    -999.25    -999.25    -999.25    -999.25    4.34230    -999.25  364.99260  364.99260   85.88170   82.47900   82.47900    4.34230    3.60520    3.60520    -999.25    -999.25    -999.25    -999.25    -999.25    -999.25    3.68790  -27.45830   -3.16290    3.68790 587608.68280 481109.17690
  500.00000  300.32290  279.64610  266.43290  266.43290  215.62880    -999.25    -999.25    -999.25    -999.25    -999.25    4.63760    -999.25  324.18350  324.18350   68.33680   72.18050   72.18050    4.63760    4.08500    4.08500    -999.25    -999.25    -999.25    -999.25    -999.25    -999.25    4.13040  -21.58950    2.28230    4.13040 627132.46380 503058.39810
  550.00000  222.07040  306.00270  251.13980  251.13980  128.14110    -999.25    -999.25    -999.25    -999.25    -999.25    7.80390    -999.25  303.54680  303.54680   58.28620   62.37090   62.37090    7.80390    6.84780    6.84780    -999.25    -999.25    -999.25    -999.25    -999.25    -999.25    7.94250  -25.01310   -1.56490    7.94250 649506.86560 553903.25920
  600.00000  202.94340  321.93180  253.97390  253.97390  208.45060    -999.25    -999.25    -999.25    -999.25    -999.25    4.79730    -999.25  328.56680  328.56680   66.67020   78.71000   78.71000    4.79730    4.07040    4.07040    -999.25    -999.25    -999.25    -999.25    -999.25    -999.25    3.62040  -27.99360   -4.96900    3.62040 724394.47570 553648.00180
  650.00000  219.74670  317.46840  241.34590  241.34590  171.02500    -999.25    -999.25    -999.25    -999.25    -999.25    5.84710    -999.25  316.69690  316.69690   79.62760   83.20180   83.20180    5.84710    5.15560    5.15560    -999.25    -999.25    -999.25    -999.25    -999.25    -999.25    3.79330  -24.65360   -2.05260    3.79330 746176.44100 588162.21510
  700.00000  229.10190  298.10810  239.81460  239.81460  255.14760    -999.25    -999.25    -999.25    -999.25    -999.25    3.91930    -999.25  329.01930  329.01930   71.33780   71.37920   71.37920    3.91930    3.65210    3.65210    -999.25    -999.25    -999.25    -999.25    -999.25    -999.25    4.08240  -25.41570   -3.23820    4.08240 741218.92530 609549.35450
  750.00000  218.19770  244.55010  219.47790  219.47790  210.57510    -999.25    -999.25    -999.25    -999.25    -999.25    4.74890    -999.25  311.89580  311.89580   71.76710   62.79460   62.79460    4.74890    4.47300    4.47300    -999.25    -999.25    -999.25    -999.25    -999.25    -999.25    4.16380  -25.56160   -3.80770    4.16380 812260.62850 614877.97820
  800.00000  228.86150  224.03310  226.02510  226.02510  137.04830    -999.25    -999.25    -999.25    -999.25    -999.25    7.29670    -999.25  279.97220  279.97220   73.10260   69.06830   69.06830    7.29670    6.86300    6.86300    -999.25    -999.25    -999.25    -999.25    -999.25    -999.25    7.08990  -22.58940   -1.25910    7.08990 775546.72700 641682.02120
  850.00000  261.29380  272.05730  232.35300  232.35300  210.32710    -999.25    -999.25    -999.25    -999.25    -999.25    4.75450    -999.25  313.98000  313.98000   60.58270   62.15000   62.15000    4.75450    4.27600    4.27600    -999.25    -999.25    -999.25    -999.25    -999.25    -999.25    4.37670  -22.00640   -1.09970    4.37670 828900.38180 682128.95160
  900.00000  195.65800  230.57760  223.13370  223.13370   72.69500    -999.25    -999.25    -999.25    -999.25    -999.25   13.75610    -999.25  287.07200  287.07200   41.46960   55.29740   55.29740   13.75610   13.32340   13.32340    -999.25    -999.25    -999.25    -999.25    -999.25    -999.25   15.73180  -27.85590   -7.37280   15.73180 863943.74490 706456.29780
  950.00000  212.62590  244.76700  237.66870  237.66870  116.35210    -999.25    -999.25    -999.25    -999.25    -999.25    8.59460    -999.25  247.61150  247.61150   48.65400   60.01550   60.01550    8.59460    9.23530    9.23530    -999.25    -999.25    -999.25    -999.25    -999.25    -999.25    7.95380  -21.96240   -1.90280    7.95380 872627.71560 728483.48020
 1000.00000  227.94050  270.96760  230.32970  230.32970  122.47850  308.57310 2458.10000    -999.25    0.12470    0.14730    8.16470  308.57310  273.44210  273.44210   62.94440   63.58580   63.58580    8.16470    7.73160    7.73160    -999.25    0.27640    0.22410    2.51590    2.51590 2458.10000    8.35820  -20.06150   -0.42550    8.35820 857294.72100 741198.83560
 1050.00000  261.13390  462.90300  334.63420  334.63420  120.68700  118.84920 2008.30000    -999.25    0.49650    0.41040    8.28590  118.84920  288.07830  288.07830   75.91230   79.99340   79.99340    8.28590    7.15070    7.15070    -999.25    0.39020    0.34430    2.10320    2.10320 2008.30000    6.95770  -22.27370   -3.06130    6.95770 868862.32040 767990.16200
 1100.00000  363.44710  226.76220  225.82210  225.82210   86.71520  147.77720 2314.00000    -999.25    0.20660    0.23160   11.53200  147.77720  292.91400  292.91400   95.85020  111.96180  111.96180   11.53200   11.06340   11.06340    -999.25    0.40690    0.36250    2.51280    2.51280 2314.00000   13.13730  -21.01130   -2.22250   13.13730 890081.86260 774767.58250
 1150.00000  203.08510  437.57970  321.61750  321.61750  135.02020   72.21670 1743.80000    -999.25    0.51430    0.56500    7.40630   72.21670  307.22690  307.22690   86.40510   95.01520   95.01520    7.40630    6.41120    6.41120    -999.25    0.43390    0.39220    2.09340    2.09340 1743.80000    6.81940  -22.04060   -3.67540    6.81940 890525.02250 828335.14770
 1200.00000  202.14160  320.00490  281.70770  281.70770  114.77230   99.33140 2000.30000    -999.25    0.36510    0.41500    8.71290   99.33140  285.16220  285.16220   94.47330   97.26800   97.26800    8.71290    8.18570    8.18570    -999.25    0.35660    0.30820    2.34590    2.34590 2000.30000    8.78680  -20.84590   -2.90420    8.78680 939399.31020 835997.99890
 1250.00000  260.57870  247.77910  241.25220  241.25220  114.25310   26.18130 2258.60000    -999.25    0.23880    0.26400    8.75250   26.18130  279.87710  279.87710   99.24390   98.48260   98.48260    8.75250    8.05670    8.05670    -999.25    0.37480    0.32770    2.60980    2.60980 2258.60000    8.22110  -20.85400   -3.33590    8.22110 958011.38810 844937.45160
 1300.00000  236.27340  275.01000  243.80250  243.80250  100.29990   61.44250 2386.50000    -999.25    0.16120    0.18920    9.97010   61.44250  270.86570  270.86570   94.56640  113.10410  113.10410    9.97010    9.44520    9.44520    -999.25    0.29790    0.24640    2.53850    2.53850 2386.50000   10.00940  -17.36250   -4.01930   10.00940 989546.93940 892140.75190
 1350.00000  242.62980  283.78120  242.31040  242.31040  121.14900  161.77840 2111.50000    -999.25    0.31810    0.35000    8.25430  161.77840  284.86600  284.86600   95.53820  106.41740  106.41740    8.25430    7.91200    7.91200    -999.25    0.32890    0.27880    2.45940    2.45940 2111.50000    9.09510  -16.43500   -7.62860    9.09510 978767.68970 889973.11570
 1400.00000  239.96890  278.67550  234.45610  234.45610  112.27880  194.57240 2114.90000    -999.25    0.32320    0.34800    8.90640  194.57240  292.75810  292.75810  103.94560  112.58760  112.58760    8.90640    8.77270    8.77270    -999.25    0.33010    0.28010    2.53800    2.53800 2114.90000   10.21460  -12.79230   -8.52270   10.21460 1019827.47870 903315.18680
