~Version ---------------------------------------------------
VERS.      2.0 : CWLS log ASCII Standard -VERSION 2.0
WRAP.       NO : One line per depth step
CREA. 08/22/14 : LAS Creation Date
~Well ------------------------------------------------------
STRT.M                               350.0 : START DEPTH
STOP.M                              3400.0 : STOP DEPTH
STEP.M                            50.00000 : STEP LENGTH
NULL.                              -999.25 : NULL VALUE
COMP.         CANADIAN HOMESTEAD OILS LTD. : COMPANY
WELL. HOMESTEAD ET AL ROSEVEAR 11-26-53-15 : WELL
FLD .                                      : FIELD
LOC .                                      : LOCATION
CTRY.                               CANADA : COUNTRY
SRVC.                         Schlumberger : SERVICE COMPANY
DATE.                          31-Oct-1978 : LOGDATE
PROV.                              Alberta : PROVINCE
UWI .                     100112605315W500 : UNIQUE WELL ID
SLAT.WGS84                        53.60961 : SURFACE LATITUDE
SLON.WGS84                       -116.1017 : SURFACE LONGITUDE
~Curve Information -----------------------------------------
DEPT    .M      : Depth Curve
CALDED  .MM     : CALIPER FROM DENSITY LOG [ADJ. TO RESISTIVITY LOG]
CALSED  .MM     : CALIPER FROM SONIC LOG [ADJ. TO RESISTIVITY LOG]
CALWS   .MM     : CALIPER [CALDED]
CONDWS  .MMHO   : CONDUCTIVITY [1000/DRESWS]
DCORWS  .KG/M3  : DENSITY CORRECTION [DRHOED]
DENWS   .KG/M3  : FORMATION BULK DENSITY [RHOBED]
DPHILSED.V/V    : DENSITY POROSITY LIMESTONE [M=2710,F=1000] FROM DENSITY LOG [ADJ. TO RESISTIVITY LOG]
DPHISSED.V/V    : DENSITY POROSITY SANDSTONE [M=2650,F=1000] FROM DENSITY LOG [ADJ. TO RESISTIVITY LOG]
DPOLSWS .V/V    : DENSITY POROSITY LIMESTONE [CALC FROM DENWS, M=2710,F=1000]
DRESWS  .OHMM   : DEEP RESISTIVITY [LLDED]
DRHOED  .KG/M3  : DENSITY CORRECTION FROM DENSITY LOG [ADJ. TO RESISTIVITY LOG]
DTED    .US/M   : DELTA TIME FROM SONIC LOG [ADJ. TO RESISTIVITY LOG]
DTWS    .US/M   : COMPRESSIONAL SONIC [DTED]
GRDED   .GAPI   : GAMMA RAY FROM DENSITY LOG [ADJ. TO RESISTIVITY LOG]
GRRED   .GAPI   : GAMMA RAY FROM RESISTIVITY LOG [ADJ. TO LLDED]
GRSED   .GAPI   : GAMMA RAY FROM SONIC LOG [ADJ. TO RESISTIVITY LOG]
GRWS    .GAPI   : GAMMA RAY [SPL. GRSED 340M  GRDED ]
LLDED   .OHMM   : DEEP LATEROLOG RESISTIVITY FROM RESISTIVITY LOG
LLSED   .OHMM   : SHALLOW LATEROLOG RESISTIVITY FROM RESISTIVITY LOG
NPHILSED.V/V    : NEUTRON POROSITY LIMESTONE FROM DENSITY LOG [ADJ. TO RESISTIVITY LOG]
NPHISSED.V/V    : NEUTRON POROSITY SANDSTONE FROM DENSITY LOG [ADJ. TO RESISTIVITY LOG]
NPOLSWS .V/V    : NEUTRON POROSITY LIMESTONE [NPHISSED MATRIX CONVERSION TO LIMESTONE & SPL. TO NPHILSED @ 2322M]
RHOBED  .KG/M3  : BULK DENSITY FROM DENSITY LOG [ADJ. TO RESISTIVITY LOG]
SPORLSED.V/V    : SONIC POROSITY LIMESTONE [DTM=47.6,DTF=189]  FROM SONIC LOG [ADJ. TO RESISTIVITY LOG]
SPORSSED.V/V    : SONIC POROSITY SANDSTONE [DTM=55.6,DTF=189] FROM SONIC LOG [ADJ. TO RESISTIVITY LOG]
SPOWS   .V/V    : SONIC POROSITY [SPORSSED SPL. TO SPORLSED @ 2325M]
SRESWS  .OHMM   : SHALLOW RESISTIVITY [LLSED]
~Params ----------------------------------------------------
PD  .                         GL : PERMANENT DATUM
EPD .M                     911.4 : ELEVATION PERMANENT DATUM
LMF .                         KB : LOG MEASURED FROM
DAPD.M                       3.9 : FEET ABOVE PERMANENT DATUM
EKB .M                     915.3 : KELLY BUSHING
EGL .M                     911.4 : GROUND LEVEL
DATE.                   10/31/78 : RUN DATE
RUN .                          1 : RUN NUMBER
DD  .M                      3405 : DEPTH DRILLER
DL  .M                      3401 : DEPTH LOGGER
BLI .M                      3397 : BOTTOM LOG INTERVAL
TLI .M                       340 : TOP LOG INTERVAL
CBD .M                       340 : CASING BOTTOM DRILLER
CBL .M                       340 : CASING BOTTOM LOGGER
BS  .MM                      222 : BIT SIZE
BSD .M                      3405 : BIT SIZE AT DEPTH
DFT .                    KCL GEL : DRILLING FLUID TYPE
DFD .                       1080 : DRILLING FLUID DENSITY
DFV .                         71 : DRILLING FLUID VISCOSITY
DFPH.                         10 : DRILLING FLUID PH
MSS .                       TANK : MUD SAMPLE SOURCE
RMS .OHMM                  0.213 : RESISTIVITY MUD SAMPLE
MST .DEGC                   16.7 : MUD SAMPLE TEMPERATURE
RMF .OHMM                  0.176 : RESISTIVITY MUD FILTRATE SAMPLE
MFST.DEGC                   16.7 : MUD FILTRATE SAMPLE TEMPERATURE
RMB .OHMM                  0.057 : RESISTIVITY MUD AT BHT
TCS .HRS                       8 : TIME CIRCULATED STOPPED
LUN .                       7690 : LOGGING UNIT NUMBER
LUL .                        EDM : LOGGING UNIT LOCATION
ENGI.                      COWAN : RECORDING ENGINEER
WITN.                  STOCKWELL : WITNESSED BY
CLNT.                    A2DTECH : CLIENT CODE
ORIG. 6.5"/100M 16.5"/100M PRINT : ORIGIN OF DATA
UWI .           100112605315W500 : UNIQUE WELL ID
DICO.     A2D Technologies, Inc. : DIGITIZING COMPANY
~Other -----------------------------------------------------
PLEASE NOTE - GAMMA RAY ON DLL APPEARED OBVIOUSLY OFF DEPTH TO RESISTIVITY CURVES * HENCE DEPTH ADJUSTED TO RESISTIVITY.
SPOWS - COMPOSE OF LIMESTONE AND SANDSTONE PER IMAGE: TOP-2325 ( SANDSTONE); 2325-TD (LIMESTONE).
~ASCII -----------------------------------------------------
  350.00000  258.04500  244.07800  258.04500   89.86180   63.88790 2337.00950    -999.25    0.19140    0.21810   11.12820   63.88790  322.21740  322.21740   63.66940   53.94260   61.90280   63.66940   11.12820    3.65570    -999.25    0.39490    0.34940 2337.00950    -999.25    0.32450    0.32450    3.65570
  400.00000  337.36960  278.70940  337.36960   45.36010   44.27960 2444.69430    -999.25    0.12930    0.15510   22.04580   44.27960  285.50620  285.50620   73.91750   64.88570   65.70140   73.91750   22.04580    8.49800    -999.25    0.31680    0.26610 2444.69430    -999.25    0.24500    0.24500    8.49800
  450.00000  374.59570  257.59370  374.59570  187.11520    2.80730 1934.95210    -999.25    0.42370    0.45320    5.34430    2.80730  399.52070  399.52070  113.31730  103.52580  121.27540  113.31730    5.34430    5.88710    -999.25    0.56710    0.54020 1934.95210    -999.25    0.45000    0.45000    5.88710
  500.00000  318.75300  260.04810  318.75300  101.45070  133.73370 2507.77150    -999.25    0.08940    0.11830    9.85700  133.73370  277.76070  277.76070   75.96630   71.10170   81.05710   75.96630    9.85700    6.54310    -999.25    0.30430    0.25310 2507.77150    -999.25    0.22700    0.22700    6.54310
  550.00000  245.65960  237.89450  245.65960  142.50700   -1.92790 2267.23410    -999.25    0.24700    0.25890    7.01720   -1.92790  327.83820  327.83820   89.84800   78.40870   92.82000   89.84800    7.01720    5.81460    -999.25    0.39220    0.34650 2267.23410    -999.25    0.34070    0.34070    5.81460
  600.00000  289.83250  256.97320  289.83250  127.23460   19.03470 2496.47510    -999.25    0.10110    0.12490    7.85950   19.03470  317.69260  317.69260   94.97990   97.87020  101.92770   94.97990    7.85950    5.51600    -999.25    0.43060    0.38860 2496.47510    -999.25    0.31790    0.31790    5.51600
  650.00000  296.76510  259.18740  296.76510  150.96160   24.98190 2464.22780    -999.25    0.11850    0.14370    6.62420   24.98190  284.96150  284.96150   95.30520   88.72820  104.67290   95.30520    6.62420    4.86630    -999.25    0.43470    0.39310 2464.22780    -999.25    0.23870    0.23870    4.86630
  700.00000  269.23910  248.99180  269.23910  125.34470  235.93620 2294.86380    -999.25    0.21300    0.24280    7.97800  235.93620  297.55100  297.55100   90.78790   82.61650   93.71050   90.78790    7.97800    6.18250    -999.25    0.37250    0.32520 2294.86380    -999.25    0.26970    0.26970    6.18250
  750.00000  233.15720  251.27720  233.15720   87.90900  110.59570 2389.42650    -999.25    0.16330    0.18750   11.37540  110.59570  282.14940  282.14940   59.28390   52.01310   62.85740   59.28390   11.37540    7.46560    -999.25    0.41660    0.37310 2389.42650    -999.25    0.23280    0.23280    7.46560
  800.00000  286.34880  253.55020  286.34880  152.44830  206.21700 2253.62160    -999.25    0.24810    0.26690    6.55960  206.21700  292.83380  292.83380   89.16780   85.68510   95.40540   89.16780    6.55960    5.28190    -999.25    0.37630    0.32930 2253.62160    -999.25    0.26140    0.26140    5.28190
  850.00000  324.08610  262.02560  324.08610  180.31010  197.71300 2287.70530    -999.25    0.22500    0.24700    5.54600  197.71300  333.76730  333.76730  101.14090  101.11240  100.93310  101.14090    5.54600    4.08460    -999.25    0.45240    0.41280 2287.70530    -999.25    0.35380    0.35380    4.08460
  900.00000  281.73440  258.81160  281.73440  149.19580  249.21370 2408.73360    -999.25    0.15280    0.17620    6.70260  249.21370  283.11780  283.11780  101.19700   93.45670   96.98640  101.19700    6.70260    5.63140    -999.25    0.36180    0.31370 2408.73360    -999.25    0.23680    0.23680    5.63140
  950.00000  374.88340  265.57500  374.88340  177.30810  219.45020 2185.51340    -999.25    0.28200    0.30670    5.63990  219.45020  310.16810  310.16810  102.72980   98.37650  104.63930  102.72980    5.63990    4.20520    -999.25    0.40640    0.36200 2185.51340    -999.25    0.30230    0.30230    4.20520
 1000.00000  337.44930  252.33160  337.44930  130.78220  123.92640 2016.94420    -999.25    0.36730    0.40530    7.64630  123.92640  295.66100  295.66100   98.32470   92.98230  113.13330   98.32470    7.64630    6.12390    -999.25    0.46670    0.42880 2016.94420    -999.25    0.26610    0.26610    6.12390
 1050.00000  317.20250  253.69070  317.20250  180.91030  201.12830 2194.12380    -999.25    0.27920    0.30170    5.52760  201.12830  283.07010  283.07010   89.46760   84.48380  104.55380   89.46760    5.52760    4.56260    -999.25    0.36260    0.31460 2194.12380    -999.25    0.23410    0.23410    4.56260
 1100.00000  321.64740  278.52190  321.64740  141.96280  223.57910 2095.67940    -999.25    0.33950    0.35930    7.04410  223.57910  286.70430  286.70430   86.13700   77.63450   84.09200   86.13700    7.04410    5.23520    -999.25    0.36430    0.31640 2095.67940    -999.25    0.24930    0.24930    5.23520
 1150.00000  348.28780  263.04230  348.28780   88.17950  183.21950 2245.43240    -999.25    0.24740    0.27170   11.34050  183.21950  271.78680  271.78680   77.27390   75.43180   83.49510   77.27390   11.34050    8.11410    -999.25    0.34890    0.30000 2245.43240    -999.25    0.21850    0.21850    8.11410
 1200.00000  280.04430  255.95660  280.04430  122.57460  223.73210 2173.92600    -999.25    0.27110    0.31350    8.15830  223.73210  262.15770  262.15770   75.70130   73.38800   74.32290   75.70130    8.15830    6.25710    -999.25    0.35530    0.30680 2173.92600    -999.25    0.18870    0.18870    6.25710
 1250.00000  340.96660  257.32500  340.96660   91.25670  227.85830 2086.62670    -999.25    0.33630    0.36450   10.95810  227.85830  255.37690  255.37690   71.92790   69.64450   82.85660   71.92790   10.95810    8.22030    -999.25    0.36800    0.32040 2086.62670    -999.25    0.17850    0.17850    8.22030
 1300.00000  375.73970  262.48890  375.73970  139.96580  152.00630 2029.45250    -999.25    0.37360    0.39800    7.14460  152.00630  285.29560  285.29560   77.70030   68.14500   79.69970   77.70030    7.14460    5.54700    -999.25    0.33560    0.28590 2029.45250    -999.25    0.24470    0.24470    5.54700
 1350.00000  249.55840  245.59870  249.55840   13.32740   19.81010 2623.23610    -999.25    0.02350    0.05070   75.03330   19.81010  202.32110  202.32110   42.40430   39.38650   42.53220   42.40430   75.03330   46.22510    -999.25    0.15890    0.11170 2623.23610    -999.25    0.04900    0.04900   46.22510
 1400.00000  301.28540  265.26610  301.28540   72.64590  220.75830 2361.26320    -999.25    0.18300    0.20390   13.76540  220.75830  260.04420  260.04420  103.71280   98.78630  118.76050  103.71280   13.76540   11.70110    -999.25    0.30570    0.25450 2361.26320    -999.25    0.18520    0.18520   11.70110
 1450.00000  331.27200  262.49910  331.27200   70.16850  224.39460 2362.38130    -999.25    0.18210    0.20330   14.25140  224.39460  250.73920  250.73920  104.22080  107.67170  124.00030  104.22080   14.25140   11.52010    -999.25    0.33100    0.28100 2362.38130    -999.25    0.16230    0.16230   11.52010
 1500.00000  292.07770  253.82160  292.07770   54.54050  217.83270 2497.54880    -999.25    0.09880    0.12420   18.33500  217.83270  267.49890  267.49890  119.15270  121.84560  139.96040  119.15270   18.33500   16.47970    -999.25    0.35420    0.30560 2497.54880    -999.25    0.19940    0.19940   16.47970
 1550.00000  299.07700  253.97600  299.07700   80.46280   72.14100 2301.79570    -999.25    0.21510    0.23870   12.42810   72.14100  240.77170  240.77170   99.43550   97.05500  120.04550   99.43550   12.42810   10.37920    -999.25    0.34380    0.29460 2301.79570    -999.25    0.14250    0.14250   10.37920
 1600.00000  345.43060  269.17650  345.43060  136.85510  200.84600 2204.41550    -999.25    0.27320    0.29570    7.30700  200.84600  262.74670  262.74670  115.30030  117.02310  123.18410  115.30030    7.30700    6.43940    -999.25    0.39290    0.34720 2204.41550    -999.25    0.19120    0.19120    6.43940
