~Version ---------------------------------------------------
VERS.      2.0 : CWLS log ASCII Standard -VERSION 2.0
WRAP.       NO : One line per depth step
CREA. 08/29/14 : LAS Creation Date
~Well ------------------------------------------------------
STRT.FT                          950.0 : START DEPTH
STOP.FT                         9950.0 : STOP DEPTH
STEP.FT                       50.00000 : STEP LENGTH
NULL.                          -999.25 : NULL VALUE
COMP. AMOCO CANADA PETROLEUM CO., LTD. : COMPANY
WELL.  AMOCO HBOG WINDFALL 16-29-61-16 : WELL
FLD .                                  : FIELD
LOC .                                  : LOCATION
CTRY.                           CANADA : COUNTRY
SRVC.                     Schlumberger : SERVICE COMPANY
DATE.                      22-Dec-1976 : LOGDATE
PROV.                          Alberta : PROVINCE
UWI .                 100162906116W500 : UNIQUE WELL ID
SLAT.WGS84                    54.30881 : SURFACE LATITUDE
SLON.WGS84                   -116.3532 : SURFACE LONGITUDE
~Curve Information -----------------------------------------
DEPT   .FT :   DEPTH FEET : DepthCurve
CALD   .IN                : CALIPER FROM DENSITY LOG
CALS   .IN                : CALIPER FROM SONIC LOG
DPHI_LS.V/V               : DENSITY POROSITY [M=2.71 F=1.0] FROM DENSITY LOG
DPHI_SS.V/V               : DENSITY POROSITY [M=2.65 F=1.0] FROM DENSITY LOG
DRHO   .G/C3              : DENSITY CORRECTION FROM DENSITY LOG
DT     .US/F              : DELTA TIME FROM SONIC LOG [TAKEN FROM CANA. SUBSC. LAS FILE, BELOW 6300F]
GRD    .GAPI              : GAMMA RAY FROM DENSITY LOG
GRS    .GAPI              : GAMMA RAY FROM SONIC LOG
ILD    .OHMM              : INDUCTION LOG DEEP RESISTIVITY
ILM    .OHMM              : INDUCTION LOG MEDIUM RESISTIVITY
LL8    .OHMM              : 8 INCH LATEROLOG RESISTIVITY
NPHI_LS.V/V               : NEUTRON POROSITY LIMESTONE FROM DENSITY LOG
NPHI_SS.V/V               : NEUTRON POROSITY SANDSTONE FROM DENSITY LOG
RHOB   .G/C3              : BULK DENSITY FROM DENSITY LOG
SPR    .MV                : SPONTANEOUS POTENTIAL FROM RESISTIVITY LOG
~Params ----------------------------------------------------
PD  .                     GL : PERMANENT DATUM
EPD .FT                 2851 : ELEVATION PERMANENT DATUM
LMF .                     KB : LOG MEASURED FROM
DAPD.FT                   14 : FEET ABOVE PERMANENT DATUM
DMF .                     KB : DRILLING MEASURED FROM
EKB .FT                 2875 : KELLY BUSHING
EGL .FT                 2861 : GROUND LEVEL
DATE.               12/22/76 : RUN DATE
RUN .                      1 : RUN NUMBER
DD  .FT                 9966 : DEPTH DRILLER
DL  .FT                 9964 : DEPTH LOGGER
BLI .FT                 9958 : BOTTOM LOG INTERVAL
TLI .FT                 1029 : TOP LOG INTERVAL
CBD .FT                 1030 : CASING BOTTOM DRILLER
CBL .FT                 1029 : CASING BOTTOM LOGGER
BS  .IN                 8.75 : BIT SIZE
BSD .FT                 9966 : BIT SIZE AT DEPTH
DFT .               GEL CHEM : DRILLING FLUID TYPE
DFD .                    9.3 : DRILLING FLUID DENSITY
DFV .                     70 : DRILLING FLUID VISCOSITY
DFPH.                      9 : DRILLING FLUID PH
DFL .                      9 : DRILLING FLUID LOSS
MSS .             CIRCULATED : MUD SAMPLE SOURCE
RMF .OHMM               2.16 : RESISTIVITY MUD FILTRATE SAMPLE
MFST.DEGF                 74 : MUD FILTRATE SAMPLE TEMPERATURE
RMC .OHMM               2.83 : RESISTIVITY MUD CAKE
MCST.DEGF                 68 : MUD CAKE SAMPLE TEMPERATURE
LUN .                   7772 : LOGGING UNIT NUMBER
LUL .                    EDM : LOGGING UNIT LOCATION
ENGI.                   BIGG : RECORDING ENGINEER
WITN.                  LENTZ : WITNESSED BY
CLNT.                A2DTECH : CLIENT CODE
ORIG.            2" 5" PRINT : ORIGIN OF DATA
UWI .       100162906116W500 : UNIQUE WELL ID
DICO. A2D Technologies, Inc. : DIGITIZING COMPANY
~Other -----------------------------------------------------
~ASCII -----------------------------------------------------
# ...
 7850.00000   12.79880   12.31330    0.05610    -999.25    0.21950   49.47600   17.38940   11.72470  807.51660 1449.18400  722.92770    0.00310    -999.25    2.54700 -158.92070
 7900.00000   11.65610   12.31130    0.07130    -999.25    0.26550   48.37200   20.53510   11.77310  427.70430  393.90460  401.65220    0.00260    -999.25    2.60130 -156.66840
 7950.00000    9.80440   12.15380    0.01440    -999.25    0.06680   51.34800   10.48160    6.41340   32.88780   51.22430  209.66280    0.01480    -999.25    2.66760 -172.61360
 8000.00000   12.40040   12.30190    0.02540    -999.25    0.21450   50.57200   14.74080    9.97140  111.92630  178.68880  129.37500    0.00800    -999.25    2.57520 -152.92060
 8050.00000    9.86330   12.16080   -0.02780    -999.25   -0.00160   49.90800   13.40450   12.03360  400.23420 1435.92150 1471.65470    0.00150    -999.25    2.78990 -172.26390
 8100.00000   10.04150   11.53590    0.05720    -999.25    0.02800   59.99200  124.37640   58.49880    6.26710    6.39850    7.25510    0.06920    -999.25    2.59060 -106.14810
 8150.00000   11.01510   11.44340   -0.01990    -999.25    0.26050   49.98000   31.04050   17.92370   48.99510   62.90190  133.49130    0.06370    -999.25    2.66390 -156.28000
 8200.00000   11.63740   11.47460    0.00060    -999.25    0.22400   55.23200   17.03890   10.57650  199.44660  164.34430  224.65390    0.02230    -999.25    2.73080 -157.71170
 8250.00000   13.57060   11.45570    0.07380    -999.25    0.20340   52.09600   28.50680   17.08050   23.67850   21.44580   24.01930    0.06770    -999.25    2.53470 -118.96650
 8300.00000    9.74810   11.22040    0.02500    -999.25   -0.01110   51.36000   37.47170   25.33790  153.59360  184.91260  236.28200    0.01080    -999.25    2.63610  -66.37770
 8350.00000    9.80440   11.26130    0.04990    -999.25   -0.01550   51.67600   33.78000   21.93150  205.72600  248.29090  278.86270    0.00680    -999.25    2.64520  -72.25380
 8400.00000    9.82800   11.26180    0.03070    -999.25   -0.01080   51.17600   33.14810   19.73500  231.39810  256.99120  299.06150    0.01540    -999.25    2.62570  -84.55320
 8450.00000    9.83730   11.18290    0.02910    -999.25    0.01720   50.76800   34.69190   23.63870  162.15560  173.88270  230.11130    0.00740    -999.25    2.70330  -61.17700
 8500.00000    9.98560   11.19590    0.02040    -999.25    0.00670   54.88400   35.30550   25.23790   54.97700   64.76380   76.69230    0.01650    -999.25    2.64510  -48.02700
 8550.00000   10.21460   11.19800    0.03230    -999.25   -0.00840   57.07200   50.90830   30.33830   21.25480   25.01970   29.48160    0.04810    -999.25    2.65210  -43.50490
 8600.00000   10.09980   11.19160    0.02240    -999.25   -0.00420   64.11200   69.46270   50.76340    9.88290   10.86600   13.44160    0.10110    -999.25    2.65730  -37.38900
 8650.00000   10.22210   11.14870    0.03720    -999.25    0.01280   64.56800   81.61050   50.96710    8.45670    9.23090   10.93250    0.10970    -999.25    2.67110  -31.81950
 8700.00000   10.19210   10.84780    0.01360    -999.25   -0.00220   64.00000   69.03870   42.43340   13.26480   14.82410   18.82580    0.09850    -999.25    2.64440  -30.29190
 8750.00000   10.36900   10.17240    0.02500    -999.25    0.01030   66.85200   86.69150   56.06700    9.86840   10.90760   14.61100    0.12940    -999.25    2.69960  -29.88220
 8800.00000    9.99030   10.28990    0.08230    -999.25    0.00550   80.17200   95.65200   70.49670   57.44060   87.22690  148.27810    0.14490    -999.25    2.60390  -39.40010
 8850.00000    9.99630    8.68180    0.02020    -999.25   -0.00090   57.58400   56.75530   36.10560   18.43980   23.28920   32.64720    0.07670    -999.25    2.65660  -33.21930
 8900.00000   12.10470    9.41680    0.08790    -999.25    0.24470   73.42000   89.84060   61.69020    6.33130    7.00620    9.87570    0.19720    -999.25    2.52210  -56.00620
 8950.00000   11.74200   10.03150    0.14400    -999.25    0.26380   71.89600   92.93450   64.12220    7.96480    9.10230   14.83140    0.19820    -999.25    2.47590  -49.08990
 9000.00000   10.16320   11.30530    0.03030    -999.25   -0.01040   66.57600  114.19940   73.79010    9.14440   10.05890   12.43890    0.15460    -999.25    2.62320  -43.62590
 9050.00000   10.17640   10.55950    0.02290    -999.25    0.00110   67.54000  105.35730   70.81080    9.87530   11.03220   14.25850    0.14230    -999.25    2.65800  -39.46910
 9100.00000   10.23910   11.09370    0.01730    -999.25    0.01250   71.21600  117.57140   71.49830    8.34450    9.39230   12.57890    0.14140    -999.25    2.65550  -41.16500
 9150.00000   10.69190   11.52320    0.02240    -999.25    0.00700   71.28400  116.83780   84.91420    7.82780    8.85600   11.70720    0.16090    -999.25    2.65680  -37.75670
 9200.00000   10.11430    8.79410    0.03140    -999.25    0.01090   69.64400  118.02220   73.87220    7.91550    8.84290   12.29230    0.15030    -999.25    2.64550  -25.68020
 9250.00000    9.89530    9.68890    0.03590    -999.25   -0.00370   70.23200  135.79910   88.63920    7.84410    9.23720   12.84940    0.17900    -999.25    2.62670  -20.89560
 9300.00000    9.83330   13.06900    0.05870    -999.25    0.03050   84.45600  123.10350   86.35750    6.64930    7.35790   10.68080    0.18790    -999.25    2.62420  -20.69440
 9350.00000    9.65790    9.11560    0.09660    -999.25    0.01340   71.91200  171.90330  123.97690 1706.46780 1580.69040 1462.94700    0.09140    -999.25    2.52210  -49.93440
 9400.00000    9.62220    9.12170    0.09600    -999.25    0.00470   73.58000  159.15680  100.59070  759.25230 1519.65430 1412.17650    0.12780    -999.25    2.53690  -49.37770
 9450.00000    9.66120    9.41350    0.04900    -999.25   -0.01580   53.18800   64.24900   39.89180   48.55700   59.53380   82.86130    0.03670    -999.25    2.61850  -16.20370
 9500.00000    9.69910    9.95880    0.03430    -999.25   -0.00390   57.39600   54.15600   39.64100  424.43730 1015.15520 1502.13000    0.03020    -999.25    2.62780  -43.37420
 9550.00000    9.72850   11.06680    0.03860    -999.25   -0.01310   49.72400   14.24430    9.21100  284.21980  925.99220  335.75920    0.00140    -999.25    2.59890 -128.16440
 9600.00000   11.56600   11.28200    0.07020    -999.25    0.12850   48.25200   10.79810    7.08710 1726.21780 1640.05270 1403.81930    0.00200    -999.25    2.59910 -157.50020
 9650.00000   11.78090   10.97400    0.07510    -999.25    0.14230   49.32400   22.89770   19.43930 1453.87180 1670.24790 1579.09530    0.00890    -999.25    2.49580 -133.70500
 9700.00000   13.25740   10.98620    0.12430    -999.25    0.18340   57.22800   25.88500   17.06070 1790.90090 1972.89950 1443.40610    0.01960    -999.25    2.45870 -174.70970
 9750.00000   10.21290   12.61600    0.04660    -999.25    0.13690   48.06800   10.86380    6.65650 1724.20040 1620.14880 1455.29250    0.00250    -999.25    2.63570 -153.55510
 9800.00000    9.95750   10.47780    0.04780    -999.25    0.15250   48.56000   15.12270    9.69680 1750.02650 1607.53190 1456.98320    0.00630    -999.25    2.63910 -181.09410
 9850.00000   13.99790   13.24120    0.12050    -999.25    0.24310   50.73200   24.53200   14.34500 1752.00380 1648.48180 1475.16670    0.01410    -999.25    2.47680 -184.05020
 9900.00000    9.25010   12.24900    0.05120    -999.25    0.07940   48.38400   15.99580   10.25320  878.70360 1620.50550 1534.95020    0.00120    -999.25    2.69940 -170.71980
 9950.00000    9.34510   13.01790    0.06860    -999.25    0.00760   68.91600   51.30700   27.29910   15.83430   22.02960   37.17040    0.13210    -999.25    2.50860  -83.91190
