~Version ---------------------------------------------------
VERS.      2.0 : CWLS log ASCII Standard -VERSION 2.0
WRAP.       NO : One line per depth step
CREA. 07/28/13 : LAS Creation Date
~Well ------------------------------------------------------
STRT.M                          300.0 : START DEPTH
STOP.M                         3050.0 : STOP DEPTH
STEP.M                       50.00000 : STEP LENGTH
NULL.                         -999.25 : NULL VALUE
COMP.               SABINE CANADA LTD : COMPANY
WELL. SABINE ET AL GIROUX 10-23-65-20 : WELL
FLD .                                 : FIELD
LOC .                                 : LOCATION
CTRY.                          CANADA : COUNTRY
SRVC.                    Schlumberger : SERVICE COMPANY
DATE.                     13-Jan-1979 : LOGDATE
PROV.                         Alberta : PROVINCE
UWI .                100102306520W500 : UNIQUE WELL ID
SLAT.WGS84                   54.64278 : SURFACE LATITUDE
SLON.WGS84                  -116.9066 : SURFACE LONGITUDE
~Curve Information -----------------------------------------
DEPT   .M      : DEPTH METER
CALD   .MM     : CALIPER FROM DENSITY LOG
CALS   .MM     : CALIPER FROM SONIC LOG
DPHI_LS.DEC    : DENSITY POROSITY LIMESTONE [M=2710, F=1000] FROM DENSITY LOG
DPHI_SS.DEC    : DENSITY POROSITY SANDSTONE [M=2650, F=1000] FROM DENSITY LOG
DRHO   .KG/M3  : DENSITY CORRECTION FROM DENSITY LOG
DT     .US/M   : DELTA T FROM SONIC LOG
GR     .GAPI   : GAMMA RAY FROM CBL LOG
GRD    .GAPI   : GAMMA RAY FROM DENSITY LOG
GRS    .GAPI   : GAMMA RAY FROM SONIC LOG
ILD    .OHMM   : DEEP INDUCTION FROM RESISTIVITY LOG
ILM    .OHMM   : MEDIUM INDUCTION FROM RESISTIVITY LOG
MCAL   .MM     : CALIPER FROM MICROLOG
NPHI_LS.DEC    : NEUTRON POROSITY LIMESTONE FROM DENSITY LOG
NPHI_SS.DEC    : NEUTRON POROSITY SANDSTONE FROM DENSITY LOG
RHOB   .KG/M3  : BULK DENSITY FROM DENSITY LOG
SFL    .OHMM   : SPHERICALLY FOCUSED FROM RESISTIVITY LOG
SPR    .MV     : SPONTANEOUS POTENTIAL FROM RESISTIVITY LOG
~Params ----------------------------------------------------
PD  .                       GL : PERMANENT DATUM
EPD .M                  764.08 : ELEVATION PERMANENT DATUM
LMF .                       KB : LOG MEASURED FROM
DAPD.M                       5 : FEET ABOVE PERMANENT DATUM
DMF .                       KB : DRILLING MEASURED FROM
EKB .M                  769.08 : KELLY BUSHING
EGL .M                  764.08 : GROUND LEVEL
DATE.                 01/13/79 : RUN DATE
RUN .                        2 : RUN NUMBER
DD  .M                    3074 : DEPTH DRILLER
DL  .M                    3074 : DEPTH LOGGER
BLI .M                    3073 : BOTTOM LOG INTERVAL
TLI .M                    1370 : TOP LOG INTERVAL
CS  .MM                    244 : CASING SIZE
CBD .M                     462 : CASING BOTTOM DRILLER
CBL .M                     461 : CASING BOTTOM LOGGER
BS  .MM                    222 : BIT SIZE
BSD .M                    3074 : BIT SIZE AT DEPTH
DFT .                GEL BENEX : DRILLING FLUID TYPE
DFD .                     1150 : DRILLING FLUID DENSITY
DFV .                      125 : DRILLING FLUID VISCOSITY
DFPH.                        9 : DRILLING FLUID PH
DFL .                     10.2 : DRILLING FLUID LOSS
MSS .                     CIRC : MUD SAMPLE SOURCE
RMS .OHMM                 2.29 : RESISTIVITY MUD SAMPLE
MST .DEGC                 12.2 : MUD SAMPLE TEMPERATURE
RMF .OHMM                 2.26 : RESISTIVITY MUD FILTRATE SAMPLE
MFST.DEGC                 11.7 : MUD FILTRATE SAMPLE TEMPERATURE
RMC .OHMM                  2.2 : RESISTIVITY MUD CAKE
MCST.DEGC                 11.1 : MUD CAKE SAMPLE TEMPERATURE
MFSS.                    PRESS : MUD FILTRATE SAMPLE SOURCE
MCSS.                    PRESS : MUD CAKE SAMPLE SOURCE
RMB .OHMM                 0.63 : RESISTIVITY MUD AT BHT
TCS .HRS                  1345 : TIME CIRCULATED STOPPED
TLAB.HRS                  2000 : TIME LOGGER AT BOTTOM
LUN .                     7802 : LOGGING UNIT NUMBER
LUL .                      EDM : LOGGING UNIT LOCATION
ENGI.                CROCKFORD : RECORDING ENGINEER
WITN.                   SIFERD : WITNESSED BY
CLNT.                  A2DTECH : CLIENT CODE
ORIG. 6IN/100M 16IN/100M PRINT : ORIGIN OF DATA
UWI .         100102306520W500 : UNIQUE WELL ID
DICO.   A2D Technologies, Inc. : DIGITIZING COMPANY
~Other -----------------------------------------------------
~ASCII -----------------------------------------------------
  300.00000    -999.25    -999.25    -999.25    -999.25    -999.25    -999.25   96.97960    -999.25    -999.25    -999.25    -999.25    -999.25    -999.25    -999.25    -999.25    -999.25    -999.25
  350.00000    -999.25    -999.25    -999.25    -999.25    -999.25    -999.25   42.22230    -999.25    -999.25    -999.25    -999.25    -999.25    -999.25    -999.25    -999.25    -999.25    -999.25
  400.00000    -999.25    -999.25    -999.25    -999.25    -999.25    -999.25   73.18340    -999.25    -999.25    -999.25    -999.25    -999.25    -999.25    -999.25    -999.25    -999.25    -999.25
  450.00000    -999.25    -999.25    -999.25    -999.25    -999.25    -999.25   70.70870    -999.25   56.52340    -999.25    -999.25    -999.25    -999.25    -999.25    -999.25    -999.25    -999.25
  500.00000  233.55930  254.27070    -999.25    0.16270   42.34190  329.51980    -999.25   87.50040   87.57460    7.04350    6.24320    -999.25    -999.25    0.35700 2366.85110    8.88740  -20.97340
  550.00000  225.77050  222.67390    -999.25    0.23880   56.37300  332.88380    -999.25   73.27480   55.71650    6.49810    5.04250    -999.25    -999.25    0.41480 2254.11870    5.46410  -24.41950
  600.00000  239.21450  251.21660    -999.25    0.20050  114.44320  389.13790    -999.25   75.21110   77.27500    4.17530    3.61570    -999.25    -999.25    0.44910 2292.56400    3.60910  -23.45390
  650.00000  226.64930  248.62380    -999.25    0.14200   34.64420  261.77210    -999.25   52.62860   47.28540   12.07160   10.03770    -999.25    -999.25    0.22240 2409.60640   15.57390  -27.54610
  700.00000  239.05490  250.33050    -999.25    0.18530   83.17920  407.20440    -999.25   74.87380   66.39730    4.85840    4.23360    -999.25    -999.25    0.39130 2363.42680    4.65270  -25.85860
  750.00000  238.42400  256.68140    -999.25    0.16080   65.39840  355.56580    -999.25   91.63850   72.34410    4.57080    4.17510    -999.25    -999.25    0.43210 2393.33250    5.14530  -25.27380
  800.00000  250.49770  233.76720    -999.25    0.21930  189.08670  324.87660    -999.25  105.21150   99.37930    7.66800    6.61820    -999.25    -999.25    0.35290 2286.23360    8.63740  -28.65730
  850.00000  241.37260  238.09950    -999.25    0.09180  103.38880  333.51480    -999.25  135.20580  139.95080    8.09550    7.07040    -999.25    -999.25    0.38550 2476.64940   10.82180  -26.88190
  900.00000  256.34050  247.28020    -999.25    0.17060  176.21970  323.23610    -999.25  116.59090  114.13350    8.20170    6.99600    -999.25    -999.25    0.33860 2385.69900    9.42590  -30.16870
  950.00000  242.30390  246.51310    -999.25    0.12520  107.58850  322.75680    -999.25  120.08720  109.61620    7.11050    6.23670    -999.25    -999.25    0.37460 2448.60740    8.76170  -30.71440
 1000.00000  219.63640  254.77450    -999.25    0.20010  133.20540  288.91550    -999.25  121.70660  109.08010    9.50290    7.90270    -999.25    -999.25    0.33660 2351.27270   11.25980  -29.02930
 1050.00000  220.03900  257.02660    -999.25    0.23940   31.00520  292.35120    -999.25  127.69720  144.78080    8.54540    7.24970    -999.25    -999.25    0.32720 2262.36160   10.11230  -27.33120
 1100.00000  219.82870  253.46550    -999.25    0.19720  138.02210  320.89060    -999.25  151.16820  135.06670    7.69890    6.63340    -999.25    -999.25    0.40910 2350.13960   10.31550  -25.48280
 1150.00000  221.12080  225.59480    -999.25    0.13810   20.54350  296.57060    -999.25  167.18960  153.82810   10.69480    8.48440    -999.25    -999.25    0.39330 2403.56790   15.58440  -24.55360
 1200.00000  227.48490  245.52090    -999.25    0.08280   66.74050  295.71080    -999.25  123.33280  114.43210    6.22770    5.78620    -999.25    -999.25    0.30570 2535.62210    9.37130  -25.32140
 1250.00000  224.47810  238.37120    -999.25    0.06850   61.96510  291.84060    -999.25  128.80180  120.90590    5.72750    5.25030    -999.25    -999.25    0.32690 2544.60570    9.81600  -24.18010
 1300.00000  223.70160  261.41850    -999.25    0.10350   69.92440  304.52510    -999.25  145.66630  132.24750    4.64660    4.46800    -999.25    -999.25    0.37610 2496.31840    7.34810  -22.78140
 1350.00000  224.21120  233.06000    -999.25    0.09470   37.94170  286.65080    -999.25  117.26160  109.73820    4.62000    4.30260    -999.25    -999.25    0.30670 2487.75070    6.54930  -21.69570
 1400.00000  223.77100  239.40750    -999.25    0.12980   64.54410  354.96040    -999.25  120.08900   99.67690    3.03250    2.77650  241.95850    -999.25    0.35420 2431.79390    3.11750  -22.58020
 1450.00000  222.25320  231.90080    -999.25    0.09220   46.57060  251.34320    -999.25   83.21530   62.49770    8.61720    7.57420  235.06960    -999.25    0.25710 2501.58150   14.93640  -22.53050
 1500.00000  246.88510  240.21440    -999.25    0.07260   66.80620  238.33480    -999.25   57.70910   55.44100   11.19210   10.60960  226.88810    -999.25    0.24180 2528.23240   15.04570  -38.79550
 1550.00000  247.32110  237.96260    -999.25    0.05960   12.80230  248.64300    -999.25   91.43140   99.18050   10.78690   10.31460  232.27030    -999.25    0.28700 2568.25020   13.79860  -42.16920
 1600.00000  245.66440  236.47360    -999.25    0.05310   15.13900  262.60800    -999.25   94.34450   89.13160    7.70070    8.25560  236.90220    -999.25    0.27950 2581.07910    8.23040  -65.25830
 1650.00000  214.89060  216.69080    -999.25    0.16610  159.17030  242.75210    -999.25   33.28610   30.40410    5.49370    8.10410  204.50330    -999.25    0.19470 2383.35550   16.78290 -137.53030
 1700.00000  280.41970  262.76320    -999.25    0.16680  230.64150  283.21980    -999.25  116.63230  108.40190    4.05820    3.93660  244.47980    -999.25    0.33590 2378.17920    4.80820  -58.59610
 1750.00000  289.11400  272.13170    -999.25    0.19640  130.90580  340.69250    -999.25  108.90560  108.03540    3.57890    3.71860  230.43450    -999.25    0.47380 2321.92990    4.63910  -59.12870
 1800.00000  249.81250  245.47640    -999.25    0.03430    8.38530  214.49240    -999.25   85.97350   88.52770    6.10700    6.31940  223.41170    -999.25    0.15390 2595.01980   10.28530  -89.65070
 1850.00000  233.95260  232.36010    -999.25    0.01820   43.84960  206.50760    -999.25   84.49090   77.85960   13.92490   13.48090  224.86400    -999.25    0.14120 2593.63600   16.03450  -81.23330
 1900.00000  230.75350  227.08440    -999.25    0.02210   29.70790  164.67540    -999.25   43.89960   36.53310   37.84200   98.27270  229.29540    -999.25    0.05040 2641.85500 1144.86490 -109.13760
 1950.00000  233.73780  236.97770    0.01690    -999.25    5.13280  164.32340    -999.25   25.35210   25.51800  110.60900  160.39350  236.19290    0.01520    -999.25 2687.85640 1047.99630  -42.91730
 2000.00000  250.73130  258.66750    0.03250    -999.25   -6.42800  164.16880    -999.25   18.13790   18.36370  118.92900  158.74620  246.76690    0.01310    -999.25 2674.20460  750.12600  -50.72990
 2050.00000  255.65660  266.31250    0.05790    -999.25   10.53880  204.04530    -999.25   69.77110   69.40780    4.64400    5.05880  229.88830    0.11260    -999.25 2635.21730    6.49460  -43.36610
 2100.00000  244.98650  249.38610    0.02890    -999.25    5.44320  196.26780    -999.25   54.42920   57.10810   27.94900   26.40380  236.86200    0.07560    -999.25 2665.89700   29.36670  -43.77130
 2150.00000  233.69860  230.45250    0.00100    -999.25   19.69470  173.78140    -999.25   34.90830   33.72350   84.30160   87.19520  224.94370    0.02370    -999.25 2706.45340  101.65230  -26.83030
 2200.00000  229.85500  225.68350   -0.00010    -999.25   14.21060  182.81090    -999.25   53.35720   51.81150   52.43080   54.22810  224.62700    0.04650    -999.25 2713.51390   66.99410  -26.34960
 2250.00000  233.53670  229.26530    0.04320    -999.25   10.47270  193.49420    -999.25  102.95110  101.28580   17.43910   16.65430  223.72140    0.07320    -999.25 2644.76680   20.97310  -25.66660
 2300.00000  228.42400  225.56920   -0.00320    -999.25   -5.65120  161.24440    -999.25   17.46930   17.23470  359.61490  457.80730  219.86130    0.00960    -999.25 2718.77000  540.87070  -47.72680
