~Version ---------------------------------------------------
VERS.      2.0 : CWLS log ASCII Standard -VERSION 2.0
WRAP.       NO : One line per depth step
CREA. 11/14/17 : LAS Creation Date
~Well ------------------------------------------------------
STRT.FT                       1050.0 : START DEPTH
STOP.FT                      10150.0 : STOP DEPTH
STEP.FT                     50.00000 : STEP LENGTH
NULL.                        -999.25 : NULL VALUE
COMP.           CHEVRON STANDARD LTD : COMPANY
WELL. CHEVRON GULF FOXCK 12-35-61-18 : WELL
FLD .                      FOX CREEK : FIELD
LOC .                                : LOCATION
CTRY.                         CANADA : COUNTRY
SRVC.                   Schlumberger : SERVICE COMPANY
DATE.                    30-Mar-1976 : LOGDATE
PROV.                        Alberta : PROVINCE
UWI .               100123506118W500 : UNIQUE WELL ID
SLAT.WGS84                  54.32239 : SURFACE LATITUDE
SLON.WGS84                 -116.5968 : SURFACE LONGITUDE
~Curve Information -----------------------------------------
DEPT    .FT    : Depth Curve
CALDED  .IN    : CALIPER FROM DENSITY LOG [ADJ. TO SONIC LOG]
CALSED  .IN    : CALIPER FROM SONIC LOG
CALWS   .IN    : CALIPER [CALSED]
CONDWS  .OHMM  : CONDUCTIVITY [1000/DRESWS]
DCORED  .G/C3  : DENSITY CORRECTION FROM DENSITY LOG [ADJ. TO SONIC LOG]
DCORWS  .G/C3  : DENSITY CORRECTION [DCORED]
DENWS   .G/C3  : FORMATION BULK DENSITY [RHOBED]
DPHILSED.V/V   : DENSITY POROSITY LIME FROM DENSITY LOG [ADJ. TO RHOBED]
DPHISSED.V/V   : DENSITY POROSITY SAND FROM DENSITY LOG [ADJ. TO RHOBED]
DPOWS   .V/V   : DENSITY POROSITY LIME [CALC. FROM DENWS M=2710, F=1000]
DRESWS  .OHMM  : DEEP RESISTIVITY [ILDED]
DTED    .US/F  : DELTA-T FROM SONIC LOG
DTWS    .US/F  : COMPRESSIONAL SONIC [DTED]
GRDED   .GAPI  : GAMMA RAY FROM DENSITY LOG [ADJ. TO SONIC LOG]
GRSED   .GAPI  : GAMMA RAY FROM SONIC LOG
GRWS    .GAPI  : GAMMA RAY [GRSED]
ILDED   .OHMM  : DEEP INDUCTION FROM RESISTIVITY LOG
ILMED   .OHMM  : MEDIUM INDUCTION FROM RESISTIVITY LOG
LL8ED   .OHMM  : LATEROLOG 8 FROM RESISTIVITY LOG
MRESWS  .OHMM  : MEDIUM RESISTIVITY [ILMED]
NPHILSED.V/V   : NEUTRON POROSITY LIME FROM DENSITY LOG [ADJ. TO RHOBED]
NPHISSED.V/V   : NEUTRON POROSITY SAND FROM DENSITY LOG [ADJ. TO RHOBED]
NPOWS   .V/V   : NEUTRON POROSITY LIME [SS MATRIX CONVERTED FOR LS, SPL. TO NPHISSED @ 6719']
RHOBED  .G/C3  : BULK DENSITY FROM DENSITY LOG [ADJ. TO SONIC LOG]
SPRED   .MV    : SPONTANEOUS POTENTIAL FROM RESISTIVITY LOG
SPWS    .MV    : SPONTANEOUS POTENTIAL [BASELINE 0 MV, SPRED]
SRESWS  .OHMM  : SHALLOW RESISTIVITY [LL8ED]
TENDED  .LBF   : TENSION FROM DENSITY LOG [ADJ. TO GRSED]
TENSED  .LBF   : TENSION FROM SONIC LOG
~Params ----------------------------------------------------
PD  .                     GL : PERMANENT DATUM
EPD .FT               2712.6 : ELEVATION PERMANENT DATUM
LMF .                     KB : LOG MEASURED FROM
DAPD.FT                 16.4 : FEET ABOVE PERMANENT DATUM
DMF .                     KB : DRILLING MEASURED FROM
EKB .FT                 2729 : KELLY BUSHING
EDF .FT               2712.6 : DRILLING FLOOR
DATE.               03/30/76 : RUN DATE
RUN .                      1 : RUN NUMBER
DD  .FT                10180 : DEPTH DRILLER
DL  .FT                10178 : DEPTH LOGGER
BLI .FT                10176 : BOTTOM LOG INTERVAL
TLI .FT                 1117 : TOP LOG INTERVAL
CBD .FT                 1117 : CASING BOTTOM DRILLER
CBL .FT              1116.91 : CASING BOTTOM LOGGER
BS  .IN                 8.75 : BIT SIZE
BSD .FT                10180 : BIT SIZE AT DEPTH
DFT .               GEL CHEM : DRILLING FLUID TYPE
DFD .                    9.6 : DRILLING FLUID DENSITY
DFV .                    110 : DRILLING FLUID VISCOSITY
DFPH.                   10.5 : DRILLING FLUID PH
DFL .                      9 : DRILLING FLUID LOSS
RMF .OHMM               1.22 : RESISTIVITY MUD FILTRATE SAMPLE
MFST.DEGF                 68 : MUD FILTRATE SAMPLE TEMPERATURE
TCS .HRS                   3 : TIME CIRCULATED STOPPED
LUN .                   7691 : LOGGING UNIT NUMBER
LUL .                    WCT : LOGGING UNIT LOCATION
ENGI.                 KOVACS : RECORDING ENGINEER
WITN.            WONG MCLEOD : WITNESSED BY
CLNT.                A2DTECH : CLIENT CODE
ORIG.            2" 5" PRINT : ORIGIN OF DATA
UWI .       100123506118W500 : UNIQUE WELL ID
DICO. A2D Technologies, Inc. : DIGITIZING COMPANY
~Other -----------------------------------------------------
~ASCII -----------------------------------------------------
# ...
 4800.00000   11.55960   10.10630   10.10630  161.32770    0.02510    0.02510    2.49560    -999.25    0.10440    0.12540    6.19960   85.48870   85.48870  104.34330  103.32520  103.32520    6.19960    6.41810    7.24970    6.41810    -999.25    0.28230    0.23830    2.49560  -91.18370   -5.53620    7.24970 1486.58430 1117.34700
 4850.00000   12.17360   10.24690   10.24690  173.96750    0.08840    0.08840    2.59080    -999.25    0.03480    0.06970    5.74820   86.66810   86.66810  110.91900  102.12770  102.12770    5.74820    5.92820    6.69440    5.92820    -999.25    0.31040    0.26650    2.59080  -89.84320   -4.65890    6.69440 2411.07480    0.00000
 4900.00000   11.94800   10.33950   10.33950  125.02360    0.07830    0.07830    2.57920    -999.25    0.04550    0.07650    7.99890   76.48150   76.48150   99.15520   98.34780   98.34780    7.99890    8.25800    8.05190    8.25800    -999.25    0.24450    0.20070    2.57920  -91.66940   -6.94360    8.05190 2952.71790    0.00000
 4950.00000   13.81600   10.97160   10.97160  205.17870    0.04370    0.04370    2.45120    -999.25    0.12470    0.15130    4.87380   87.51460   87.51460  104.86900  108.57310  108.57310    4.87380    5.02470    5.69130    5.02470    -999.25    0.32870    0.28490    2.45120  -88.89430   -4.63160    5.69130 4063.49030 1100.74920
 5000.00000   15.20530   12.18320   12.18320  232.21250    0.05240    0.05240    2.51400    -999.25    0.08520    0.11460    4.30640   88.92110   88.92110  108.61320  101.95130  101.95130    4.30640    4.44400    5.08030    4.44400    -999.25    0.30670    0.26270    2.51400  -88.57440   -4.77250    5.08030 4605.17700  249.57660
 5050.00000   14.99050   10.39350   10.39350  211.69270    0.06800    0.06800    2.56790    -999.25    0.05770    0.08310    4.72380   87.57210   87.57210  124.45150  116.71280  116.71280    4.72380    4.87060    5.86360    4.87060    -999.25    0.31590    0.27200    2.56790  -87.26370   -3.92030    5.86360 4286.72670 3969.00580
 5100.00000   13.77570   12.17150   12.17150  415.92150    0.07530    0.07530    2.41580    -999.25    0.16610    0.17200    2.40430   95.79990   95.79990   98.56500   86.29790   86.29790    2.40430    2.47880    3.21180    2.47880    -999.25    0.39600    0.35300    2.41580  -85.64080   -2.76050    3.21180 1151.33620 3322.65920
 5150.00000   12.82410   10.51110   10.51110  359.78340    0.05710    0.05710    2.39310    -999.25    0.16070    0.18540    2.77950   96.43030   96.43030  103.03610   96.52610   96.52610    2.77950    3.01370    3.61460    3.01370    -999.25    0.36550    0.32210    2.39310  -85.80220   -3.38040    3.61460 2165.65960 2075.26310
 5200.00000   11.72160   11.09610   11.09610  224.13480    0.15170    0.15170    2.45440    -999.25    0.12900    0.14950    4.46160   86.66330   86.66330   99.81060   94.56900   94.56900    4.46160    4.60960    5.10320    4.60960    -999.25    0.33910    0.29540    2.45440  -86.08540   -4.86780    5.10320 1867.45150 3539.50630
 5250.00000    9.96010   10.35940   10.35940  165.03280    0.19160    0.19160    2.42400    -999.25    0.15810    0.16730    6.05940   85.65750   85.65750   87.69600   86.76780   86.76780    6.05940    6.29970    8.07130    6.29970    -999.25    0.34730    0.30360    2.42400  -86.19920   -6.33530    8.07130 2961.48930 1579.01240
 5300.00000   12.48330   10.65960   10.65960  172.00910    0.19540    0.19540    2.10160    -999.25    0.33670    0.35580    5.81400   81.69460   81.69460   76.10890   73.88360   73.88360    5.81400    6.00590    6.02560    6.00590    -999.25    0.30930    0.26540    2.10160  -87.75460   -9.23770    6.02560 3436.50390 1741.88790
 5350.00000   11.69340   11.09440   11.09440  141.74750    0.09580    0.09580    2.49870    -999.25    0.10820    0.12360    7.05480   75.93730   75.93730   72.83140   71.33200   71.33200    7.05480    8.47490   13.24810    8.47490    -999.25    0.25530    0.21140    2.49870  -87.98970  -10.83310   13.24810 3886.66900    0.00000
 5400.00000   11.61670   11.05300   11.05300   60.01100    0.01100    0.01100    2.51800    -999.25    0.10020    0.11230   16.74210   65.54950   65.54950   64.51890   62.84750   62.84750   16.74210   15.10870   29.46310   15.10870    -999.25    0.21920    0.17560    2.51800  -93.42860  -17.61890   29.46310 5028.14310 1011.60680
 5450.00000   12.90110   12.18680   12.18680  128.40930    0.18660    0.18660    2.12990    -999.25    0.30680    0.33920    7.78760   80.95740   80.95740   71.98120   68.68330   68.68330    7.78760    8.09280   10.19310    8.09280    -999.25    0.32420    0.28030    2.12990  -83.80840   -9.35920   10.19310 3490.25940   86.10420
 5500.00000   14.00450   13.30510   13.30510   87.46300    0.06810    0.06810    1.63060    -999.25    0.58450    0.63120   11.43340  126.28800  126.28800   73.64100   65.38200   65.38200   11.43340   14.47620   15.70200   14.47620    -999.25    0.52750    0.48580    1.63060  -84.99630  -11.90070   15.70200 4755.66770  415.12940
 5550.00000   11.58840   11.26560   11.26560   88.53180    0.04220    0.04220    2.59090    -999.25    0.04030    0.06960   11.29540   74.63630   74.63630   87.56060   83.61350   83.61350   11.29540   12.37770   13.14740   12.37770    -999.25    0.24730    0.20340    2.59090  -88.64450  -16.89590   13.14740 3693.06310  153.58780
 5600.00000   11.72810   11.66760   11.66760   95.49640    0.04670    0.04670    2.49600    -999.25    0.09720    0.12510   10.47160   72.75940   72.75940   45.49620   42.24850   42.24850   10.47160   11.76440   14.00620   11.76440    -999.25    0.20670    0.16310    2.49600 -109.46710  -39.07890   14.00620 4547.47190  380.78100
 5650.00000   11.66320   11.14100   11.14100   80.89790    0.02640    0.02640    2.41440    -999.25    0.19280    0.17290   12.36130   74.99370   74.99370   49.26490   45.91040   45.91040   12.36130   13.39610   18.06510   13.39610    -999.25    0.33560    0.29180    2.41440 -101.09240  -32.05100   18.06510 4854.67940  877.87010
 5700.00000   11.82680   11.12660   11.12660   70.44390    0.01650    0.01650    2.60330    -999.25    0.02780    0.06240   14.19570   71.62060   71.62060   73.51050   70.50390   70.50390   14.19570   14.72400   17.11570   14.72400    -999.25    0.24660    0.20270    2.60330  -90.01530  -22.33440   17.11570 1818.10990 1365.35390
 5750.00000   11.29450   10.74040   10.74040   69.37650    0.03660    0.03660    2.58300    -999.25    0.04400    0.07430   14.41410   70.98140   70.98140   77.14230   66.85580   66.85580   14.41410   14.77940   16.98570   14.77940    -999.25    0.22510    0.18140    2.58300  -88.19150  -21.86430   16.98570 3707.94770 2802.07320
 5800.00000   11.50160   10.49120   10.49120   85.19000    0.03900    0.03900    2.52480    -999.25    0.07910    0.10830   11.74420   68.99790   68.99790   54.28530   51.66260   51.66260   11.74420   13.19760   14.17160   13.19760    -999.25    0.16790    0.12500    2.52480  -98.74150  -33.76110   14.17160 3776.22180 3099.37530
 5850.00000    9.86030    9.74370    9.74370  184.17560    0.18930    0.18930    2.26450    -999.25    0.23920    0.26050    5.42960   73.95950   73.95950   50.91790   51.67520   51.67520    5.42960    7.22350   10.82680    7.22350    -999.25    0.29860    0.25460    2.26450 -117.46550  -53.84560   10.82680 3172.70930 2846.45600
 5900.00000   10.37530   10.08770   10.08770   84.71430    0.02380    0.02380    2.59740    -999.25    0.03500    0.06580   11.80480   73.30280   73.30280   82.15630   78.65180   78.65180   11.80480   12.57100   13.24770   12.57100    -999.25    0.28360    0.23950    2.59740  -66.25470   -3.98170   13.24770 3230.33510 3932.70460
 5950.00000   10.66480   10.37630   10.37630   84.60450    0.00300    0.00300    2.54970    -999.25    0.07660    0.09380   11.81970   75.77560   75.77560   76.36070   76.80320   76.80320   11.81970   12.91810   16.08150   12.91810    -999.25    0.27500    0.23100    2.54970  -66.05530   -5.14270   16.08150 3060.42220 1934.76600
 6000.00000   11.08850   10.61700   10.61700  130.18970    0.14750    0.14750    2.63270    -999.25    0.02910    0.04520    7.68110   72.69240   72.69240   81.27840   73.38990   73.38990    7.68110    7.95810   11.61050    7.95810    -999.25    0.24540    0.20150    2.63270  -63.01620   -2.89980   11.61050 3452.44450   33.42540
