~Version ---------------------------------------------------
VERS.      2.0 : CWLS log ASCII Standard -VERSION 2.0
WRAP.       NO : One line per depth step
CREA. 01/02/18 : LAS Creation Date
~Well ------------------------------------------------------
STRT.FT                     2050.0 : START DEPTH
STOP.FT                    11200.0 : STOP DEPTH
STEP.FT                   50.00000 : STEP LENGTH
NULL.                      -999.25 : NULL VALUE
COMP.     CHEVRON STANDARD LIMITED : COMPANY
WELL. CHEVRON KAYBOB S 10-19-60-18 : WELL
FLD .                              : FIELD
LOC .                              : LOCATION
CTRY.                       CANADA : COUNTRY
SRVC.                      Unknown : SERVICE COMPANY
DATE.                  02-Dec-1969 : LOGDATE
PROV.                      Alberta : PROVINCE
UWI .             100101906018W500 : UNIQUE WELL ID
SLAT.WGS84                54.20497 : SURFACE LATITUDE
SLON.WGS84               -116.6847 : SURFACE LONGITUDE
~Curve Information -----------------------------------------
DEPT  .FT    : Depth Curve
ACED  .US/F  : DELTA TIME FROM SONIC LOG [ADJ. TO RESISTIVITY LOG]
CALSED.IN    : CALIPER FROM SONIC LOG [ADJ. TO RESISTIVITY LOG]
CALWS .IN    : CALIPER [CALSED]
CONDWS.MMHO  : CONDUCTIVITY [1000/DRESWS]
DRESWS.OHMM  : DEEP RESISTIVITY [ILDED]
DTWS  .US/F  : COMPRESSIONAL SONIC [ACED]
GRSED .GAPI  : GAMMA RAY FROM SONIC LOG [ADJ. TO RESISTIVITY LOG]
GRWS  .GAPI  : GAMMA RAY [GRSED]
ILDED .OHMM  : DEEP INDUCTION FROM RESISTIVITY LOG
ILMED .OHMM  : MEDIUM INDUCTION FROM RESISTIVITY LOG
MRESWS.OHMM  : MEDIUM RESISTIVITY [ILMED]
SFLED .OHMM  : SPHERICALLY FOCUSED RESISTIVITY FROM RESISTIVITY LOG
SPRED .MV    : SPONTANEOUS POTENTIAL FROM RESISTIVITY LOG
SPWS  .MV    : SPONTANEOUS POTENTIAL [BASELINE 0 MV, SPRED]
SRESWS.OHMM  : SHALLOW RESISTIVITY [SFLED]
~Params ----------------------------------------------------
PD  .                     GL : PERMANENT DATUM
EPD .FT               3271.7 : ELEVATION PERMANENT DATUM
LMF .                     KB : LOG MEASURED FROM
DAPD.FT                 15.5 : FEET ABOVE PERMANENT DATUM
DMF .                     KB : DRILLING MEASURED FROM
EKB .FT               3287.2 : KELLY BUSHING
EGL .FT               3271.7 : GROUND LEVEL
DATE.               12/02/69 : RUN DATE
RUN .                      1 : RUN NUMBER
DD  .FT                11226 : DEPTH DRILLER
DL  .FT                11223 : DEPTH LOGGER
BLI .FT                11221 : BOTTOM LOG INTERVAL
TLI .FT                 2044 : TOP LOG INTERVAL
CS  .IN                9.625 : CASING SIZE
CBD .FT                 2041 : CASING BOTTOM DRILLER
CBL .FT                 2044 : CASING BOTTOM LOGGER
BS  .IN                 8.75 : BIT SIZE
BSD .FT                11226 : BIT SIZE AT DEPTH
DFT .                MUD GEL : DRILLING FLUID TYPE
DFD .                    9.2 : DRILLING FLUID DENSITY
DFV .                    124 : DRILLING FLUID VISCOSITY
DFPH.                   11.4 : DRILLING FLUID PH
DFL .                    7.6 : DRILLING FLUID LOSS
MSS .                   CIRC : MUD SAMPLE SOURCE
RMS .OHMM               1.75 : RESISTIVITY MUD SAMPLE
MST .DEGF                 50 : MUD SAMPLE TEMPERATURE
RMF .OHMM               1.25 : RESISTIVITY MUD FILTRATE SAMPLE
MFST.DEGF                 60 : MUD FILTRATE SAMPLE TEMPERATURE
RMC .OHMM                2.1 : RESISTIVITY MUD CAKE
MCST.DEGF                 60 : MUD CAKE SAMPLE TEMPERATURE
MFSS.                   MEAS : MUD FILTRATE SAMPLE SOURCE
MCSS.                   MEAS : MUD CAKE SAMPLE SOURCE
TCS .HRS                   7 : TIME CIRCULATED STOPPED
LUN .                   6002 : LOGGING UNIT NUMBER
LUL .                    V V : LOGGING UNIT LOCATION
ENGI.              KOWALCHUK : RECORDING ENGINEER
WITN.               PETERSON : WITNESSED BY
CLNT.                A2DTECH : CLIENT CODE
ORIG.            2" 5" PRINT : ORIGIN OF DATA
UWI .       100101906018W500 : UNIQUE WELL ID
DICO. A2D Technologies, Inc. : DIGITIZING COMPANY
~Other -----------------------------------------------------
~ASCII -----------------------------------------------------
# ...
 8950.00000   51.21080   11.19400   11.19400    4.49740  222.45050   51.21080   30.81890   30.81890  222.45050  304.33610  304.33610  431.36780 -145.92930 -113.69780  431.36780
 9000.00000   52.75200   10.64640   10.64640    5.28700  189.14180   52.75200   30.75100   30.75100  189.14180  213.22380  213.22380  309.34250 -156.56630 -125.21520  309.34250
 9050.00000   53.98240   10.96590   10.96590    4.99920  200.03060   53.98240   30.25260   30.25260  200.03060  218.90210  218.90210  413.60930 -149.07750 -118.60690  413.60930
 9100.00000   51.54240   10.48570   10.48570    9.62130  103.93650   51.54240   27.33610   27.33610  103.93650  117.42570  117.42570  140.09750 -149.49660 -119.91230  140.09750
 9150.00000   51.79200   10.30500   10.30500    6.39990  156.25300   51.79200   30.86010   30.86010  156.25300  166.44670  166.44670  553.67990 -150.53260 -121.82870  553.67990
 9200.00000   51.82760   10.81650   10.81650    5.77230  173.24720   51.82760   28.52680   28.52680  173.24720  198.30490  198.30490  557.24340 -153.26520 -125.44760  557.24340
 9250.00000   53.92400   10.87210   10.87210    9.10660  109.80990   53.92400   24.36420   24.36420  109.80990  132.09210  132.09210  169.49370 -158.67460 -131.73740  169.49370
 9300.00000   51.78400   10.52430   10.52430   12.06980   82.85110   51.78400   30.77840   30.77840   82.85110   91.83270   91.83270  121.18810 -152.94110 -126.88440  121.18810
 9350.00000   52.21040   10.35810   10.35810    7.44530  134.31310   52.21040   31.79130   31.79130  134.31310  167.30130  167.30130  350.61250 -147.49260 -122.32220  350.61250
 9400.00000   64.75360    9.62910    9.62910   80.62050   12.40380   64.75360   72.54430   72.54430   12.40380   15.42700   15.42700   18.25600 -125.12060 -100.83060   18.25600
 9450.00000   49.64680   10.20000   10.20000   16.41220   60.93490   49.64680   45.36320   45.36320   60.93490  103.96200  103.96200   64.72150 -148.34680 -124.94310   64.72150
 9500.00000   55.34000   10.44980   10.44980   10.12130   98.80140   55.34000   39.53180   39.53180   98.80140   88.94640   88.94640  158.94500 -138.46470 -115.94150  158.94500
 9550.00000   53.87520   10.60270   10.60270   11.42030   87.56340   53.87520   40.65300   40.65300   87.56340   74.98550   74.98550  518.17800 -120.75850  -99.11570  518.17800
 9600.00000   54.17840    9.69240    9.69240   15.06800   66.36600   54.17840   48.32450   48.32450   66.36600   61.20680   61.20680  109.87560  -72.87580  -52.11930  109.87560
 9650.00000   55.59280    9.64950    9.64950   23.53390   42.49190   55.59280   56.00210   56.00210   42.49190   40.54890   40.54890   58.72060  -64.90700  -45.03100   58.72060
 9700.00000   51.63440    9.67610    9.67610    6.88420  145.27010   51.63440   43.34960   43.34960  145.27010  122.13690  122.13690  354.89970  -75.63560  -56.64580  354.89970
 9750.00000   53.28000    9.62430    9.62430   14.32270   69.81920   53.28000   43.51980   43.51980   69.81920   60.10640   60.10640   96.61680  -65.99880  -47.88950   96.61680
 9800.00000   53.90640    9.70300    9.70300   16.34160   61.19370   53.90640   44.21010   44.21010   61.19370   53.77640   53.77640  101.78070  -61.31190  -44.08310  101.78070
 9850.00000   58.29440    9.70560    9.70560   24.69390   40.49590   58.29440   51.63130   51.63130   40.49590   37.95400   37.95400   58.47670  -57.31130  -40.96870   58.47670
 9900.00000   61.78000   10.26180   10.26180   70.80050   14.12420   61.78000   70.51870   70.51870   14.12420   16.03240   16.03240   17.53820  -52.65530  -37.19320   17.53820
 9950.00000   70.04760   10.74050   10.74050  149.69120    6.68050   70.04760   95.63920   95.63920    6.68050    8.06400    8.06400    9.07480  -47.70250  -33.12660    9.07480
 10000.00000   72.78160   10.66300   10.66300  197.35540    5.06700   72.78160  113.31780  113.31780    5.06700    6.39070    6.39070    7.41690  -45.17840  -31.48300    7.41690
 10050.00000   62.62320   10.11980   10.11980   71.66610   13.95360   62.62320   78.06100   78.06100   13.95360   16.35160   16.35160   17.18590  -42.42570  -29.61080   17.18590
 10100.00000   79.01920   10.32570   10.32570  100.13420    9.98660   79.01920  132.89530  132.89530    9.98660   11.24230   11.24230   16.09550  -42.58480  -30.65610   16.09550
 10150.00000   80.24800   10.49280   10.49280  156.35020    6.39590   80.24800  107.98280  107.98280    6.39590    7.46100    7.46100    9.46350  -43.76470  -32.71650    9.46350
 10200.00000   85.32700   13.21240   13.21240  202.79510    4.93120   85.32700  113.05980  113.05980    4.93120    5.79430    5.79430    6.04540  -43.25400  -33.09210    6.04540
 10250.00000   70.29280   10.74130   10.74130   88.69650   11.27440   70.29280  112.90320  112.90320   11.27440   13.08100   13.08100   13.22330  -35.79060  -26.50910   13.22330
 10300.00000   68.90960   11.25640   11.25640  105.76860    9.45460   68.90960  104.75310  104.75310    9.45460   11.05220   11.05220   12.57660  -35.62360  -27.22260   12.57660
 10350.00000   64.61040   10.28610   10.28610   89.76980   11.13960   64.61040  100.29280  100.29280   11.13960   13.68450   13.68450   14.26450  -34.13970  -26.62490   14.26450
 10400.00000   75.26160   10.39270   10.39270  158.77550    6.29820   75.26160  140.22630  140.22630    6.29820    7.75520    7.75520    8.72210  -33.29260  -26.65830    8.72210
 10450.00000   73.34280   10.37470   10.37470  112.43590    8.89500   73.34280  127.52910  127.52910    8.89500   10.74690   10.74690   12.06370  -30.69630  -24.94830   12.06370
 10500.00000   72.70000   10.68140   10.68140  147.63200    6.77360   72.70000  117.41790  117.41790    6.77360    8.69230    8.69230   10.10030  -28.69730  -23.82970   10.10030
 10550.00000   81.29200   10.20480   10.20480  111.72190    8.95080   81.29200  141.60470  141.60470    8.95080   10.26990   10.26990    9.20080  -28.00140  -24.01430    9.20080
 10600.00000   83.02120   10.35190   10.35190   16.08680   62.16290   83.02120  145.34780  145.34780   62.16290   59.21200   59.21200  155.32330  -23.97310  -20.87230  155.32330
 10650.00000   78.82040   10.18110   10.18110    6.55840  152.47650   78.82040  201.74630  201.74630  152.47650  106.32070  106.32070 1245.98320  -33.71570  -31.49530 1245.98320
 10700.00000   88.15940   10.14730   10.14730    5.26030  190.18450   88.15940  221.79900  221.79900  190.18450  138.15150  138.15150 1195.19930  -39.16700  -37.83290 1195.19930
 10750.00000   87.14800   10.15330   10.15330   16.94140   59.02700   87.14800  169.03000  169.03000   59.02700   69.84380   69.84380  194.02090  -20.09630  -19.64270  194.02090
 10800.00000   57.62080   10.03840   10.03840   17.97380   55.63650   57.62080   77.54960   77.54960   55.63650   57.60150   57.60150  101.29480  -17.53690  -17.96370  101.29480
 10850.00000   56.47200   10.19040   10.19040   15.36550   65.08100   56.47200   65.42180   65.42180   65.08100   54.14990   54.14990   84.71260   -8.77560   -9.92070   84.71260
 10900.00000   49.89200    9.61410    9.61410    3.92200  254.97110   49.89200   34.30950   34.30950  254.97110  168.66730  168.66730  692.37910  -35.64490  -36.79000  692.37910
 10950.00000   61.51560    9.20710    9.20710   14.93570   67.05030   61.51560   47.63070   47.63070   67.05030   57.10120   57.10120  111.20270  -22.51840  -23.66350  111.20270
 11000.00000   60.21920    9.20680    9.20680   31.83600   31.41100   60.21920   45.77180   45.77180   31.41100   34.05730   34.05730   30.00700  -67.54240  -68.68750   30.00700
 11050.00000   70.72480    8.83240    8.83240 1150.74800    0.86900   70.72480   40.59030   40.59030    0.86900    1.46810    1.46810    3.63370 -126.84030 -127.98540    3.63370
 11100.00000   56.66320    9.15600    9.15600   55.17420   18.12440   56.66320   22.91090   22.91090   18.12440   22.48510   22.48510   40.69760 -132.06360 -133.20870   40.69760
 11150.00000   49.73460    9.31670    9.31670    9.07970  110.13600   49.73460   30.18500   30.18500  110.13600   96.64730   96.64730  185.81160 -129.41840 -130.56350  185.81160
 11200.00000   53.89440    8.28230    8.28230   36.52860   27.52840   53.89440  104.38570  104.38570   27.52840   30.00630   30.00630  235.25620  -37.86120  -39.00630  235.25620
