~Version ---------------------------------------------------
VERS. 2.0 : CWLS log ASCII Standard -VERSION 2.0
WRAP.  NO : One line per depth step
~Well ------------------------------------------------------
STRT.M                       300.0 : START DEPTH
STOP.M                      1750.0 : STOP DEPTH
STEP.M                    50.00000 : STEP LENGTH
NULL.                      -999.25 : NULL VALUE
COMP.     VERMILION RESOURCES LTD. : COMPANY
WELL. PENN WEST UTIKUMA 10-14-81-9 : WELL
FLD .                      UTIKUMA : FIELD
LOC .                              : LOCATION
CTRY.                       CANADA : COUNTRY
SRVC.           Baker Hughes Atlas : SERVICE COMPANY
DATE.                  01-Aug-2002 : LOGDATE
PROV.                      Alberta : PROVINCE
UWI .             100101408109W502 : UNIQUE WELL ID
SLAT.WGS84           56.0250816345 : SURFACE LATITUDE
SLON.WGS84          -115.287940979 : SURFACE LONGITUDE
~Curve Information -----------------------------------------
DEPT.M     : 
GRED.GAPI  : GAMMA RAY FROM CEMENT BOND LOG
GRWS.GAPI  : GAMMA RAY [GRED]
~Params ----------------------------------------------------
PD  .                     GL : PERMANENT DATUM
EPD .M                 642.5 : ELEVATION PERMANENT DATUM
LMF .                     KB : LOG MEASURED FROM
DAPD.M                   4.7 : FEET ABOVE PERMANENT DATUM
DMF .                     KB : DRILLING MEASURED FROM
EKB .M                 647.2 : KELLY BUSHING
EGL .M                 642.5 : GROUND LEVEL
DATE.             1-AUG-2002 : RUN DATE
RUN .                      1 : RUN NUMBER
DD  .M                  1802 : DEPTH DRILLER
DL  .M                1797.8 : DEPTH LOGGER
BLI .M                1796.8 : BOTTOM LOG INTERVAL
TLI .M                  1600 : TOP LOG INTERVAL
CS  .MM                114.3 : CASING SIZE
CBD .M                1815.1 : CASING BOTTOM DRILLER
BSD .M                  1802 : BIT SIZE AT DEPTH
DFT .                  WATER : DRILLING FLUID TYPE
TCS .HRS                1315 : TIME CIRCULATED STOPPED
TLAB.HRS                1030 : TIME LOGGER AT BOTTOM
LUN .                  10112 : LOGGING UNIT NUMBER
LUL .                  NISKU : LOGGING UNIT LOCATION
ENGI.                  LOYER : RECORDING ENGINEER
CLNT.                A2DTECH : CLIENT CODE
ORIG.   6.5"/100M 16.5"/100M : ORIGIN OF DATA
UWI .       100101408109W502 : UNIQUE WELL ID
DICO. A2D Technologies, Inc. : DIGITIZING COMPANY
~Other -----------------------------------------------------
~ASCII -----------------------------------------------------
  300.00000  108.66990  108.66990
  350.00000   92.31210   92.31210
  400.00000   84.64620   84.64620
  450.00000   70.07670   70.07670
  500.00000   79.31270   79.31270
  550.00000   97.38330   97.38330
  600.00000   58.46940   58.46940
  650.00000   50.50290   50.50290
  700.00000   68.47640   68.47640
  750.00000   53.56410   53.56410
  800.00000  169.49090  169.49090
  850.00000   41.04200   41.04200
  900.00000   43.57290   43.57290
  950.00000   35.52430   35.52430
 1000.00000   32.93940   32.93940
 1050.00000   33.98270   33.98270
 1100.00000   45.01090   45.01090
 1150.00000   42.94260   42.94260
 1200.00000   60.79050   60.79050
 1250.00000   99.76170   99.76170
 1300.00000   76.40780   76.40780
 1350.00000  147.73970  147.73970
 1400.00000   52.34920   52.34920
 1450.00000  112.21970  112.21970
 1500.00000   81.05250   81.05250
 1550.00000   85.95180   85.95180
 1600.00000   85.11970   85.11970
 1650.00000   73.93670   73.93670
 1700.00000   27.13830   27.13830
 1750.00000   35.07800   35.07800
