~Version ---------------------------------------------------
VERS. 2.0 : CWLS log ASCII Standard -VERSION 2.0
WRAP.  NO : ONE LINE PER DEPTH STEP
~Well ------------------------------------------------------
STRT.M                            300.0 : START DEPTH
STOP.M                           2700.0 : STOP DEPTH
STEP.M                         50.00000 : STEP LENGTH
NULL.                           -999.25 : NULL VALUE
COMP.                      DEVON CANADA : COMPANY
WELL. ANDERSON ET A WIMBORNE 2-15-34-26 : WELL
FLD .                                   : FIELD
LOC .                                   : LOCATION
CTRY.                            CANADA : COUNTRY
SRVC.                      Schlumberger : SERVICE COMPANY
DATE.                       19-Dec-1998 : LOGDATE
PROV.                           Alberta : PROVINCE
UWI .                  100021503426W400 : UNIQUE WELL ID
SLAT.WGS84                51.9115746482 : SURFACE LATITUDE
SLON.WGS84              -113.6033034669 : SURFACE LONGITUDE
~Curve Information -----------------------------------------
DEPT    .M      : DEPTH METERS
AF20ED  .OHMM   : 20 INCH ARRAY RESISTIVITY FOUR FOOT RESOLUTION
AF30ED  .OHMM   : 30 INCH ARRAY RESISTIVITY FOUR FOOT RESOLUTION
AF60ED  .OHMM   : 60 INCH ARRAY RESISTIVITY FOUR FOOT RESOLUTION
AHIBDED .MM     : AIT INPUT BOREHOLE DIAMETER TO AIT PROCESSING
CAL2ED  .MM     : CALIPER 2 FROM DENSITY LOG [ADJ TO GRRED]
CALWS   .MM     : CALIPER [AHIBDED]
CONDWS  .MMHO   : CONDUCTIVITY [1000/DRESWS]
DCORWS  .KG/M3  : DENSITY CORRECTION [HDRAED]
DENWS   .KG/M3  : BULK DENSITY [M=2650 F=1000] [RHOZED]
DPHZSSED.V/V    : DENSITY POROSITY [M=2650 F=1000] FROM DENSITY LOG [ADJ TO GRRED]
DPOLSWS .V/V    : DENSITY POROSITY [M=2710 F=1000] [CALCULATED FROM DENWS]
DRESWS  .OHMM   : DEEP RESISTIVITY [AF60ED]
DTED    .US/M   : DELTA TIME FROM SONIC LOG
DTWS    .US/M   : DELTA TIME [DTED]
GRDED   .GAPI   : GAMMA RAY FROM DENSITY LOG [ADJ TO GRRED]
GRNED   .GAPI   : GAMMA RAY FROM NEUTRON LOG [ADJ TO GRRED]
GRRED   .GAPI   : GAMMA RAY FROM RESISTIVITY LOG
GRSED   .GAPI   : GAMMA RAY FROM SONIC LOG
GRWS    .GAPI   : GAMMA RAY [GRRED, CSG ABOVE 354.5M]
HCALDED .MM     : HILT CALIPER FROM DENSITY LOG [ADJ TO GRRED]
HCALSED .MM     : HILT CALIPER FROM SONIC LOG
HDRAED  .KG/M3  : DENSITY CORRECTION FROM DENSITY LOG [ADJ TO GRRED]
MRESWS  .OHMM   : MEDIUM RESISTIVITY [AF30ED]
NEUTED  .NAPI   : NEUTRON FROM NEUTRON LOG [ADJ TO GRRED]
NEUTWS  .NAPI   : NEUTRON [NEUTED]
NPOLSWS .V/V    : NEUTRON POROSITY LIMESTONE [CONVERTED NPORSSED TO LIMESTONE]
NPORSSED.V/V    : NEUTRON POROSITY SANDSTONE FROM DENSITY LOG [ADJ TO GRRED]
PEFWS   .B/E    : PHOTOELECTRIC FACTOR [PEFZED]
PEFZED  .B/E    : PHOTOELECTRIC FACTOR STANDARD RESOLUTION FROM DENSITY LOG [ADJ TO GRRED]
RHOZED  .KG/M3  : BULK DENSITY FROM DENSITY LOG [ADJ TO GRRED]
SPHIED  .V/V    : SONIC POROSITY FROM SONIC LOG
SPOWS   .V/V    : SONIC POROSITY [SPHIED]
SPRED   .MV     : SPONTANEOUS POTENTIAL FROM RESISTIVITY LOG
SPWS    .MV     : SPONTANEOUS POTENTIAL [BASELINE 0 MV] [SPRED]
SRESWS  .OHMM   : SHALLOW RESISTIVITY [AF20ED]
TENDED  .N      : TENSION FROM DENSITY LOG [ADJ TO GRRED]
TENRED  .N      : TENSION FROM SONIC LOG
~Params ----------------------------------------------------
PD  .                         GL : PERMANENT DATUM
EPD .M                     971.5 : ELEVATION PERMANENT DATUM
LMF .                         KB : LOG MEASURED FROM
DAPD.M                       5.5 : FEET ABOVE PERMANENT DATUM
DMF .                         KB : DRILLING MEASURED FROM
EKB .M                    976.95 : KELLY BUSHING
EDF .M                    976.65 : DRILLING FLOOR
EGL .M                     971.5 : GROUND LEVEL
DATE.                   12/19/98 : RUN DATE
RUN .                          2 : RUN NUMBER
DD  .M                      2740 : DEPTH DRILLER
DL  .M                    2740.5 : DEPTH LOGGER
BLI .M                    2738.1 : BOTTOM LOG INTERVAL
TLI .M                    2319.5 : TOP LOG INTERVAL
CS  .MM                    177.8 : CASING SIZE
CBD .M                      2319 : CASING BOTTOM DRILLER
CBL .M                    2319.5 : CASING BOTTOM LOGGER
BS  .MM                      156 : BIT SIZE
BSD .M                      2740 : BIT SIZE AT DEPTH
DFT .                   GEL CHEM : DRILLING FLUID TYPE
DFD .                       1120 : DRILLING FLUID DENSITY
DFV .                        155 : DRILLING FLUID VISCOSITY
DFPH.                         10 : DRILLING FLUID PH
DFL .                        5.8 : DRILLING FLUID LOSS
MSS .                   FLOWLINE : MUD SAMPLE SOURCE
RMS .OHMM                   1.59 : RESISTIVITY MUD SAMPLE
MST .DEGC                     10 : MUD SAMPLE TEMPERATURE
RMF .OHMM                   1.35 : RESISTIVITY MUD FILTRATE SAMPLE
MFST.DEGC                      9 : MUD FILTRATE SAMPLE TEMPERATURE
RMB .OHMM                  0.536 : RESISTIVITY MUD AT BHT
TCS .HRS                    2000 : TIME CIRCULATED STOPPED
TLAB.HRS                     140 : TIME LOGGER AT BOTTOM
LUN .                       3106 : LOGGING UNIT NUMBER
LUL .                 WAINWRIGHT : LOGGING UNIT LOCATION
ENGI.                      GRANT : RECORDING ENGINEER
WITN.                       RUGD : WITNESSED BY
CLNT.                    A2DTECH : CLIENT CODE
ORIG. 6.5"/100M 16.5"/100M PRINT : ORIGIN OF DATA
UWI .           100021503426W400 : UNIQUE WELL ID
DICO.     A2D Technologies, Inc. : DIGITIZING COMPANY
~Other -----------------------------------------------------
~ASCII -----------------------------------------------------
  300.00000    -999.25    -999.25    -999.25    -999.25    -999.25    -999.25    -999.25    -999.25    -999.25    -999.25    -999.25    -999.25    -999.25    -999.25   42.69650    -999.25   42.99260   42.65420   42.99260    -999.25    -999.25    -999.25    -999.25    -999.25    -999.25    -999.25    -999.25    -999.25    -999.25    -999.25    -999.25    -999.25    -999.25    -999.25    -999.25    -999.25    -999.25
  350.00000    -999.25    -999.25    -999.25    -999.25    -999.25    -999.25    -999.25    -999.25    -999.25    -999.25    -999.25    -999.25    -999.25    -999.25   58.65060    -999.25   57.64010   58.12780   57.64010    -999.25    -999.25    -999.25    -999.25    -999.25    -999.25    -999.25    -999.25    -999.25    -999.25    -999.25    -999.25    -999.25    -999.25    -999.25    -999.25    -999.25    -999.25
  400.00000    4.84420    5.42520    6.42080  242.41980    -999.25  242.41980  155.74380  324.35010 2286.00000    -999.25    0.24800    6.42080  311.74700  311.74700  105.99740    -999.25  106.93000  106.71540  106.93000  238.00270  246.55610  324.35010    5.42520    -999.25    -999.25    -999.25    -999.25    2.69460    2.69460 2286.00000    -999.25    -999.25   33.95360   -3.13510    4.84420 8334.00390 8200.58890
  450.00000    5.88520    6.64730    7.47670  222.81910    -999.25  222.81910  133.74890  117.54680 2396.20000    -999.25    0.18350    7.47670  310.01140  310.01140  103.78650    -999.25  103.14510  102.96940  103.14510  227.32270  222.30330  117.54680    6.64730    -999.25    -999.25    -999.25    -999.25    3.30350    3.30350 2396.20000    -999.25    -999.25   35.08830   -1.18210    5.88520 8729.91990 8843.29200
  500.00000    5.05930    5.65660    6.44930  224.33680    -999.25  224.33680  155.05560   91.17510 1938.10000    -999.25    0.45140    6.44930  397.75120  397.75120   82.22530    -999.25   84.59040   84.34740   84.59040  224.25390  223.73050   91.17510    5.65660    -999.25    -999.25    -999.25    -999.25    1.79410    1.79410 1938.10000    -999.25    -999.25   20.01850   -8.81680    5.05930 9089.27540 8946.72460
  550.00000    5.40570    5.84140    6.66460  222.09320    -999.25  222.09320  150.04650   69.35660 2309.30000    -999.25    0.23430    6.66460  322.73830  322.73830   92.90130    -999.25  107.54340  107.44320  107.54340  227.32910  224.56450   69.35660    5.84140    -999.25    -999.25    -999.25    -999.25    2.40960    2.40960 2309.30000    -999.25    -999.25   16.99800   -4.32190    5.40570 9118.58790 9230.33400
  600.00000   21.57150   23.69230   27.00380  221.81820    -999.25  221.81820   37.03180   -3.32570 2415.29980    -999.25    0.17230   27.00380  252.84580  252.84580   56.61970    -999.25   59.73470   58.61770   59.73470  221.52280  223.92050   -3.32570   23.69230    -999.25    -999.25    -999.25    -999.25    2.74900    2.74900 2415.29980    -999.25    -999.25   -3.12580  -14.08760   21.57150 9417.23140 9538.26860
  650.00000    6.82140    7.36020    7.77400  222.36220    -999.25  222.36220  128.63390   26.78150 2527.50000    -999.25    0.10670    7.77400  308.06700  308.06700  116.09820    -999.25  116.02780  116.05350  116.02780  220.09920  222.89820   26.78150    7.36020    -999.25    -999.25    -999.25    -999.25    3.76630    3.76630 2527.50000    -999.25    -999.25  -15.06670   -5.75770    6.82140 9420.67970 10068.99610
  700.00000    6.58180    7.08200    7.52420  227.94700    -999.25  227.94700  132.90450  231.98040 2471.39990    -999.25    0.13950    7.52420  276.99210  276.99210   96.87950    -999.25   98.03640   97.42960   98.03640  227.76340  230.43970  231.98040    7.08200    -999.25    -999.25    -999.25    -999.25    2.43030    2.43030 2471.39990    -999.25    -999.25  -65.46220  -22.43600    6.58180 9704.97270 9812.63670
  750.00000    3.52500    3.73230    4.03510  266.29070    -999.25  266.29070  247.82530  304.09950 1939.39990    -999.25    0.45060    4.03510  333.94160  333.94160  107.75850    -999.25  108.65090  107.94550  108.65090  272.48310  262.21160  304.09950    3.73230    -999.25    -999.25    -999.25    -999.25    2.07290    2.07290 1939.39990    -999.25    -999.25  -84.61890   -6.16640    3.52500 10100.05660 10002.53320
  800.00000    5.79940    7.31710    8.62730  223.97930    -999.25  223.97930  115.91110   20.94400 2030.99990    -999.25    0.39710    8.62730  273.55960  273.55960   75.23160    -999.25   70.92080   70.19830   70.92080  222.60140  223.91880   20.94400    7.31710    -999.25    -999.25    -999.25    -999.25    2.20450    2.20450 2030.99990    -999.25    -999.25  -88.54150   -8.95780    5.79940 10013.01560 10172.32420
  850.00000   10.04480   10.37650   10.92540  220.54330    -999.25  220.54330   91.52980   -5.54410 2478.39990    -999.25    0.13540   10.92540  267.51250  267.51250   70.51580    -999.25   70.39770   70.40760   70.39770  222.08500  224.58890   -5.54410   10.37650    -999.25    -999.25    -999.25    -999.25    3.02960    3.02960 2478.39990    -999.25    -999.25  -85.80270   -5.20780   10.04480 10193.08790 10641.83200
  900.00000    7.98310    8.26640    8.65840  220.57710    -999.25  220.57710  115.49480   84.20330 2496.40010    -999.25    0.12490    8.65840  258.04810  258.04810   69.64220    -999.25   70.96820   71.12460   70.96820  222.04750  220.69580   84.20330    8.26640    -999.25    -999.25    -999.25    -999.25    3.10500    3.10500 2496.40010    -999.25    -999.25  -87.01580   -6.42090    7.98310 10129.68460 10649.32130
  950.00000    5.28190    5.41960    5.86520  260.65260  249.41320  260.65260  170.49720  224.77630 2103.50000    0.17720    0.35470    5.86520  326.60460  326.60460   65.74450    -999.25   63.96910   64.40550   63.96910  252.78830  257.90880  224.77630    5.41960    -999.25    -999.25    0.16010    0.20360    2.44690    2.44690 2103.50000    -999.25    -999.25  -84.00870   -3.41380    5.28190 11044.31640 10822.64940
 1000.00000   10.77650   11.57970   12.76330  221.98910  224.52250  221.98910   78.34960   45.86180 2577.39990   -0.10230    0.07750   12.76330  246.75730  246.75730   54.83730    -999.25   55.16750   55.76630   55.16750  225.70110  223.17840   45.86180   11.57970    -999.25    -999.25    0.03750    0.07640    3.06630    3.06630 2577.39990    -999.25    -999.25  -83.67290   -2.02980   10.77650 10933.32520 11337.99020
 1050.00000   11.47040   11.79130   12.11210  221.34480  245.90690  221.34480   82.56210   -1.99840 2455.39990   -0.02980    0.14890   12.11210  262.17630  262.17630   60.41220    -999.25   61.33000   61.52290   61.33000  221.16710  221.40860   -1.99840   11.79130    -999.25    -999.25    0.06160    0.10310    2.62630    2.62630 2455.39990    -999.25    -999.25  -93.71310   -9.48820   11.47040 11111.43070 11244.93070
 1100.00000    7.63430    7.72450    7.85780  273.56110  235.06170  273.56110  127.26210  347.84950 2175.50000    0.14540    0.31260    7.85780  285.05420  285.05420  109.08960    -999.25  109.77490  109.05150  109.77490  268.46540  268.30950  347.84950    7.72450    -999.25    -999.25    0.13200    0.17500    2.37560    2.37560 2175.50000    -999.25    -999.25  -89.11470   -2.30810    7.63430 11299.19920 11663.38770
 1150.00000    9.34070    9.44640    9.52450  232.90120    -999.25  232.90120  104.99240  375.27370 2461.50000    -999.25    0.14530    9.52450  271.97560  271.97560  114.86120    -999.25  114.65210  114.80460  114.65210  240.92080  226.08550  375.27370    9.44640    -999.25    -999.25    -999.25    -999.25    2.43750    2.43750 2461.50000    -999.25    -999.25  -90.09260   -3.82880    9.34070 11503.40820 11672.00100
 1200.00000   17.56870   17.24850   17.00420  221.45010    -999.25  221.45010   58.80900    3.33040 2577.20000    -999.25    0.07770   17.00420  249.90970  249.90970  100.21600    -999.25   98.92360   98.88040   98.92360  221.43330  220.94630    3.33040   17.24850    -999.25    -999.25    -999.25    -999.25    3.01480    3.01480 2577.20000    -999.25    -999.25  -88.20690   -4.50060   17.56870 11696.84280 11732.37400
 1250.00000    7.88790    7.75920    7.66110  221.82440    -999.25  221.82440  130.52960   63.68710 2542.30000    -999.25    0.09810    7.66110  277.25600  277.25600  120.54480    -999.25  119.96320  120.05020  119.96320  221.80680  223.34310   63.68710    7.75920    -999.25    -999.25    -999.25    -999.25    3.06500    3.06500 2542.30000    -999.25    -999.25  -86.66830   -4.56870    7.88790 12150.55660 12035.83500
