~Version ---------------------------------------------------
VERS. 2.0 : CWLS log ASCII Standard -VERSION 2.0
WRAP.  NO : ONE LINE PER DEPTH STEP
~Well ------------------------------------------------------
STRT.FT                      650.0 : START DEPTH
STOP.FT                     5600.0 : STOP DEPTH
STEP.FT                   50.00000 : STEP LENGTH
NULL.                      -999.25 : NULL VALUE
COMP.     BP CANADA ENERGY COMPANY : COMPANY
WELL. AMOCO J-11 NIPISI 10-27-80-9 : WELL
FLD .                       NIPISI : FIELD
LOC .                              : LOCATION
CTRY.                       CANADA : COUNTRY
SRVC.                Dresser Atlas : SERVICE COMPANY
DATE.                  21-Dec-1969 : LOGDATE
PROV.                      Alberta : PROVINCE
UWI .             100102708009W500 : UNIQUE WELL ID
SLAT.WGS84           55.9647865295 : SURFACE LATITUDE
SLON.WGS84         -115.3164901733 : SURFACE LONGITUDE
~Curve Information -----------------------------------------
DEPT.FT    : DEPTH FEET
CILD.MMHO  : CONDUCTIVITY FROM RESISTIVITY LOG
ILD .OHMM  : INDUCTION LOG DEEP RESISTIVITY
SN  .OHMM  : 16 INCH SHORT NORMAL RESISTIVITY FROM IEL
SPR .MV    : SPONTANEOUS POTENTIAL FROM RESISTIVITY LOG
AC  .US/F  : DELTA TIME (ACOUSTIC) FROM SONIC LOG
CALS.IN    : CALIPER FROM SONIC LOG
GRS .GAPI  : GAMMA RAY FROM SONIC LOG
~Params ----------------------------------------------------
PD  .                     GL : PERMANENT DATUM
EPD .FT                 2120 : ELEVATION PERMANENT DATUM
LMF .                     KB : LOG MEASURED FROM
DAPD.FT                 13.2 : FEET ABOVE PERMANENT DATUM
DMF .                     KB : DRILLING MEASURED FROM
EKB .FT               2133.2 : KELLY BUSHING
EGL .FT                 2120 : GROUND LEVEL
DATE.               12/21/69 : RUN DATE
RUN .                      1 : RUN NUMBER
DD  .FT                 5650 : DEPTH DRILLER
DL  .FT                 5650 : DEPTH LOGGER
BLI .FT                 5646 : BOTTOM LOG INTERVAL
TLI .FT                  629 : TOP LOG INTERVAL
CS  .IN                8.625 : CASING SIZE
CBD .FT                  631 : CASING BOTTOM DRILLER
CBL .FT                  629 : CASING BOTTOM LOGGER
BS  .IN                7.875 : BIT SIZE
BSD .FT                 5650 : BIT SIZE AT DEPTH
DFT .                    GEL : DRILLING FLUID TYPE
DFD .                    9.4 : DRILLING FLUID DENSITY
DFV .                     85 : DRILLING FLUID VISCOSITY
DFPH.                      9 : DRILLING FLUID PH
DFL .                     11 : DRILLING FLUID LOSS
MSS .                   CIRC : MUD SAMPLE SOURCE
RMS .OHMM                1.5 : RESISTIVITY MUD SAMPLE
MST .DEGF                 63 : MUD SAMPLE TEMPERATURE
RMF .OHMM                1.2 : RESISTIVITY MUD FILTRATE SAMPLE
MFST.DEGF                 63 : MUD FILTRATE SAMPLE TEMPERATURE
RMC .OHMM                1.1 : RESISTIVITY MUD CAKE
MCST.DEGF                 63 : MUD CAKE SAMPLE TEMPERATURE
MFSS.                      M : MUD FILTRATE SAMPLE SOURCE
MCSS.                      M : MUD CAKE SAMPLE SOURCE
RMB .OHMM               0.86 : RESISTIVITY MUD AT BHT
TCS .HRS                   3 : TIME CIRCULATED STOPPED
LUN .                   6000 : LOGGING UNIT NUMBER
LUL .                    EDM : LOGGING UNIT LOCATION
ENGI.                  MANLY : RECORDING ENGINEER
WITN.                CHRAPKO : WITNESSED BY
CLNT.                A2DTECH : CLIENT CODE
ORIG.            2" 5" PRINT : ORIGIN OF DATA
UWI .       100102708009W500 : UNIQUE WELL ID
DICO. A2D Technologies, Inc. : DIGITIZING COMPANY
~Other -----------------------------------------------------
~ASCII -----------------------------------------------------
  650.00000  168.00430    5.44340    7.76060  -62.28000  154.21610    9.70400   59.97940
  700.00000  127.74960    7.65570    6.99690  -44.12050  131.91030   12.95210   52.36770
  750.00000  151.81200    6.09610    7.34860  -38.65860  148.28140    9.87210   77.51320
  800.00000  154.63150    6.40590    5.74350  -28.73790  239.86650   11.82950   41.74510
  850.00000  377.29610    2.30770    4.01460  -41.12210  153.52090   10.32420   71.34350
  900.00000  303.99230    2.85350    4.42610  -27.67810  151.72020   13.84420   68.07260
  950.00000  272.99220    2.95200    4.95700  -31.23000  139.91600   12.04850   70.86640
 1000.00000  241.90170    3.78810    5.10440  -28.34560  140.84560   10.85290   61.89710
 1050.00000  135.91300    7.35140    6.80350  -45.23420  117.14820    8.13600   45.97260
 1100.00000  431.86710    1.77000    3.50600  -26.64120  239.70020   13.06180   33.09200
 1150.00000  242.54470    3.66430    6.69570  -44.30780  130.69840    7.39560   44.77050
 1200.00000  260.53690    3.36270    4.79440  -30.64470  130.63030   11.94770   46.59630
 1250.00000  285.18960    2.91530    5.04120  -49.63790  150.24820   12.49730   43.48070
 1300.00000  234.45680    3.89420    5.85070  -47.94950  126.50190    9.69830   65.18890
 1350.00000   96.29320    9.85190   16.85520  -64.27370   99.01650    8.20430   43.85230
 1400.00000  206.01680    4.76500    6.49490  -51.14330  124.80260   10.06840   56.90570
 1450.00000  163.95510    5.59690    8.20390  -64.26170  176.38690    7.98920   57.91790
 1500.00000  169.26540    5.71240    7.23250  -56.19500  122.17270    9.57630   59.98640
 1550.00000  138.58550    6.87810    8.39460  -51.48340  116.39370   11.39310   55.76440
 1600.00000  217.66640    4.25410    5.61610  -43.83970  196.30570   12.83850   51.65200
 1650.00000  174.26510    4.89040    5.99110  -36.75430  139.77330    9.56370   52.78310
 1700.00000  172.91120    5.28710    7.46800  -39.57740  130.11450   10.41530   53.86740
 1750.00000  186.57670    4.75250    5.58020  -35.21130  122.73560   13.71860   43.03030
 1800.00000   17.26950   72.76330  102.17900  -49.79870   73.75680    7.82800   14.69590
 1850.00000   45.90250   25.17570   30.30270  -30.66040   60.16540    8.02010   21.13730
 1900.00000  287.02440    3.05080    5.40840  -42.67220   93.44070   11.56940   37.48500
 1950.00000  152.61760    5.73070   10.18150  -39.15760  108.30970    9.84900   49.43180
 2000.00000  128.47850    6.84770   12.37480  -40.83960   92.29820   10.09400   41.25330
 2050.00000  148.48000    6.27320   11.09220  -45.20690   79.52870    9.65870   21.43580
 2100.00000   89.31460   11.56570   14.08570  -34.26460   69.68060    8.43930   23.85220
 2150.00000  168.98640    5.54220    7.70800  -39.94630   83.71230   10.23480   33.75290
 2200.00000   71.96910   13.10930   15.48590  -33.50790   96.30930    9.36890   21.90480
 2250.00000   35.95390   28.18510   32.99620  -42.48360   72.03020    7.63750   24.72780
 2300.00000   34.60310   29.32530   36.21570  -33.23310   56.38270    8.26070   20.03080
 2350.00000   91.71600   10.58560   12.25900  -24.43710   89.25640    9.73400   28.11820
 2400.00000   81.46050   11.79210   13.89780  -30.80110   74.45610    8.63150   27.02440
 2450.00000   92.86800   11.03940   11.60230  -26.53890   74.27580    9.18840   21.62820
 2500.00000  309.54630    3.03530    4.85130  -24.98130  125.23400   11.85550   36.38920
 2550.00000   49.54740   19.35540   23.44490  -34.47770   64.93660    8.65240   20.28850
 2600.00000  156.32230    5.96870    8.50780  -24.11850   86.53470    9.84290   35.50440
 2650.00000   62.87660   15.40540   19.93050  -37.17650   69.76810    8.68800   24.50870
 2700.00000   92.13890   10.26890   13.31050  -27.81630   80.70060    9.63250   29.06100
 2750.00000  207.88400    6.06860   10.64760  -33.98440  111.54750    9.41560  173.29670
 2800.00000   33.55810   28.65110   69.30520  -88.54660   59.53820    8.33020   19.56590
 2850.00000   24.06170   40.79790   50.68600  -63.98630   52.34600    8.35490   14.19150
 2900.00000   22.75140   43.27800   73.63610  -66.23410   52.79940    8.14510   17.68080
 2950.00000   26.96390   35.83780   70.18560  -82.11530   53.62800    7.60940   10.21560
 3000.00000   40.03240   24.05010   60.07380 -103.00560   61.16840    7.79720   14.39740
 3050.00000   29.22810   33.28430   86.47510 -109.45760   57.63510    7.50700   16.02480
 3100.00000   46.60770   22.59310   71.26740 -116.59240   59.17650    8.49420   16.03710
 3150.00000   24.87170   38.03830   66.85610  -76.32950   52.25160    7.90510   13.83030
 3200.00000   63.95880   15.26970   39.50220 -114.43790   65.19610    8.51420   13.97280
 3250.00000   26.51720   36.04330   46.93490  -78.86750   54.17550    8.38170   17.51330
 3300.00000   28.92260   33.05100   69.74100  -89.19110   54.28350    8.42740   12.82920
 3350.00000   24.79470   38.59040   77.33340  -84.60930   52.59360    8.47340   14.62140
 3400.00000   24.52510   40.55340   71.86250  -85.57390   53.51360    8.91850   13.33880
 3450.00000   20.61890   46.93430   81.36190  -81.78820   51.08560    8.48310   13.40190
 3500.00000   24.32100   39.67420   84.45170  -86.14820   52.08010    8.57460   14.63300
 3550.00000   37.53140   26.54860   63.44750  -89.03030   56.53330    8.83650   14.25670
 3600.00000   58.70580   17.27770   26.70110  -79.24210   58.85140    8.82410   20.13420
 3650.00000  141.16200    6.50060   21.15330  -82.30830   56.64560    8.73230   26.21830
 3700.00000  123.05400    7.78360   23.77170 -101.07520   85.01300    7.74990   33.25070
 3750.00000   36.87260   27.72560   78.27590 -114.25300   89.18580    7.90780   16.61560
 3800.00000  127.94020    7.52880   10.36600  -56.89860   69.66410    9.58100   49.93550
 3850.00000   39.66450   24.72320   40.69700  -80.48360   54.24600    7.97970   27.76900
 3900.00000  296.49860    2.97310   12.27240 -108.23070   70.09330    8.51040   50.77170
 3950.00000  150.83290    6.24130   11.39250  -93.71650   63.50860    8.20560   38.56400
 4000.00000   90.16250   11.10060   37.55380 -127.81080   62.03780    7.27170   34.80690
 4050.00000   86.65010   11.36460   24.38840 -100.74320  106.66550    7.41840   37.09730
 4100.00000  115.60280    8.75210    7.59480  -71.67040  103.82620   10.03440   54.74390
 4150.00000  254.94710    3.74790    5.51570  -74.18000   94.66430    9.61020   60.12240
 4200.00000  262.45170    3.77300    5.58610  -74.35450  142.05240    8.92940   62.27140
 4250.00000  184.42480    4.97860    7.31940  -67.46090   85.06850    8.34970   61.57820
 4300.00000  287.24020    3.20640    4.72690  -82.46310  102.03860   12.25880   60.90660
 4350.00000  146.90100    6.27600    9.21630  -56.00380   79.18920    8.02230   44.63520
 4400.00000  311.49910    2.94820    4.31990  -79.11910  101.13380   13.38430   58.22750
 4450.00000  213.03310    4.13330    6.22090  -64.34750   92.63250   10.69620   57.67380
 4500.00000  322.05800    2.78380    4.03110  -64.93330  103.74240   11.68310   65.66830
 4550.00000   57.71560   16.62130   28.28590  -59.02200   60.42010    7.82230   26.31400
 4600.00000   60.73480   15.82960   20.50880  -50.56170   65.50720    8.33670   36.49000
 4650.00000   56.46120   17.53120   20.88660  -68.14910   60.32410    8.08520   28.32700
 4700.00000  110.00300    8.75160   11.24050  -58.85240   71.95400    8.58740   49.38120
 4750.00000  116.92970    8.21260   11.36730  -48.48460   72.05000    8.43560   46.31700
 4800.00000   81.59540   11.87610   15.59440  -50.72280   67.50680    8.04880   50.15550
 4850.00000  233.21980    3.96310    6.47690  -61.14460   89.26080   11.08380   59.73630
 4900.00000  340.49410    2.64140    4.20870  -64.76700  100.59170   12.84650   76.95810
 4950.00000  147.97770    7.86330   10.55570  -52.27440   97.52000    8.16600   58.33840
 5000.00000  302.47490    2.90270    5.05960  -63.47940   87.38030   11.25320   70.86980
 5050.00000   68.43730   13.99810   22.01340  -56.06460   65.87040    7.59100   38.16990
 5100.00000  159.13960    5.64480    7.79650  -56.18790   80.61810    9.97760   51.67560
