~Version ---------------------------------------------------
VERS.      2.0 : CWLS log ASCII Standard -VERSION 2.0
WRAP.       NO : One line per depth step
CREA. 11/16/17 : LAS Creation Date
~Well ------------------------------------------------------
STRT.FT                            300.0 : START DEPTH
STOP.FT                          10650.0 : STOP DEPTH
STEP.FT                         50.00000 : STEP LENGTH
NULL.                            -999.25 : NULL VALUE
COMP.               IMPERIAL OIL LIMITED : COMPANY
WELL. IMPERIAL VIRGINIA HILLS 6-36-63-12 : WELL
FLD .                                 WC : FIELD
LOC .                                    : LOCATION
CTRY.                             CANADA : COUNTRY
SRVC.                       Schlumberger : SERVICE COMPANY
DATE.                        16-Jul-1956 : LOGDATE
PROV.                            Alberta : PROVINCE
UWI .                   100063606312W500 : UNIQUE WELL ID
SLAT.WGS84                  54.492313385 : SURFACE LATITUDE
SLON.WGS84               -115.6804122925 : SURFACE LONGITUDE
~Curve Information -----------------------------------------
DEPT  .FT         : Depth Curve
CALMED.IN         : CALIPER FROM MICRO LOG
CALWS .IN         : CALIPER [CALMED]
CONDWS.MMHO       : CONDUCTIVITY [1000/DRESWS]
DRESWS.OHMM       : DEEP RESISTIVITY [LNED]
GRNED .UgRa-Eq/T  : GAMMA RAY FROM GRN LOG
GRWS  .GAPI       : GAMMA RAY [GRNED*16.5]
LNED  .OHMM       : LONG NORMAL 64" FROM RESISTIVITY LOG
LT18ED.OHMM       : LATERAL 18" FROM RESISTIVITY LOG
MLLED .OHMM       : MICROLATEROLOG RESISTIVITY FROM MICRO LOG
NEUTED.SCPS       : NEUTRON FROM GRN LOG
NEUTWS.SCPS       : NEUTRON [NEUTED]
SNED  .OHMM       : 16 INCH SHORT NORMAL RESISTIVITY FROM RESISTIVITY LOG
SPRED .MV         : SPONTANEOUS POTENTIAL FROM RESISTIVITY LOG
SPWS  .MV         : SPONTANEOUS POTENTIAL [BASELINE 0 MV, SPRED]
SRESWS.OHMM       : SHALLOW RESISTIVITY [SNED]
~Params ----------------------------------------------------
LMF .                     KB : LOG MEASURED FROM
DMF .                     KB : DRILLING MEASURED FROM
EKB .FT                 3708 : KELLY BUSHING
DATE.               07/16/56 : RUN DATE
RUN .                      1 : RUN NUMBER
DD  .FT                10710 : DEPTH DRILLER
DL  .FT                10689 : DEPTH LOGGER
BLI .FT                10688 : BOTTOM LOG INTERVAL
TLI .FT                  714 : TOP LOG INTERVAL
CBD .FT                  713 : CASING BOTTOM DRILLER
CBL .FT                  714 : CASING BOTTOM LOGGER
BS  .IN                    9 : BIT SIZE
BSD .FT                10710 : BIT SIZE AT DEPTH
DFT .                    GEL : DRILLING FLUID TYPE
DFD .                     10 : DRILLING FLUID DENSITY
DFV .                    140 : DRILLING FLUID VISCOSITY
DFPH.                      9 : DRILLING FLUID PH
DFL .                      9 : DRILLING FLUID LOSS
RMS .OHMM                2.2 : RESISTIVITY MUD SAMPLE
MST .DEGF                 72 : MUD SAMPLE TEMPERATURE
RMB .OHMM                0.8 : RESISTIVITY MUD AT BHT
TCS .HRS                   4 : TIME CIRCULATED STOPPED
LUN .                   1890 : LOGGING UNIT NUMBER
LUL .                    SKW : LOGGING UNIT LOCATION
ENGI.                CHARLES : RECORDING ENGINEER
WITN.                PURCELL : WITNESSED BY
CLNT.                A2DTECH : CLIENT CODE
ORIG.            2" 5" PRINT : ORIGIN OF DATA
UWI .       100063606312W500 : UNIQUE WELL ID
DICO. A2D Technologies, Inc. : DIGITIZING COMPANY
~Other -----------------------------------------------------
~ASCII -----------------------------------------------------
# ...
 7200.00000    9.65300    9.65300    2.10280  475.55940    1.59790   26.36540  475.55940  777.79660   55.41560  468.78560  468.78560  158.59470 -144.50600  -97.30760  158.59470
 7250.00000    9.67160    9.67160    2.99850  333.50190    1.84130   30.38140  333.50190  407.11510  134.72250  426.94400  426.94400  137.59780 -136.04500  -88.58590  137.59780
 7300.00000    8.19700    8.19700    2.68740  372.11460    1.90540   31.43910  372.11460  885.75740    1.44950  362.17220  362.17220  130.32940 -229.10260 -181.38280  130.32940
 7350.00000    9.76100    9.76100    1.22550  816.02250    2.12510   35.06420  816.02250 1477.97300  129.11620  425.23000  425.23000  229.78550 -189.80630 -141.82410  229.78550
 7400.00000   10.09830   10.09830    1.89540  527.68390    1.70120   28.06980  527.68390  195.44210   69.24400  381.34520  381.34520  197.41330 -130.39250  -82.14960  197.41330
 7450.00000    9.87920    9.87920   79.20160   12.62600    3.94150   65.03480   12.62600    7.51600    2.62720  303.88030  303.88030   15.35460 -102.13290  -53.62760   15.35460
 7500.00000    8.05780    8.05780    5.34860  186.96530    2.84730   46.98050  186.96530  208.60580    3.72840  322.46080  322.46080   95.42900 -188.70640 -139.94040   95.42900
 7550.00000    8.37820    8.37820    6.05040  165.28340    3.01580   49.76070  165.28340  595.15560    2.31280  334.94850  334.94850   78.01600 -161.45370 -112.42700   78.01600
 7600.00000    9.82150    9.82150   24.96510   40.05590    2.74830   45.34700   40.05590   39.46300   39.35600  317.24030  317.24030   41.12440 -119.03550  -69.74640   41.12440
 7650.00000    9.97640    9.97640   20.13750   49.66160    3.40670   56.21050   49.66160   19.40560   12.69820  364.71150  364.71150   34.24620  -74.88590  -25.33610   34.24620
 7700.00000    9.97190    9.97190   20.87530   47.90360    3.31560   54.70740   47.90360  100.64720   27.05380  397.28160  397.28160   37.88050  -53.72680   -4.00100   37.88050
 7750.00000    -999.25    -999.25   34.49830   28.98690    4.18430   69.04100   28.98690   35.48510    -999.25  375.79100  375.79100   25.52590  -65.14730  -15.48910   25.52590
 7800.00000    -999.25    -999.25   41.28290   24.22320    4.76180   78.56970   24.22320   25.20970    -999.25  380.36140  380.36140   22.44910  -60.13590  -10.54540   22.44910
 7850.00000    -999.25    -999.25   62.39280   16.02750    4.14630   68.41400   16.02750   15.91630    -999.25  339.13620  339.13620   16.78160  -61.97960  -12.45720   16.78160
 7900.00000    -999.25    -999.25  102.84100    9.72380    5.32280   87.82620    9.72380   10.40190    -999.25  268.62580  268.62580   10.67130  -61.29180  -11.83700   10.67130
 7950.00000    -999.25    -999.25   90.31710   11.07210    4.55990   75.23830   11.07210   12.99430    -999.25  264.76440  264.76440   13.09380  -65.01990  -15.63320   13.09380
 8000.00000    -999.25    -999.25  183.64800    5.44520    6.87380  113.41770    5.44520    7.94760    -999.25  227.91750  227.91750    6.86100  -65.75120  -16.43210    6.86100
 8050.00000    -999.25    -999.25   78.45410   12.74730    5.35810   88.40870   12.74730    8.97760    -999.25  284.58020  284.58020   12.95460  -78.88330  -29.63190   12.95460
 8100.00000    -999.25    -999.25   77.07130   12.97500    3.13270   51.68950   12.97500   19.24850    -999.25  337.33540  337.33540   20.90450  -68.36450  -19.18120   20.90450
 8150.00000    -999.25    -999.25  148.02740    6.75590    6.21030  102.47000    6.75590    7.98880    -999.25  234.96290  234.96290    7.81420  -70.09260  -20.97690    7.81420
 8200.00000    -999.25    -999.25  161.87520    6.17760    6.31350  104.17280    6.17760    6.37490    -999.25  239.48960  239.48960    7.35250  -60.49370  -11.44610    7.35250
 8250.00000    -999.25    -999.25  153.59800    6.51050    6.17110  101.82320    6.51050    7.05670    -999.25  249.69270  249.69270    7.74150  -63.43890  -14.45890    7.74150
 8300.00000    -999.25    -999.25   79.20680   12.62550    3.94550   65.10080   12.62550   12.30130    -999.25  297.36200  297.36200   16.24260  -63.63800  -14.72570   16.24260
 8350.00000    -999.25    -999.25  117.88700    8.48270    5.38240   88.80960    8.48270    8.68260    -999.25  266.84710  266.84710    9.70160  -69.59390  -20.74960    9.70160
 8400.00000    -999.25    -999.25   94.81970   10.54640    5.71230   94.25290   10.54640   10.03600    -999.25  282.42770  282.42770   13.00530  -61.38750  -12.61090   13.00530
 8450.00000    -999.25    -999.25  109.28010    9.15080    5.79660   95.64390    9.15080   10.38330    -999.25  252.08810  252.08810   10.63070  -70.04150  -21.33300   10.63070
 8500.00000    -999.25    -999.25  163.79750    6.10510    6.94990  114.67340    6.10510    6.93040    -999.25  232.52230  232.52230    7.49960  -64.03000  -15.38910    7.49960
 8550.00000    -999.25    -999.25  156.05270    6.40810    7.29460  120.36090    6.40810    7.33950    -999.25  239.14750  239.14750    7.35120  -63.02630  -14.45300    7.35120
 8600.00000    -999.25    -999.25  145.76410    6.86040    5.38550   88.86080    6.86040    6.27070    -999.25  278.93210  278.93210    8.95500  -60.05260  -11.54740    8.95500
 8650.00000    -999.25    -999.25  129.70110    7.71080    5.65990   93.38840    7.71080    6.70940    -999.25  245.27380  245.27380    9.31560  -60.66020  -12.22270    9.31560
 8700.00000    -999.25    -999.25  132.74220    7.53340    6.21520  102.55080    7.53340    6.23560    -999.25  244.38570  244.38570    8.72510  -63.59240  -15.22300    8.72510
 8750.00000    -999.25    -999.25  120.45870    8.30160    6.24710  103.07710    8.30160    7.60690    -999.25  245.19970  245.19970    9.64190  -63.86250  -15.56070    9.64190
 8800.00000    -999.25    -999.25   33.83110   29.56680    3.30410   54.51770   29.56680   23.71790    -999.25  332.84410  332.84410   32.95540  -54.42940   -6.19520   32.95540
 8850.00000    -999.25    -999.25  157.60440    6.34500    6.44090  106.27490    6.34500    7.98880    -999.25  244.58250  244.58250    7.41790  -56.81790   -8.65180    7.41790
 8900.00000    -999.25    -999.25   58.13700   17.21820    7.29040  120.29160   17.21820    7.25260    -999.25  269.09540  269.09540   19.47980  -51.23000   -3.13160   19.47980
 8950.00000    -999.25    -999.25    7.00360  142.78310    3.24030   53.46500  142.78310  416.64200    -999.25  337.61400  337.61400   61.56140  -53.82250   -5.79210   61.56140
 9000.00000    -999.25    -999.25   24.77430   40.36440    3.64160   60.08640   40.36440   44.56590    -999.25  340.90170  340.90170   32.47710  -53.14050   -5.17780   32.47710
 9050.00000    -999.25    -999.25   30.17350   33.14430    4.03820   66.63030   33.14430   19.93350    -999.25  307.48130  307.48130   26.99390  -53.90520   -6.01010   26.99390
 9100.00000    9.33960    9.33960    8.18830  122.12600    2.49040   41.09160  122.12600   73.14220  182.10260  358.57070  358.57070   63.03390  -50.26450   -2.43750   63.03390
 9150.00000    9.31370    9.31370    1.10290  906.76410    2.43020   40.09830  906.76410  866.24260  473.91420  375.00500  375.00500  236.40310  -66.33310  -19.16290  236.40310
 9200.00000    9.31490    9.31490    1.10090  908.30880    1.40580   23.19570  908.30880 1558.18730  403.35580  537.22440  537.22440  217.04710 -134.35280  -87.85160  217.04710
 9250.00000    9.26780    9.26780    3.64510  274.33950    1.31890   21.76180  274.33950  456.88830  376.03900  463.32640  463.32640  112.73010 -153.70920 -107.87260  112.73010
 9300.00000    9.31740    9.31740    3.15550  316.90960    1.42550   23.52080  316.90960  793.40910  894.87110  431.52640  431.52640  109.79970 -181.37790 -136.20600  109.79970
 9350.00000   10.07390   10.07390    2.03810  490.64500    1.72920   28.53180  490.64500  628.01460  584.65340  494.84530  494.84530  155.86730 -155.30200 -110.79910  155.86730
 9400.00000   10.14890   10.14890   32.42630   30.84950    6.69450  110.45930   30.84950   37.89060   98.03270  346.32210  346.32210   34.89160  -58.40500  -14.56670   34.89160
 9450.00000    9.44600    9.44600   32.76920   30.51650    7.38840  121.90860   30.51650    7.35930   37.86830  314.66400  314.66400   31.82890  -65.84460  -22.67530   31.82890
