~Version ---------------------------------------------------
VERS.      2.0 : CWLS log ASCII Standard -VERSION 2.0
WRAP.       NO : One line per depth step
CREA. 08/26/14 : LAS Creation Date
~Well ------------------------------------------------------
STRT.M                              300.0 : START DEPTH
STOP.M                             4800.0 : STOP DEPTH
STEP.M                           50.00000 : STEP LENGTH
NULL.                             -999.25 : NULL VALUE
COMP.    AMOCO CANADA PETROLEUM CO., LTD. : COMPANY
WELL. AMOCO ET AL BROWN CREEK 11-22-44-16 : WELL
FLD .                                     : FIELD
LOC .                                     : LOCATION
CTRY.                              CANADA : COUNTRY
SRVC.                        Schlumberger : SERVICE COMPANY
DATE.                         04-Apr-1979 : LOGDATE
PROV.                             Alberta : PROVINCE
UWI .                    100112204416W500 : UNIQUE WELL ID
SLAT.WGS84                       52.80888 : SURFACE LATITUDE
SLON.WGS84                       -116.243 : SURFACE LONGITUDE
~Curve Information -----------------------------------------
DEPT    .M                      : Depth Curve
CALDED  .MM                     : CALIPER FROM DENSITY LOG [ADJ TO RESISTIVITY LOG]
CALMED  .MM                     : CALIPER FROM MICROLATEROLOG [ADJ TO RESISTIVITY LOG]
CALSED  .MM                     : CALIPER FROM SONIC LOG [ADJ TO RESISTIVITY LOG]
CALWS   .MM                     : CALIPER [CALDED]
CONDWS  .MMHO                   : CONDUCTIVITY [1000/DRESWS]
CORRED  .KG/M3                  : DENSITY CORRECTION (DRESSER ATLAS<4062.7M> SCHLUMBERGER) FROM DENSITY LOG [ADJ TO RESISTIVITY LOG]
DCORWS  .KG/M3                  : DENSITY CORRECTION [CORRED]
DENWS   .KG/M3                  : FORMATION BULK DENSITY [CALC. FROM DPOLSWS M= 2710, F=1000 ]
DPHILSED.V/V                    : DENSITY POROSITY LIMESTONE [M=2710, F=1000] FROM DENSITY LOG [ADJ TO RESISTIVITY LOG]
DPHISSED.V/V                    : DENSITY POROSITY SANDSTONE [M=2650, F=1000] FROM DENSITY LOG [ADJ TO RESISTIVITY LOG]
DPOLSWS .V/V                    : DENSITY POROSITY LIMESTONE [DPHISSED MATRIX CONVERSION FOR LIMESTONE, M=2710, F=1000 & SPL. TO DPHILSED @ 2901.9 M]
DRESWS  .OHMM                   : DEEP RESISTIVITY [LLDED]
DTED    .US/M                   : DELTA-TIME FROM SONIC LOG [ADJ TO RESISTIVITY LOG]
DTWS    .US/M                   : COMPRESSIONAL SONIC [DTED]
GR1ED   .GAPI                   : GAMMA RAY FROM CBL LOG [ADJ TO RESISTIVITY LOG]
GRDED   .GAPI                   : GAMMA RAY FROM DENSITY LOG [ADJ TO RESISTIVITY LOG]
GRED    .GAPI                   : GAMMA RAY FROM CBL LOG [ADJ TO RESISTIVITY LOG]
GRRED   .GAPI                   : GAMMA RAY FROM RESISTIVITY LOG [ADJ. TO RESISTIVITY LOG]
GRSED   .GAPI                   : GAMMA RAY FROM SONIC LOG [ADJ TO RESISTIVITY LOG]
GRWS    .GAPI                   : GAMMA RAY [GRSED SPL. TO GRED @ 438-2900 M & 3982 M]
LLDED   .OHMM                   : LATEROLOG DEEP RESISTIVITY FROM RESISTIVITY LOG
LLSED   .OHMM                   : LATEROLOG SHALLOW RESISTIVITY FROM RESISTIVITY LOG
MLLED   .OHMM                   : MICRO FOCUSED LATEROLOG RESISTIVITY FROM RESISTIVITY LOG
NPHILSED.V/V                    : NEUTRON POROSITY LIMESTONE FROM DENSITY LOG [ADJ TO RESISTIVITY LOG]
NPHISSED.V/V                    : NEUTRON POROSITY SANDSTONE FROM DENSITY LOG [ADJ TO RESISTIVITY LOG]
NPOLSWS .V/V                    : NEUTRON POROSITY LIMESTONE [NPHISSED MATRIX CONVERSION FOR LIMESTONE, SPL. TO NPHILSED @ 4019.6M ]
RHOBED  .KG/M3                  : BULK DENSITY FROM DENSITY LOG [ADJ TO RESISTIVITY LOG]
SRESWS  .OHMM                   : SHALLOW RESISTIVITY [LLSED]
TENDED  .N :   TENSION LBF TO N : *4.44822162] FROM DENSITY LOG [ADJ TO RESISTIVITY LOG]
~Params ----------------------------------------------------
ORIG.          40",24"/100M PRINT : ORIGIN OF DATA
PD  .                GROUND LEVEL : PERMANENT DATUM
EPD .M                     1166.8 : ELEVATION PERMANENT DATUM
LMF .                          KB : LOG MEASURED FROM
DAPD.M                       10.7 : FEET ABOVE PERMANENT DATUM
DMF .                          KB : DRILLING MEASURED FROM
EKB .M                      11775 : KELLY BUSHING
EGL .M                     1166.8 : GROUND LEVEL
DATE.                  04/04/1979 : RUN DATE
RUN .                           1 : RUN NUMBER
DD  .M                       4805 : DEPTH DRILLER
DL  .M                       4805 : DEPTH LOGGER
BLI .M                       4805 : BOTTOM LOG INTERVAL
TLI .M                     4062.5 : TOP LOG INTERVAL
CS  .MM                       194 : CASING SIZE
CBD .M                       4060 : CASING BOTTOM DRILLER
CBL .M                     4062.5 : CASING BOTTOM LOGGER
BS  .MM                       159 : BIT SIZE
BSD .M                       4805 : BIT SIZE AT DEPTH
DFT .                    GEL CHEM : DRILLING FLUID TYPE
DFD .                        1120 : DRILLING FLUID DENSITY
DFV .                          50 : DRILLING FLUID VISCOSITY
DFPH.                           9 : DRILLING FLUID PH
DFL .                        12.2 : DRILLING FLUID LOSS
MSS .                    FLOWLINE : MUD SAMPLE SOURCE
RMS .OHMM                    1.42 : RESISTIVITY MUD SAMPLE
MST .DEGC                    22.2 : MUD SAMPLE TEMPERATURE
RMF .OHMM                    1.15 : RESISTIVITY MUD FILTRATE SAMPLE
MFST.DEGC                      20 : MUD FILTRATE SAMPLE TEMPERATURE
MFSS.                         MUD : MUD FILTRATE SAMPLE SOURCE
MCSS.                       PRESS : MUD CAKE SAMPLE SOURCE
TCS .HRS                     2330 : TIME CIRCULATED STOPPED
TLAB.HRS                     1800 : TIME LOGGER AT BOTTOM
LUN .                        8037 : LOGGING UNIT NUMBER
LUL .                          RD : LOGGING UNIT LOCATION
ENGI.     CATHCART, MAURO, DOWNIE : RECORDING ENGINEER
WITN. DIXON, MULHOLLAND, MCKELLAR : WITNESSED BY
CLNT.                     A2DTECH : CLIENT CODE
UWI .            100112204416W500 : UNIQUE WELL ID
DICO.      A2D Technologies, Inc. : DIGITIZING COMPANY
~Other -----------------------------------------------------
DLL-CND-BHC-CBL LOG RUN
RHOB, DCOR & CORR FROM 2" SECTION
~ASCII -----------------------------------------------------
# ...
 1550.00000  233.35010    -999.25  236.51050  233.35010   72.42490  261.96650  261.96650 2302.81860    -999.25    0.17230    0.23810   13.80740  283.48390  283.48390    -999.25  128.20560   60.49380  109.00840  119.15960  119.15960   13.80740    8.74470    -999.25    -999.25    0.30140    0.26140 2302.81860    8.74470 5365.70960
 1600.00000  291.00830    -999.25  243.37380  291.00830  117.20580  283.01470  283.01470 2437.80570    -999.25    0.11420    0.15920    8.53200  266.08430  266.08430    -999.25  106.84210   65.58010   91.89140  102.19320  102.19320    8.53200    4.78020    -999.25    -999.25    0.29630    0.25630 2437.80570    4.78020 5891.29720
 1650.00000  225.24110    -999.25  236.73990  225.24110   59.95420  204.55910  204.55910 2621.68510    -999.25    0.02110    0.05160   16.67940  248.19940  248.19940    -999.25  106.68340   64.85830   87.93140   99.60740   99.60740   16.67940   12.78680    -999.25    -999.25    0.23020    0.19020 2621.68510   12.78680 5496.70750
 1700.00000  297.44870    -999.25  243.75580  297.44870  139.40590  223.55540  223.55540 2167.36690    -999.25    0.28860    0.31730    7.17330  289.85720  289.85720    -999.25  118.38860   65.44640  103.51620  112.19570  112.19570    7.17330    3.58500    -999.25    -999.25    0.33030    0.29030 2167.36690    3.58500 6077.89480
 1750.00000  277.71140    -999.25  244.03910  277.71140   64.43300  331.12500  331.12500 2699.34520    -999.25   -0.04280    0.00620   15.52000  247.82120  247.82120    -999.25  118.54080   61.43760   92.38300  103.94170  103.94170   15.52000   11.40670    -999.25    -999.25    0.29660    0.25660 2699.34520   11.40670 6274.17970
 1800.00000  277.61330    -999.25  239.68950  277.61330   90.22580  317.72850  317.72850 2384.36450    -999.25    0.15720    0.19040   11.08330  277.50790  277.50790    -999.25  120.16640   66.77370  102.30090  107.38370  107.38370   11.08330    8.68470    -999.25    -999.25    0.30700    0.26700 2384.36450    8.68470 5374.72660
 1850.00000  281.12850    -999.25  250.29470  281.12850   94.82630  326.49800  326.49800 2293.84990    -999.25    0.24150    0.24340   10.54560  259.15190  259.15190    -999.25  129.70380   76.40530  108.26820  128.18510  128.18510   10.54560    7.16100    -999.25    -999.25    0.29720    0.25720 2293.84990    7.16100 5729.28810
 1900.00000  246.06140    -999.25  234.46810  246.06140   65.60470  312.55090  312.55090 2618.36840    -999.25    0.00710    0.05360   15.24280  236.04620  236.04620    -999.25  106.41250   68.70390   99.43610  117.98940  117.98940   15.24280   12.86230    -999.25    -999.25    0.24510    0.20510 2618.36840   12.86230 5839.23880
 1950.00000  306.81540    -999.25  264.49440  306.81540  124.97340  198.43400  198.43400 2017.56300    -999.25    0.36660    0.40490    8.00170  269.94060  269.94060    -999.25  131.75080   68.68510  104.25810  121.74290  121.74290    8.00170    5.74390    -999.25    -999.25    0.32430    0.28430 2017.56300    5.74390 5784.14450
 2000.00000  292.22710    -999.25  241.77080  292.22710  118.69580  272.58260  272.58260 2157.64970    -999.25    0.31660    0.32300    8.42490  249.49650  249.49650    -999.25  117.54720   67.02490   94.53360  113.61200  113.61200    8.42490    4.75240    -999.25    -999.25    0.27520    0.23520 2157.64970    4.75240 5902.10110
 2050.00000  306.28180    -999.25  252.63280  306.28180  115.14500  294.97600  294.97600 2328.17360    -999.25    0.18130    0.22330    8.68470  315.65810  315.65810    -999.25  113.40170   58.22080   92.18190  104.92760  104.92760    8.68470    5.93720    -999.25    -999.25    0.28560    0.24560 2328.17360    5.93720 6341.92080
 2100.00000  239.78940    -999.25  237.26840  239.78940   33.33760  104.95270  104.95270 2593.93120    -999.25    0.02900    0.06790   29.99620  225.46090  225.46090    -999.25   57.46440   28.56080   58.05420   65.58080   65.58080   29.99620   26.52540    -999.25    -999.25    0.17940    0.13940 2593.93120   26.52540 6232.67950
 2150.00000  369.79570    -999.25  316.62170  369.79570  132.11090  -26.86430  -26.86430 1600.99490    -999.25    0.45000    0.64850    7.56940  241.78770  241.78770    -999.25   96.34320   52.37640   84.00610   94.22870   94.22870    7.56940    4.55990    -999.25    -999.25    0.39020    0.35020 1600.99490    4.55990 3426.84100
 2200.00000  266.51070    -999.25  296.70540  266.51070  143.01650   89.12540   89.12540 1769.07590    -999.25    0.45020    0.55020    6.99220  355.55490  355.55490    -999.25  105.69830   59.76540   80.75100   97.03650   97.03650    6.99220    3.79820    -999.25    -999.25    0.37010    0.33010 1769.07590    3.79820 7288.39330
 2250.00000  360.95140    -999.25  363.71350  360.95140  136.70910  -17.23690  -17.23690 1376.97050    -999.25    0.45000    0.77950    7.31480  279.33660  279.33660    -999.25   81.15110   28.86940   80.48200   82.02930   82.02930    7.31480    4.87790    -999.25    -999.25    0.38590    0.34590 1376.97050    4.87790 5444.87240
 2300.00000  262.72380    -999.25  233.69420  262.72380   34.38120  311.51610  311.51610 2567.89650    -999.25    0.04410    0.08310   29.08570  226.69330  226.69330    -999.25   71.62500   27.99390   53.13420   66.94910   66.94910   29.08570   27.80300    -999.25    -999.25    0.21330    0.17330 2567.89650   27.80300 6044.25070
 2350.00000  343.05300    -999.25  256.08920  343.05300   23.25650  100.81220  100.81220 1673.91530    -999.25    0.44970    0.60590   42.99880  261.87920  261.87920    -999.25   72.09750   30.94220   48.31090   65.50880   65.50880   42.99880   16.76380    -999.25    -999.25    0.30180    0.26180 1673.91530   16.76380 5908.86150
 2400.00000  251.16860    -999.25  236.34710  251.16860   63.62500  337.70160  337.70160 2401.66970    -999.25    0.14430    0.18030   15.71710  247.81790  247.81790    -999.25   96.91380   29.73850   72.21580   89.15570   89.15570   15.71710   13.93570    -999.25    -999.25    0.30120    0.26120 2401.66970   13.93570 5954.24440
 2450.00000  260.72080    -999.25  236.38930  260.72080   51.32050  279.91980  279.91980 2325.38450    -999.25    0.17520    0.22490   19.48540  236.65750  236.65750    -999.25  123.29520   43.20830  112.14280  118.67450  118.67450   19.48540   18.99410    -999.25    -999.25    0.26750    0.22750 2325.38450   18.99410 5094.74350
 2500.00000  265.79270    -999.25  247.64040  265.79270   49.96050  370.13590  370.13590 2524.14920    -999.25    0.07910    0.10870   20.01580  237.05120  237.05120    -999.25  125.99890   52.57610  117.21350  118.53120  118.53120   20.01580   18.13160    -999.25    -999.25    0.28740    0.24740 2524.14920   18.13160 6588.40430
 2550.00000  261.21800    -999.25  243.31130  261.21800   64.38740  353.69140  353.69140 2553.07840    -999.25    0.06550    0.09180   15.53100  256.67000  256.67000    -999.25  141.39070   47.84770  107.72340  134.72390  134.72390   15.53100   14.68990    -999.25    -999.25    0.29480    0.25480 2553.07840   14.68990 5544.19450
 2600.00000  261.42660    -999.25  242.58450  261.42660   60.53340  387.37640  387.37640 2638.74680    -999.25    0.01220    0.04170   16.51980  239.72880  239.72880    -999.25  111.93030   52.74250  103.76220  118.07990  118.07990   16.51980   16.01220    -999.25    -999.25    0.28330    0.24330 2638.74680   16.01220 5614.11560
 2650.00000  272.30500    -999.25  244.88130  272.30500  107.37910  325.59980  325.59980 2376.74120    -999.25    0.18330    0.19490    9.31280  260.56610  260.56610    -999.25  133.59750   50.73000  113.69240  125.64380  125.64380    9.31280    7.50530    -999.25    -999.25    0.32920    0.28920 2376.74120    7.50530 5000.22230
 2700.00000  294.38460    -999.25  245.68390  294.38460  118.54380  291.17540  291.17540 2186.61960    -999.25    0.27580    0.30610    8.43570  261.06770  261.06770    -999.25  136.47900   51.67070  119.74440  132.93750  132.93750    8.43570    6.48590    -999.25    -999.25    0.30950    0.26950 2186.61960    6.48590 7240.92190
 2750.00000  272.60930    -999.25  245.78310  272.60930  102.58620  303.32870  303.32870 2234.22950    -999.25    0.25150    0.27820    9.74790  253.25230  253.25230    -999.25  148.16600   52.31790  120.47920  123.56570  123.56570    9.74790    7.63780    -999.25    -999.25    0.31230    0.27230 2234.22950    7.63780  356.52810
