~Version ---------------------------------------------------
VERS.      2.0 : CWLS log ASCII Standard -VERSION 2.0
WRAP.       NO : One line per depth step
CREA. 11/15/17 : LAS Creation Date
~Well ------------------------------------------------------
STRT.FT                        1000.0 : START DEPTH
STOP.FT                       10050.0 : STOP DEPTH
STEP.FT                      50.00000 : STEP LENGTH
NULL.                         -999.25 : NULL VALUE
COMP.        SKELLY OIL OF CANADA LTD : COMPANY
WELL. SKELLY A2 TWO CREEK 10-20-62-16 : WELL
FLD .                              WC : FIELD
LOC .                                 : LOCATION
CTRY.                          CANADA : COUNTRY
SRVC.                   Dresser Atlas : SERVICE COMPANY
DATE.                     30-Jan-1976 : LOGDATE
PROV.                         Alberta : PROVINCE
UWI .                100102006216W500 : UNIQUE WELL ID
SLAT.WGS84                   54.38094 : SURFACE LATITUDE
SLON.WGS84                  -116.3576 : SURFACE LONGITUDE
~Curve Information -----------------------------------------
DEPT  .FT    : Depth Curve
ACED  .US/F  : DELTA TIME (ACOUSTIC) FROM BHC LOG [DEPTH ADJ. TO SFLED]
CALSED.IN    : CALIPER FROM BHC LOG [DEPTH ADJ. TO SFLED]
CALWS .IN    : CALIPER [CALSED]
CONDWS.MMHO  : CONDUCTIVITY [1000/DRESWS]
DRESWS.OHMM  : DEEP RESISTIVITY [ILDED]
DTWS  .US/F  : DELTA TIME [ACED]
GRSED .GAPI  : GAMMA RAY FROM BHC LOG [DEPTH ADJ. TO SFLED]
GRWS  .GAPI  : GAMMA RAY [GRSED]
ILDED .OHMM  : INDUCTION LOG DEEP RESISTIVITY FROM DIFL LOG
ILMED .OHMM  : INDUCTION LOG MEDIUM RESISTIVITY FROM DIFL LOG
MCALED.IN    : CALIPER MICROLOG FROM ML LOG [DEPTH ADJ. TO CALSED]
MRESWS.OHMM  : MEDIUM RESISTIVITY [ILMED]
SFLED .OHMM  : SPHERICALLY FOCUSED LOG RESISTIVITY FROM DIFL LOG
SPRED .MV    : SPONTANEOUS POTENTIAL FROM DIFL LOG
SPWS  .MV    : SPONTANEOUS POTENTIAL [BASELINE 0 MV] [SPRED]
SRESWS.OHMM  : SHALLOW RESISTIVITY [SFLED]
~Params ----------------------------------------------------
PD  .                     GL : PERMANENT DATUM
EPD .FT               3027.7 : ELEVATION PERMANENT DATUM
LMF .                     KB : LOG MEASURED FROM
DAPD.FT                 13.6 : FEET ABOVE PERMANENT DATUM
DMF .                     KB : DRILLING MEASURED FROM
EKB .FT               3041.3 : KELLY BUSHING
EGL .FT               3027.7 : GROUND LEVEL
DATE.               01/30/76 : RUN DATE
RUN .                      1 : RUN NUMBER
DD  .FT                10050 : DEPTH DRILLER
DL  .FT                10058 : DEPTH LOGGER
BLI .FT                10056 : BOTTOM LOG INTERVAL
TLI .FT                 1050 : TOP LOG INTERVAL
CS  .IN                9.625 : CASING SIZE
CBD .FT                 1062 : CASING BOTTOM DRILLER
CBL .FT                 1050 : CASING BOTTOM LOGGER
BS  .IN                  8.5 : BIT SIZE
BSD .FT                10050 : BIT SIZE AT DEPTH
DFT .           MUD GEL CHEM : DRILLING FLUID TYPE
DFD .                    9.1 : DRILLING FLUID DENSITY
DFV .                    100 : DRILLING FLUID VISCOSITY
DFPH.                     10 : DRILLING FLUID PH
DFL .                    7.8 : DRILLING FLUID LOSS
MSS .                   CIRC : MUD SAMPLE SOURCE
RMS .OHMM                2.2 : RESISTIVITY MUD SAMPLE
MST .DEGF                 62 : MUD SAMPLE TEMPERATURE
RMF .OHMM                1.8 : RESISTIVITY MUD FILTRATE SAMPLE
MFST.DEGF                 62 : MUD FILTRATE SAMPLE TEMPERATURE
RMC .OHMM                2.5 : RESISTIVITY MUD CAKE
MCST.DEGF                 60 : MUD CAKE SAMPLE TEMPERATURE
MFSS.                   MEAS : MUD FILTRATE SAMPLE SOURCE
MCSS.                   MEAS : MUD CAKE SAMPLE SOURCE
RMB .OHMM                0.8 : RESISTIVITY MUD AT BHT
TCS .HRS                   7 : TIME CIRCULATED STOPPED
LUN .                   6155 : LOGGING UNIT NUMBER
LUL .                    EDM : LOGGING UNIT LOCATION
ENGI.           HETHERINGTON : RECORDING ENGINEER
WITN.           BALL SHEDDON : WITNESSED BY
CLNT.                A2DTECH : CLIENT CODE
ORIG.        2" 5" 10" PRINT : ORIGIN OF DATA
UWI .       100102006216W500 : UNIQUE WELL ID
DICO. A2D Technologies, Inc. : DIGITIZING COMPANY
~Other -----------------------------------------------------
~ASCII -----------------------------------------------------
# ...
 5300.00000   91.38360    9.54850    9.54850  160.11270    6.24560   91.38360  119.95090  119.95090    6.24560    5.87360   10.19650    5.87360    9.00800  -86.73100  -13.50170    9.00800
 5350.00000   79.79660    9.49350    9.49350   99.13700   10.08710   79.79660   74.01400   74.01400   10.08710   10.49630   11.07610   10.49630   10.55680 -101.27170  -26.91260   10.55680
 5400.00000   76.63470    8.99730    8.99730   66.19670   15.10650   76.63470   98.52760   98.52760   15.10650   15.45890    9.10800   15.45890   18.20370  -92.35550  -16.87780   18.20370
 5450.00000   71.73760    9.43660    9.43660   77.84620   12.84580   71.73760   86.96070   86.96070   12.84580   13.63840    9.24450   13.63840   15.28330  -91.77450  -15.16700   15.28330
 5500.00000   79.97120   10.40250   10.40250  100.90310    9.91050   79.97120  107.71490  107.71490    9.91050   10.45600   10.29980   10.45600   12.69450  -88.74870  -11.02260   12.69450
 5550.00000   75.79510   10.06250   10.06250   81.96990   12.19960   75.79510   92.05270   92.05270   12.19960   13.39110    9.37460   13.39110   20.85900 -113.88490  -35.03470   20.85900
 5600.00000   74.48650    9.38730    9.38730   90.39380   11.06270   74.48650  113.73560  113.73560   11.06270   12.26620    9.28560   12.26620   15.43410  -96.48680  -16.50670   15.43410
 5650.00000   76.20570    8.98150    8.98150  108.72400    9.19760   76.20570   90.31120   90.31120    9.19760    9.61230    9.14670    9.61230   15.85970 -114.85290  -33.75430   15.85970
 5700.00000  119.27910   10.46680   10.46680   66.76750   14.97730  119.27910  105.90050  105.90050   14.97730   16.00510    9.37160   16.00510   21.94230  -89.54930   -7.32090   21.94230
 5750.00000   77.83890    9.09900    9.09900  129.48670    7.72280   77.83890  103.30040  103.30040    7.72280    8.95260    8.89270    8.95260   12.57820 -101.15330  -19.94230   12.57820
 5800.00000   76.88230    9.59220    9.59220   92.72650   10.78440   76.88230  115.74320  115.74320   10.78440   11.65760    9.42780   11.65760   12.72940  -97.07600  -17.58870   12.72940
 5850.00000   79.76850    9.93380    9.93380  141.75250    7.05460   79.76850  111.20980  111.20980    7.05460    6.75450    9.13530    6.75450   10.54970  -97.69510  -19.94010   10.54970
 5900.00000   77.52770    9.12130    9.12130   98.86110   10.11520   77.52770  110.60890  110.60890   10.11520   10.70490    9.18610   10.70490   11.79060  -85.66360   -9.62370   11.79060
 5950.00000   72.16700    8.88360    8.88360   68.42050   14.61550   72.16700   75.73920   75.73920   14.61550   17.07950    8.84950   17.07950   21.42130 -117.82370  -43.51610   21.42130
 6000.00000   65.49960    9.72780    9.72780   57.97200   17.24970   65.49960  111.68910  111.68910   17.24970   19.54160    9.43020   19.54160   30.79990  -83.38760  -10.79510   30.79990
 6050.00000   69.40560    9.11250    9.11250   72.89370   13.71860   69.40560   92.21760   92.21760   13.71860   14.78300    8.82550   14.78300   22.30250  -96.39720  -25.52840   22.30250
 6100.00000   98.75740   12.40380   12.40380  409.35790    2.44280   98.75740  112.95070  112.95070    2.44280    2.55580   11.92940    2.55580    3.71720  -75.66660   -6.53020    3.71720
 6150.00000   79.36830    9.74860    9.74860  114.84480    8.70740   79.36830  104.67810  104.67810    8.70740    8.21370    9.13510    8.21370   11.58190  -74.07310   -6.65180   11.58190
 6200.00000   95.80200   12.22790   12.22790  199.12190    5.02210   95.80200  112.85940  112.85940    5.02210    4.69840   13.25910    4.69840    6.66590  -68.07030   -3.42150    6.66590
 6250.00000   72.80410   10.48810   10.48810  107.68090    9.28670   72.80410  125.90860  125.90860    9.28670    9.72710   10.11790    9.72710   14.30940  -69.05910   -9.12580   14.30940
 6300.00000   58.05240    8.52640    8.52640    0.42620 2346.08860   58.05240   31.33230   31.33230 2346.08860 2861.38060    8.56360 2861.38060 2512.12130 -112.74470  -57.55050 2512.12130
 6350.00000   62.07970    9.04710    9.04710   32.00430   31.24580   62.07970  112.99710  112.99710   31.24580   32.27540    9.00010   32.27540 2010.45360  -88.67210  -38.24070 2010.45360
 6400.00000   61.53280    8.28970    8.28970   40.63190   24.61120   61.53280   49.00400   49.00400   24.61120   54.51000    8.20310   54.51000  102.82810 -249.01510 -203.29920  102.82810
 6450.00000   61.12760    8.85730    8.85730   84.89400   11.77940   61.12760   72.86370   72.86370   11.77940   12.63460    9.43470   12.63460   28.02910 -115.28230  -74.32920   28.02910
 6500.00000   65.14520    9.01610    9.01610  379.13250    2.63760   65.14520   56.16600   56.16600    2.63760    3.22890    9.27110    3.22890   13.35720 -183.38640 -147.14870   13.35720
 6550.00000   59.34350    8.84950    8.84950  102.19520    9.78520   59.34350   57.11840   57.11840    9.78520   10.22520    -999.25   10.22520   34.67100 -149.01880 -117.52020   34.67100
 6600.00000   51.77630    8.66940    8.66940    2.22490  449.46390   51.77630   32.30500   32.30500  449.46390 1960.42120    -999.25 1960.42120 1717.19610 -102.29990  -75.56410 1717.19610
 6650.00000   49.55980    8.22980    8.22980   95.79090   10.43940   49.55980   14.73130   14.73130   10.43940   23.52010    -999.25   23.52010 2485.65750 -235.10370 -213.08330 2485.65750
 6700.00000   52.17110    8.26330    8.26330   35.41410   28.23730   52.17110   14.94470   14.94470   28.23730   64.20760    -999.25   64.20760 2450.63640 -255.86140 -238.60390 2450.63640
 6750.00000   50.37750    8.73700    8.73700    6.38320  156.66080   50.37750   33.92870   33.92870  156.66080 2710.57620    -999.25 2710.57620 2418.00220 -117.31690 -104.77480 2418.00220
 6800.00000   66.11000    8.90970    8.90970  228.32610    4.37970   66.11000   93.65760   93.65760    4.37970    4.74350    -999.25    4.74350    5.63730  -49.51520  -41.71220    5.63730
 6850.00000   61.54700    8.85420    8.85420   95.13070   10.51180   61.54700   86.01870   86.01870   10.51180   11.51590    -999.25   11.51590   16.81010  -41.81360  -37.36300   16.81010
 6900.00000   60.68010    8.72440    8.72440  197.30480    5.06830   60.68010   49.09390   49.09390    5.06830    5.37670    -999.25    5.37670   19.48240 -125.84160 -119.86890   19.48240
 6950.00000   54.16620    8.41790    8.41790    3.14170  318.30310   54.16620   29.67390   29.67390  318.30310 1740.86170    -999.25 1740.86170  429.20980  -51.93630  -44.42630  429.20980
 7000.00000   52.45420    8.61550    8.61550    0.42550 2350.25100   52.45420   23.49660   23.49660 2350.25100 2806.25590    -999.25 2806.25590 2469.00020  -67.07170  -58.03960 2469.00020
 7050.00000   54.57680    8.35540    8.35540    7.02130  142.42360   54.57680   45.73730   45.73730  142.42360  151.28610    -999.25  151.28610  270.27070  -63.78330  -53.22160  270.27070
 7100.00000   64.99780    8.03650    8.03650    0.52100 1919.33780   64.99780   24.95240   24.95240 1919.33780 2797.14890    -999.25 2797.14890 2424.55690 -132.38740 -120.28830 2424.55690
 7150.00000   51.42180    8.32500    8.32500    0.42680 2342.78470   51.42180   23.25970   23.25970 2342.78470 2824.62700    -999.25 2824.62700 2496.88180 -166.97380 -153.35270 2496.88180
 7200.00000   52.17550    8.33230    8.33230    0.42730 2340.44570   52.17550   47.11780   47.11780 2340.44570 2738.47680    -999.25 2738.47680 2462.03380 -163.11690 -147.95850 2462.03380
 7250.00000   52.76530    8.33880    8.33880    1.03490  966.27390   52.76530   30.14500   30.14500  966.27390 2730.98970    -999.25 2730.98970  702.22850 -199.21700 -182.53660  702.22850
 7300.00000   58.62320    8.30030    8.30030    0.43380 2305.36940   58.62320   74.23160   74.23160 2305.36940 2813.96780    -999.25 2813.96780 2443.67480 -118.93280 -100.72270 2443.67480
 7350.00000   60.49800    8.67380    8.67380   49.08760   20.37170   60.49800  121.24580  121.24580   20.37170   22.37980    -999.25   22.37980   66.07390  -70.92270  -51.17530   66.07390
 7400.00000   50.03350    8.58650    8.58650    0.42800 2336.18850   50.03350   39.77770   39.77770 2336.18850 2844.37060    -999.25 2844.37060 2458.82710  -91.01220  -69.74270 2458.82710
