~Version ---------------------------------------------------
VERS.      2.0 : CWLS log ASCII Standard -VERSION 2.0
WRAP.       NO : One line per depth step
CREA. 11/19/14 : LAS Creation Date
~Well ------------------------------------------------------
STRT.M                               400.0 : START DEPTH
STOP.M                              2600.0 : STOP DEPTH
STEP.M                            50.00000 : STEP LENGTH
NULL.                              -999.25 : NULL VALUE
COMP.        TERRAQUEST ENERGY CORPORATION : COMPANY
WELL. TERRAQUEST ET AL MCLEANSC 11-4-74-21 : WELL
FLD .                                      : FIELD
LOC .                                      : LOCATION
CTRY.                               CANADA : COUNTRY
SRVC.                       REEVES COMPACT : SERVICE COMPANY
DATE.                          20-Dec-2002 : LOGDATE
PROV.                              Alberta : PROVINCE
UWI .                     100110407421W500 : UNIQUE WELL ID
SLAT.WGS84                        55.38264 : SURFACE LATITUDE
SLON.WGS84                       -117.1674 : SURFACE LONGITUDE
~Curve Information -----------------------------------------
DEPT    .M      : Depth Curve
CALWS   .MM     : CALIPER [CALXDED]
CALXDED .MM     : CALIPER  X AXIS  FROM DENSITY LOG
CALYDED .MM     : CALIPER  Y AXIS  FROM DENSITY LOG
CONDWS  .MMHO   : CONDUCTIVITY [1000/DRESWS]
DCORED  .KG/M3  : DENSITY CORRECTION [G/C3*1000] FROM DENSITY LOG
DCORWS  .KG/M3  : DENSITY CORRECTION [DCORED]
DENED   .KG/M3  : COMPENSATED BULK DENSITY [G/C3*1000] FROM DENSITY LOG [ADJ. TO DPHISSED/DPHILSED]
DENWS   .KG/M3  : DFORMATION BULK DENSITY [CALC. FROM DPOLSWS, M=2710, F=1000]
DPHILSED.V/V    : DENSITY POROSITY L.IMESTONE [M=2710, F=1000] FROM DENSITY LOG
DPOLSWS .V/V    : DENSITY POROSITY LIMESTONE [DPORSSED CONVERTED TO LIMESTONE MATRIX , M=2710, F=1000 SPL. TO DPHILSED @ 1200.6 M]
DPORSSED.V/V    : DENSITY POROSITY SANDSTONE [M=2650, F= 1000] FROM DENSITY LOG
DRESWS  .OHMM   : DEEP RESISTIVITY [ILDED]
DTED    .US/M   : DELTA TIME FROM SONIC LOG
DTWS    .US/M   : COMPRESSIONAL SONIC [DTED]
GRDED   .GAPI   : GAMMA RAY FROM DENSITY LOG
GRED    .GAPI   : GAMMA RAY FROM CASED HOLE CBL LOG [ADJ. TO RESISTVITY LOG]
GRWS    .GAPI   : GAMMA RAY [GRED SPL. TO GRDED @ 430.2 M]
ILDED   .OHMM   : DEEP INDUCTION RESISTIVITY FROM RESISTIVITY LOG
ILMED   .OHMM   : MEDIUM INDUCTION RESISTIVITY FROM RESISTIVITY LOG
MRESWS  .OHMM   : MEDIUM RESISTIVITY [ILMED]
NPOLSWS .V/V    : NEUTRON POROSITY LIMESTONE [NPORSSED MATRIX  CONVERSION FOR LIMESTONE , SPL. TO NPORLSED @ 1199.9 M]
NPORLSED.V/V    : NEUTRON POROSITY LIMESTONE FROM DENSITY LOG
NPORSSED.V/V    : NEUTRON POROSITY SANDSTONE FROM DENSITY LOG
PEED    .B/E    : PHOTO ELECTRIC CROSS SECTION FROM DENSITY LOG
PEFWS   .B/E    : PHOTOELCTRIC FACTOR [PEED]
SFEED   .OHMM   : SHALLOW FOCUSSED ELECTRIC FROM RESISTIVITY LOG
SPRED   .MV     : SPONTANEOUS POTENTIAL FROM RESISTIVITY LOG
SPWS    .MV     : SPONTANEOUS POTENTIAL [BASELINE 0 MV, SPRED]
SRESWS  .OHMM   : SHALLOW RESISTIVITY [SFEED]
TENDED  .N      : TENSION [KG*9.80665002864] FROM DENSITY LOG
~Params ----------------------------------------------------
PD  .                         GL : PERMANENT DATUM
EPD .M                     633.6 : ELEVATION PERMANENT DATUM
LMF .                         KB : LOG MEASURED FROM
DAPD.M                       5.1 : FEET ABOVE PERMANENT DATUM
DMF .                         KB : DRILLING MEASURED FROM
EKB .M                     638.7 : KELLY BUSHING
EGL .M                     633.6 : GROUND LEVEL
DATE.                   12/20/02 : RUN DATE
RUN .                          1 : RUN NUMBER
DD  .M                      2640 : DEPTH DRILLER
DL  .M                    2640.3 : DEPTH LOGGER
BLI .M                    2639.2 : BOTTOM LOG INTERVAL
TLI .M                       459 : TOP LOG INTERVAL
CS  .MM                    219.1 : CASING SIZE
CBD .M                       459 : CASING BOTTOM DRILLER
CBL .M                     459.5 : CASING BOTTOM LOGGER
BS  .MM                      200 : BIT SIZE
BSD .M                      2640 : BIT SIZE AT DEPTH
DFT .                   GEL CHEM : DRILLING FLUID TYPE
DFD .                       1100 : DRILLING FLUID DENSITY
DFV .                         70 : DRILLING FLUID VISCOSITY
DFPH.                       10.5 : DRILLING FLUID PH
DFL .                          6 : DRILLING FLUID LOSS
MSS .                   FLOWLINE : MUD SAMPLE SOURCE
RMS .OHMM                    1.1 : RESISTIVITY MUD SAMPLE
MST .DEGC                     25 : MUD SAMPLE TEMPERATURE
RMF .OHMM                    0.9 : RESISTIVITY MUD FILTRATE SAMPLE
MFST.DEGC                     25 : MUD FILTRATE SAMPLE TEMPERATURE
RMC .OHMM                    1.0 : RESISTIVITY MUD CAKE
MCST.DEGC                     25 : MUD CAKE SAMPLE TEMPERATURE
MFSS.                      PRESS : MUD FILTRATE SAMPLE SOURCE
MCSS.                     FILTER : MUD CAKE SAMPLE SOURCE
RMB .OHMM                   0.53 : RESISTIVITY MUD AT BHT
TCS .HRS                     6.5 : TIME CIRCULATED STOPPED
LUN .                       1058 : LOGGING UNIT NUMBER
LUL .                        WCT : LOGGING UNIT LOCATION
ENGI.                     BRETON : RECORDING ENGINEER
WITN.                     WATTON : WITNESSED BY
CLNT.                    A2DTECH : CLIENT CODE
ORIG. 6.5"/100M 16.5"/100M PRINT : ORIGIN OF DATA
UWI .           100110407421W500 : UNIQUE WELL ID
DICO.     A2D Technologies, Inc. : DIGITIZING COMPANY
~Other -----------------------------------------------------
AIS-CNS-PDS-CSS LOG RUN IC COMBO & CBL LOG RUN
RHOB VERIFIED FROM 2" SECTION.
~ASCII -----------------------------------------------------
  400.00000    -999.25    -999.25    -999.25    -999.25    -999.25    -999.25    -999.25    -999.25    -999.25    -999.25    -999.25    -999.25    -999.25    -999.25    -999.25   66.01600   66.01600    -999.25    -999.25    -999.25    -999.25    -999.25    -999.25    -999.25    -999.25    -999.25    -999.25    -999.25    -999.25    -999.25
  450.00000    -999.25    -999.25    -999.25    -999.25    -999.25    -999.25    -999.25    -999.25    -999.25    -999.25    -999.25    -999.25    -999.25    -999.25   47.85290   48.26070   47.85290    -999.25    -999.25    -999.25    0.40750    -999.25    0.45200    -999.25    -999.25    -999.25    -999.25    -999.25    -999.25    -999.25
  500.00000  205.21320  205.21320  301.47600  174.07050   92.00000   92.00000 2223.00000 2223.31000    -999.25    0.28460    0.25860    5.74480  373.22400  373.22400   93.56190    -999.25   93.56190    5.74480    5.30410    5.30410    0.44590    -999.25    0.48570    2.44200    2.44200    4.92910  -35.55630   -4.22100    4.92910 9761.89540
  550.00000  275.20000  275.20000  206.74560  182.96920  228.70000  228.70000 1888.30000 1917.56500    -999.25    0.46340    0.44390    5.46540  366.81940  366.81940  101.45540    -999.25  101.45540    5.46540    5.05330    5.05330    0.41980    -999.25    0.46280    3.07150    3.07150    5.27880  -34.81860   -4.51150    5.27880 9685.79090
  600.00000  250.30580  250.30580  232.35920  161.21750   34.50000   34.50000 2425.20000 2430.55000    -999.25    0.16340    0.13300    6.20280  339.15920  339.15920  111.64660    -999.25  111.64660    6.20280    6.09090    6.09090    0.39460    -999.25    0.44050    2.89750    2.89750    5.96150  -34.76850   -5.10090    5.96150 10572.27870
  650.00000  309.98960  309.98960  225.12790  354.10760   51.30000   51.30000 2290.60000 2289.97000    -999.25    0.24560    0.21820    2.82400  389.73650  389.73650   93.10300    -999.25   93.10300    2.82400    2.59770    2.59770    0.46490    -999.25    0.50220    2.48590    2.48590    2.94870  -31.09050   -3.75920    2.94870 10549.02130
  700.00000  209.89430  209.89430  213.72640  158.17780   57.00000   57.00000 2183.70000 2263.40500    -999.25    0.26120    0.23430    6.32200  304.98420  304.98420   85.50580    -999.25   85.50580    6.32200    6.96940    6.96940    0.29050    -999.25    0.34450    2.14900    2.14900    7.43320  -59.72190  -30.84760    7.43320 11038.72420
  750.00000  206.37910  206.37910  207.59790  244.91200   20.70000   20.70000 2336.40000 2341.12000    -999.25    0.21570    0.18720    4.08310  324.01000  324.01000   86.58250    -999.25   86.58250    4.08310    4.23640    4.23640    0.33820    -999.25    0.38930    2.53240    2.53240    4.18960  -34.55770   -7.51500    4.18960 11600.25790
  800.00000  215.88360  215.88360  218.65760  166.56120    2.90000    2.90000 2298.30000 2308.12000    -999.25    0.23500    0.20720    6.00380  313.65890  313.65890   62.51320    -999.25   62.51320    6.00380    5.85820    5.85820    0.32540    -999.25    0.37740    2.97360    2.97360    5.68540  -40.40400   -8.23460    5.68540 11702.46870
  850.00000  232.09810  232.09810  211.71330  203.93180   11.50000   11.50000 2390.70000 2391.94000    -999.25    0.18600    0.15640    4.90360  325.05180  325.05180   90.68660    -999.25   90.68660    4.90360    5.07590    5.07590    0.34180    -999.25    0.39270    2.88320    2.88320    5.54190  -45.02290  -12.23860    5.54190 12013.16390
  900.00000  226.34030  226.34030  209.29680  227.26760    4.50000    4.50000 2318.20000 2322.80500    -999.25    0.22640    0.19830    4.40010  360.85800  360.85800   90.08890    -999.25   90.08890    4.40010    4.60870    4.60870    0.42020    -999.25    0.46320    3.40150    3.40150    5.38830  -45.46070  -13.08980    5.38830 12723.12420
  950.00000  227.22340  227.22340  216.61420  163.80280    8.80000    8.80000 2417.70000 2416.03000    -999.25    0.17190    0.14180    6.10490  297.06590  297.06590   77.03430    -999.25   77.03430    6.10490    6.25370    6.25370    0.31070    -999.25    0.36370    2.89570    2.89570    6.34690  -39.67410   -7.18650    6.34690 12989.21690
 1000.00000  223.06640  223.06640  221.67370  158.00280   36.20000   36.20000 2378.10000 2367.68500    -999.25    0.20020    0.17110    6.32900  282.63350  282.63350   69.34290    -999.25   69.34290    6.32900    7.31500    7.31500    0.28500    -999.25    0.33920    2.34280    2.34280   10.42240  -67.14080  -31.52820   10.42240 13243.02770
 1050.00000  216.43310  216.43310  245.07660  176.33260   38.00000   38.00000 2455.10000 2449.69000    -999.25    0.15220    0.12140    5.67110  308.29590  308.29590  103.53630    -999.25  103.53630    5.67110    6.08910    6.08910    0.31550    -999.25    0.36820    2.09210    2.09210    6.09880  -38.46300   -7.49840    6.09880 13638.36410
 1100.00000  243.88180  243.88180  310.19180  233.77050   67.80000   67.80000 2412.90000 2374.94500    -999.25    0.19590    0.16670    4.27770  300.43940  300.43940   81.72270    -999.25   81.72270    4.27770    4.13130    4.13130    0.39820    -999.25    0.44370    4.39780    4.39780    4.96910  -35.16120   -9.29330    4.96910 14067.56690
 1150.00000  207.18270  207.18270  208.66220   78.51880    4.10000    4.10000 2405.40000 2405.96500    -999.25    0.17780    0.14790   12.73580  353.61230  353.61230  166.54310    -999.25  166.54310   12.73580   11.77000   11.77000    0.40060    -999.25    0.44580    2.86820    2.86820   17.22440  -34.42030   -5.77640   17.22440 14268.39730
 1200.00000  259.50010  259.50010  223.28020  288.40050   50.80000   50.80000 2569.00000 2567.99500    0.08060    0.08300    0.04970    3.46740  259.58470  259.58470   86.18470    -999.25   86.18470    3.46740    3.66100    3.66100    0.24110    0.24110    0.28500    2.63940    2.63940    4.64040  -55.61590  -16.69510    4.64040 14779.00110
 1250.00000  212.50620  212.50620  221.13670  102.19310   88.50000   88.50000 2302.30000 2299.77100    0.23990    0.23990    0.21090    9.78540  256.75870  256.75870   30.18140    -999.25   30.18140    9.78540   18.35390   18.35390    0.31770    0.31770    0.35250    2.40760    2.40760   24.29630 -138.21660  -89.42980   24.29630 15388.53050
 1300.00000  215.05180  215.05180  216.38730   30.59790   -8.70000   -8.70000 2896.70000 2894.85100   -0.10810   -0.10810    -999.25   32.68200  167.07630  167.07630   10.35870    -999.25   10.35870   32.68200   59.27550   59.27550    0.02310    0.02310    -999.25    4.29450    4.29450  513.68540 -108.75300  -63.63730  513.68540 15998.28540
 1350.00000  222.93520  222.93520  224.18420  579.00530   13.90000   13.90000 2541.90000 2558.66500    0.08850    0.08850    -999.25    1.72710  207.55740  207.55740   23.35810    -999.25   23.35810    1.72710    2.31320    2.31320    0.18910    0.18910    -999.25    3.34540    3.34540    7.25640 -107.67030  -64.70430    7.25640 16360.61760
 1400.00000  207.90590  207.90590  210.99910  282.26260   34.80000   34.80000 2554.60000 2551.82500    0.09250    0.09250    -999.25    3.54280  200.23630  200.23630   19.00790    -999.25   19.00790    3.54280    4.85930    4.85930    0.16050    0.16050    -999.25    4.97950    4.97950   18.43420 -123.66370  -82.84740   18.43420 16508.64900
 1450.00000  218.26350  218.26350  221.72110  528.59710    9.30000    9.30000 2528.20000 2542.93300    0.09770    0.09770    -999.25    1.89180  198.34560  198.34560   15.63790    -999.25   15.63790    1.89180    2.45030    2.45030    0.16470    0.16470    -999.25    3.98270    3.98270    8.30080 -108.59090  -69.92280    8.30080 17071.26730
 1500.00000  210.25990  210.25990  211.10440   55.05460    8.30000    8.30000 2645.10000 2640.40300    0.04070    0.04070    -999.25   18.16380  183.32850  183.32850   24.31290    -999.25   24.31290   18.16380   19.97340   19.97340    0.08510    0.08510    -999.25    3.95660    3.95660   21.60560  -85.16320  -49.38980   21.60560 17791.86880
 1550.00000  219.20220  219.20220  219.68810  253.56260   10.40000   10.40000 2638.40000 2637.32500    0.04250    0.04250    -999.25    3.94380  225.02590  225.02590   57.75760    -999.25   57.75760    3.94380    3.70460    3.70460    0.17860    0.17860    -999.25    3.06760    3.06760    4.79350  -62.61870  -30.63350    4.79350 18066.64620
