~Version ---------------------------------------------------
VERS.      2.0 : CWLS log ASCII Standard -VERSION 2.0
WRAP.       NO : One line per depth step
CREA. 09/30/14 : LAS Creation Date
~Well ------------------------------------------------------
STRT.M                           450.0 : START DEPTH
STOP.M                          4850.0 : STOP DEPTH
STEP.M                        50.00000 : STEP LENGTH
NULL.                          -999.25 : NULL VALUE
COMP. AQUITAINE COMPANY OF CANADA LTD. : COMPANY
WELL.           AQUIT BRAZR 6-29-45-14 : WELL
FLD .                                  : FIELD
LOC .                                  : LOCATION
CTRY.                           CANADA : COUNTRY
SRVC.                     Schlumberger : SERVICE COMPANY
DATE.                      21-Jun-1979 : LOGDATE
PROV.                          Alberta : PROVINCE
UWI .                 100062904514W500 : UNIQUE WELL ID
SLAT.WGS84                    52.90648 : SURFACE LATITUDE
SLON.WGS84                   -115.9986 : SURFACE LONGITUDE
~Curve Information -----------------------------------------
DEPT    .M      : DEPTH METER
CALDED  .MM     : CALIPER FROM DENSITY LOG [ADJ. TO RESITIVITY LOG]
CALSED  .MM     : CALIPER FROM SONIC LOG
CALWS   .MM     : CALIPER [CALSED SPL. TO CALDED @ 4866M]
CILDED  .MMHO   : CONDUCTIVITY FROM RESISTIVITY LOG
CONDWS  .MMHO   : CONDUCTIVITY [1000/DRESWS]
DCORED  .KG/M3  : DENSITY CORRECTION FROM DENSITY LOG [ADJ. TO DPHILSED/DPHISSED/RESITIVITY LOG]
DCORWS  .KG/M3  : DENSITY CORRECTION [DCORED]
DENWS   .KG/M3  : FORMATION BULK DENSITY [CALC. FROM DPOLSWS, M=2710, F=1000]
DPHILSED.V/V    : DENSITY POROSITY LIMESTONE [M=2710,F=1000] FROM DENSITY LOG [ADJ. TO RESITIVITY LOG]
DPHISSED.V/V    : DENSITY POROSITY SANDSTONE [M=2650,F=1000] FROM DENSITY LOG [ADJ. TO RESITIVITY LOG]
DPOLSWS .V/V    : DENSITY POROSITY LIMESTONE [DPHISSED CONVERTED TO LIMESTONE MATRIX, M=2710 F=1000 SPL.TO DPHILSED @ 3170.2M]
DRESWS  .OHMM   : DEEP RESISTIVITY [ILDED]
DTED    .US/M   : DELTA TIME FROM SONIC LOG
DTWS    .US/M   : COMPRESSIONAL SONIC [DTED]
GRDED   .GAPI   : GAMMA RAY FROM DENSITY LOG [ADJ. TO RESITIVITY LOG]
GRSED   .GAPI   : GAMMA RAY FROM SONIC LOG
GRWS    .GAPI   : GAMM RAY [GRSED SPL. TO GRDED FROM 2911M-2941.8M &  4860.7M-BOTTOM] GRWS (+20 API ) IN CSG. FROM 2927M-2942M
ILDED   .OHMM   : DEEP INDUCTION LOG RESISTIVITY FROM RESISTIVITY LOG
ILMED   .OHMM   : MEDIUM INDUCTION LOG RESISTIVITY FROM RESISTIVITY LOG
MRESWS  .OHMM   : MEDIUM RESISTIVITY [ILMED]
NPHILSED.V/V    : NEUTRON POROSITY LIMESTONE FROM DENSITY LOG [ADJ. TO RESITIVITY LOG]
NPHISSED.V/V    : NEUTRON POROSITY SANDSTONE FROM DENSITY LOG [ADJ. TO RESITIVITY LOG]
NPOLSWS .V/V    : NEUTRON POROSITY LIMESTONE [NPHISSED MATRIX (SLB) CONVERSION FOR LIMESTONE, SPL.TO NPHILSED @ 3170.1M]
RHOBED  .KG/M3  : BULK DENSITY FROM DENSITY LOG [ADJ. TO DPHILSED/DPHISSED/RESITIVITY LOG]
SFLED   .OHMM   : SPHERICALLY FOCUSED LOG RESISTIVITY FROM RESISTIVITY LOG
SPRED   .MV     : SPONTANEOUS POTENTIAL FROM RESISTIVITY LOG
SPWS    .MV     : SPONTANEOUS POTENTIAL [BASELINE 0 MV, SPRED]
SRESWS  .OHMM   : SHALLOW RESISTIVITY [SFLED]
~Params ----------------------------------------------------
PD  .                         GL : PERMANENT DATUM
EPD .M                    1146.6 : ELEVATION PERMANENT DATUM
LMF .                         KB : LOG MEASURED FROM
DAPD.M                       8.7 : FEET ABOVE PERMANENT DATUM
DMF .                         KB : DRILLING MEASURED FROM
EKB .M                    1155.3 : KELLY BUSHING
EGL .M                    1146.6 : GROUND LEVEL
DATE.                   06/21/79 : RUN DATE
RUN .                          2 : RUN NUMBER
DD  .M                    4891.6 : DEPTH DRILLER
DL  .M                      4879 : DEPTH LOGGER
BLI .M                      4881 : BOTTOM LOG INTERVAL
TLI .M                    2941.5 : TOP LOG INTERVAL
CBD .M                      2944 : CASING BOTTOM DRILLER
CBL .M                    2941.5 : CASING BOTTOM LOGGER
BS  .M                     215.9 : BIT SIZE
BSD .M                    4891.6 : BIT SIZE AT DEPTH
DFT .                   GEL CHEM : DRILLING FLUID TYPE
DFD .                       1020 : DRILLING FLUID DENSITY
DFV .                        100 : DRILLING FLUID VISCOSITY
DFPH.                       10.5 : DRILLING FLUID PH
DFL .                          8 : DRILLING FLUID LOSS
MSS .                   FLOWLINE : MUD SAMPLE SOURCE
RMS .OHMM                   1.26 : RESISTIVITY MUD SAMPLE
MST .DEGC                   26.7 : MUD SAMPLE TEMPERATURE
RMF .OHMM                   0.62 : RESISTIVITY MUD FILTRATE SAMPLE
MFST.DEGC                   25.6 : MUD FILTRATE SAMPLE TEMPERATURE
RMC .OHMM                   1.21 : RESISTIVITY MUD CAKE
MCST.DEGC                   17.8 : MUD CAKE SAMPLE TEMPERATURE
MFSS.                      PRESS : MUD FILTRATE SAMPLE SOURCE
MCSS.                      PRESS : MUD CAKE SAMPLE SOURCE
RMB .OHMM                   0.41 : RESISTIVITY MUD AT BHT
TCS .HRS                    1800 : TIME CIRCULATED STOPPED
TLAB.HRS                     600 : TIME LOGGER AT BOTTOM
LUN .                       8123 : LOGGING UNIT NUMBER
LUL .                         RD : LOGGING UNIT LOCATION
ENGI.            PARROTT PIERACC : RECORDING ENGINEER
WITN.                   WILLIAMS : WITNESSED BY
CLNT.                    A2DTECH : CLIENT CODE
ORIG. 6.5"/100M 16.5"/100M PRINT : ORIGIN OF DATA
UWI .           100062904514W500 : UNIQUE WELL ID
DICO.     A2D Technologies, Inc. : DIGITIZING COMPANY
~Other -----------------------------------------------------
DIL-BHC TOOLS RUN IN COMBO. & CNLD TOOLS RUN
ALL DIL-BHC TOOLS FROM TOP TO 1500M FROM 2" SCALE SECTION
~ASCII -----------------------------------------------------
# ...
 4200.00000  226.87140  233.85390  233.85390    -999.25   28.02210   36.96770   36.96770 2579.86900    0.06040    -999.25    0.07610   35.68610  182.91540  182.91540   36.14910   39.48950   39.48950   35.68610   41.72580   41.72580    0.04230    -999.25    0.04230 2542.39090   73.97550 -188.25260 -190.47780   73.97550
 4250.00000  207.69040  219.75720  219.75720    -999.25   30.75450    1.16100    1.16100 2738.55700   -0.01670    -999.25   -0.01670   32.51560  189.31530  189.31530   53.60760   51.61330   51.61330   32.51560   35.55340   35.55340    0.06890    -999.25    0.06890 2740.50070   40.90540 -394.96870 -397.45940   40.90540
 4300.00000  222.24220  226.23060  226.23060    -999.25    0.50900  166.18570  166.18570 2625.18400    0.05010    -999.25    0.04960 1964.52250  161.91760  161.91760   21.99660   22.19540   22.19540 1964.52250  411.16470  411.16470    0.00830    -999.25    0.00830 2631.91020 1995.44510 -197.18520 -199.94140 1995.44510
 4350.00000  279.10340  228.62780  228.62780    -999.25    0.68810  207.91620  207.91620 2333.97100    0.21770    -999.25    0.21990 1453.35070  165.63330  165.63330   28.52850   27.43050   27.43050 1453.35070  161.80350  161.80350    0.05020    -999.25    0.05020 2338.18360 1243.40770 -313.63080 -316.65250 1243.40770
 4400.00000  227.44570  232.58510  232.58510    -999.25    0.80430  201.62210  201.62210 2435.03200    0.17090    -999.25    0.16080 1243.30740  187.79620  187.79620  180.35640  170.10570  170.10570 1243.30740 1997.86300 1997.86300    0.08200    -999.25    0.08200 2445.25440  563.04930 -324.93670 -328.22400  563.04930
 4450.00000  232.26580  225.34820  225.34820    -999.25   10.45600  177.41040  177.41040 2425.11400    0.16840    -999.25    0.16660   95.63860  189.41110  189.41110  179.75450  166.81180  166.81180   95.63860 1869.57570 1869.57570    0.05470    -999.25    0.05470 2425.33470  122.27010 -298.10080 -301.65360  122.27010
 4500.00000  209.05660  230.24320  230.24320    -999.25    0.50000  139.32390  139.32390 2672.89300   -0.00000    -999.25    0.02170 2000.00000  159.08830  159.08830   37.27400   36.37730   36.37730 2000.00000 2020.94010 2020.94010   -0.00170    -999.25   -0.00170 2695.35670 2000.00000    -999.25    -999.25 2000.00000
 4550.00000  249.65510  255.53070  255.53070    -999.25   98.23570  173.48010  173.48010 2649.46600    0.04560    -999.25    0.03540   10.17960  208.24550  208.24550   63.07650   63.71480   63.71480   10.17960    8.95060    8.95060    0.11810    -999.25    0.11810 2653.25780   17.99290    -999.25    -999.25   17.99290
 4600.00000  231.69800  231.34490  231.34490    -999.25    0.55530  215.77050  215.77050 2717.35300    0.00380    -999.25   -0.00430 1800.75660  159.96880  159.96880   20.75360   16.86880   16.86880 1800.75660 1738.44120 1738.44120   -0.00040    -999.25   -0.00040 2711.19480 1661.21780    -999.25    -999.25 1661.21780
 4650.00000  261.72830  251.34180  251.34180    -999.25   40.22850  226.81830  226.81830 2653.91200    0.06000    -999.25    0.03280   24.85800  208.81620  208.81620   49.77190   54.82080   54.82080   24.85800   20.65450   20.65450    0.15590    -999.25    0.15590 2634.61770   40.45800    -999.25    -999.25   40.45800
 4700.00000  233.09150  236.15990  236.15990    -999.25   17.36370  176.75390  176.75390 2208.79900    0.25450    -999.25    0.29310   57.59150  194.97000  194.97000   30.70030   37.70950   37.70950   57.59150   79.27640   79.27640    0.08030    -999.25    0.08030 2226.37040   87.64490    -999.25    -999.25   87.64490
 4750.00000  213.61270  265.28790  265.28790    -999.25   46.81780  222.60370  222.60370 2483.59600    0.15010    -999.25    0.13240   21.35940  217.99830  217.99830   65.80480   60.19690   60.19690   21.35940   13.97730   13.97730    0.22190    -999.25    0.22190 2471.83400   26.83810    -999.25    -999.25   26.83810
 4800.00000  264.88700  240.91150  240.91150    -999.25   39.01810  117.96850  117.96850 2152.54000    0.29610    -999.25    0.32600   25.62910  229.65820  229.65820  133.13830  119.74400  119.74400   25.62910   23.91770   23.91770    0.23480    -999.25    0.23480 2149.51860   40.33900 -267.76890 -273.18030   40.33900
 4850.00000  237.88420  216.95710  216.95710    -999.25    8.04560  237.55730  237.55730 2475.38800    0.14730    -999.25    0.13720  124.29140  185.23470  185.23470   52.28430   52.20350   52.20350  124.29140  101.29080  101.29080   -0.00240    -999.25   -0.00240 2457.86550  130.40970    -999.25    -999.25  130.40970
