~Version ---------------------------------------------------
VERS.      2.0 : CWLS log ASCII Standard -VERSION 2.0
WRAP.       NO : One line per depth step
CREA. 08/16/13 : LAS Creation Date
~Well ------------------------------------------------------
STRT.M                      300.0 : START DEPTH
STOP.M                     2850.0 : STOP DEPTH
STEP.M                   50.00000 : STEP LENGTH
NULL.                     -999.25 : NULL VALUE
COMP.        MOBIL OIL CANADA LTD : COMPANY
WELL. MOBIL GOOSE RIVER 7-9-68-18 : WELL
FLD .                             : FIELD
LOC .                             : LOCATION
CTRY.                      CANADA : COUNTRY
SRVC.                     Unknown : SERVICE COMPANY
DATE.                 26-Feb-1983 : LOGDATE
PROV.                     Alberta : PROVINCE
UWI .            100070906818W500 : UNIQUE WELL ID
SLAT.WGS84               54.87148 : SURFACE LATITUDE
SLON.WGS84              -116.6809 : SURFACE LONGITUDE
~Curve Information -----------------------------------------
DEPT    .M      : DEPTH METER
ACED    .US/M   : DELTA TIME FROM SONIC LOG
C13ED   .MM     : CALIPER 13 FROM DENSITY LOG [ADJ. TO RESISTIVITY LOG]
C24ED   .MM     : CALIPER 24 FROM DENSITY LOG [ADJ. TO RESISTIVITY LOG]
CALSED  .MM     : CALIPER FROM SONIC LOG
CALWS   .MM     : CALIPER [C13ED]
CNLSED  .V/V    : NEUTRON POROSITY LIMESTONE FROM DENSITY LOG [ADJ. TO RESISTIVITY LOG]
CNSSED  .V/V    : NEUTRON POROSITY SANDSTONE FROM DENSITY LOG [ADJ. TO RESISTIVITY LOG]
CONDWS  .MMHO   : CONDUCTIVITY [1000/DRESWS]
CORRED  .KG/M3  : DENSITY CORRECTION FROM DENSITY LOG [ADJ. TO RESISTIVITY LOG]
DCORWS  .KG/M3  : DENSITY CORRECTION [CORRED]
DENED   .KG/M3  : BULK DENSITY FROM DENSITY LOG [ADJ. TO RESISTIVITY LOG]
DENWS   .KG/M3  : FORMATION BULK DENSITY [DENED]
DPOLSWS .V/V    : DENSITY POROSITY LIMESTONE [CALC FROM DENWS, M=2710,F=1000]
DRESWS  .OHMM   : DEEP RESISTIVITY [RILDED]
DTWS    .US/M   : COMPRESSIONAL  SONIC [ACED]
GRDED   .GAPI   : GAMMA RAY FROM DENSITY LOG [ADJ. TO RESISTIVITY LOG]
GRSED   .GAPI   : GAMMA RAY FROM SONIC LOG
GRWS    .GAPI   : GAMMA RAY [GRDED]
MRESWS  .OHMM   : MEDIUM RESISTIVITY [RILMED]
NPOLSWS .V/V    : NEUTRON POROSITY LIMESTONE [CNSSED MATRIX CONVERSION FOR LIMESTONE & SPL. TO CNLSED @1525M]
PORDLSED.V/V    : DENSITY POROSITY LIMESTONE [M=2710,F=1000] FROM DENSITY LOG [ADJ. TO RESISTIVITY LOG]
PORDSSED.V/V    : DENSITY POROSITY SANDSTONE [M=2650,F=1000] FROM DENSITY LOG [ADJ. TO RESISTIVITY LOG]
RFOCED  .OHMM   : FOCUSED RESISTIVITY FROM RESISTIVITY LOG
RILDED  .OHMM   : DEEP INDUCTION FROM RESISTIVITY LOG
RILMED  .OHMM   : MEDIUM INDUCTION FROM RESISTIVITY
SPRED   .MV     : SPONTANEOUS POTENTIAL FROM RESISTIVITY LOG
SPWS    .MV     : SPONTANEOUS POTENTIAL [BASELINE 0 MV, SPRED]
SRESWS  .OHMM   : SHALLOW RESISTIVITY [RFOCED]
TENDED  .N      : TENSION FROM DENSITY LOG [ADJ. TO RESISTIVITY LOG]
TENSED  .N      : TENSION FROM SONIC LOG
~Params ----------------------------------------------------
PD  .                         GL : PERMANENT DATUM
EPD .M                     803.8 : ELEVATION PERMANENT DATUM
LMF .                         KB : LOG MEASURED FROM
DAPD.M                      7.74 : FEET ABOVE PERMANENT DATUM
DMF .                         KB : DRILLING MEASURED FROM
EKB .M                    811.54 : KELLY BUSHING
EGL .M                     803.8 : GROUND LEVEL
DATE.                   02/26/83 : RUN DATE
RUN .                          1 : RUN NUMBER
DD  .M                    2888.4 : DEPTH DRILLER
DL  .M                    2887.4 : DEPTH LOGGER
BLI .M                    2886.8 : BOTTOM LOG INTERVAL
TLI .M                       420 : TOP LOG INTERVAL
CS  .MM                    244.5 : CASING SIZE
CBD .M                       416 : CASING BOTTOM DRILLER
CBL .M                       420 : CASING BOTTOM LOGGER
BS  .MM                      222 : BIT SIZE
BSD .M                    2888.4 : BIT SIZE AT DEPTH
DFT .                   GEL CHEM : DRILLING FLUID TYPE
DFD .                       1090 : DRILLING FLUID DENSITY
DFV .                         78 : DRILLING FLUID VISCOSITY
DFPH.                          9 : DRILLING FLUID PH
DFL .                          9 : DRILLING FLUID LOSS
MSS .                   FLOWLINE : MUD SAMPLE SOURCE
RMS .OHMM                    1.9 : RESISTIVITY MUD SAMPLE
MST .DEGC                     23 : MUD SAMPLE TEMPERATURE
RMF .OHMM                    1.9 : RESISTIVITY MUD FILTRATE SAMPLE
MFST.DEGC                   22.2 : MUD FILTRATE SAMPLE TEMPERATURE
RMC .OHMM                    1.9 : RESISTIVITY MUD CAKE
MCST.DEGC                   23.2 : MUD CAKE SAMPLE TEMPERATURE
MFSS.                       MEAS : MUD FILTRATE SAMPLE SOURCE
MCSS.                       MEAS : MUD CAKE SAMPLE SOURCE
RMB .OHMM                   0.82 : RESISTIVITY MUD AT BHT
TCS .HRS                       6 : TIME CIRCULATED STOPPED
LUN .                     HL 621 : LOGGING UNIT NUMBER
LUL .                         GP : LOGGING UNIT LOCATION
ENGI.                       GUNN : RECORDING ENGINEER
WITN.                     MELNYK : WITNESSED BY
CLNT.                    A2DTECH : CLIENT CODE
ORIG. 6.5"/100M 16.5"/100M PRINT : ORIGIN OF DATA
UWI .           100070906818W500 : UNIQUE WELL ID
DICO.     A2D Technologies, Inc. : DIGITIZING COMPANY
~Other -----------------------------------------------------
DIFL-BCS LOG RAN IN COMBO & CNL-CDL LOG RAN
NEUTRON CONVERSION USING BAKER HUGHES CNL(2435) CHART
~ASCII -----------------------------------------------------
  300.00000    -999.25    -999.25    -999.25    -999.25    -999.25    -999.25    0.40370    -999.25    -999.25    -999.25    -999.25    -999.25    -999.25    -999.25    -999.25   52.14250    -999.25   52.14250    -999.25    0.35270    -999.25    -999.25    -999.25    -999.25    -999.25    -999.25    -999.25    -999.25    -999.25    -999.25
  350.00000    -999.25    -999.25    -999.25    -999.25    -999.25    -999.25    0.35400    -999.25    -999.25    -999.25    -999.25    -999.25    -999.25    -999.25    -999.25   37.69530    -999.25   37.69530    -999.25    0.30180    -999.25    -999.25    -999.25    -999.25    -999.25    -999.25    -999.25    -999.25    -999.25    -999.25
  400.00000    -999.25    -999.25    -999.25    -999.25    -999.25    -999.25    0.38850    -999.25    -999.25    -999.25    -999.25    -999.25    -999.25    -999.25    -999.25   42.67820    -999.25   42.67820    -999.25    0.33700    -999.25    -999.25    -999.25    -999.25    -999.25    -999.25    -999.25    -999.25    -999.25    -999.25
  450.00000  377.52430  271.56460  232.36640  258.20270  271.56460    -999.25    0.30970  188.76120  114.90000  114.90000 2359.70000 2359.70000    0.20490    5.29770  377.52430   53.10400   57.89600   53.10400    5.38190    0.25700    -999.25    0.17330    4.12610    5.29770    5.38190  -48.43270   -3.65730    4.12610 -2350.43760 -3032.18680
  500.00000  401.72080  341.33360  274.87430  291.38150  341.33360    -999.25    0.34050  286.23770   35.80000   35.80000 1607.90000 1607.90000    0.64450    3.49360  401.72080   62.00180   66.07000   62.00180    3.16810    0.28810    -999.25    0.63670    3.23390    3.49360    3.16810  -32.22720   -2.35830    3.23390 -2798.71650 -4004.13730
  550.00000  375.97840  255.28480  249.02020  248.74160  255.28480    -999.25    0.32540  267.61580  178.60000  178.60000 1989.10000 1989.10000    0.42160    3.73670  375.97840   63.41670   62.73110   63.41670    3.86660    0.27280    -999.25    0.40290    3.38420    3.73670    3.86660  -33.34380   -5.58280    3.38420 -3489.56310 -3783.63500
  600.00000  381.93420  288.51890  214.12320  240.02210  288.51890    -999.25    0.32930  174.38010  120.10000  120.10000 2305.20000 2305.20000    0.23670    5.73460  381.93420   52.19390   50.44610   52.19390    6.25300    0.27670    -999.25    0.21000    4.96770    5.73460    6.25300  -37.50650  -10.30130    4.96770 -3292.19500 -2127.99550
  650.00000  340.52010  305.45320  213.07830  252.84170  305.45320    -999.25    0.33580  224.43160  126.60000  126.60000 2093.30000 2093.30000    0.36060    4.45570  340.52010   71.21880   64.58690   71.21880    4.84770    0.28330    -999.25    0.33580    4.17950    4.45570    4.84770  -32.70120   -7.06260    4.17950 -2712.04410 -3357.63710
  700.00000  372.76670  267.89570  285.76150  296.70710  267.89570    -999.25    0.33250  167.17380  162.60000  162.60000 2142.70000 2142.70000    0.33180    5.98180  372.76670  107.80730  109.38090  107.80730    6.17380    0.28000    -999.25    0.31380    5.85750    5.98180    6.17380  -29.71310   -6.42910    5.85750 -2885.46970 -2674.01990
  750.00000  338.29980  308.47930  239.65830  268.88850  308.47930    -999.25    0.39070  159.75460  -24.50000  -24.50000 1665.70000 1665.70000    0.61070    6.25960  338.29980   86.22350   83.32570   86.22350    4.77850    0.33930    -999.25    0.63480    5.25670    6.25960    4.77850  -28.67840   -2.93820    5.25670 -1506.74900 -3425.34240
  800.00000  417.40390  280.27250  249.79760  252.70810  280.27250    -999.25    0.38950  125.86220   32.50000   32.50000 1846.70000 1846.70000    0.50490    7.94520  417.40390   90.29580   97.99080   90.29580    6.82710    0.33810    -999.25    0.48860    5.33110    7.94520    6.82710  -28.72260   -5.05160    5.33110 -2526.75500 -2456.85850
  850.00000  328.18340  280.06090  346.31650  311.98470  280.06090    -999.25    0.29570  137.91390   65.50000   65.50000 2138.00000 2138.00000    0.33450    7.25090  328.18340   96.40850   97.19780   96.40850    6.75160    0.24290    -999.25    0.30610    6.16780    7.25090    6.75160  -24.45010   -2.84830    6.16780  159.24520 -3229.68960
  900.00000  333.47740  280.82180  367.92500  324.65520  280.82180    -999.25    0.32360  150.25170  213.90000  213.90000 2251.70000 2251.70000    0.26800    6.65550  333.47740   92.67310  101.74890   92.67310    6.31290    0.27100    -999.25    0.23780    6.03570    6.65550    6.31290  -23.48240   -3.21870    6.03570 -2868.11910 -2116.06920
  950.00000  357.89060  236.88780  236.90190  230.76460  236.88780    -999.25    0.38290  153.16990  225.00000  225.00000 2381.60000 2381.60000    0.19200    6.52870  357.89060  138.25440  134.46520  138.25440    6.31370    0.33130    -999.25    0.16440    7.76160    6.52870    6.31370  -34.43200   -7.62120    7.76160 -3801.12930 -4029.08550
 1000.00000  321.22650  249.62620  263.15860  233.64670  249.62620    -999.25    0.33160  188.86810  -15.40000  -15.40000 1782.10000 1782.10000    0.54260    5.29470  321.22650   89.33720   94.47180   89.33720    4.53990    0.27910    -999.25    0.52630    4.81060    5.29470    4.53990  -17.13270   -6.59220    4.81060 -3501.84870 -2389.66510
 1050.00000  322.31280  232.60510  274.04510  239.61710  232.60510    -999.25    0.28840  179.29820  204.10000  204.10000 2189.00000 2189.00000    0.30470    5.57730  322.31280  101.18600  103.74220  101.18600    5.43490    0.23560    -999.25    0.27710    5.35330    5.57730    5.43490  -23.91760   -5.44410    5.35330 -1517.20250 -2105.04990
 1100.00000  337.19570  298.73930  295.29090  285.92380  298.73930    -999.25    0.38230  245.94200  205.40000  205.40000 2137.50000 2137.50000    0.33480    4.06600  337.19570  106.29080  106.64700  106.29080    3.95380    0.33070    -999.25    0.30750    4.38400    4.06600    3.95380  -25.16600   -4.28430    4.38400 -1526.05750 -2466.48580
 1150.00000  331.46930  278.96860  282.33100  289.00390  278.96860    -999.25    0.26380  310.61690  160.50000  160.50000 2010.20000 2010.20000    0.40920    3.21940  331.46930   98.20580   94.89840   98.20580    3.28820    0.21110    -999.25    0.38790    3.52380    3.21940    3.28820  -26.65980   -4.42240    3.52380 -1385.80640 -3853.99850
 1200.00000  298.84780  263.35770  223.76720  227.17190  263.35770    -999.25    0.27180  200.10010  188.10000  188.10000 2248.90000 2248.90000    0.26960    4.99750  298.84780   87.90140   86.01730   87.90140    5.76040    0.21910    -999.25    0.22830    4.94070    4.99750    5.76040  -29.46520   -3.56550    4.94070 -1159.87080 -3224.19340
 1250.00000  378.89590  246.88670  232.19040  227.26330  246.88670    -999.25    0.28040  151.18070   79.50000   79.50000 1879.30000 1879.30000    0.48580    6.61460  378.89590   85.25080   83.12970   85.25080    6.21700    0.22760    -999.25    0.47590    5.76610    6.61460    6.21700  -34.84190   -9.13990    5.76610 -766.95780 -2052.09990
 1300.00000  281.25910  256.66570  229.70560  234.62950  256.66570    -999.25    0.24270  213.21050   62.50000   62.50000 2497.40000 2497.40000    0.12430    4.69020  281.25910   72.74200   74.97160   72.74200    5.25180    0.19020    -999.25    0.09210    4.83360    4.69020    5.25180  -32.95480   -7.45050    4.83360 -1940.93720 -2199.78690
 1350.00000  275.21910  235.24640  226.52210  221.28120  235.24640    -999.25    0.25040  149.50140  187.60000  187.60000 2406.20000 2406.20000    0.17770    6.68890  275.21910   51.30780   57.66090   51.30780    7.67720    0.19780    -999.25    0.14240   10.76670    6.68890    7.67720  -50.83160  -25.52500   10.76670 -2789.51130 -3665.18900
 1400.00000  274.41330  228.22050  199.97540  211.53070  228.22050    -999.25    0.26180  289.89710  175.70000  175.70000 2433.20000 2433.20000    0.16190    3.44950  274.41330   55.28860   58.24280   55.28860    6.81660    0.20910    -999.25    0.12910   11.57800    3.44950    6.81660  -91.83910  -66.73020   11.57800 -2419.93000 -1982.14050
 1450.00000  370.28540  286.07500  320.77750  297.57360  286.07500    -999.25    0.38130  568.37560   -4.10000   -4.10000 2014.80000 2014.80000    0.40650    1.75940  370.28540   87.62870   87.03390   87.62870    1.99510    0.32970    -999.25    0.39620    2.80970    1.75940    1.99510  -25.84150   -0.93030    2.80970 -3076.53340 -1979.32060
