~Version ---------------------------------------------------
VERS. 2.0 : CWLS log ASCII Standard -VERSION 2.0
WRAP.  NO : ONE LINE PER DEPTH STEP
~Well ------------------------------------------------------
STRT.F                           1500.0 : START DEPTH
STOP.F                          11900.0 : STOP DEPTH
STEP.F                         50.00000 : STEP LENGTH
NULL.                           -999.25 : NULL VALUE
COMP.  AMOCO CANADA PETROLEUM CO., LTD. : COMPANY
WELL. AMOCO HB FINA FIR S-I  7-26-59-20 : WELL
FLD .                                   : FIELD
LOC .                                   : LOCATION
CTRY.                            CANADA : COUNTRY
SRVC.            Schlumberger of Canada : SERVICE COMPANY
DATE.                       07-Jan-1978 : LOGDATE
PROV.                           Alberta : PROVINCE
UWI .                  100072605920W500 : UNIQUE WELL ID
SLAT.WGS84                     54.12779 : SURFACE LATITUDE
SLON.WGS84                    -116.8825 : SURFACE LONGITUDE
~Curve Information -----------------------------------------
DEPT   .F                 : 
GRS    .GAPI 60 310 01 01 : GAMMA RAY FROM SONIC LOG
CALS   .IN   60 280 50 00 : CALIPER FROM SONIC LOG
DT     .US/F 60 520 00 00 : DELTA TIME FROM SONIC LOG
GRD    .GAPI 45 310 01 01 : GAMMA RAY FROM DENSITY LOG
RHOB   .G/C3 45 350 01 00 : BULK DENSITY
CALD   .IN   45 280 60 00 : CALIPER FROM DENSITY LOG
DCOR   .G/C3 45 356 01 00 : DENSITY CORRECTION
NPHI_SS.DEC  42 890 03 00 : NEUTRON POROSITY SANDSTONE
DPHI_SS.DEC  45 890 12 00 : DENSITY POROSITY SANDSTONE
DPHI_LS.DEC  45 890 10 00 : DENSITY POROSITY
NPHI_LS.DEC  42 890 01 00 : NEUTRON POROSITY LIMESTONE
ILD    .OHMM 06 121 12 00 : INDUCTION LOG RESISTIVITY
ILM    .OHMM 07 120 44 00 : INDUCTION LOG MEDIUM RESISTIVITY
LL8    .OHMM 07 220 01 00 : DIGITAL FOCUSED LATEROLOG
SPR    .MV   07 010 01 01 : SELF POTENTIAL
~Params ----------------------------------------------------
PD  .                     GL : PERMANENT DATUM
EPD .FT              3289.04 : ELEVATION PERMANENT DATUM
LMF .                     KB : LOG MEASURED FROM
DAPD.FT                 21.2 : FEET ABOVE PERMANENT DATUM
EKB .FT              3310.24 : KELLY BUSHING
EGL .FT              3289.04 : GROUND LEVEL
DATE.               01/07/78 : RUN DATE
RUN .                      1 : RUN NUMBER
DD  .FT                11910 : DEPTH DRILLER
DL  .FT                11919 : DEPTH LOGGER
BLI .FT                11913 : BOTTOM LOG INTERVAL
TLI .FT                 1534 : TOP LOG INTERVAL
CBD .FT                 1534 : CASING BOTTOM DRILLER
CBL .FT                 1534 : CASING BOTTOM LOGGER
BS  .IN                 8.75 : BIT SIZE
BSD .FT                11910 : BIT SIZE AT DEPTH
DFT .                    GEL : DRILLING FLUID TYPE
DFD .                    9.5 : DRILLING FLUID DENSITY
DFV .                    105 : DRILLING FLUID VISCOSITY
DFPH.                    9.5 : DRILLING FLUID PH
DFL .                    9.0 : DRILLING FLUID LOSS
MSS .               FLOWLINE : MUD SAMPLE SOURCE
RMS .OHMM               1.78 : RESISTIVITY MUD SAMPLE
MST .DEGF                 85 : MUD SAMPLE TEMPERATURE
RMF .OHMM               1.74 : RESISTIVITY MUD FILTRATE SAMPLE
MFST.DEGF                 54 : MUD FILTRATE SAMPLE TEMPERATURE
TCS .HRS                   5 : TIME CIRCULATED STOPPED
LUN .                   7730 : LOGGING UNIT NUMBER
LUL .                    EDM : LOGGING UNIT LOCATION
ENGI.   ACKERMAN STEENBERGEN : RECORDING ENGINEER
CLNT.                A2DTECH : CLIENT CODE
ORIG.            2" 5" PRINT : ORIGIN OF DATA
UWI .       100072605920W500 : UNIQUE WELL ID
DICO. A2D Technologies, Inc. : DIGITIZING COMPANY
~Other -----------------------------------------------------
~ASCII -----------------------------------------------------
# ...
 10700.00000  115.92100    9.41330   71.50060   90.13680    2.66910    8.52720    0.15840    -999.25    -999.25    0.04210    0.17850   13.39860   16.90690   25.44150  -67.09430
 10750.00000   70.76320    9.41000   63.00810   63.24610    2.66820    8.65700    0.02670    -999.25    -999.25    0.03460    0.13050   18.92880   20.53760   33.17200  -66.21290
 10800.00000   88.75030    9.37300   63.47200   98.20460    2.63920    8.49490    0.08470    -999.25    -999.25    0.02530    0.23870    8.98480    9.78720   12.16400  -64.49660
 10850.00000  100.22190    9.13300   64.33980   78.29310    2.64780    8.30120    0.01100    -999.25    -999.25    0.04040    0.18030   17.64800   18.71820   24.21910  -60.89950
 10900.00000   98.65120    9.11150   61.14130   82.83890    2.69550    8.33470    0.01300    -999.25    -999.25    0.00980    0.16530   15.94600   18.47090   25.78580  -59.66050
 10950.00000   82.33460    9.24790   59.20430   66.61930    2.69330    8.43810    0.00680    -999.25    -999.25   -0.01650    0.11670   19.51480   23.69840   31.91170  -55.40410
 11000.00000  134.13930    9.15110   67.85070  108.55790    2.70240    8.34830    0.01970    -999.25    -999.25    0.02280    0.19730   10.59330   12.06730   16.11090  -50.86090
 11050.00000  105.19230    9.10370   63.95780  104.28160    2.66760    8.34440    0.00090    -999.25    -999.25    0.01790    0.19940   10.56470   12.94540   21.50130  -47.67410
 11100.00000  116.52380    9.23120   69.24000   92.29460    2.67230    8.36640    0.02370    -999.25    -999.25    0.03010    0.18320   14.27340   17.86490   19.39680  -45.18120
 11150.00000  111.77340    9.13010   71.31440   94.49910    2.64170    8.26280    0.03790    -999.25    -999.25    0.04790    0.18350   25.71680   29.53520   46.62130  -43.48940
 11200.00000  150.24250    9.01750   78.56550   81.81300    2.55020    8.21890    0.01410    -999.25    -999.25    0.08530    0.16380   92.35940  176.79390  149.97580  -66.54430
 11250.00000  207.12440    9.02620   73.83540  125.77680    2.44670    8.16530    0.00510    -999.25    -999.25    0.14250    0.16850  339.06760 1264.25670 1362.11620  -90.70410
 11300.00000  145.75190    8.89430   62.74140  101.76480    2.56030    8.16640    0.01580    -999.25    -999.25    0.09950    0.15870  491.88580 1281.91130 1414.68360 -104.61140
 11350.00000   84.33510    9.16740   61.23020   69.51070    2.63840    8.52750    0.13090    -999.25    -999.25    0.02850    0.08860  101.59080  169.61230  219.63140  -54.89280
 11400.00000   95.78020    9.14730   58.82680   51.73710    2.58040    8.11910    0.00400    -999.25    -999.25    0.06300    0.04840  415.44350 1367.77510 1233.63260 -109.07660
 11450.00000   10.13170    9.47600   47.98830    9.72650    2.66230    8.92270    0.15570    -999.25    -999.25    0.03860    0.00440  736.37260 1449.75450 1367.11450 -174.59570
 11500.00000   13.31690    8.47500   49.45090   14.65170    2.55550    7.61450    0.18050    -999.25    -999.25    0.10100    0.10740   27.10940   51.51730  241.90130 -175.17640
 11550.00000   17.37250    8.96000   55.05740   11.78540    2.51090    8.63510    0.19500    -999.25    -999.25    0.12590    0.09290   56.00650   85.70680  209.05460 -165.81590
 11600.00000   12.49260    9.57110   47.78360    9.00070    2.50700    9.34100    0.17270    -999.25    -999.25    0.10320    0.00760  807.10800 1459.75170 1338.05190 -165.96680
 11650.00000   21.86840    9.65570   47.19750   14.66040    2.36910   10.19400    0.24880    -999.25    -999.25    0.20010    0.00520 1435.02800 1344.96420 1384.74050 -174.17320
 11700.00000   23.95970    9.63100   47.81730   12.30000    2.55300    9.79190    0.25440    -999.25    -999.25    0.11140    0.00580 1467.45140 1283.58650 1356.80180 -158.46810
 11750.00000   15.38640    9.47320   48.34200   11.85510    2.56300    9.24130    0.22170    -999.25    -999.25    0.07200    0.00720 1512.96080 1293.27750 1396.42580 -148.10580
 11800.00000   19.94060    9.72770   48.48490   15.07990    2.29350   10.79070    0.25080    -999.25    -999.25    0.24200    0.05460 1232.36610  844.18630  477.13320 -127.14910
 11850.00000  220.70790    9.38680   64.10190   84.25700    2.39830    9.22600    0.26290    -999.25    -999.25    0.15520    0.08760   30.01200   38.46080   41.08300  -56.79560
 11900.00000   61.90440    8.53520   68.48280   38.10310    2.37360    8.28380    0.20320    -999.25    -999.25    0.20800    0.05850    1.77170    2.32760   15.13950 -132.03460
