~Version ---------------------------------------------------
VERS.      2.0 : CWLS log ASCII Standard -VERSION 2.0
WRAP.       NO : ONE LINE PER DEPTH STEP
CREA. 08/08/13 : LAS CREATION DATE
~Well ------------------------------------------------------
STRT.M                         450.0 : START DEPTH
STOP.M                        3400.0 : STOP DEPTH
STEP.M                      50.00000 : STEP LENGTH
NULL.                        -999.25 : NULL VALUE
COMP.            CANTERRA ENERGY LTD : COMPANY
WELL. CANTERRA NORCEN ROSEVEAR 7-34- : WELL
FLD .                                : FIELD
LOC .                                : LOCATION
CTRY.                         CANADA : COUNTRY
SRVC.         Schlumberger of Canada : SERVICE COMPANY
DATE.                    18-Mar-1988 : LOGDATE
PROV.                        Alberta : PROVINCE
LOC1.                                : LOCATION 1
SECT.                                : SECTION
TOWN.                                : TOWNSHIP
RNGE.                                : RANGE
PDAT.                                : PERM DATUM
EPD .                          898.2 : ELEVATION
LMF .                             KB : LOG MEASURED FROM
DMF .                             KB : DRILL MEASURED FROM
APD .                                : ABOVE PERM DATUM
EKB .                            904 : ELEV-KELLY BUSHING.
EDF .                          903.7 : ELEV-DRILL FLOOR
EGL .                          898.2 : ELEV-GROUND LEVEL
UWI .               100073405315W500 : UNIQUE WELL ID
SLAT.WGS84                  53.61804 : SURFACE LATITUDE
SLON.WGS84                 -116.1237 : SURFACE LONGITUDE
~Curve Information -----------------------------------------
DEPT      .M      : DEPTH METERS
CALDED    .MM     : CALIPER FROM DENSITY LOG
CALSED    .MM     : CALIPER FROM BHC SONIC LOG
CALWS     .MM     : CALIPER [CALDED]
CONDWS    .MMHO   : CONDUCTIVITY [1000/DRESWS]
DENWS     .KG/M3  : BULK DENSITY[RHOBED]
DPHISSED  .V/V    : DENSITY POROSITY SANDSTONE[M=2650,F=1000] FROM CND LOG
DPOLSWS   .V/V    : DENSITY POROSITY LIMESTONE[CALCULATED FROM DENWS,M=2710;F=1000]
DRESWS    .OHMM   : DEEP RESISTIVITY [LLDED]
DRHOED    .KG/M3  : BULK DENSITY CORRECTION FROM CND LOG
DT1ED     .US/M   : DELTA-T (INTERVAL TRANSIT TIME) FROM ARRAY SONIC LOG
DTCO      .US/M   : DELTA-T COMPRESSIONAL FROM ARRAY SONIC LOG
DTED      .US/M   : DELTA-T (INTERVAL TRANSIT TIME)FROM BHC SONIC LOG
DTLED     .US/M   : DELTA-T LONG SPACING FROM ARRAY SONIC LOG
DTLFED    .US/M   : DELTA-T LONG SPACING FAR FROM ARRAY SONIC LOG
DTLNED    .US/M   : DELTA-T LONG SPACING NEAR FROM ARRAY SONIC LOG
DTSMAVERED.US     : SHEAR-WAVE INTERVAL TRANSIT TIME DELTA-T-AVERAGED FROM ARRAY SONIC LOG
DTSMCSUED .US/M   : SHEAR-WAVE INTERVAL TRANSIT TIME DELTA-T-CSU FROM ARRAY SONIC LOG
DTSMED    .US/M   : DELTA TIME SHEAR WAVE FROM ARRAY SONIC LOG
DTSMVAXED .US/M   : SHEAR-WAVE INTERVAL TRANSIT TIME DELTA-T-VAX FROM ARRAY SONIC LOG
DTSTAVERED.US     : STONLEY-WAVE INTERVAL TRANSIT TIME DELTA-T-CSU FROM ARRAY SONIC LOG
DTSTCSUED .US/M   : STONLEY-WAVE INTERVAL TRANSIT TIME DELTA-T-CSU FROM ARRAY SONIC LOG
DTSTVAXED .US/M   : STONLEY-WAVE INTERVAL TRANSIT TIME DELTA-T-AVERAGED FROM ARRAY SONIC LOG
DTSWS     .US/M   : DELTA-T SHEAR [DTSMED]
DTWS      .US/M   : DELTA-T COMPRESSIONAL [DTED]
GRDED     .GAPI   : GAMMA RAY FROM CND LOG
GRRED     .GAPI   : GAMMA RAY FROM RESISTIVITY LOG
GRS1ED    .GAPI   : GAMMA RAY FROM ARRAY SONIC LOG
GRSED     .GAPI   : GAMMA RAY FROM BHC SONIC LOG
GRWS      .GAPI   : GAMMA RAY [GRRED]
HDED      .MM     : HOLE DIAMETER FROM ARRAY SONIC LOG
LLDED     .OHMM   : LATEROLOG DEEP RESISTIVITY
LLSED     .OHMM   : LATEROLOG SHALLOW RESISTIVITY
NPHILSED  .V/V    : NEUTRON POROSITY LIMESTONE FROM CND LOG
NPHISSED  .V/V    : NEUTRON POROSITY SANDSTONE FROM CND LOG
NPOLSWS   .V/V    : NEUTRON POROSITY LIMESTONE [NPHILSED]
PEFED     .B/E    : PHOTOELECTRIC FACTOR FROM CND LOG
PEFWS     .B/E    : PHOTOELECTRIC FACTOR [PEFED]
RHOBED    .KG/M3  : BULK DENSITY FROM CND LOG
SPRED     .MV     : SPONTANEOUS POTENTIAL FROM DLL RESISTIVITY LOG
SPWS      .MV     : SPONTANEOUS POTENTIAL [BASELINE 0 MV] [SPRED]
SRESWS    .OHMM   : SHALLOW RESISTIVITY [LLSED]
TENDED    .KG     : TENSION FROM CND LOG
TENRED    .KG     : TENSION FROM DLL RESISTIVITY LOG
TENS1ED   .KG     : TENSION FROM ARRAY SONIC LOG
TENSED    .KG     : TENSION FROM BHC SONIC LOG
~Params ----------------------------------------------------
RUN .        1 : RUN #
DATE.          : DATE LOG WAS RUN
TDD .     3398 : DEPTH - DRILLER
TDL .     3400 : DEPTH - LOGGER
BLI .   3396.0 : BOTTOM LOG INTERVAL
TLI .    455.0 : TOP LOG INTERVAL
CBD .    454.8 : CASING - DRILLER
CBL .      455 : CASING - LOGGER
BS  .      222 : BIT SIZE
DFT . GEL CHEM : TYPE OF FLUID IN HOLE
DFD .     1090 : DRILLING FLUID DENSITY
DFV .       95 : DRILLING FLUID VISCOSITY
DFPH.       11 : DRILLING FLUID PH
DFL .      7.6 : DRILLING FLUID LOSS
MSS . FLOWLINE : SOURCE OF SAMPLE
RMS .    0.928 : MUD RESITIVITY
RMFS.    0.698 : MUD FILTRATE RESISTIVITY
RMCS.    0.745 : MUD CAKE RESITIVITY
MFSS. MEASURED : SOURCE OF RMF
MCSS. MEASURED : SOURCE OF RMC
RMBH.          : RM AT BHT
MRT .       96 : MAX RECORDED TEMPERATURE
CLNT.  A2DTECH : CLIENT CODE
~Other -----------------------------------------------------
~ASCII -----------------------------------------------------
# ...
 2850.00000  217.15300  273.94290  217.15300    1.59310 2807.25730    -999.25   -0.05690  627.72110   63.94950  166.98120  161.19600  167.58340  163.46540  154.17080  155.15050  303.97060  320.27440  323.44770  290.29390  156.30530  157.30950  154.88690  323.44770  167.58340   23.55450   26.33130   22.93590   23.41890   26.33130  266.62370  627.72110  306.85600    0.07930    -999.25    0.07930    1.40950    1.40950 2807.25730  -87.95840  -61.86130  306.85600 1752.79030 1478.45530 1487.60840 1496.80870
 2900.00000  233.58690  245.61020  233.58690   17.84970 2713.85130    -999.25   -0.00230   56.02340   15.65120  183.47070  186.59680  185.44000  182.95090  181.24960  182.34280  317.74730  316.44780  323.38040  318.36690  180.13260  185.26940  176.41970  323.38040  185.44000   52.91210   55.27580   55.09250   54.26370   55.27580  237.80430   56.02340   60.63090    0.03700    -999.25    0.03700    2.00990    2.00990 2713.85130  -27.80760   -3.51860   60.63090 1786.60010 1512.52580 1531.55810 1540.13090
 2950.00000  314.49870  257.40490  314.49870   53.73540 2625.82130    -999.25    0.04920   18.60970  333.50710  217.76200  209.53360  211.85560  213.24160  209.19900  210.58440  387.18560  385.72320  394.60040  387.88270  207.48940  208.38510  206.22550  394.60040  211.85560   63.22760   66.60960   67.41040   70.85030   66.60960  248.55790   18.60970   17.93120    0.13280    -999.25    0.13280    1.92650    1.92650 2625.82130  -43.55550  -21.59470   17.93120 1826.50320 1523.79540 1556.18470 1556.46510
 3000.00000  345.58640  272.54130  345.58640   78.14390 2029.00660    -999.25    0.39820   12.79690  233.51190  232.67640  245.74470  229.20140  232.44130  224.66470  220.24810  456.59150  449.85920  470.70640  470.01610  238.38690  240.56450  235.32710  470.70640  229.20140   71.97110   71.79470   75.48930   87.57240   71.79470  265.18210   12.79690   13.69110    0.19750    -999.25    0.19750    1.41720    1.41720 2029.00660  -41.90820  -22.41550   13.69110 1858.21510 1546.87920 1590.36440 1575.07350
 3050.00000  242.80090  253.88820  242.80090   52.90190 2746.30660    -999.25   -0.02120   18.90290   63.23740  215.42550  214.10920  214.61690  214.80490  213.16460  213.89460  387.18670  385.44640  393.03770  388.01530  209.92600  210.83020  208.65050  393.03770  214.61690   83.46770   92.56020   82.34050   90.96090   92.56020  238.35670   18.90290   19.91960    0.14630    -999.25    0.14630    2.25610    2.25610 2746.30660  -31.58840  -14.56390   19.91960 1852.79910 1570.50660 1621.81340 1596.22990
 3100.00000  233.61010  256.62990  233.61010   72.46690 2717.85470    -999.25   -0.00460   13.79940   26.69840  229.34050  224.24280  224.55820  225.86320  222.98090  222.08790  410.32370  409.00820  416.74980  411.64590  219.66560  220.56230  218.39990  416.74980  224.55820   86.34810   89.09990   89.84500   94.74080   89.09990  253.28630   13.79940   14.85270    0.18190    -999.25    0.18190    1.88280    1.88280 2717.85470  -32.61970  -18.06330   14.85270 1921.76420 1583.22230 1663.14360 1618.97340
 3150.00000  229.07980  247.50370  229.07980   63.45420 2725.91190    -999.25   -0.00930   15.75940    1.49350  229.25430  222.18910  224.80480  224.82790  222.02760  222.29880  406.73510  405.45390  414.50730  407.34610  219.34280  220.23880  218.07840  414.50730  224.80480   93.57020   94.92920   87.17520   92.15170   94.92920  244.59460   15.75940   17.14160    0.19170    -999.25    0.19170    1.95150    1.95150 2725.91190  -36.70480  -24.61650   17.14160 1934.87210 1614.65090 1697.51160 1642.01700
 3200.00000  228.72410  239.60860  228.72410    1.92390 2563.42260    -999.25    0.08570  519.77780   23.36920  237.50370  240.71060  234.24220  236.34120  234.89690  235.54820  377.83720  376.08770  383.97550  378.67770  234.30510  235.22360  233.00870  383.97550  234.24220  110.83330  116.87800  117.75040  117.56160  116.87800  229.83520  519.77780  560.01100    0.12960    -999.25    0.12960    1.59380    1.59380 2563.42260  -15.90190   -6.28180  560.01100 1915.46120 1640.53300 1722.28020 1686.15940
 3250.00000  222.81750  245.05830  222.81750    1.54850 2707.97440    -999.25    0.00120  645.77110   12.69060  166.92210  168.29920  172.68850  166.31250  164.63310  165.44240  309.74970  308.45720  316.97070  315.27850  164.89970  166.38750  163.61790  316.97070  172.68850   23.31030   22.03960   20.27020   26.74760   22.03960  230.24480  645.77110  483.65800    0.01290    -999.25    0.01290    2.35600    2.35600 2707.97440  -22.30330  -20.10630  483.65800 1945.03660 1649.89230 1732.18250 1675.53450
 3300.00000  220.98540  248.75570  220.98540    0.04310 2722.52250    -999.25   -0.00730 23210.98440   23.96920  159.64360  156.14620  167.13340  157.48350  155.73610  156.53690  297.53360  296.23680  303.72130  299.34400  153.66860  155.29170  151.26170  303.72130  167.13340    8.56510    7.12770    8.47670    9.29230    7.12770  235.74020 23210.98440 18155.72660   -0.00170    -999.25   -0.00170    2.47460    2.47460 2722.52250  -14.17970  -19.82500 18155.72660 1934.18120 1681.41560 1743.94090 1703.45650
 3350.00000  219.30010  252.89720  219.30010    0.02480 2713.38130    -999.25   -0.00200 40399.82810   14.44020  161.96690  157.93470  159.85530  160.86110  165.65160  161.90840  297.20530  294.03920  304.82750  302.92210  154.90370  155.81420  153.61920  304.82750  159.85530   11.93460   11.69670   11.93540    9.99070   11.69670  239.61380 40399.82810 38673.78130    0.00160    -999.25    0.00160    2.52040    2.52040 2713.38130    1.65390  -11.50430 38673.78130 1938.54050 1701.42270 1758.36650 1719.42030
 3400.00000    -999.25    -999.25    -999.25    -999.25    -999.25    -999.25    -999.25    -999.25    -999.25    -999.25    -999.25    -999.25    -999.25    -999.25    -999.25    -999.25    -999.25    -999.25    -999.25    -999.25    -999.25    -999.25    -999.25    -999.25    -999.25    -999.25    -999.25    -999.25    -999.25    -999.25    -999.25    -999.25    -999.25    -999.25    -999.25    -999.25    -999.25    -999.25    -999.25    -999.25    -999.25 1943.07180 1298.45870 1605.72580 1744.60410
