~Version ---------------------------------------------------
VERS.      2.0 : CWLS log ASCII Standard -VERSION 2.0
WRAP.       NO : One line per depth step
CREA. 11/15/17 : LAS Creation Date
~Well ------------------------------------------------------
STRT.FT                         300.0 : START DEPTH
STOP.FT                        9050.0 : STOP DEPTH
STEP.FT                      50.00000 : STEP LENGTH
NULL.                         -999.25 : NULL VALUE
COMP.      TEXACO EXPLORATION COMPANY : COMPANY
WELL. TEXACO C&E WIMBORNE 13-25-32-26 : WELL
FLD .                                 : FIELD
LOC .                                 : LOCATION
CTRY.                          CANADA : COUNTRY
SRVC.          Schlumberger of Canada : SERVICE COMPANY
DATE.                     20-Oct-1957 : LOGDATE
PROV.                         Alberta : PROVINCE
UWI .                100132503226W400 : UNIQUE WELL ID
SLAT.WGS84                   51.77784 : SURFACE LATITUDE
SLON.WGS84                  -113.5678 : SURFACE LONGITUDE
~Curve Information -----------------------------------------
DEPT  .FT         : Depth Curve
CALWS .IN         : CALIPER [MCALED]
CILDED.MMHO       : INDUCTION DEEP CONDUCTIVITY FROM RESISTIVITY LOG
CONDWS.MMHO       : CONDUCTIVITY [1000/DRESWS]
DRESWS.OHMM       : DEEP RESISTIVITY [1000/CILDED IF ILDED <5, ILDED]
GRNED .UgRa-Eq/T  : GAMMA RAY FROM GRN LOG
GRWS  .GAPI       : GAMMA RAY [GRNED*16.50]
ILDED .OHMM       : INDUCTION DEEP RESISTIVITY FROM RESISTIVITY LOG
MCALED.IN         : MLT (MICROLOG) CALIPER FROM MICROLOG
NEUTED.CPS        : NEUTRON FROM GRN LOG
NEUTWS.CPS        : NEUTRON [NEUTED]
SNED  .OHMM       : SHORT NORMAL RESISTIVITY FROM RESISTIVITY LOG
SPRED .MV         : SPONTANEOUS POTENTIAL FROM RESISTIVITY LOG
SPWS  .MV         : SPONTANEOUS POTENTIAL [SPRED]
SRESWS.OHMM       : SHALLOW RESISTIVITY [SNED]
~Params ----------------------------------------------------
LMF .                     KB : LOG MEASURED FROM
DMF .                     KB : DRILLING MEASURED FROM
EKB .FT                 3183 : KELLY BUSHING
EGL .FT                 3170 : GROUND LEVEL
DATE.               10/20/57 : RUN DATE
RUN .                      1 : RUN NUMBER
DD  .FT                 9085 : DEPTH DRILLER
DL  .FT                 9088 : DEPTH LOGGER
BLI .FT                 9083 : BOTTOM LOG INTERVAL
TLI .FT                 1204 : TOP LOG INTERVAL
CBD .FT                 1204 : CASING BOTTOM DRILLER
CBL .FT                 1204 : CASING BOTTOM LOGGER
BS  .IN                    9 : BIT SIZE
BSD .FT                 9085 : BIT SIZE AT DEPTH
DFT .               GYP BASE : DRILLING FLUID TYPE
DFD .                   10.3 : DRILLING FLUID DENSITY
DFV .                     80 : DRILLING FLUID VISCOSITY
DFPH.                      8 : DRILLING FLUID PH
DFL .                    5.6 : DRILLING FLUID LOSS
RMS .OHMM                1.3 : RESISTIVITY MUD SAMPLE
MST .DEGF                 77 : MUD SAMPLE TEMPERATURE
RMF .OHMM                0.8 : RESISTIVITY MUD FILTRATE SAMPLE
MFST.DEGF                 81 : MUD FILTRATE SAMPLE TEMPERATURE
RMC .OHMM                1.7 : RESISTIVITY MUD CAKE
MCST.DEGF                 79 : MUD CAKE SAMPLE TEMPERATURE
RMB .OHMM                0.6 : RESISTIVITY MUD AT BHT
TCS .HRS                   4 : TIME CIRCULATED STOPPED
LUN .                  15750 : LOGGING UNIT NUMBER
LUL .                     RD : LOGGING UNIT LOCATION
ENGI.                BOSWELL : RECORDING ENGINEER
WITN.                 GOTAAS : WITNESSED BY
CLNT.                A2DTECH : CLIENT CODE
ORIG.            2" 5" PRINT : ORIGIN OF DATA
UWI .       100132503226W400 : UNIQUE WELL ID
DICO. A2D Technologies, Inc. : DIGITIZING COMPANY
~Other -----------------------------------------------------
~ASCII -----------------------------------------------------
# ...
 7650.00000    9.17930    4.34010    5.85910  170.67580    5.31670   87.72550  170.67580    9.17930  309.02880  309.02880   90.52580  -56.40400  -25.20500   90.52580
 7700.00000    9.40030    4.87690    7.11820  140.48420    4.98810   82.30370  140.48420    9.40030  272.37300  272.37300   86.40740  -44.39510  -12.49780   86.40740
 7750.00000    9.29820   14.08000   15.92840   62.78110    5.05480   83.40420   62.78110    9.29820  237.58520  237.58520   64.97950  -39.43300   -6.70840   64.97950
 7800.00000    9.31830   17.11660   18.32410   54.57300    5.60850   92.54030   54.57300    9.31830  237.38920  237.38920   46.81810  -40.88210   -6.58130   46.81810
 7850.00000    9.27620    5.73400    6.62780  150.87860    3.55010   58.57670  150.87860    9.27620  332.74190  332.74190   79.73220  -35.93780   -0.05050   79.73220
 7900.00000    9.62940   11.06320   13.29950   75.19090    4.57680   75.51720   75.19090    9.62940  262.85820  262.85820   56.65750  -40.76710   -3.30360   56.65750
 7950.00000    9.42440    8.43310   11.91020   83.96160    1.18850   19.61020   83.96160    9.42440  411.81110  411.81110   82.35890 -102.50050  -63.45050   82.35890
 8000.00000   10.99330    2.30540    6.12990  163.13430    1.07330   17.70950  163.13430   10.99330  346.35530  346.35530  162.16690  -82.05270  -41.42650  162.16690
 8050.00000    9.38180    2.05100    2.10850  474.27870    2.30420   38.01930  474.27870    9.38180  308.41390  308.41390  238.69210  -59.61720  -17.41480  238.69210
 8100.00000    9.39090    0.37880    2.00520  498.71170    4.17170   68.83310  498.71170    9.39090  238.45100  238.45100  189.50690  -58.26880  -14.47990  189.50690
 8150.00000   11.19360    1.19100    2.11830  472.06910    1.23480   20.37420  472.06910   11.19360  284.72370  284.72370  192.63770  -62.33650  -16.97140  192.63770
 8200.00000   11.46710    5.07620    2.22420  449.60380    2.07300   34.20450  449.60380   11.46710  320.95650  320.95650  122.10730  -75.89390  -28.94230  122.10730
 8250.00000   10.97940    3.01930    2.22500  449.43270    0.97690   16.11880  449.43270   10.97940  343.40330  343.40330  127.80780 -106.79380  -58.26600  127.80780
 8300.00000   11.00410    4.72790    5.14570  194.33830    1.07990   17.81840  194.33830   11.00410  366.72810  366.72810  107.84750 -118.69250  -68.58860  107.84750
 8350.00000   11.00820    5.81960    7.03260  142.19440    1.05340   17.38110  142.19440   11.00820  349.96320  349.96320   78.21260 -121.26870  -69.57820   78.21260
 8400.00000   10.56250    2.41610    3.30420  302.64860    1.16880   19.28520  302.64860   10.56250  330.15540  330.15540  143.98300 -100.48120  -47.21460  143.98300
 8450.00000    9.52110    3.71820    2.28030  438.54790    1.99770   32.96200  438.54790    9.52110  335.40700  335.40700  118.94710  -64.10350   -9.25030  118.94710
 8500.00000    9.36550    5.15200    7.87840  126.92890    3.21310   53.01610  126.92890    9.36550  263.80440  263.80440   73.90200  -73.35570  -17.61330   73.90200
 8550.00000   10.17100   15.62780   19.05930   52.46770    1.50640   24.85560   52.46770   10.17100  316.53100  316.53100   67.37270 -148.46230  -92.30400   67.37270
 8600.00000    9.74290    3.22810    5.76060  173.59180    1.20500   19.88250  173.59180    9.74290  380.31290  380.31290  131.65330 -140.58000  -84.00310  131.65330
 8650.00000    9.23470    2.19100    5.21390  191.79410    1.18430   19.54090  191.79410    9.23470  391.22630  391.22630   85.49930 -142.36790  -85.37510   85.49930
 8700.00000    9.54560    8.71770   11.18750   89.38530    0.88420   14.58930   89.38530    9.54560  326.65550  326.65550   83.78150 -130.46030  -73.04890   83.78150
 8750.00000   10.13730    1.59030    2.14810  465.53500    1.39340   22.99110  465.53500   10.13730  351.95610  351.95610  109.68050 -136.59620  -78.76890  109.68050
 8800.00000    9.44410   24.97090   26.98410   37.05880    0.91470   15.09250   37.05880    9.44410  329.95330  329.95330   60.30990 -135.01030  -76.76710   60.30990
 8850.00000   11.22130    2.70940    2.95350  338.58050    1.19020   19.63830  338.58050   11.22130  261.30640  261.30640  112.37390 -108.95000  -50.28810  112.37390
 8900.00000   14.39200    5.28430    4.54510  220.01780    1.49390   24.64930  220.01780   14.39200  218.54660  218.54660  143.19510  -82.93340  -23.85560  143.19510
 8950.00000    9.39740   31.04160   29.15190   34.30310    5.07800   83.78700   34.30310    9.39740  206.89050  206.89050   89.55240  -73.09930  -13.60290   89.55240
 9000.00000    9.35570    8.82440   11.28700   88.59780    6.82330  112.58440   88.59780    9.35570  336.18130  336.18130   74.60450  -74.94300  -15.03070   74.60450
 9050.00000    9.49790   72.45370   76.82440   13.01670   10.20170  168.32810   13.01670    9.49790  168.81380  168.81380   18.05200  -74.45970  -14.16980   18.05200
