~Version ---------------------------------------------------
VERS.      2.0 : CWLS log ASCII Standard -VERSION 2.0
WRAP.       NO : One line per depth step
CREA. 12/12/17 : LAS Creation Date
~Well ------------------------------------------------------
STRT.FT                    750.0 : START DEPTH
STOP.FT                   6850.0 : STOP DEPTH
STEP.FT                 50.00000 : STEP LENGTH
NULL.                    -999.25 : NULL VALUE
COMP.       SHELL CANADA LIMITED : COMPANY
WELL. SHELL WESTLOCK 10-33-61-27 : WELL
FLD .                            : FIELD
LOC .                            : LOCATION
CTRY.                     CANADA : COUNTRY
SRVC.               Schlumberger : SERVICE COMPANY
DATE.                01-Feb-1966 : LOGDATE
PROV.                    Alberta : PROVINCE
UWI .           100103306127W400 : UNIQUE WELL ID
SLAT.WGS84              54.32129 : SURFACE LATITUDE
SLON.WGS84             -113.9838 : SURFACE LONGITUDE
~Curve Information -----------------------------------------
DEPT   .FT    : Depth Curve
CALDED .IN    : CALIPER FROM DENSITY LOG [ADJ. TO DIL LOG]
CALWS  .IN    : CALIPER [CALDED]
CILDED .MMHO  : CONDUCTIVITY FROM IEL LOG [ADJ. TO DIL LOG]
CONDWS .MMHO  : CONDUCTIVITY [1000/DRESWS]
DCORWS .G/C3  : DENSITY CORRECTION [DRHOED]
DENWS  .G/C3  : FORMATION BULK DENSITY [RHOBED]
DPOLSWS.V/V   : DENSITY POROSITY LIMESTONE [CALC FROM DENWS, M=2.71, F=1.00 ASSUMED]
DRESWS .OHMM  : DEEP RESISTIVITY [ILDED]
DRHOED .G/C3  : DENSITY CORRECTION FROM DENSITY LOG [ADJ. TO DIL LOG]
DTED   .US/F  : DELTA TIME FROM SONIC LOG [ADJ. TO DIL LOG]
DTWS   .US/F  : COMPRESSIONAL SONIC [DTED]
GRDED  .GAPI  : GAMMA RAY FROM DENSITY LOG [ADJ. TO DIL LOG]
GRSED  .GAPI  : GAMMA RAY FROM SONIC LOG [ADJ. TO DIL LOG]
GRWS   .GAPI  : GAMMA RAY [GRDED]
ILD1ED .OHMM  : DEEP INDUCTION LOG RESISTIVITY FROM IEL LOG [ADJ. TO DIL LOG]
ILDED  .OHMM  : DEEP INDUCTION LOG RESISTIVITY FROM DIL LOG (ILD SPL. TO ILD_2 @ 6068'-6572')
ILMED  .OHMM  : MEDIUM INDUCTION LOG RESISTIVITY FROM DIL LOG (ILM SPL. TO ILM_2 @ 6068'-6576')
LL8ED  .OHMM  : 8 INCH LATEROLOG RESISTIVITY FROM DIL LOG (LL8 SPL. TO LL8_2 @ 6068'-6506')
MRESWS .OHMM  : MEDIUM RESISTIVITY [ILMED]
RHOBED .G/C3  : BULK DENSITY FROM DENSITY LOG [ADJ. TO DIL LOG]
SNED   .OHMM  : 16 INCH SHORT NORMAL RESISTIVITY FROM IEL LOG [ADJ. TO DIL LOG]
SPR1ED .MV    : SPONTANEOUS POTENTIAL FROM IEL LOG [ADJ. TO DIL LOG]
SPRED  .MV    : SPONTANEOUS POTENTIAL FROM DIL LOG (SPR SPL. TO SPR_2 @ 6068'-6577')
SPWS   .MV    : SPONTANEOUS POTENTIAL [BASELINE 0 MV, SPRED]
SRESWS .OHMM  : SHALLOW RESISTIVITY [LL8ED]
~Params ----------------------------------------------------
PD  .                     GL : PERMANENT DATUM
EPD .FT               2008.9 : ELEVATION PERMANENT DATUM
LMF .                     KB : LOG MEASURED FROM
DAPD.FT                 13.8 : FEET ABOVE PERMANENT DATUM
EKB .FT               2022.7 : KELLY BUSHING
EGL .FT               2008.9 : GROUND LEVEL
DATE.               02/01/66 : RUN DATE
RUN .                      2 : RUN NUMBER
DD  .FT                 6850 : DEPTH DRILLER
DL  .FT                 6850 : DEPTH LOGGER
BLI .FT                 6846 : BOTTOM LOG INTERVAL
TLI .FT                 2900 : TOP LOG INTERVAL
CBD .FT                  724 : CASING BOTTOM DRILLER
CBL .FT                  724 : CASING BOTTOM LOGGER
BS  .IN                7.875 : BIT SIZE
BSD .FT                 6850 : BIT SIZE AT DEPTH
DFT .                    GEL : DRILLING FLUID TYPE
DFD .                    9.9 : DRILLING FLUID DENSITY
DFV .                     80 : DRILLING FLUID VISCOSITY
DFPH.                     11 : DRILLING FLUID PH
DFL .                    6.2 : DRILLING FLUID LOSS
RMS .OHMM               0.15 : RESISTIVITY MUD SAMPLE
MST .DEGF                 62 : MUD SAMPLE TEMPERATURE
RMF .OHMM               0.07 : RESISTIVITY MUD FILTRATE SAMPLE
MFST.DEGF                122 : MUD FILTRATE SAMPLE TEMPERATURE
RMC .OHMM               0.18 : RESISTIVITY MUD CAKE
MCST.DEGF                 68 : MUD CAKE SAMPLE TEMPERATURE
RMB .OHMM               0.09 : RESISTIVITY MUD AT BHT
TCS .HRS                   2 : TIME CIRCULATED STOPPED
LUN .                   2547 : LOGGING UNIT NUMBER
LUL .                     SL : LOGGING UNIT LOCATION
ENGI.                  CRAIN : RECORDING ENGINEER
WITN.                PHERSON : WITNESSED BY
CLNT.                A2DTECH : CLIENT CODE
ORIG.            2" 5" PRINT : ORIGIN OF DATA
UWI .       100103306127W400 : UNIQUE WELL ID
DICO. A2D Technologies, Inc. : DIGITIZING COMPANY
~Other -----------------------------------------------------
DIL-IEL-FDC-BCS TOOL RUN
~ASCII -----------------------------------------------------
  750.00000    9.65720    9.65720  172.75740  190.45080    0.11900    2.29240    0.24420    5.25070    0.11900  122.51580  122.51580   64.68680   55.66970   64.68680    5.78700    5.25070    4.62800    7.04220    4.62800    2.29240    6.67800  -64.15560  -49.51340  -17.44530    7.04220
  800.00000   11.98820   11.98820  256.87730  274.89840    0.00700    2.24180    0.27380    3.63780    0.00700  127.01050  127.01050   58.11910   49.69140   58.11910    3.93270    3.63780    3.74530    4.57030    3.74530    2.24180    4.30760  -64.12790  -50.71690  -16.72760    4.57030
  850.00000   12.64750   12.64750  261.92930  288.32570    0.18910    2.08330    0.36650    3.46830    0.18910  128.30580  128.30580   59.27180   52.72140   59.27180    3.97860    3.46830    3.62840    4.48630    3.62840    2.08330    3.64820  -52.59790  -35.75740   -9.36220    4.48630
  900.00000   12.47400   12.47400  189.36380  208.51140    0.15600    1.89580    0.47620    4.79590    0.15600  122.76730  122.76730   71.11470   64.56590   71.11470    5.28000    4.79590    4.76650    5.77450    4.76650    1.89580    4.58490  -38.82880  -21.64370   -2.79300    5.77450
  950.00000   12.43840   12.43840  164.81400  175.08540    0.15610    1.73530    0.57000    5.71150    0.15610  121.28640  121.28640   79.04450   76.31410   79.04450    6.06830    5.71150    5.46240    6.92860    5.46240    1.73530    5.55880  -32.78960  -18.48570   -3.57730    6.92860
 1000.00000   12.39660   12.39660  269.70360  276.16680    0.14580    1.88000    0.48540    3.62100    0.14580  130.42160  130.42160   92.63330   81.51070   92.63330    3.70870    3.62100    3.51800    4.86890    3.51800    1.88000    4.17070  -38.70130  -22.35680   -7.66000    4.86890
 1050.00000   12.43400   12.43400  175.84910  183.54240    0.10750    1.67860    0.60320    5.44830    0.10750  118.98730  118.98730   84.19210   84.42060   84.19210    5.70810    5.44830    5.06560    6.34340    5.06560    1.67860    5.30290  -36.55470  -20.47320   -5.50390    6.34340
 1100.00000   12.40740   12.40740  196.52280  206.33870    0.18350    1.96860    0.43360    4.84640    0.18350  122.29460  122.29460   98.71090   91.14580   98.71090    5.05880    4.84640    4.61060    6.48330    4.61060    1.96860    5.19050  -37.84910  -21.40930   -6.16580    6.48330
 1150.00000   12.41720   12.41720  208.75920  220.17700    0.17370    2.12610    0.34150    4.54180    0.17370  132.96870  132.96870  101.74030   96.52590  101.74030    4.79130    4.54180    4.41270    5.80780    4.41270    2.12610    5.18910  -39.39230  -22.20240   -6.68640    5.80780
 1200.00000   12.42590   12.42590  164.73300  172.30680    0.15750    2.04360    0.38970    5.80360    0.15750  122.50420  122.50420  112.06900   95.05200  112.06900    6.06990    5.80360    4.97990    8.71170    4.97990    2.04360    6.80740  -36.40860  -18.45410   -2.66390    8.71170
 1250.00000   12.33450   12.33450  186.76070  191.16070    0.15740    2.17910    0.31050    5.23120    0.15740  123.04430  123.04430  111.30120   98.89430  111.30120    5.35970    5.23120    4.70290    6.76760    4.70290    2.17910    5.74360  -40.84730  -22.35020   -6.46670    6.76760
 1300.00000   12.42070   12.42070  217.38340  230.39430    0.20470    2.03300    0.39590    4.34040    0.20470  136.67220  136.67220  109.44400  106.44040  109.44400    4.59900    4.34040    4.23110    5.74470    4.23110    2.03300    5.09800  -41.22430  -22.90790   -7.13540    5.74470
 1350.00000   12.42180   12.42180  197.84720  210.28280    0.17810    2.07240    0.37290    4.75550    0.17810  139.43340  139.43340  104.14450  101.46880  104.14450    4.94990    4.75550    4.48540    5.97050    4.48540    2.07240    5.08150  -41.97490  -23.31920   -7.65850    5.97050
 1400.00000   12.40130   12.40130  144.19430  159.33210    0.11110    1.73290    0.57140    6.27620    0.11110   96.32340   96.32340   81.17140   72.82010   81.17140    6.78750    6.27620    5.88780    7.68970    5.88780    1.73290    6.30340  -38.41210  -21.20480   -5.65510    7.68970
 1450.00000   12.38700   12.38700  170.38000  182.69850    0.16360    2.04980    0.38610    5.47350    0.16360  118.02510  118.02510  103.08330   94.09560  103.08330    5.87570    5.47350    5.21470    6.88920    5.21470    2.04980    5.67990  -42.24510  -25.25750   -9.81960    6.88920
 1500.00000   12.35380   12.35380  183.99490  197.07150    0.20450    2.06690    0.37610    5.07430    0.20450  115.63080  115.63080   94.75280   87.69960   94.75280    5.49760    5.07430    4.77390    6.49850    4.77390    2.06690    5.26860  -42.71740  -24.07570   -8.74890    6.49850
 1550.00000   12.36340   12.36340  129.34340  139.85520    0.02260    2.26270    0.26160    7.15020    0.02260   99.16720   99.16720   85.96330   71.11770   85.96330    7.73300    7.15020    6.84420    8.32430    6.84420    2.26270    6.77050  -41.27180  -24.23890   -9.02310    8.32430
 1600.00000   11.25490   11.25490  191.44390  204.54500    0.10330    2.26000    0.26320    4.88890    0.10330  112.53760  112.53760  111.98600   96.22420  111.98600    5.22070    4.88890    4.77310    6.15770    4.77310    2.26000    5.42670  -43.13390  -24.87730   -9.77330    6.15770
 1650.00000   10.76170   10.76170  208.72670  226.01420    0.18530    2.14370    0.33120    4.42450    0.18530  113.72920  113.72920  102.49110   92.65560  102.49110    4.78950    4.42450    4.28300    5.49070    4.28300    2.14370    5.15390  -40.81210  -24.55870   -9.56570    5.49070
 1700.00000   12.00200   12.00200  188.31110  201.08990    0.20380    2.03460    0.39500    4.97290    0.20380  116.87850  116.87850   98.35470   84.96380   98.35470    5.30850    4.97290    4.76320    7.25490    4.76320    2.03460    5.82550  -40.23760  -20.93180   -6.05060    7.25490
 1750.00000   11.79030   11.79030  175.34820  190.07070    0.23560    2.20080    0.29780    5.26120    0.23560  114.25250  114.25250   99.45360   94.36940   99.45360    5.77450    5.26120    5.28940    7.14310    5.28940    2.20080    6.48260  -47.83840  -30.98780  -16.21770    7.14310
 1800.00000    9.33330    9.33330  176.41330  186.77810    0.16480    2.29480    0.24280    5.35550    0.16480  118.15260  118.15260  123.25990  117.22760  123.25990    5.62680    5.35550    4.69400    8.91160    4.69400    2.29480    7.06150  -50.42140  -33.25340  -18.59430    8.91160
 1850.00000   12.55820   12.55820  174.12720  189.56990    0.16840    2.08980    0.36270    5.27510    0.16840  102.42480  102.42480   89.70370   79.28590   89.70370    5.87590    5.27510    5.39490    7.06020    5.39490    2.08980    6.06280  -38.36790  -19.17340   -4.62610    7.06020
 1900.00000   12.62980   12.62980  202.70680  218.18340    0.19050    1.96110    0.43800    4.58330    0.19050  105.86340  105.86340   91.10520   78.54520   91.10520    4.93270    4.58330    4.47550    6.91740    4.47550    1.96110    5.28400  -40.34760  -20.35150   -6.14930    6.91740
 1950.00000   11.60140   11.60140  177.30010  192.88260    0.13280    2.35710    0.20640    5.18450    0.13280  104.98630  104.98630  105.93850   93.84570  105.93850    5.49000    5.18450    4.97010    7.93140    4.97010    2.35710    5.64570  -41.71740  -20.78800   -7.41400    7.93140
 2000.00000   12.59640   12.59640  191.03790  209.29700    0.11630    2.38060    0.19260    4.77790    0.11630  105.47420  105.47420  107.58470  101.01570  107.58470    5.23370    4.77790    4.65740    7.70490    4.65740    2.38060    5.45460  -43.71410  -23.58310  -11.03190    7.70490
 2050.00000   12.97440   12.97440  730.66110  734.25940    0.18460    1.86560    0.49380    1.37710    0.18460  133.87190  133.87190  111.76230  102.23790  111.76230    1.57760    1.37710    1.50670    3.48360    1.50670    1.86560    2.43750  -42.35440  -23.23760  -11.50920    3.48360
 2100.00000   12.93070   12.93070  350.11780  365.96520    0.14120    2.09050    0.36230    2.73250    0.14120  114.95960  114.95960   87.36690   82.86300   87.36690    2.85430    2.73250    2.63170    3.83410    2.63170    2.09050    3.21030  -40.67330  -22.19880  -11.29860    3.83410
