~Version ---------------------------------------------------
VERS.      2.0 : CWLS log ASCII Standard -VERSION 2.0
WRAP.       NO : One line per depth step
CREA. 10/26/17 : LAS Creation Date
~Well ------------------------------------------------------
STRT.FT                          1100.0 : START DEPTH
STOP.FT                         10150.0 : STOP DEPTH
STEP.FT                        50.00000 : STEP LENGTH
NULL.                           -999.25 : NULL VALUE
COMP.              CHEVRON STANDARD LTD : COMPANY
WELL. CHEVRON GULF FOX CREEK 7-14-62-18 : WELL
FLD .                         FOX CREEK : FIELD
LOC .                                   : LOCATION
CTRY.                            CANADA : COUNTRY
SRVC.                      Schlumberger : SERVICE COMPANY
DATE.                       09-Dec-1976 : LOGDATE
PROV.                           Alberta : PROVINCE
UWI .                  100071406218W500 : UNIQUE WELL ID
SLAT.WGS84                     54.36034 : SURFACE LATITUDE
SLON.WGS84                    -116.5836 : SURFACE LONGITUDE
~Curve Information -----------------------------------------
DEPT    .FT    : Depth Curve
CALDED  .IN    : CALIPER FROM DENSITY LOG [ADJ. TO RESISTIVITY LOG]
CALSED  .IN    : CALIPER FROM SONIC LOG [ADJ. TO RESISTIVITY LOG]
CALWS   .IN    : CALIPER [CALSED]
CONDWS  .MMHO  : CONDUCTIVITY [1000/DRESWS]
DCORWS  .G/C3  : DENSITY CORRECTION [DRHOED]
DENWS   .G/C3  : FORMATION BULK DENSITY [CALC. FROM DPOLSWS M=2.71, F=1.00]
DPHILSED.V/V   : DENSITY POROSITY LIMESTONE [M=2.71, F=1.00] FROM DENSITY LOG [ADJ. TO RESISTIVITY LOG]
DPHISSED.V/V   : DENSITY POROSITY SANDSTONE [M=2.65, F=1.00] FROM DENSITY LOG [ADJ. TO RESISTIVITY LOG]
DPOLSWS .V/V   : DENSITY POROSITY LIMESTONE [DPHISSED CONVERTED TO LIMESTONE MATRIX, M=2.71, F=1.00, SPL. TO DPHILSED @ 9636']
DRESWS  .OHMM  : DEEP RESISTIVITY [ILDED]
DRHOED  .G/C3  : DENSITY CORRECTION FROM DENSITY LOG [ADJ. TO RESISTIVITY LOG/DPHISSED/DPHILSED]
DTED    .US/F  : DELTA TIME FROM SONIC LOG [ADJ. TO RESISTIVITY LOG]
DTWS    .US/F  : COMPRESSIONAL SONIC [DTED]
GRDED   .GAPI  : GAMMA RAY FROM DENSITY LOG [ADJ. TO RESISTIVITY LOG]
GRSED   .GAPI  : GAMMA RAY FROM SONIC LOG [ADJ. TO RESISTIVITY LOG]
GRWS    .GAPI  : GAMMA RAY [GRSED]
ILDED   .OHMM  : DEEP INDUCTION FROM RESISTIVITY LOG
ILMED   .OHMM  : MEDIUM INDUCTION FROM RESISTIVITY LOG
LL8ED   .OHMM  : 8 INCH LATEROLOG FROM RESISTIVITY LOG
MRESWS  .OHMM  : MEDIUM RESISTIVITY [ILMED]
NPHILSED.V/V   : NEUTRON POROSITY LIMESTONE FROM DENSITY LOG [ADJ. TO RESISTIVITY LOG]
NPHISSED.V/V   : NEUTRON POROSITY SANDSTONE FROM DENSITY LOG [ADJ. TO RESISTIVITY LOG]
NPOLSWS .V/V   : NEUTRON POROSITY LIMESTONE [NPHISSED MATRIX CONVERSION FOR LIMESTONE FROM SCHLUMBERGER (CNL), SPL. TO NPHILSED @ 9636']
RHOBED  .G/C3  : BULK DENSITY FROM DENSITY LOG [ADJ. TO RESISTIVITY LOG/DPHISSED/DPHILSED]
SPRED   .MV    : SPONTANEOUS POTENTIAL FROM RESISTIVITY LOG
SPWS    .MV    : SPONTANEOUS POTENTIAL [BASELINE 0 MV, SPRED]
SRESWS  .OHMM  : SHALLOW RESISTIVITY [LL8ED]
TENDED  .LBF   : TENSION FROM DENSITY LOG [ADJ. TO RESISTIVITY LOG]
TENSED  .LBF   : TENSION FROM SONIC LOG [ADJ. TO RESISTIVITY LOG]
~Params ----------------------------------------------------
PD  .                     GL : PERMANENT DATUM
EPD .FT               2939.3 : ELEVATION PERMANENT DATUM
LMF .                     KB : LOG MEASURED FROM
DAPD.FT                 14.7 : FEET ABOVE PERMANENT DATUM
EKB .FT                 2954 : KELLY BUSHING
EDF .FT                 2939 : DRILLING FLOOR
DATE.               12/09/76 : RUN DATE
RUN .                      1 : RUN NUMBER
DD  .FT                10196 : DEPTH DRILLER
DL  .FT                10201 : DEPTH LOGGER
BLI .FT                10195 : BOTTOM LOG INTERVAL
TLI .FT                 1133 : TOP LOG INTERVAL
CBD .FT                 1131 : CASING BOTTOM DRILLER
CBL .FT                 1133 : CASING BOTTOM LOGGER
BS  .IN                 8.75 : BIT SIZE
BSD .FT                10196 : BIT SIZE AT DEPTH
DFT .               GEL CHEM : DRILLING FLUID TYPE
DFD .                    8.9 : DRILLING FLUID DENSITY
DFV .                     84 : DRILLING FLUID VISCOSITY
DFPH.                   10.5 : DRILLING FLUID PH
DFL .                      9 : DRILLING FLUID LOSS
MSS .               FLOWLINE : MUD SAMPLE SOURCE
RMS .OHMM               2.18 : RESISTIVITY MUD SAMPLE
MST .DEGF                 95 : MUD SAMPLE TEMPERATURE
RMF .OHMM               2.63 : RESISTIVITY MUD FILTRATE SAMPLE
MFST.DEGF                 66 : MUD FILTRATE SAMPLE TEMPERATURE
RMC .OHMM               2.34 : RESISTIVITY MUD CAKE
MCST.DEGF                 56 : MUD CAKE SAMPLE TEMPERATURE
TCS .HRS                 6.5 : TIME CIRCULATED STOPPED
LUN .                   7691 : LOGGING UNIT NUMBER
LUL .                    WCT : LOGGING UNIT LOCATION
ENGI.                  LEGEE : RECORDING ENGINEER
WITN.             RICHARDSON : WITNESSED BY
CLNT.                A2DTECH : CLIENT CODE
ORIG.            2" 5" PRINT : ORIGIN OF DATA
UWI .       100071406218W500 : UNIQUE WELL ID
DICO. A2D Technologies, Inc. : DIGITIZING COMPANY
~Other -----------------------------------------------------
~ASCII -----------------------------------------------------
# ...
 3600.00000    -999.25   10.92320   10.92320  150.01950    -999.25    -999.25    -999.25    -999.25    -999.25    6.66580    -999.25   93.13660   93.13660    -999.25  119.96350  119.96350    6.66580    6.35210    7.59070    6.35210    -999.25    -999.25    -999.25    -999.25    6.44440   -4.69610    7.59070    -999.25 2049.73100
 3650.00000    -999.25   10.06260   10.06260  119.64230    -999.25    -999.25    -999.25    -999.25    -999.25    8.35830    -999.25   95.10120   95.10120    -999.25  156.34000  156.34000    8.35830    7.82640   11.30910    7.82640    -999.25    -999.25    -999.25    -999.25    9.25310   -1.95350   11.30910    -999.25 1985.25070
 3700.00000    -999.25    9.62310    9.62310  123.06480    -999.25    -999.25    -999.25    -999.25    -999.25    8.12580    -999.25   95.00090   95.00090    -999.25  130.42200  130.42200    8.12580    7.75910   10.18140    7.75910    -999.25    -999.25    -999.25    -999.25    9.05690   -2.20160   10.18140    -999.25 1878.18950
 3750.00000    -999.25    9.90640    9.90640  140.28200    -999.25    -999.25    -999.25    -999.25    -999.25    7.12850    -999.25   90.04340   90.04340    -999.25  134.30830  134.30830    7.12850    6.79990    8.20250    6.79990    -999.25    -999.25    -999.25    -999.25    7.69710   -3.07190    8.20250    -999.25 1928.46140
 3800.00000    -999.25    9.86320    9.86320  162.38330    -999.25    -999.25    -999.25    -999.25    -999.25    6.15830    -999.25   83.43190   83.43190    -999.25  108.53370  108.53370    6.15830    5.91880    7.83520    5.91880    -999.25    -999.25    -999.25    -999.25    5.78600   -4.85670    7.83520    -999.25 1869.04410
 3850.00000    -999.25   10.28340   10.28340  156.82090    -999.25    -999.25    -999.25    -999.25    -999.25    6.37670    -999.25   94.59850   94.59850    -999.25  122.92520  122.92520    6.37670    6.00990    7.62750    6.00990    -999.25    -999.25    -999.25    -999.25    7.41240   -3.14620    7.62750    -999.25 1833.04560
 3900.00000    -999.25    9.71450    9.71450  135.14510    -999.25    -999.25    -999.25    -999.25    -999.25    7.39950    -999.25   91.60040   91.60040    -999.25  117.94330  117.94330    7.39950    7.02270    9.04060    7.02270    -999.25    -999.25    -999.25    -999.25    6.00390   -4.47120    9.04060    -999.25 1807.98670
 3950.00000    -999.25    9.89130    9.89130  137.03890    -999.25    -999.25    -999.25    -999.25    -999.25    7.29720    -999.25   90.74100   90.74100    -999.25  122.77000  122.77000    7.29720    7.04720    7.90700    7.04720    -999.25    -999.25    -999.25    -999.25    8.14720   -2.24380    7.90700    -999.25 1776.02370
 4000.00000    -999.25   10.23670   10.23670  138.55400    -999.25    -999.25    -999.25    -999.25    -999.25    7.21740    -999.25   88.20690   88.20690    -999.25  128.18360  128.18360    7.21740    6.96780    9.13420    6.96780    -999.25    -999.25    -999.25    -999.25    8.47810   -1.82940    9.13420    -999.25 1707.48600
 4050.00000    -999.25    9.31820    9.31820  157.76170    -999.25    -999.25    -999.25    -999.25    -999.25    6.33880    -999.25   92.14950   92.14950    -999.25  136.18020  136.18020    6.33880    5.96150    7.20350    5.96150    -999.25    -999.25    -999.25    -999.25    7.95640   -2.34630    7.20350    -999.25 1656.85330
 4100.00000    -999.25    9.58200    9.58200  145.12730    -999.25    -999.25    -999.25    -999.25    -999.25    6.89050    -999.25  100.33880  100.33880    -999.25  125.98200  125.98200    6.89050    6.40930    7.45290    6.40930    -999.25    -999.25    -999.25    -999.25    7.30540   -3.03610    7.45290    -999.25 1370.96370
 4150.00000    -999.25    9.40820    9.40820  156.80260    -999.25    -999.25    -999.25    -999.25    -999.25    6.37750    -999.25   91.54600   91.54600    -999.25  127.37650  127.37650    6.37750    5.98280    7.39880    5.98280    -999.25    -999.25    -999.25    -999.25    7.90560   -2.47450    7.39880    -999.25 2261.61080
 4200.00000    -999.25    9.64630    9.64630  104.48450    -999.25    -999.25    -999.25    -999.25    -999.25    9.57080    -999.25   80.04460   80.04460    -999.25  113.65160  113.65160    9.57080   10.03740   12.61040   10.03740    -999.25    -999.25    -999.25    -999.25    2.33250   -8.08650   12.61040    -999.25 2231.12900
 4250.00000    -999.25    9.34060    9.34060  143.26650    -999.25    -999.25    -999.25    -999.25    -999.25    6.98000    -999.25   82.82280   82.82280    -999.25  136.76990  136.76990    6.98000    7.25350    8.52890    7.25350    -999.25    -999.25    -999.25    -999.25    5.21140   -5.48240    8.52890    -999.25 2221.06940
 4300.00000    -999.25    9.41070    9.41070  154.76540    -999.25    -999.25    -999.25    -999.25    -999.25    6.46140    -999.25   82.41330   82.41330    -999.25  131.38600  131.38600    6.46140    6.93310    8.04890    6.93310    -999.25    -999.25    -999.25    -999.25    5.24000   -5.90980    8.04890    -999.25 2183.73080
 4350.00000    -999.25    9.29920    9.29920  137.61780    -999.25    -999.25    -999.25    -999.25    -999.25    7.26650    -999.25   81.87470   81.87470    -999.25  129.94530  129.94530    7.26650    7.46450    8.60820    7.46450    -999.25    -999.25    -999.25    -999.25    6.08690   -5.52200    8.60820    -999.25 2145.08940
 4400.00000    -999.25    9.47200    9.47200  160.13090    -999.25    -999.25    -999.25    -999.25    -999.25    6.24490    -999.25   87.54960   87.54960    -999.25  138.60350  138.60350    6.24490    6.48540    8.31230    6.48540    -999.25    -999.25    -999.25    -999.25    7.00800   -5.05700    8.31230    -999.25 1893.06690
 4450.00000    -999.25    9.62730    9.62730  151.78880    -999.25    -999.25    -999.25    -999.25    -999.25    6.58810    -999.25   87.36580   87.36580    -999.25  131.97070  131.97070    6.58810    6.95030    9.14870    6.95030    -999.25    -999.25    -999.25    -999.25    7.69670   -4.82730    9.14870    -999.25 1854.61280
 4500.00000    -999.25    9.05240    9.05240  144.26480    -999.25    -999.25    -999.25    -999.25    -999.25    6.93170    -999.25   93.78100   93.78100    -999.25  152.82620  152.82620    6.93170    7.35940    9.97890    7.35940    -999.25    -999.25    -999.25    -999.25    8.91970   -4.06030    9.97890    -999.25 1897.27480
 4550.00000    -999.25    9.30080    9.30080  131.49850    -999.25    -999.25    -999.25    -999.25    -999.25    7.60470    -999.25   93.19060   93.19060    -999.25  153.10010  153.10010    7.60470    8.05100   10.85930    8.05100    -999.25    -999.25    -999.25    -999.25    9.51850   -3.91760   10.85930    -999.25 1861.95080
 4600.00000    -999.25    9.07940    9.07940  104.31660    -999.25    -999.25    -999.25    -999.25    -999.25    9.58620    -999.25   90.09790   90.09790    -999.25  168.43670  168.43670    9.58620   10.30640   15.25490   10.30640    -999.25    -999.25    -999.25    -999.25    9.69780   -4.19730   15.25490    -999.25 1822.70220
 4650.00000    -999.25    9.07460    9.07460  110.98850    -999.25    -999.25    -999.25    -999.25    -999.25    9.01000    -999.25   94.63030   94.63030    -999.25  160.07690  160.07690    9.01000    9.31280   14.08760    9.31280    -999.25    -999.25    -999.25    -999.25   10.44390   -3.90730   14.08760    -999.25 1766.76780
 4700.00000    -999.25    9.22680    9.22680   76.99000    -999.25    -999.25    -999.25    -999.25    -999.25   12.98870    -999.25   78.74540   78.74540    -999.25  148.24780  148.24780   12.98870   14.72690   37.98280   14.72690    -999.25    -999.25    -999.25    -999.25    9.85990   -4.95030   37.98280    -999.25 1812.53800
 4750.00000    -999.25    9.45150    9.45150  154.66950    -999.25    -999.25    -999.25    -999.25    -999.25    6.46540    -999.25   94.52570   94.52570    -999.25  151.90620  151.90620    6.46540    6.92040    9.84700    6.92040    -999.25    -999.25    -999.25    -999.25   10.85530   -4.41100    9.84700    -999.25 1733.03460
 4800.00000    -999.25    9.73250    9.73250  174.71830    -999.25    -999.25    -999.25    -999.25    -999.25    5.72450    -999.25   79.07250   79.07250    -999.25  114.59970  114.59970    5.72450    6.05400    8.91190    6.05400    -999.25    -999.25    -999.25    -999.25    8.41260   -7.30970    8.91190    -999.25 2334.48780
