~Version ---------------------------------------------------
VERS. 2.0 : CWLS log ASCII Standard -VERSION 2.0
WRAP.  NO : ONE LINE PER DEPTH STEP
~Well ------------------------------------------------------
STRT.F                      557.7428 : START DEPTH
STOP.F                    10838.7428 : STOP DEPTH
STEP.F                       0.50000 : STEP LENGTH
NULL.                        -999.25 : NULL VALUE
COMP.           PETROFINA CANADA LTD : COMPANY
WELL. FINA AMOCO HB FOXCK 6-35-60-18 : WELL
FLD .                                : FIELD
LOC .                                : LOCATION
CTRY.                         CANADA : COUNTRY
SRVC.         Schlumberger of Canada : SERVICE COMPANY
DATE.                    29-Aug-1976 : LOGDATE
PROV.                        Alberta : PROVINCE
UWI .               100063506018W500 : UNIQUE WELL ID
SLAT.WGS84                  54.22952 : SURFACE LATITUDE
SLON.WGS84                 -116.5928 : SURFACE LONGITUDE
~Curve Information -----------------------------------------
DEPT   .F                 : 
SPR    .MV                : SPONTANEOUS POTENTIAL FROM RESISTIVITY
ILD    .OHMM              : DEEP INDUCTION RESISTIVITY
ILM    .OHMM              : INDUCTION MEDIUM RESISTIVITY
LL8    .OHMM              : LATEROLOG-8 RESISTIVITY
CALD   .IN   70 280 01 00 : CALIPER
DCOR   .G/C3 45 356 01 00 : DENSITY CORRECTION
GRD    .GAPI 45 310 01 00 : GAMMA RAY FROM DENSITY LOG
RHOB   .G/C3 45 350 01 00 : BULK DENSITY
DPOR_SS.DEC               : DENSITY POROSITY SANDSTONE
NPOR_S .DEC               : ENCHANCED THERMAL NEUTRON POROSITY IN SELECTED LITHOLOGY SANDSTONE
DPOR_LS.DEC               : DENSITY POROSITY LIMESTONE
NPOR_LS.DEC               : ENCHANCED THERMAL NEUTRON POROSITY IN SELECTED LITHOLOGY SANDSTONE
DT     .US/F 60 520 00 00 : ACOUSTIC TRANSIT TIME SLOWNESS, DELTA T
CALS   .IN                : 
GRS    .GAPI              : GAMMA RAY FROM SONIC LOG
GR     .GAPI              : GAMMA RAY
~Params ----------------------------------------------------
PD  .                     GL : PERMANENT DATUM
EPD .FT                 3085 : ELEVATION PERMANENT DATUM
LMF .                     KB : LOG MEASURED FROM
DAPD.FT                 15.7 : FEET ABOVE PERMANENT DATUM
EKB .FT               3100.9 : KELLY BUSHING
EDF .FT               3085.2 : DRILLING FLOOR
EGL .FT               3085.5 : GROUND LEVEL
DATE.               08/29/76 : RUN DATE
RUN .                      1 : RUN NUMBER
DD  .FT                10843 : DEPTH DRILLER
DL  .FT                10840 : DEPTH LOGGER
BLI .FT                10834 : BOTTOM LOG INTERVAL
TLI .FT                 1119 : TOP LOG INTERVAL
CBD .FT                 1119 : CASING BOTTOM DRILLER
CBL .FT                 1119 : CASING BOTTOM LOGGER
BS  .IN                 8.75 : BIT SIZE
BSD .FT                10843 : BIT SIZE AT DEPTH
DFT .               GEL CHEM : DRILLING FLUID TYPE
DFD .                    9.3 : DRILLING FLUID DENSITY
DFV .                    150 : DRILLING FLUID VISCOSITY
DFPH.                   10.5 : DRILLING FLUID PH
DFL .                    7.0 : DRILLING FLUID LOSS
MSS .            CIRCULATION : MUD SAMPLE SOURCE
RMS .OHMM               2.43 : RESISTIVITY MUD SAMPLE
MST .DEGF                 76 : MUD SAMPLE TEMPERATURE
RMF .OHMM               2.33 : RESISTIVITY MUD FILTRATE SAMPLE
MFST.DEGF                 73 : MUD FILTRATE SAMPLE TEMPERATURE
RMC .OHMM               2.22 : RESISTIVITY MUD CAKE
MCST.DEGF                 67 : MUD CAKE SAMPLE TEMPERATURE
RMB .OHMM               0.86 : RESISTIVITY MUD AT BHT
TCS .HRS                   3 : TIME CIRCULATED STOPPED
LUN .                   7691 : LOGGING UNIT NUMBER
LUL .                    WCT : LOGGING UNIT LOCATION
ENGI.              CROCKFORD : RECORDING ENGINEER
WITN.                 HALKOW : WITNESSED BY
CLNT.                A2DTECH : CLIENT CODE
ORIG.            2" 5" PRINT : ORIGIN OF DATA
UWI .       100063506018W500 : UNIQUE WELL ID
DICO. A2D Technologies, Inc. : DIGITIZING COMPANY
~Other -----------------------------------------------------
~ASCII -----------------------------------------------------
# ...
 7631.24280  -29.85670   11.26450   11.71490   17.47560    9.05720    0.01250   56.38870    2.70600    -999.25    -999.25   -0.01050    0.09520   57.20330    8.96200   71.21610    -999.25
 7631.74280  -33.52610   11.11290   11.22350   17.64240    9.05610    0.00640   61.99200    2.69900    -999.25    -999.25   -0.00350    0.08670   58.44210    8.95980   75.94840    -999.25
 7632.24280  -36.89060   11.00790   10.71630   17.43220    9.05490    0.00590   68.21220    2.70890    -999.25    -999.25    0.00280    0.08090   59.67250    8.95770   77.34720    -999.25
 7632.74280  -38.33960   11.05820   10.37600   17.51780    9.05380    0.00480   73.82960    2.72670    -999.25    -999.25    0.00410    0.08060   59.74540    8.95550   73.07340    -999.25
 7633.24280  -38.00540   11.29520   10.53460   18.52390    9.05260    0.00470   76.73980    2.72250    -999.25    -999.25   -0.00470    0.08330   58.94230    8.95340   66.40510    -999.25
 7633.74280  -36.45410   11.61390   11.10040   19.17510    9.05150    0.00970   75.47030    2.71810    -999.25    -999.25   -0.01250    0.08660   58.08350    8.95130   60.51390    -999.25
 7634.24280  -33.96690   11.94160   11.74590   18.59630    9.05030    0.02240   70.54010    2.72940    -999.25    -999.25   -0.00810    0.08930   57.51720    8.94910   55.11900    -999.25
 7634.74280  -31.55550   12.27860   12.43210   17.98000    9.04920    0.04000   65.87100    2.73520    -999.25    -999.25   -0.00850    0.08890   57.03020    8.94700   53.31450    -999.25
 7635.24280  -30.36810   12.54730   12.97250   18.76190    9.04810    0.06010   63.15840    2.75580    -999.25    -999.25   -0.01570    0.08520   56.79520    8.94480   57.00500    -999.25
 7635.74280  -30.38590   12.68150   13.23140   21.07420    9.04690    0.07060   62.06780    2.76710    -999.25    -999.25   -0.02050    0.08050   56.89350    8.94270   63.19980    -999.25
 7636.24280  -31.98840   12.75220   13.23710   22.58370    9.04580    0.05610   62.09480    2.73610    -999.25    -999.25   -0.03600    0.07570   57.27590    8.94050   69.17430    -999.25
 7636.74280  -34.78010   12.72590   13.01530   21.62730    9.04460    0.02900   62.65920    2.70360    -999.25    -999.25   -0.04030    0.07100   57.92590    8.93840   74.02490    -999.25
 7637.24280  -36.92970   12.60060   12.70940   19.71630    9.04350    0.01200   64.04760    2.68890    -999.25    -999.25   -0.01760    0.06620   58.36350    8.93630   76.33790    -999.25
 7637.74280  -38.09770   12.47660   12.41070   19.14870    9.04230    0.01290   66.44340    2.68340    -999.25    -999.25    0.00210    0.06390   58.26220    8.93540   74.24120    -999.25
 7638.24280  -38.42470   12.35380   12.11920   20.83190    9.04130    0.01900   69.03130    2.69100    -999.25    -999.25    0.01020    0.06660   57.87300    8.93590   68.87460    -999.25
 7638.74280  -38.17800   12.23220   11.83440   23.35030    9.04050    0.01910   72.30970    2.69800    -999.25    -999.25    0.01480    0.07190   57.45820    8.93640   64.25970    -999.25
 7639.24280  -37.42980   12.11180   11.57960   24.05240    9.03990    0.00980   77.11640    2.68870    -999.25    -999.25    0.00910    0.07660   57.25290    8.93690   61.86780    -999.25
 7639.74280  -36.34610   12.02550   11.43770   22.33680    9.03930    0.00700   81.82360    2.69520    -999.25    -999.25    0.00490    0.07960   57.20640    8.93740   60.59600    -999.25
 7640.24280  -34.77900   12.06380   11.39230   19.51330    9.03870    0.02780   85.14320    2.73280    -999.25    -999.25    0.01180    0.07910   57.06390    8.93790   60.70280    -999.25
 7640.74280  -32.66460   12.26140   11.40960   17.10450    9.03810    0.03760   88.10120    2.75260    -999.25    -999.25   -0.00020    0.07560   56.86340    8.93840   62.72560    -999.25
 7641.24280  -29.56240   12.70550   11.63960   15.73080    9.03740    0.02240   91.83080    2.73480    -999.25    -999.25   -0.02460    0.07350   56.76470    8.93890   65.94390    -999.25
 7641.74280  -25.26850   13.35330   12.21590   15.47300    9.03680    0.01100   95.13570    2.70720    -999.25    -999.25   -0.02550    0.07430   56.92660    8.93940   68.28600    -999.25
 7642.24280  -20.54250   14.03420   13.01200   16.57670    9.03620    0.01150   94.90790    2.69520    -999.25    -999.25   -0.00720    0.07690   57.29530    8.93980   69.67180    -999.25
 7642.74280  -15.93840   14.74970   13.86130   19.37140    9.03560    0.01560   91.50830    2.68980    -999.25    -999.25    0.00650    0.08010   57.65020    8.94030   71.87340    -999.25
 7643.24280  -12.55340   15.50170   14.76650   23.08190    9.03500    0.01610   90.45150    2.69070    -999.25    -999.25    0.01040    0.08140   57.89360    8.94080   75.68720    -999.25
 7643.74280  -10.65860   16.29220   15.73160   25.53340    9.03440    0.01590   93.08000    2.70510    -999.25    -999.25    0.00960    0.08070   57.89500    8.94130   79.96760    -999.25
 7644.24280   -9.33490   17.12290   16.75840   26.38620    9.03380    0.02580   94.38090    2.73270    -999.25    -999.25    0.00090    0.08230   57.85250    8.94180   83.80830    -999.25
 7644.74280   -8.40220   18.10070   17.89370   27.52890    9.03320    0.02990   92.25740    2.74510    -999.25    -999.25   -0.01540    0.08450   58.18150    8.94230   86.43140    -999.25
 7645.24280   -7.45540   19.25150   19.17140   28.82130    9.03260    0.01270   90.48200    2.71750    -999.25    -999.25   -0.02870    0.07770   58.66350    8.94280   87.95100    -999.25
 7645.74280   -6.32190   20.48100   20.56300   28.31540    9.03200    0.00580   91.74880    2.69340    -999.25    -999.25   -0.01800    0.06350   58.87810    8.94330   89.03510    -999.25
 7646.24280   -5.47650   21.48600   22.05520   27.27060    9.03140    0.01460   94.33720    2.69840    -999.25    -999.25    0.00330    0.05440   58.99100    8.94380   89.46360    -999.25
 7646.74280   -5.12440   22.17220   23.65520   30.64030    9.03080    0.01650   94.20490    2.70630    -999.25    -999.25    0.00890    0.05550   59.15420    8.94430   89.54910    -999.25
 7647.24280   -5.17250   22.56490   25.00240   41.51180    9.03020    0.01760   89.69810    2.71390    -999.25    -999.25    0.00340    0.06580   59.56530    8.94480   90.35190    -999.25
 7647.74280   -5.06390   22.55520   25.58140   53.51670    9.02960    0.02120   84.76120    2.72590    -999.25    -999.25   -0.00200    0.08120   60.05240    8.94520   91.76350    -999.25
 7648.24280   -4.70540   22.28570   25.20570   54.36540    9.02900    0.01900   83.70320    2.72940    -999.25    -999.25   -0.00890    0.09080   59.81040    8.94570   91.54930    -999.25
 7648.74280   -4.23420   21.71630   24.02140   44.39080    9.02840    0.01660   86.40500    2.72520    -999.25    -999.25   -0.01350    0.08960   58.73380    8.94620   90.23980    -999.25
 7649.24280   -4.00550   20.83340   22.57450   33.94860    9.02780    0.01570   88.90840    2.71680    -999.25    -999.25   -0.01130    0.08430   57.37170    8.94670   90.39910    -999.25
 7649.74280   -4.24700   19.81190   21.21200   28.47910    9.02720    0.01510   87.76260    2.71000    -999.25    -999.25   -0.00550    0.08370   57.08970    8.94720   91.43370    -999.25
 7650.24280   -4.50110   18.87260   19.92990   27.23590    9.02660    0.01480   84.22040    2.70100    -999.25    -999.25   -0.00160    0.08840   58.09700    8.94770   91.98720    -999.25
 7650.74280   -4.61230   18.07360   18.72850   27.64890    9.02600    0.01460   81.50760    2.69870    -999.25    -999.25    0.00070    0.09380   59.16780    8.94820   90.62730    -999.25
 7651.24280   -4.76110   17.33970   17.87370   27.41570    9.02530    0.01170   80.54830    2.70770    -999.25    -999.25    0.00640    0.09650   59.47860    8.94870   86.22150    -999.25
 7651.74280   -4.92070   16.72240   17.38500   25.64330    9.02480    0.00340   81.67270    2.71260    -999.25    -999.25    0.00650    0.09760   58.95460    8.94920   81.04460    -999.25
 7652.24280   -4.96920   16.26460   16.94570   24.43000    9.02440   -0.00010   85.57640    2.71390    -999.25    -999.25   -0.00010    0.10050   58.36010    8.94970   78.71560    -999.25
