~Version ---------------------------------------------------
VERS. 2.0 : CWLS log ASCII Standard -VERSION 2.0
WRAP.  NO : One line per depth step
~Well ------------------------------------------------------
STRT.M                        400.0 : START DEPTH
STOP.M                       2650.0 : STOP DEPTH
STEP.M                     50.00000 : STEP LENGTH
NULL.                       -999.25 : NULL VALUE
COMP.         UNOCAL CANADA LIMITED : COMPANY
WELL. UCEL ET AL TWINING 6-22-33-25 : WELL
FLD .                               : FIELD
LOC .                               : LOCATION
CTRY.                        CANADA : COUNTRY
SRVC.                  Schlumberger : SERVICE COMPANY
DATE.                   26-Aug-1992 : LOGDATE
PROV.                       Alberta : PROVINCE
UWI .              100062203325W400 : UNIQUE WELL ID
SLAT.WGS84                 51.84227 : SURFACE LATITUDE
SLON.WGS84                -113.4694 : SURFACE LONGITUDE
~Curve Information -----------------------------------------
DEPT   .M      : DEPTH METERS
AIBD   .MM     : AIT INPUT BHOLE DIAMETER FROM AIT LOG
AT10   .OHMM   : 10 INCH RESISTIVITY TWO FOOT RESOLUTION FROM AIT LOG
AT20   .OHMM   : 20 INCH RESISTIVITY TWO FOOT RESOLUTION FROM AIT LOG
AT30   .OHMM   : 30 INCH RESISTIVITY TWO FOOT RESOLUTION FROM AIT LOG
AT60   .OHMM   : 60 INCH RESISTIVITY TWO FOOT RESOLUTION FROM AIT LOG
AT90   .OHMM   : 90 INCH RESISTIVITY TWO FOOT RESOLUTION FROM AIT LOG
CAL2   .MM     : CALIPER 2 FROM DENSITY LOG
CALD   .MM     : CALIPER FROM DENSITY LOG
DPHI_LS.DEC    : DENSITY POROSITY [M=2710 F=1000] FROM DENSITY LOG
DRHO   .KG/M3  : DENSITY CORRECTION FROM DENSITY LOG
DT     .US/M   : DELTE TIME FROM SONIC LOG
GRD    .GAPI   : GAMMA RAY FROM DENSITY LOG
GRR    .GAPI   : GAMMA RAY FROM RESISTIVITY LOG
NPOR_LS.DEC    : NEUTRON POROSITY LIMESTONE FROM DENSITY LOG
PEF    .B/E    : PHOTOELECTRIC FACTOR FROM DENSITY LOG
RHOB   .KG/M3  : BULK DENSITY FROM DENSITY LOG
SPR    .MV     : SPONTANEOUS POTENTIAL FROM RESISTIVITY LOG
TEND   .N      : TENSION FROM DENSITY LOG
TENR   .N      : TENSION FROM AIT LOG
~Params ----------------------------------------------------
PD  .                       GL : PERMANENT DATUM
EPD .M                   922.3 : ELEVATION PERMANENT DATUM
LMF .                       KB : LOG MEASURED FROM
DAPD.M                     6.3 : FEET ABOVE PERMANENT DATUM
DMF .                       KB : DRILLING MEASURED FROM
EKB .M                   926.6 : KELLY BUSHING
EDF .M                   928.3 : DRILLING FLOOR
EGL .M                   922.3 : GROUND LEVEL
DATE.                 08/26/92 : RUN DATE
RUN .                        1 : RUN NUMBER
DD  .M                    2648 : DEPTH DRILLER
DL  .M                  2645.5 : DEPTH LOGGER
BLI .M                  2640.2 : BOTTOM LOG INTERVAL
TLI .M                     449 : TOP LOG INTERVAL
CS  .IN                244.50M : CASING SIZE
CBD .M                     449 : CASING BOTTOM DRILLER
CBL .M                     449 : CASING BOTTOM LOGGER
BS  .IN                   222M : BIT SIZE
BSD .M                    2648 : BIT SIZE AT DEPTH
DFT .                 GEL CHEM : DRILLING FLUID TYPE
DFD .                     1075 : DRILLING FLUID DENSITY
DFV .                       75 : DRILLING FLUID VISCOSITY
DFPH.                      7.8 : DRILLING FLUID PH
DFL .                     10.5 : DRILLING FLUID LOSS
MSS .                 FLOWLINE : MUD SAMPLE SOURCE
RMS .OHMM                0.631 : RESISTIVITY MUD SAMPLE
MST .DEGC                   26 : MUD SAMPLE TEMPERATURE
RMF .OHMM                0.585 : RESISTIVITY MUD FILTRATE SAMPLE
MFST.DEGC                   22 : MUD FILTRATE SAMPLE TEMPERATURE
RMC .OHMM                0.596 : RESISTIVITY MUD CAKE
MCST.DEGC                   19 : MUD CAKE SAMPLE TEMPERATURE
MFSS.                 MEASURED : MUD FILTRATE SAMPLE SOURCE
MCSS.                 MEASURED : MUD CAKE SAMPLE SOURCE
RMB .OHMM                0.331 : RESISTIVITY MUD AT BHT
TCS .HRS                    30 : TIME CIRCULATED STOPPED
TLAB.HRS                  1110 : TIME LOGGER AT BOTTOM
LUN .                     2018 : LOGGING UNIT NUMBER
LUL .                 EDMONTON : LOGGING UNIT LOCATION
ENGI.                   TAZUMI : RECORDING ENGINEER
WITN.                 MCMURTRY : WITNESSED BY
CLNT.                  A2DTECH : CLIENT CODE
ORIG. 6.5"/100 16.5"/100 PRINT : ORIGIN OF DATA
UWI .         100062203325W400 : UNIQUE WELL ID
DICO.   A2D Technologies, Inc. : DIGITIZING COMPANY
~Other -----------------------------------------------------
~ASCII -----------------------------------------------------
  400.00000    -999.25    -999.25    -999.25    -999.25    -999.25    -999.25    -999.25    -999.25    -999.25    -999.25    -999.25    -999.25   44.88380    -999.25    -999.25    -999.25    -999.25    -999.25    -999.25
  450.00000  253.66500    0.20390    2.17670    2.90310    0.59340   29.72640  239.19130  344.38540    -999.25    -999.25    -999.25   61.44460   67.97710    -999.25    -999.25    -999.25  -19.53050 7587.79390 7389.09380
  500.00000  242.92550    7.07210    7.52220    7.98410    8.75810    9.67330  254.70500  245.23770    -999.25    -999.25    -999.25   65.69270   62.11210    -999.25    -999.25    -999.25  -23.85800 7806.44340 7362.93950
  550.00000  244.91010    5.29310    5.74210    6.88840    7.69140    8.07410  262.21530  261.07290    -999.25    -999.25    -999.25   63.85350   63.24240    -999.25    -999.25    -999.25  -26.98960 8064.06490 7690.02540
  600.00000  235.17090    4.38550    4.83610    5.55940    7.98520    9.86100  230.12790  272.40750    -999.25    -999.25    -999.25   62.29590   70.67190    -999.25    -999.25    -999.25  -32.06080 8570.11720 7761.45070
  650.00000  238.92230    5.02450    5.41520    5.98650    8.58730    9.72370  225.33300  253.19630    -999.25    -999.25    -999.25   81.49220   78.52740    -999.25    -999.25    -999.25  -27.00340 8950.12990 8053.42820
  700.00000  268.42800    2.45070    2.64350    2.81110    3.22250    3.66420  267.53870  254.43800    -999.25    -999.25    -999.25   70.80970   72.66670    -999.25    -999.25    -999.25  -27.09850 9067.28610 8418.31450
  750.00000  228.27780    3.23510    3.40890    3.78670    4.63070    4.75620  227.04130  260.13410    -999.25    -999.25    -999.25   66.24010   78.33890    -999.25    -999.25    -999.25  -33.41920 9011.59670 8435.30470
  800.00000  243.94410    3.35340    3.60720    4.05170    4.50960    4.91590  218.92030  302.89940    -999.25    -999.25    -999.25   57.19550   64.44930    -999.25    -999.25    -999.25  -36.96600 9186.19140 8836.97460
  850.00000  230.84770    4.14500    4.57140    5.28160    6.24700    7.14250  247.02380  253.50430    -999.25    -999.25    -999.25   61.06700   59.15910    -999.25    -999.25    -999.25  -46.16450 9769.69240 8863.49120
  900.00000  238.02040    3.48980    3.74720    4.19120    5.16260    5.62590  253.37230  311.36160    -999.25    -999.25    -999.25   66.48600   60.82830    -999.25    -999.25    -999.25  -53.43110 9744.30660 9072.26070
  950.00000  246.79060    4.61190    4.69390    5.30670    5.38270    5.76730  282.70070  258.89540    -999.25    -999.25    -999.25   59.46400   56.41920    -999.25    -999.25    -999.25  -64.18100 9971.51170 9178.94920
 1000.00000  268.36090    4.04480    4.59700    5.00250    5.56630    6.10800  223.76040  387.34410    -999.25    -999.25    -999.25   86.62050   83.10500    -999.25    -999.25    -999.25  -66.97870 10014.21290 9367.79490
 1050.00000  290.03000    6.59390    7.15180    7.88940    8.35070    8.62850  265.00920  317.72600    -999.25    -999.25    -999.25   74.32470   77.78700    -999.25    -999.25    -999.25  -69.49430 9989.28030 9507.70510
 1100.00000  259.93460    7.83700    8.16560    8.22750    7.92970    8.88800  227.59870  314.18440    -999.25    -999.25    -999.25   92.02930  108.88280    -999.25    -999.25    -999.25  -65.53010 10122.21480 9618.43070
 1150.00000  239.04810    6.05330    6.22680    6.37680    6.36680    6.59670  252.87240  279.75530    -999.25    -999.25    -999.25   96.58670   92.92550    -999.25    -999.25    -999.25  -61.69360 10480.78910 9957.36330
 1200.00000  270.46600    5.45720    5.89590    6.01630    6.22740    6.47910  284.44030  279.66310    -999.25    -999.25    -999.25   89.79510   96.23510    -999.25    -999.25    -999.25  -69.53850 10925.50880 9969.38770
 1250.00000  265.68680    5.90930    6.40780    6.73790    6.90150    7.06030  299.12110  277.51030    -999.25    -999.25    -999.25   81.01680   76.86080    -999.25    -999.25    -999.25  -67.09410 11069.98540 10146.87700
 1300.00000  247.10590    8.09440    8.65250    9.04060    9.17970    9.35360  255.98400  284.75990    -999.25    -999.25    -999.25   81.04720   83.75580    -999.25    -999.25    -999.25  -59.16880 11331.31640 10512.40920
 1350.00000  273.88160    6.00950    5.87070    5.97460    6.57590    6.82320  270.50910  307.26160    -999.25    -999.25    -999.25  105.23330   96.87130    -999.25    -999.25    -999.25  -58.74390 11083.71480 10631.55760
 1400.00000  249.48300    8.32670    8.63400    9.10170    9.34270    9.76350  243.97360  268.30900    -999.25    -999.25    -999.25  108.06510  101.53880    -999.25    -999.25    -999.25  -67.52510 11501.14650 11030.87300
 1450.00000  254.06990    7.71020    7.82350    7.97640    8.24430    8.60800  243.09990  295.26420    -999.25    -999.25    -999.25  133.46500  114.08220    -999.25    -999.25    -999.25  -60.82720 11220.64450 11013.54690
 1500.00000  302.87040    3.60550    3.65730    3.84480    3.97300    4.14680  309.91390  316.76870    0.22770  247.85290  289.69930   87.31650   85.92470    0.32590    2.47270 2330.35820  -55.00530 11417.94920 11038.31050
 1550.00000  243.48000   16.78290   17.01450   17.35670   18.00880   18.39640  261.28920  270.65150    0.08290   10.13590  229.52800   59.53680   52.87330    0.11040    2.18560 2570.38990  -69.02960 11648.35160 11298.69630
 1600.00000  311.16820    4.30980    4.36920    4.76300    7.23040    8.98090  290.17600  345.59030    0.09970   28.20310  239.01320   62.85170   55.84310    0.18310    2.28640 2543.19480  -66.07790 11511.44820 11219.19730
 1650.00000  288.79500   13.33290   13.84570   14.32400   14.50030   14.93710  291.36750  297.56920    0.03150   23.04480  234.13400   70.27820   71.13150    0.18050    3.02620 2661.55790  -67.54300 11944.66700 11801.51760
 1700.00000  269.51380   25.21640   25.81440   26.35940   26.90270   27.42160  269.87240  278.50400    0.01500   13.64470  219.31450   66.56390   65.02210    0.18130    3.13380 2675.06810  -75.83460 12173.00490 11919.60450
 1750.00000  239.07610 1949.17440 1915.74170 1866.44690 1888.57600 1070.56910  241.54460  250.04880    0.02990   32.13670  164.06780    6.17650    7.64650    0.01330    5.28110 2660.49900  -72.22500 12132.45700 11793.41990
 1800.00000  280.17300   85.73930   81.64690   79.79630   75.30800   72.21470  274.56320  283.24350   -0.00370   11.88670  175.56890   33.71130   28.93990    0.04120    4.68060 2707.87300  -82.16590 12471.80660 12121.92970
 1850.00000  283.35750   18.47230   18.15440   16.95120   16.45120   16.01400  286.61930  302.36200   -0.00080   14.15320  209.37520   47.08320   49.52280    0.10100    4.05480 2715.54320  -76.72280 12553.63570 12190.28710
 1900.00000  287.34040   15.62290   15.35550   14.96170   13.42340   12.95980  280.81690  318.18200   -0.00410  320.95900  215.06280   50.83990   48.40260    0.10480    3.51560 2709.63130  -82.68620 12825.32710 12324.80080
 1950.00000  255.49420 1976.58440  351.02720   50.47330   33.71230   27.41090  252.80470  290.30020    0.47500  141.67350  179.51930   28.91440   31.39560    0.08550    4.09330 1790.81620  -80.89790 13124.86130 12477.28610
 2000.00000  270.24890   96.12980   84.07730   75.84370   64.44900   57.38990  254.92430  281.79970   -0.10430   12.63290  168.48390    9.80560   14.70890    0.03530    4.31340 2888.81860  -79.05940 12822.87990 12614.97270
 2050.00000  253.00860   17.33960   16.02860   14.11600   13.18510   12.33080  256.67030  273.83080   -0.02660    8.87850  172.66140   16.96100   18.21890    0.09460    3.19420 2758.28220  -82.70380 13052.60250 12781.17480
 2100.00000  267.06180 1985.64510 1938.37120 1890.50960 1282.21520  865.96950  258.08630  279.85850   -0.14990   10.37110  162.00220    4.91080    5.50020   -0.00390    4.88350 2959.69360  -74.73000 13290.81640 13041.08010
 2150.00000  268.13740  672.87740  430.12010  296.75260  165.65320   99.58360  258.09000  271.32290   -0.11480   13.69170  162.24690   18.65320   15.16320    0.01710    4.14030 2908.85330  -72.80060 13590.62600 13154.85550
 2200.00000  243.32390   74.98550   71.54620   62.19910   59.12280   57.15180  240.65920  254.81140   -0.06240   11.85050  169.61730   43.07120   46.79010    0.08790    3.15450 2817.24290  -73.43050 13767.85350 13106.06250
