~Version ---------------------------------------------------
VERS.      2.0 : CWLS log ASCII Standard -VERSION 2.0
WRAP.       NO : One line per depth step
CREA. 08/01/17 : LAS Creation Date
~Well ------------------------------------------------------
STRT.FT                      1150.0 : START DEPTH
STOP.FT                     11500.0 : STOP DEPTH
STEP.FT                    50.00000 : STEP LENGTH
NULL.                       -999.25 : NULL VALUE
COMP.     ATLANTIC REFINING COMPANY : COMPANY
WELL. ATLANTIC ANTE CREEK 4-7-65-23 : WELL
FLD .                               : FIELD
LOC .                               : LOCATION
CTRY.                        CANADA : COUNTRY
SRVC.                  Schlumberger : SERVICE COMPANY
DATE.                   12-Oct-1962 : LOGDATE
PROV.                       Alberta : PROVINCE
UWI .              100040706523W500 : UNIQUE WELL ID
SLAT.WGS84                 54.60509 : SURFACE LATITUDE
SLON.WGS84                -117.4756 : SURFACE LONGITUDE
~Curve Information -----------------------------------------
DEPT  .FT    : Depth Curve
CALWS .IN    : CALIPER [MCALED]
CILDED.MMHO  : CONDUCTIVITY FROM IEL LOG
CONDWS.MMHO  : CONDUCTIVITY [1000/DRESWS]
DRESWS.OHMM  : DEEP RESISTIVITY [ILDED]
DTED  .US/F  : DELTA-T FROM BCS-GR LOG
DTWS  .US/F  : COMPRESSIONAL SONIC [DTED]
GRSED .GAPI  : GAMMA RAY FROM BCS-GR LOG
GRWS  .GAPI  : GAMMA RAY [GRSED]
ILDED .OHMM  : DEEP INDUCTION FROM IEL LOG
MCALED.IN    : MICRO CALIPER FROM MICRO-CAL LOG
SNED  .OHMM  : SHORT NORMAL FROM IEL LOG
SPRED .MV    : SPONTANEOUS POTENTIAL FROM IEL LOG
SPWS  .MV    : SPONTANEOUS POTENTIAL [BASELINE 0 MV, SPRED]
SRESWS.OHMM  : SHALLOW RESISTIVITY [SNED]
~Params ----------------------------------------------------
PD  .                     GL : PERMANENT DATUM
EPD .FT               2839.9 : ELEVATION PERMANENT DATUM
LMF .                     KB : LOG MEASURED FROM
DAPD.FT                 13.9 : FEET ABOVE PERMANENT DATUM
EKB .FT               2853.8 : KELLY BUSHING
EGL .FT               2839.9 : GROUND LEVEL
DATE.               10/12/62 : RUN DATE
RUN .                      1 : RUN NUMBER
DD  .FT                11540 : DEPTH DRILLER
DL  .FT                11538 : DEPTH LOGGER
BLI .FT                11537 : BOTTOM LOG INTERVAL
TLI .FT                 1157 : TOP LOG INTERVAL
CBD .FT                 1157 : CASING BOTTOM DRILLER
CBL .FT                 1157 : CASING BOTTOM LOGGER
BS  .IN                 8.75 : BIT SIZE
BSD .FT                11540 : BIT SIZE AT DEPTH
DFT .               GEL CHEM : DRILLING FLUID TYPE
DFD .                   10.2 : DRILLING FLUID DENSITY
DFV .                     85 : DRILLING FLUID VISCOSITY
DFPH.                    9.5 : DRILLING FLUID PH
DFL .                    6.6 : DRILLING FLUID LOSS
MSS .                  6FF40 : MUD SAMPLE SOURCE
RMS .OHMM               2.22 : RESISTIVITY MUD SAMPLE
MST .DEGF                 70 : MUD SAMPLE TEMPERATURE
RMF .OHMM                1.8 : RESISTIVITY MUD FILTRATE SAMPLE
MFST.DEGF                 61 : MUD FILTRATE SAMPLE TEMPERATURE
RMC .OHMM                2.1 : RESISTIVITY MUD CAKE
MCST.DEGF                 74 : MUD CAKE SAMPLE TEMPERATURE
RMB .OHMM               0.84 : RESISTIVITY MUD AT BHT
TCS .HRS                   4 : TIME CIRCULATED STOPPED
LUN .                   1573 : LOGGING UNIT NUMBER
LUL .                    WCT : LOGGING UNIT LOCATION
ENGI.                  MILLS : RECORDING ENGINEER
WITN.                  EVANS : WITNESSED BY
CLNT.                A2DTECH : CLIENT CODE
ORIG.            2" 5" PRINT : ORIGIN OF DATA
UWI .       100040706523W500 : UNIQUE WELL ID
DICO. A2D Technologies, Inc. : DIGITIZING COMPANY
~Other -----------------------------------------------------
~ASCII -----------------------------------------------------
# ...
 6050.00000   12.12110   69.73350   65.79780   15.20620   84.64710   84.64710   87.97870   87.97870   15.20620   12.12110   16.83300  -47.16610   -4.88250   16.83300
 6100.00000   10.96780   80.38200   79.71050   12.54540   71.25780   71.25780   77.70260   77.70260   12.54540   10.96780   17.17430  -57.11830  -23.84800   17.17430
 6150.00000   11.61950   65.31080   64.17990   15.58160   72.45490   72.45490   95.25580   95.25580   15.58160   11.61950   15.86750  -40.54190  -17.80020   15.86750
 6200.00000    8.94100  175.06990  194.52230    5.14080  128.31200  128.31200   78.08170   78.08170    5.14080    8.94100    9.36240  -87.32570  -56.94600    9.36240
 6250.00000   11.08730   82.01160   82.62690   12.10260   68.19050   68.19050  101.31060  101.31060   12.10260   11.08730   15.26400  -76.55410  -38.57450   15.26400
 6300.00000   11.58770   71.77940   72.58250   13.77750   72.58680   72.58680   96.88580   96.88580   13.77750   11.58770   15.94680  -80.80120  -35.25940   15.94680
 6350.00000   11.30380   95.46190  100.38140    9.96200   77.92650   77.92650  105.15310  105.15310    9.96200   11.30380   12.82130  -68.84950  -15.66970   12.82130
 6400.00000   11.14480   81.84180   86.69980   11.54210   77.86150   77.86150  106.67110  106.67110   11.54210   11.14480   14.49020  -64.45210   -3.71010   14.49020
 6450.00000    9.47230   83.51840   85.91660   11.63920   74.60220   74.60220   66.42960   66.42960   11.63920    9.47230   18.73980 -120.87010  -55.72490   18.73980
 6500.00000   10.78850   59.14600   52.28920   19.12440   71.76770   71.76770  123.23710  123.23710   19.12440   10.78850   27.86090 -105.80970  -36.96290   27.86090
 6550.00000    9.94300   40.78540   40.74720   24.54180   72.32390   72.32390   62.60070   62.60070   24.54180    9.94300   35.06230 -139.90870  -67.37850   35.06230
 6600.00000   10.71750   34.06670   34.15980   29.27420   65.45520   65.45520   73.48240   73.48240   29.27420   10.71750   31.02590 -105.04890  -28.79850   31.02590
 6650.00000   10.36730   46.62850   43.38030   23.12560   67.22450   67.22450   94.43750   94.43750   23.12560   10.36730   20.65120  -87.15490   -6.71850   20.65120
 6700.00000   11.85950   58.36070   58.92340   16.97120   84.50230   84.50230  129.43990  129.43990   16.97120   11.85950   18.29840  -98.02500  -14.26790   18.29840
 6750.00000   11.97510   83.71830   88.80920   11.26010   67.76900   67.76900  116.54480  116.54480   11.26010   11.97510   12.86440 -132.93930  -45.88410   12.86440
 6800.00000    8.04380   67.86130   67.78190   14.75320   76.64140   76.64140   48.90530   48.90530   14.75320    8.04380   34.23370 -227.03550 -136.67900   34.23370
 6850.00000   10.01290   75.23510   73.96450   13.52000   67.37480   67.37480   86.29290   86.29290   13.52000   10.01290   16.90630 -160.47240  -66.79520   16.90630
 6900.00000   13.64930  255.43830  243.73430    4.10340  101.50750  101.50750  109.34880  109.34880    4.10340   13.64930    4.86240 -125.83750  -28.85900    4.86240
 6950.00000   11.73510   12.92450   11.66940   85.69410   94.03270   94.03270  245.03080  245.03080   85.69410   11.73510   93.84690 -135.74170  -37.11090   93.84690
 7000.00000   11.61260    1.78580    1.99810  500.46850   84.05720   84.05720  247.35930  247.35930  500.46850   11.61260  182.29100 -164.29150  -65.98590  182.29100
 7050.00000   10.65290   35.00320   33.53830   29.81900   65.40390   65.40390  118.03290  118.03290   29.81900   10.65290   37.50920 -203.71580 -105.73210   37.50920
 7100.00000   10.39330   72.44800   74.08940   13.49720   65.16280   65.16280  101.06130  101.06130   13.49720   10.39330   19.55960 -192.62900  -94.97160   19.55960
 7150.00000    9.91170   24.50450   23.85860   41.91350   61.28280   61.28280   96.10680   96.10680   41.91350    9.91170   47.50680 -157.13670  -59.80110   47.50680
 7200.00000    9.75570   30.93360   30.49930   32.78760   60.85800   60.85800  100.13020  100.13020   32.78760    9.75570   36.57400 -156.91950  -59.91020   36.57400
 7250.00000    9.69580   33.86440   32.87940   30.41420   62.31400   62.31400  108.26330  108.26330   30.41420    9.69580   30.91080 -135.26420  -38.58010   30.91080
 7300.00000    9.65890   32.10090   31.27160   31.97790   62.11640   62.11640  103.96190  103.96190   31.97790    9.65890   34.80410 -157.64750  -61.28520   34.80410
 7350.00000   10.07880   33.87360   32.67620   30.60330   67.19330   67.19330  121.30210  121.30210   30.60330   10.07880   33.48900 -187.43330  -91.39730   33.48900
 7400.00000   10.09240   39.00040   38.68600   25.85120   66.90850   66.90850  127.77480  127.77480   25.85120   10.09240   30.68310 -211.23030 -115.51620   30.68310
 7450.00000    7.82700   81.05980   81.95580   12.20170   62.23950   62.23950   42.53420   42.53420   12.20170    7.82700   57.55060 -333.49730 -238.10940   57.55060
 7500.00000    7.91430   81.74980   76.75720   13.02810   57.99400   57.99400   48.09900   48.09900   13.02810    7.91430   55.51540 -248.84750 -153.78470   55.51540
 7550.00000   10.78590    9.67770    8.96770  111.51800   52.53910   52.53910   62.74900   62.74900  111.51800   10.78590  116.04880 -161.55830  -67.47090  116.04880
 7600.00000    9.88370    1.70010    2.00000  500.00000   46.84520   46.84520   50.62650   50.62650  500.00000    9.88370  292.92790 -193.65640 -101.21090  292.92790
 7650.00000    9.52770   18.60250   16.62720   60.27110   52.98770   52.98770   74.38820   74.38820   60.27110    9.52770   85.82880 -159.75210  -68.93550   85.82880
 7700.00000    7.84940  109.72140  122.48000    8.16460   56.07880   56.07880   38.42100   38.42100    8.16460    7.84940   55.31350 -225.10800 -135.93320   55.31350
 7750.00000    9.30230   84.34440   88.18420   11.33990   53.24550   53.24550   34.98540   34.98540   11.33990    9.30230   39.62860 -169.25920  -81.71670   39.62860
 7800.00000    8.08690  797.90500  351.12500    2.85220   74.86600   74.86600   38.78270   38.78270    2.85220    8.08690   13.91780 -177.98640  -92.07280   13.91780
 7850.00000    8.11840  170.57030  159.29150    6.27780   58.16500   58.16500   27.59930   27.59930    6.27780    8.11840   36.31190 -258.86470 -174.59290   36.31190
 7900.00000   10.93610   72.13830   67.37830   14.85440   59.79990   59.79990   66.78320   66.78320   14.85440   10.93610   28.66850 -251.40060 -168.75770   28.66850
 7950.00000   12.87350   12.33340   11.78790   84.83310   61.92380   61.92380   78.57760   78.57760   84.83310   12.87350   74.91610 -375.87150 -294.87050   74.91610
 8000.00000    8.94240   85.30290   81.05240   12.33770   54.98300   54.98300   50.18990   50.18990   12.33770    8.94240   36.47810 -415.91640 -336.54770   36.47810
 8050.00000    9.60600  134.75700  124.50510    8.03180   58.77100   58.77100   40.70240   40.70240    8.03180    9.60600   23.79270 -304.76200 -227.02210   23.79270
 8100.00000   11.12740   55.73260   45.02840   22.20820   52.60650   52.60650   42.28790   42.28790   22.20820   11.12740   32.81760 -262.22100 -186.12300   32.81760
 8150.00000   11.20800   44.24220   39.61120   25.35080   55.99790   55.99790   88.41360   88.41360   25.35080   11.20800   41.47500 -172.48180  -98.01270   41.47500
 8200.00000   11.31500    1.61150    2.00520  498.69340   50.34200   50.34200   28.58780   28.58780  498.69340   11.31500  192.08340 -212.69430 -139.86710  192.08340
 8250.00000    9.34770   49.47900   44.00890   22.72270   56.55200   56.55200   33.43590   33.43590   22.72270    9.34770   57.32150 -262.97410 -191.77900   57.32150
 8300.00000   11.61400    6.06370    5.37900  186.06660   52.82010   52.82010   27.69560   27.69560  186.06660   11.61400  106.81950 -225.27100 -155.70480  106.81950
 8350.00000   10.27900  278.93830  233.51940    4.28230   66.52020   66.52020   96.31060   96.31060    4.28230   10.27900   11.27080 -139.64110  -71.71680   11.27080
 8400.00000    9.82980  142.51130  132.80720    7.52970   61.72510   61.72510   83.48450   83.48450    7.52970    9.82980   18.06090 -199.82290 -133.52750   18.06090
 8450.00000   10.72680   62.46960   58.11820   17.20630   59.90780   59.90780   59.44420   59.44420   17.20630   10.72680   25.49340 -218.41010 -153.75660   25.49340
