~Version ---------------------------------------------------
VERS.      2.0 : CWLS log ASCII Standard -VERSION 2.0
WRAP.       NO : One line per depth step
CREA. 07/27/17 : LAS Creation Date
~Well ------------------------------------------------------
STRT.FT                             1150.0 : START DEPTH
STOP.FT                            10100.0 : STOP DEPTH
STEP.FT                           50.00000 : STEP LENGTH
NULL.                              -999.25 : NULL VALUE
COMP.      SYSTEX EXPLORATION SERVICES LTD : COMPANY
WELL. SYSTEX DOME ET AL EAGLET 11-27-63-16 : WELL
FLD .                                      : FIELD
LOC .                                      : LOCATION
CTRY.                               CANADA : COUNTRY
SRVC.                         Schlumberger : SERVICE COMPANY
DATE.                          01-Jan-1973 : LOGDATE
PROV.                              Alberta : PROVINCE
UWI .                     100112706316W500 : UNIQUE WELL ID
SLAT.WGS84                        54.48232 : SURFACE LATITUDE
SLON.WGS84                        -116.336 : SURFACE LONGITUDE
~Curve Information -----------------------------------------
DEPT  .FT    : Depth Curve
CALSED.IN    : CALIPER FROM SONIC LOG
CALWS .IN    : CALIPER [CALSED]
CILDED.MMHO  : DEEP INDUCTION CONDUCTIVITY FROM RESISTIVITY LOG
CONDWS.MMHO  : CONDUCTIVITY [1000/DRESWS]
DRESWS.OHMM  : DEEP RESISTIVITY [1000/CILDED IF ILDED<1, ILDED]
DTED  .US/F  : DELTA-T (INTERVAL TRANSIT TIME) FROM SONIC LOG
DTWS  .US/F  : COMPRESSIONAL  SONIC [DTED]
GRSED .GAPI  : GAMMA RAY FROM BCS LOG
GRWS  .GAPI  : GAMMA RAY [GRSED]
ILDED .OHMM  : DEEP INDUCTION FROM RESISTIVITY LOG
SNED  .OHMM  : SHORT NORMAL FROM RESISTIVITY LOG
SPRED .MV    : SPONTANEOUS POTENTIAL FROM RESISTIVITY LOG
SPWS  .MV    : SPONTANEOUS POTENTIAL [BASELINE 0 MV, SPRED]
SRESWS.OHMM  : SHALLOW RESISTIVITY [SNED]
~Params ----------------------------------------------------
PD  .                     GL : PERMANENT DATUM
EPD .FT               3365.6 : ELEVATION PERMANENT DATUM
LMF .                     KB : LOG MEASURED FROM
DAPD.FT                 15.4 : FEET ABOVE PERMANENT DATUM
DMF .                     KB : DRILLING MEASURED FROM
EKB .FT                 3381 : KELLY BUSHING
EGL .FT               3365.6 : GROUND LEVEL
DATE.               01/01/73 : RUN DATE
RUN .                      1 : RUN NUMBER
DD  .FT                10150 : DEPTH DRILLER
DL  .FT                10150 : DEPTH LOGGER
BLI .FT                10149 : BOTTOM LOG INTERVAL
TLI .FT                 1100 : TOP LOG INTERVAL
CBD .FT                 1125 : CASING BOTTOM DRILLER
CBL .FT                 1126 : CASING BOTTOM LOGGER
BS  .IN                7.875 : BIT SIZE
BSD .FT                10150 : BIT SIZE AT DEPTH
DFT .               GEL CHEM : DRILLING FLUID TYPE
DFD .                    9.5 : DRILLING FLUID DENSITY
DFV .                    190 : DRILLING FLUID VISCOSITY
DFPH.                   10.0 : DRILLING FLUID PH
DFL .                     92 : DRILLING FLUID LOSS
RMF .OHMM               1.17 : RESISTIVITY MUD FILTRATE SAMPLE
MFST.DEGF                 61 : MUD FILTRATE SAMPLE TEMPERATURE
TCS .HRS                   9 : TIME CIRCULATED STOPPED
LUN .                   7636 : LOGGING UNIT NUMBER
LUL .                    EDM : LOGGING UNIT LOCATION
ENGI.               BENOWSKI : RECORDING ENGINEER
WITN.                  GIETZ : WITNESSED BY
CLNT.                A2DTECH : CLIENT CODE
ORIG.            2" 5" PRINT : ORIGIN OF DATA
UWI .       100112706316W500 : UNIQUE WELL ID
DICO. A2D Technologies, Inc. : DIGITIZING COMPANY
~Other -----------------------------------------------------
~ASCII -----------------------------------------------------
# ...
 8500.00000    8.41850    8.41850    1.73840    2.01790  495.56160   50.22590   50.22590   23.49490   23.49490  495.56160  115.10160  -96.53790 -119.63630  115.10160
 8550.00000    8.49310    8.49310   10.27950    9.99770  100.02350   53.86310   53.86310   33.71200   33.71200  100.02350   65.44580  -84.59370 -107.73900   65.44580
 8600.00000    8.44690    8.44690   12.51100   12.57310   79.53470   53.87470   53.87470   44.32480   44.32480   79.53470   59.57230  -87.94360 -111.13610   59.57230
 8650.00000    8.43500    8.43500   25.68830   26.79160   37.32510   55.66040   55.66040   50.24090   50.24090   37.32510   38.26850  -92.22070 -115.46020   38.26850
 8700.00000    8.56060    8.56060   60.92590   62.66490   15.95790   61.73650   61.73650   57.80130   57.80130   15.95790   23.36160  -83.82390 -107.11060   23.36160
 8750.00000    8.55420    8.55420   70.52010   69.58460   14.37100   62.51560   62.51560   57.17720   57.17720   14.37100   19.05900  -86.37310 -109.70670   19.05900
 8800.00000   14.98930   14.98930  171.80360  172.64000    5.79240   78.78330   78.78330   72.57340   72.57340    5.79240    6.67810 -112.44630 -135.82680    6.67810
 8850.00000   13.44300   13.44300  186.57820  189.97680    5.26380   77.14950   77.14950   73.77920   73.77920    5.26380    7.09280  -94.97520 -118.40300    7.09280
 8900.00000    8.45430    8.45430   21.51750   22.35030   44.74220   66.93170   66.93170   65.03790   65.03790   44.74220   51.64930  -82.36110 -105.83580   51.64930
 8950.00000    8.51720    8.51720   59.01190   61.74520   16.19560   57.80210   57.80210   41.09300   41.09300   16.19560   21.11660  -83.85310 -107.37500   21.11660
 9000.00000    9.57580    9.57580  150.22820  152.38100    6.56250   74.45030   74.45030   88.15300   88.15300    6.56250   10.00010  -76.31030  -99.87910   10.00010
 9050.00000    9.28790    9.28790  112.40970  100.01800    9.99820   74.70290   74.70290   67.41040   67.41040    9.99820   13.62590  -70.39130  -94.00700   13.62590
 9100.00000    9.88690    9.88690  124.59200  126.32320    7.91620   70.88890   70.88890   64.81000   64.81000    7.91620   10.18480  -69.07280  -92.73580   10.18480
 9150.00000    8.58260    8.58260   95.93580   98.58630   10.14340   70.00720   70.00720   73.40620   73.40620   10.14340   15.44800  -49.40080  -73.11070   15.44800
 9200.00000    8.52250    8.52250   71.52960   72.05230   13.87880   60.93180   60.93180   57.20420   57.20420   13.87880   18.43170  -32.53750  -56.29460   18.43170
 9250.00000    8.41240    8.41240  103.17270  104.25030    9.59230   66.93300   66.93300   68.58460   68.58460    9.59230   14.57210  -43.97090  -67.77490   14.57210
 9300.00000    8.29800    8.29800   70.48740   73.03590   13.69190   62.95110   62.95110   68.12010   68.12010   13.69190   19.70420  -39.01920  -62.87020   19.70420
 9350.00000    8.43130    8.43130   98.55370  104.04960    9.61080   75.15150   75.15150   86.41650   86.41650    9.61080   14.48100  -39.76850  -63.66670   14.48100
 9400.00000    8.92750    8.92750  115.92370  121.23270    8.24860   76.85080   76.85080   96.95410   96.95410    8.24860   14.17830  -51.84280  -75.78790   14.17830
 9450.00000    9.62600    9.62600   71.29840   75.41590   13.25980   76.33890   76.33890   93.93840   93.93840   13.25980   15.43250  -46.49090  -70.48320   15.43250
 9500.00000    9.21030    9.21030   77.37350   80.87930   12.36410   74.16430   74.16430   93.70640   93.70640   12.36410   20.71720  -33.87010  -57.90930   20.71720
 9550.00000    8.08910    8.08910    3.70120    2.37360  421.29460   71.63280   71.63280   96.19030   96.19030  421.29460  262.37680    3.49970  -20.58060  262.37680
 9600.00000    8.12430    8.12430    1.91350    1.99700  500.74490   72.07730   72.07730  109.95810  109.95810  500.74490  168.73460  -24.59460  -48.67490  168.73460
 9650.00000    8.07560    8.07560   37.95680   37.12420   26.93660   60.35540   60.35540   55.13060   55.13060   26.93660   37.32330  -43.28740  -67.36770   37.32330
 9700.00000    8.17310    8.17310   68.82520   69.56130   14.37580   78.55180   78.55180  114.68860  114.68860   14.37580   27.21320  -61.76610  -85.84640   27.21320
 9750.00000    8.05580    8.05580   20.48230   16.55230   60.41470   55.33200   55.33200   41.19300   41.19300   60.41470   55.74770  -69.58370  -93.66400   55.74770
 9800.00000    8.09160    8.09160    3.25570    1.89720  527.10110   50.64780   50.64780   23.79200   23.79200  527.10110  190.24740  -60.68940  -84.76970  190.24740
 9850.00000    8.14730    8.14730    1.29920    1.97270  506.93090   50.23300   50.23300   15.69110   15.69110  506.93090  131.58850  -75.03600  -99.11630  131.58850
 9900.00000    8.16680    8.16680    1.85390    1.97780  505.62480   50.26940   50.26940   16.37910   16.37910  505.62480  187.64770  -74.74940  -98.82970  187.64770
 9950.00000    8.13860    8.13860    1.68330    2.01960  495.14190   50.40090   50.40090   24.54800   24.54800  495.14190  162.88130  -22.15980  -46.24010  162.88130
 10000.00000    8.10710    8.10710    3.37010    1.99380  501.56440   49.53550   49.53550   24.42440   24.42440  501.56440  184.67540  -26.07140  -50.15170  184.67540
 10050.00000    8.17230    8.17230    0.62000    2.76910  361.13360   49.14950   49.14950   15.43020   15.43020  361.13360  239.42280  -89.15860 -113.23890  239.42280
 10100.00000    8.12340    8.12340    7.78930    1.85390  539.40040   49.39530   49.39530    8.60900    8.60900  539.40040  118.34030  -93.34390 -117.42420  118.34030
