~Version ---------------------------------------------------
VERS.      2.0 : CWLS log ASCII Standard -VERSION 2.0
WRAP.       NO : One line per depth step
CREA. 11/13/17 : LAS Creation Date
~Well ------------------------------------------------------
STRT.FT                    1000.0 : START DEPTH
STOP.FT                    9550.0 : STOP DEPTH
STEP.FT                  50.00000 : STEP LENGTH
NULL.                     -999.25 : NULL VALUE
COMP.      MESA PETROLEUM COMPANY : COMPANY
WELL. MESA ET AL SAKWA 14-3-65-15 : WELL
FLD .                             : FIELD
LOC .                             : LOCATION
CTRY.                      CANADA : COUNTRY
SRVC.                Schlumberger : SERVICE COMPANY
DATE.                 05-Mar-1972 : LOGDATE
PROV.                     Alberta : PROVINCE
UWI .            100140306515W500 : UNIQUE WELL ID
SLAT.WGS84               54.60078 : SURFACE LATITUDE
SLON.WGS84              -116.1844 : SURFACE LONGITUDE
~Curve Information -----------------------------------------
DEPT  .FT    : Depth Curve
CALSED.IN    : CALIPER FROM SONIC LOG
CALWS .IN    : CALIPER [CALSED]
CONDWS.MMHO  : CONDUCTIVITY [1000/DRESWS]
DRESWS.OHMM  : DEEP RESISTIVITY [ILDED]
DTED  .US/F  : DELTA TIME FROM SONIC LOG [DEPTH ADJ TO LL8]
DTWS  .US/F  : DELTA TIME [DTED]
GRSED .GAPI  : GAMMA RAY FROM SONIC LOG
GRWS  .GAPI  : GAMMA RAY [GRSED]
ILDED .OHMM  : INDUCTION LOG DEEP RESISTIVITY
ILMED .OHMM  : INDUCTION LOG MEDIUM RESISTIVITY
LL8ED .OHMM  : 8 INCH LATEROLOG RESISTIVITY
MRESWS.OHMM  : MEDIUM RESISTIVITY [ILMED]
SPRED .MV    : SPONTANEOUS POTENTIAL FROM RESISTIVITY LOG
SPWS  .MV    : SPONTANEOUS POTENTIAL [BASELINE 0 MV] [SPRED]
SRESWS.OHMM  : SHALLOW RESISTIVITY [LL8ED]
~Params ----------------------------------------------------
PD  .                     GL : PERMANENT DATUM
EPD .FT                 3248 : ELEVATION PERMANENT DATUM
LMF .                     KB : LOG MEASURED FROM
DAPD.FT                   14 : FEET ABOVE PERMANENT DATUM
EKB .FT                 3262 : KELLY BUSHING
EGL .FT                 3248 : GROUND LEVEL
DATE.               03/05/72 : RUN DATE
RUN .                      1 : RUN NUMBER
DD  .FT                 9600 : DEPTH DRILLER
DL  .FT                 9602 : DEPTH LOGGER
BLI .FT                 9596 : BOTTOM LOG INTERVAL
TLI .FT                 1088 : TOP LOG INTERVAL
CBD .FT                 1088 : CASING BOTTOM DRILLER
CBL .FT                 1088 : CASING BOTTOM LOGGER
BS  .IN                 8.75 : BIT SIZE
BSD .FT                 9600 : BIT SIZE AT DEPTH
DFT .                    GEL : DRILLING FLUID TYPE
DFD .                    8.8 : DRILLING FLUID DENSITY
DFV .                    185 : DRILLING FLUID VISCOSITY
DFPH.                     10 : DRILLING FLUID PH
DFL .                    7.8 : DRILLING FLUID LOSS
MSS .               FLOWLINE : MUD SAMPLE SOURCE
RMS .OHMM               3.18 : RESISTIVITY MUD SAMPLE
MST .DEGF                 68 : MUD SAMPLE TEMPERATURE
RMF .OHMM               3.21 : RESISTIVITY MUD FILTRATE SAMPLE
MFST.DEGF                 61 : MUD FILTRATE SAMPLE TEMPERATURE
TCS .HRS                   4 : TIME CIRCULATED STOPPED
LUN .                   5628 : LOGGING UNIT NUMBER
LUL .                    EDM : LOGGING UNIT LOCATION
ENGI.                WORONUK : RECORDING ENGINEER
WITN.                  HOVER : WITNESSED BY
CLNT.                A2DTECH : CLIENT CODE
ORIG.            2" 5" PRINT : ORIGIN OF DATA
UWI .       100140306515W500 : UNIQUE WELL ID
DICO. A2D Technologies, Inc. : DIGITIZING COMPANY
~Other -----------------------------------------------------
~ASCII -----------------------------------------------------
# ...
 3300.00000   13.65370   13.65370  147.77380    6.76710   92.90550   92.90550   92.18570   92.18570    6.76710    6.51710    7.02790    6.51710  -88.46540   -6.46150    7.02790
 3350.00000   13.77170   13.77170  170.74460    5.85670  102.30490  102.30490   92.11600   92.11600    5.85670    5.68640    5.42170    5.68640  -87.86830   -6.51360    5.42170
 3400.00000   15.00600   15.00600  172.11410    5.81010   95.55250   95.55250  100.72130  100.72130    5.81010    5.64330    5.52380    5.64330  -88.16910   -7.46370    5.52380
 3450.00000   14.90380   14.90380  169.07640    5.92170   98.92590   98.92590   96.21990   96.21990    5.92170    5.59370    5.61500    5.59370  -90.70900  -10.65610    5.61500
 3500.00000   15.00000   15.00000  195.27050    5.12110  115.91920  115.91920   89.54600   89.54600    5.12110    4.94990    4.54330    4.94990  -85.55100   -6.14420    4.54330
 3550.00000   14.01240   14.01240  162.69160    6.14660   92.62870   92.62870   96.81580   96.81580    6.14660    5.81250    5.69560    5.81250  -90.33090  -11.57330    5.69560
 3600.00000   15.00000   15.00000  164.61450    6.07480  104.01270  104.01270   92.70940   92.70940    6.07480    5.68970    5.33710    5.68970  -89.91070  -11.80240    5.33710
 3650.00000   15.00000   15.00000  202.96330    4.92700  107.53800  107.53800   91.11860   91.11860    4.92700    4.41390    4.58060    4.41390  -87.37640   -9.91740    4.58060
 3700.00000   15.00000   15.00000  152.46360    6.55900   94.76480   94.76480   82.72340   82.72340    6.55900    5.96900    5.61600    5.96900  -87.92320  -11.11680    5.61600
 3750.00000   15.00000   15.00000  162.66250    6.14770  109.02750  109.02750   94.37290   94.37290    6.14770    5.56510    5.30340    5.56510  -85.10330   -8.94280    5.30340
 3800.00000   15.00000   15.00000  187.81110    5.32450  104.68650  104.68650   94.66530   94.66530    5.32450    4.84570    5.08830    4.84570  -84.53440   -9.02320    5.08830
 3850.00000   12.40660   12.40660  159.27370    6.27850   92.93650   92.93650   92.31300   92.31300    6.27850    6.03080    5.64630    6.03080  -83.84630   -8.98440    5.64630
 3900.00000   11.06520   11.06520  180.84820    5.52950  107.62650  107.62650  101.55410  101.55410    5.52950    5.14290    6.06520    5.14290  -82.18220   -7.96960    6.06520
 3950.00000   10.86720   10.86720  167.20180    5.98100  101.20480  101.20480  106.86360  106.86360    5.98100    5.77860    6.56320    5.77860  -79.86950   -6.30930    6.56320
 4000.00000   10.52150   10.52150  171.98970    5.81430  109.14960  109.14960  110.31800  110.31800    5.81430    5.62340    6.61090    5.62340  -78.81940   -5.90530    6.61090
 4050.00000    9.57990    9.57990  172.59830    5.79380  104.90860  104.90860  127.86310  127.86310    5.79380    5.98550    6.72890    5.98550  -76.63090   -4.36610    6.72890
 4100.00000    8.64630    8.64630  129.68150    7.71120  102.28740  102.28740  152.76190  152.76190    7.71120    8.29390   11.23290    8.29390  -76.31470   -4.69920   11.23290
 4150.00000   10.84640   10.84640  203.49610    4.91410  100.79960  100.79960   97.40550   97.40550    4.91410    5.01350    5.18770    5.01350  -78.40580   -7.43950    5.18770
 4200.00000   10.22620   10.22620  223.86660    4.46720   94.62500   94.62500  102.82140  102.82140    4.46720    4.63230    4.83110    4.63230  -75.94520   -5.63150    4.83110
 4250.00000    9.59100    9.59100  192.92730    5.18330   91.67750   91.67750  107.54000  107.54000    5.18330    5.33630    5.82340    5.33630  -76.36800   -6.70030    5.82340
 4300.00000    9.48820    9.48820  175.28480    5.70500   86.96520   86.96520  112.38960  112.38960    5.70500    5.97030    6.54750    5.97030  -75.37120   -6.35280    6.54750
 4350.00000   11.93460   11.93460  249.19010    4.01300   97.71900   97.71900  113.82390  113.82390    4.01300    4.11340    4.28900    4.11340  -72.80640   -4.43730    4.28900
 4400.00000   13.77550   13.77550  265.06220    3.77270   96.47030   96.47030  111.79980  111.79980    3.77270    3.82400    4.37500    3.82400  -72.28750   -4.56760    4.37500
 4450.00000   13.72850   13.72850  254.81970    3.92440   98.08870   98.08870  114.19640  114.19640    3.92440    4.06970    4.39270    4.06970  -71.10920   -4.04180    4.39270
 4500.00000   12.86080   12.86080  253.49190    3.94490   97.37840   97.37840  112.55580  112.55580    3.94490    4.06870    4.67050    4.06870  -70.06450   -3.64320    4.67050
 4550.00000   10.95360   10.95360  404.94030    2.46950  108.28760  108.28760  176.34370  176.34370    2.46950    2.61810    3.63080    2.61810  -69.09810   -3.32610    3.63080
 4600.00000   14.25800   14.25800  497.48770    2.01010  115.14880  115.14880   98.15060   98.15060    2.01010    1.88060    2.43290    1.88060  -67.61050   -2.30910    2.43290
 4650.00000   12.65110   12.65110  241.48170    4.14110   86.54910   86.54910   91.60750   91.60750    4.14110    3.81780    4.70210    3.81780  -69.02680   -4.02440    4.70210
 4700.00000   10.22170   10.22170  179.22760    5.57950   86.96860   86.96860   88.80060   88.80060    5.57950    5.65910    5.78990    5.65910  -69.69870   -4.99680    5.78990
 4750.00000    9.13510    9.13510  136.96000    7.30140   80.76070   80.76070   90.35190   90.35190    7.30140    7.56020    8.08550    7.56020  -69.35760   -4.95320    8.08550
 4800.00000   14.65560   14.65560  598.30080    1.67140  178.00800  178.00800   63.77300   63.77300    1.67140    1.78800    2.71540    1.78800  -74.31600  -10.21050    2.71540
 4850.00000    9.99500    9.99500  137.31170    7.28270   83.21820   83.21820   60.62610   60.62610    7.28270    7.70320    8.57160    7.70320  -83.76770  -19.96120    8.57160
 4900.00000    9.82250    9.82250  173.94630    5.74890   84.60600   84.60600   73.93370   73.93370    5.74890    6.08390    7.35790    6.08390  -75.53350  -12.02600    7.35790
 4950.00000   11.89090   11.89090  271.47330    3.70680  132.87280  132.87280   77.07130   77.07130    3.70680    3.84560    4.23510    3.84560  -68.96510   -5.75810    4.23510
 5000.00000   10.37730   10.37730  169.75330    5.89090   82.86720   82.86720   66.26480   66.26480    5.89090    6.74710   10.79700    6.74710  -83.88440  -20.97490   10.79700
 5050.00000   10.72780   10.72780  165.30840    6.04930   78.38630   78.38630   79.95010   79.95010    6.04930    6.60780    6.67830    6.60780  -66.70790   -4.09740    6.67830
 5100.00000   10.04200   10.04200  177.58200    5.63120   84.15910   84.15910   74.35650   74.35650    5.63120    6.03110    7.47680    6.03110  -71.06550   -9.47680    7.47680
 5150.00000   10.53080   10.53080  179.33680    5.57610   83.56880   83.56880   86.51530   86.51530    5.57610    5.88620    6.92190    5.88620  -65.39300   -5.52070    6.92190
 5200.00000   10.68130   10.68130  161.45860    6.19390   79.26380   79.26380   83.53010   83.53010    6.19390    6.69370    9.04950    6.69370  -63.95870   -5.81140    9.04950
 5250.00000   11.32680   11.32680  230.59540    4.33660   83.05250   83.05250   62.60400   62.60400    4.33660    6.18070   12.95470    6.18070 -110.16610  -53.72660   12.95470
 5300.00000    9.88400    9.88400  174.94140    5.71620   80.30050   80.30050   67.47110   67.47110    5.71620    8.98160   20.96040    8.98160 -115.74270  -61.01950   20.96040
 5350.00000   10.05590   10.05590  220.16250    4.54210   77.19900   77.19900   62.08980   62.08980    4.54210    7.58990   20.02070    7.58990 -124.36910  -71.36230   20.02070
 5400.00000   11.19760   11.19760  179.86910    5.55960   78.74260   78.74260   94.97550   94.97550    5.55960    6.06860    7.05670    6.06860  -58.81100   -7.52060    7.05670
 5450.00000   15.20160   15.20160  468.20160    2.13990  117.44930  117.44930   75.44920   75.44920    2.13990    2.21440    2.78810    2.21440  -54.97270   -5.40720    2.78810
 5500.00000   11.97310   11.97310  210.60170    4.74830   83.62380   83.62380   85.93970   85.93970    4.74830    5.30370    6.23370    5.30370  -54.67200   -6.81430    6.23370
 5550.00000   10.88480   10.88480  101.07540    9.89360   74.36690   74.36690   66.57150   66.57150    9.89360   10.81680   16.85270   10.81680  -56.35400   -9.13310   16.85270
