~Version ---------------------------------------------------
VERS.      2.0 : CWLS log ASCII Standard -VERSION 2.0
WRAP.       NO : One line per depth step
CREA. 08/02/17 : LAS Creation Date
~Well ------------------------------------------------------
STRT.FT                        1050.0 : START DEPTH
STOP.FT                       10700.0 : STOP DEPTH
STEP.FT                      50.00000 : STEP LENGTH
NULL.                         -999.25 : NULL VALUE
COMP.            CHEVRON STANDARD LTD : COMPANY
WELL. CHEVRON GULF KAYBOBS 13-8-63-20 : WELL
FLD .                                 : FIELD
LOC .                                 : LOCATION
CTRY.                          CANADA : COUNTRY
SRVC.                    Schlumberger : SERVICE COMPANY
DATE.                     07-Dec-1977 : LOGDATE
PROV.                         Alberta : PROVINCE
UWI .                100130806320W500 : UNIQUE WELL ID
SLAT.WGS84                   54.44033 : SURFACE LATITUDE
SLON.WGS84                   -116.995 : SURFACE LONGITUDE
~Curve Information -----------------------------------------
DEPT    .FT    : Depth Curve
C13ED   .IN    : CALIPER 1-3 PAD ELECTRODE
C24ED   .IN    : CALIPER 2-4 PAD ELECTRODE
CALDED  .IN    : CALIPER FROM DENSITY LOG
CALSED  .IN    : CALIPER FROM SONIC LOG
CALWS   .IN    : CALIPER [CALSED]
CONDWS  .MMHO  : CONDUCTIVITY [1000/DRESWS]
DCORWS  .G/C3  : DENSITY CORRECTION [DRHOED]
DENWS   .G/C3  : BULK DENSITY [RHOBED]
DPHILSED.V/V   : DENSITY POROSITY [M=2.71 F=1.00] FROM DENSITY LOG
DPHISSED.V/V   : DENSITY POROSITY [M=2.65 F=1.00] FROM DENSITY LOG
DPOLSWS .V/V   : DENSITY POROSITY LIMESTONE  {CALCUKLATED FROM RHOBED]
DRESWS  .OHMM  : DEEP RESISTIVITY [ILDED]
DRHOED  .G/C3  : DENSITY CORRECTION FROM DENSITY LOG
DTED    .US/F  : DELTA TIME FROM SONIC LOG
DTWS    .US/F  : DELTA TIME [DTED]
GRDED   .GAPI  : GAMMA RAY FROM DENSITY LOG
GRSED   .GAPI  : GAMMA RAY FROM SONIC LOG
GRWS    .GAPI  : GAMMA RAY [GRSED]
ILDED   .OHMM  : INDUCTION LOG DEEP RESISTIVITY
ILMED   .OHMM  : INDUCTION LOG MEDIUM RESISTIVITY
LL8ED   .OHMM  : 8 INCH LATEROLOG RESISTIVITY
MRESWS  .OHMM  : MEDIUM RESISTIVITY [ILMED]
NPHILSED.V/V   : NEUTRON POROSITY LIMESTONE FROM DENSITY LOG
NPHISSED.V/V   : NEUTRON POROSITY SANDSTONE FROM DENSITY LOG
NPOLSWS .V/V   : NEUTRON POROSITY LIMESTONE [NPHILSED], SPLICED WITH CONVERTED MATRIX FROM SANDSTONE TO LIMESTONE FROM 2180'-6857'
RHOBED  .G/C3  : BULK DENSITY FROM DENSITY LOG
SPRED   .MV    : SPONTANEOUS POTENTIAL FROM RESISTIVITY LOG
SPWS    .MV    : SPONTANEOUS POTENTIAL [BASELINE 0 MV] [SPRED]
SRESWS  .OHMM  : SHALLOW RESISTIVITY [LL8ED]
TENDED  .LBF   : TENSION FROM DENSITY LOG
TENSED  .LBF   : TENSION FROM SONIC LOG
~Params ----------------------------------------------------
PD  .                     GL : PERMANENT DATUM
EPD .FT               2595.6 : ELEVATION PERMANENT DATUM
LMF .                     KB : LOG MEASURED FROM
DAPD.FT                 17.4 : FEET ABOVE PERMANENT DATUM
EKB .FT                 2613 : KELLY BUSHING
EGL .FT               2595.6 : GROUND LEVEL
DATE.               01/05/77 : RUN DATE
RUN .                      2 : RUN NUMBER
DD  .FT                10720 : DEPTH DRILLER
DL  .FT                10709 : DEPTH LOGGER
BLI .FT                10706 : BOTTOM LOG INTERVAL
TLI .FT                 6500 : TOP LOG INTERVAL
CBD .FT                 1090 : CASING BOTTOM DRILLER
CBL .FT                 1091 : CASING BOTTOM LOGGER
BS  .IN                 8.75 : BIT SIZE
BSD .FT                10720 : BIT SIZE AT DEPTH
DFT .         FGM MLGARD OIL : DRILLING FLUID TYPE
DFD .                    9.2 : DRILLING FLUID DENSITY
DFV .                     80 : DRILLING FLUID VISCOSITY
DFPH.                   10.5 : DRILLING FLUID PH
MSS .               FLOWLINE : MUD SAMPLE SOURCE
RMS .OHMM               1.43 : RESISTIVITY MUD SAMPLE
MST .DEGF                 70 : MUD SAMPLE TEMPERATURE
RMF .OHMM               1.08 : RESISTIVITY MUD FILTRATE SAMPLE
MFST.DEGF                 74 : MUD FILTRATE SAMPLE TEMPERATURE
LUN .                   7800 : LOGGING UNIT NUMBER
LUL .                    EDM : LOGGING UNIT LOCATION
ENGI.               FEINGOLD : RECORDING ENGINEER
WITN.             RICHARDSON : WITNESSED BY
CLNT.                A2DTECH : CLIENT CODE
ORIG.            2" 5" PRINT : ORIGIN OF DATA
UWI .       100130806320W500 : UNIQUE WELL ID
DICO. A2D Technologies, Inc. : DIGITIZING COMPANY
~Other -----------------------------------------------------
~ASCII -----------------------------------------------------
# ...
 5650.00000    -999.25    -999.25   13.59120   10.71860   10.71860   72.49580    0.08750    2.00360    -999.25    0.44900    0.41310   13.79390    0.08750   95.87320   95.87320   97.42130   70.69100   70.69100   13.79390   14.64590   21.50360   14.64590    -999.25    0.45020    0.41090    2.00360  -28.36500   -4.43460   21.50360 2604.06360 5820.86180
 5700.00000    -999.25    -999.25   11.60100   10.27390   10.27390   57.10910   -0.00010    2.49530    -999.25    0.12070    0.12560   17.51090   -0.00010   75.63230   75.63230   95.63520   80.96400   80.96400   17.51090   19.24820   30.49400   19.24820    -999.25    0.38480    0.34550    2.49530  -49.20700  -27.56740   30.49400 3007.34400 4106.23560
 5750.00000    -999.25    -999.25   13.41280   11.93220   11.93220   42.59980    0.10490    1.91590    -999.25    0.44940    0.46440   23.47430    0.10490  143.27760  143.27760   79.59950   97.00190   97.00190   23.47430   19.32400   47.55110   19.32400    -999.25    -999.25    -999.25    1.91590  -80.29320  -60.92150   47.55110 2876.69500 4072.27060
 5800.00000    -999.25    -999.25   10.85700   10.16390   10.16390   54.73360    0.07810    2.73370    -999.25   -0.02010   -0.01390   18.27030    0.07810   81.00220   81.00220   85.82730   79.54950   79.54950   18.27030   18.93250   24.02620   18.93250    -999.25    0.24590    0.20680    2.73370 -134.81760 -117.72520   24.02620 1328.65690 4503.62020
 5850.00000    -999.25    -999.25   11.28350   10.88640   10.88640   68.86180    0.01340    2.60740    -999.25    0.02850    0.06000   14.53590    0.01340   85.49090   85.49090   97.15570   86.13710   86.13710   14.53590   16.07330   19.10010   16.07330    -999.25    0.23270    0.19350    2.60740 -179.63090 -164.82930   19.10010 1528.74990 4477.33340
 5900.00000    -999.25    -999.25   10.61580   10.02180   10.02180   57.21450    0.06360    2.59520    -999.25    0.02880    0.06710   17.47810    0.06360   69.05110   69.05110   84.74910   82.54760   82.54760   17.47810   19.55580   23.17320   19.55580    -999.25    0.19100    0.15190    2.59520 -204.96470 -192.43090   23.17320 1679.21390 4661.61790
 5950.00000    -999.25    -999.25   11.68730   10.18510   10.18510  101.30070    0.05220    2.53150    -999.25    0.07960    0.10440    9.87200    0.05220   72.72320   72.72320   55.73490   51.88600   51.88600    9.87200   10.34730   13.44350   10.34730    -999.25    0.18600    0.14690    2.53150 -182.31960 -172.07660   13.44350 1553.50920 4775.02400
 6000.00000    -999.25    -999.25   10.25620    9.93380    9.93380   63.39430    0.01040    2.57640    -999.25    0.04920    0.07810   15.77430    0.01040   77.12180   77.12180   83.30960   79.86380   79.86380   15.77430   17.71550   22.98490   17.71550    -999.25    0.20930    0.17020    2.57640 -135.19660 -127.22150   22.98490 1785.92150 4975.50310
 6050.00000    6.01140    8.27960   10.28980   10.17680   10.17680   51.43660    0.02990    2.64530    -999.25    0.01200    0.03780   19.44140    0.02990   71.10560   71.10560   89.25920   94.89970   94.89970   19.44140   21.64860   27.10740   21.64860    -999.25    0.20520    0.16610    2.64530  -58.75430  -53.05850   27.10740 1807.51230 5199.53620
 6100.00000    9.82040   10.68770   11.36630   12.95550   12.95550  139.16540    0.17470    2.53930    -999.25    0.06620    0.09980    7.18910    0.17470   86.18820   86.18820  106.53790   89.45910   89.45910    7.18910    7.53800    9.91540    7.53800    -999.25    0.34310    0.30390    2.53930  -39.40370  -35.99860    9.91540 1947.15530 4845.55160
 6150.00000    9.11210    9.04940    9.79750    9.61570    9.61570   41.86550    0.01700    2.58300    -999.25    0.04910    0.07430   23.88600    0.01700   68.10760   68.10760   44.92650   43.40090   43.40090   23.88600   29.77240   60.30180   29.77240    -999.25    0.14780    0.10870    2.58300  -26.99390  -25.85680   60.30180 2217.62770 5275.49970
 6200.00000    9.19890    8.85530   10.07490    9.84570    9.84570   36.11690    0.01830    2.61830    -999.25    0.03480    0.05370   27.72120    0.01830   73.05500   73.05500   96.96130   93.41300   93.41300   27.72120   29.33900   37.72330   29.33900    -999.25    0.22190    0.18280    2.61830  -23.94070  -25.09420   37.72330 2377.10270 5597.63300
 6250.00000    9.33360    9.20870    9.96200    9.52580    9.52580   47.39000    0.05500    2.40540    -999.25    0.13560    0.17810   21.10150    0.05500   77.78430   77.78430  108.29070  104.95980  104.95980   21.10150   26.93130   49.17520   26.93130    -999.25    0.35320    0.31400    2.40540   -3.74050   -6.50900   49.17520 2228.00710 5659.94590
 6300.00000    8.76490    8.89970   10.02240    9.86780    9.86780   67.72270    0.02810    2.73490    -999.25   -0.05530   -0.01460   14.76610    0.02810   81.47510   81.47510  112.95390  104.69890  104.69890   14.76610   15.75870   15.58840   15.75870    -999.25    0.24230    0.20320    2.73490  -66.78960  -69.66060   15.58840 2551.56440 5817.67580
 6350.00000    8.92220    9.03830    9.83410    9.50850    9.50850   47.95940    0.03480    2.53270    -999.25    0.06730    0.10370   20.85130    0.03480   77.02830   77.02830  103.68530   99.24400   99.24400   20.85130   22.34290   27.58410   22.34290    -999.25    0.25810    0.21890    2.53270 -111.84390 -114.81800   27.58410 2824.66910 5745.08140
 6400.00000    9.23330    8.71060   10.17640   10.23560   10.23560  105.92550    0.16560    2.56940    -999.25    0.05300    0.08220    9.44060    0.16560   81.09980   81.09980  108.38210   95.78260   95.78260    9.44060   10.78240   15.13210   10.78240    -999.25    0.27820    0.23900    2.56940 -144.03990 -147.11600   15.13210 2725.60140 6120.01980
 6450.00000   10.54180    8.83200   11.29220   13.10440   13.10440  188.37090    0.20180    2.40340    -999.25    0.14810    0.17930    5.30870    0.20180   85.90300   85.90300  113.97120   84.19970   84.19970    5.30870    5.80580    7.46950    5.80580    -999.25    0.36550    0.32620    2.40340 -140.31870 -143.49790    7.46950 1045.80930 5670.12030
 6500.00000   10.81910    9.05130   11.62260   13.10010   13.10010  258.01790    0.24180    2.53820    -999.25    0.08800    0.10050    3.87570    0.24180   95.53580   95.53580  106.57820   74.43770   74.43770    3.87570    4.13140    5.76140    4.13140    -999.25    0.36910    0.32990    2.53820 -127.40750 -130.68870    5.76140 1213.62340 4203.94100
 6550.00000    8.90510    9.29480    9.68820    9.46930    9.46930    8.61520    0.02610    2.45890    -999.25    0.12160    0.14680  116.07430    0.02610   88.55920   88.55920  194.31770  176.63690  176.63690  116.07430  135.02150  228.76540  135.02150    -999.25    0.32540    0.28620    2.45890  -95.24020  -98.62400  228.76540 1283.82030 4680.59930
 6600.00000    8.32340    8.70960    9.26590    9.10000    9.10000    5.98090    0.00500    2.58660    -999.25    0.04270    0.07210  171.98990    0.00500   65.33100   65.33100  176.73820  106.40250  106.40250  171.98990  347.80390  456.46240  347.80390    -999.25    0.10870    0.06960    2.58660 -102.11750 -105.60440  456.46240 1589.84120 4840.27700
 6650.00000    6.04170    6.16770    9.39440    9.29500    9.29500   49.63220    0.02430    2.52350    -999.25    0.06440    0.10910   20.14820    0.02430   69.46560   69.46560   62.92270   49.10680   49.10680   20.14820   22.65170   32.74950   22.65170    -999.25    0.13890    0.09980    2.52350 -112.18810 -115.77700   32.74950 1556.59840 4976.79220
 6700.00000    -999.25    -999.25    9.31640    9.38980    9.38980   90.02920    0.01730    2.64090    -999.25    0.00500    0.04040   11.14730    0.01730   62.44410   62.44410  102.21250   93.36030   93.36030   11.14730   15.76390   20.83700   15.76390    -999.25    0.12450    0.08540    2.64090  -89.39980  -93.09170   20.83700 1749.79360 5171.90840
 6750.00000    -999.25    -999.25    8.96200    9.13480    9.13480   61.42020    0.02190    2.63670    -999.25    0.00310    0.04290   16.28130    0.02190   62.21340   62.21340   77.53890   71.32460   71.32460   16.28130   17.56400   17.43390   17.56400    -999.25    0.11620    0.07710    2.63670  -72.12210  -75.91610   17.43390 1725.14640 5334.67720
