~Version ---------------------------------------------------
VERS. 2.0 : CWLS log ASCII Standard -VERSION 2.0
WRAP.  NO : ONE LINE PER DEPTH STEP
~Well ------------------------------------------------------
STRT.F                           300.0 : START DEPTH
STOP.F                         10200.0 : STOP DEPTH
STEP.F                        50.00000 : STEP LENGTH
NULL.                          -999.25 : NULL VALUE
COMP.             IMPERIAL OIL LIMITED : COMPANY
WELL.   IMPERIAL CYNTHIA NO. 9-6-52-11 : WELL
FLD .                                  : FIELD
LOC .                                  : LOCATION
CTRY.                           CANADA : COUNTRY
SRVC. Schlumberger Well Surveying Corp : SERVICE COMPANY
DATE.                      06-Sep-1954 : LOGDATE
PROV.                          Alberta : PROVINCE
UWI .                 100090605211W500 : UNIQUE WELL ID
SLAT.WGS84               53.4630190179 : SURFACE LATITUDE
SLON.WGS84             -115.6015677109 : SURFACE LONGITUDE
~Curve Information -----------------------------------------
DEPT.F                        : DEPTH FEET
NEUT.NAPI        35 330 01 00 : NEUTRON FROM GRN LOG
GRN .UGRA-EQ/TON 35 310 01 00 : GAMMA RAY FROM GRN LOG
CALI.IN          70 280 01 00 : CALIPER FROM CALIPER LOG
LN  .OHMM        01 060 64 00 : LONG NORMAL 64" FROM EL
LT18.OHMM        01 070 18 00 : LATERAL 18' 8" FROM EL
SN  .OHMM        01 040 16 00 : SHORT NORMAL 16"
SPR .MV          01 010 01 00 : SPONTANEOUS POTENTIAL FROM EL
~Params ----------------------------------------------------
LMF .                     KB : LOG MEASURED FROM
DMF .                     KB : DRILLING MEASURED FROM
EKB .FT                 3086 : KELLY BUSHING
DATE.               09/06/54 : RUN DATE
RUN .                      4 : RUN NUMBER
DD  .FT                10217 : DEPTH DRILLER
DL  .FT                10217 : DEPTH LOGGER
BLI .FT                10217 : BOTTOM LOG INTERVAL
TLI .FT                 8589 : TOP LOG INTERVAL
CBD .FT                 5691 : CASING BOTTOM DRILLER
CBL .FT                 5690 : CASING BOTTOM LOGGER
BS  .IN                8.625 : BIT SIZE
BSD .FT                10217 : BIT SIZE AT DEPTH
DFT .              LIME BASE : DRILLING FLUID TYPE
DFD .                   10.1 : DRILLING FLUID DENSITY
DFV .                    240 : DRILLING FLUID VISCOSITY
DFPH.                   10.5 : DRILLING FLUID PH
DFL .                    7.8 : DRILLING FLUID LOSS
MSS .               FLOWLINE : MUD SAMPLE SOURCE
RMS .OHMM                1.4 : RESISTIVITY MUD SAMPLE
MST .DEGF                 70 : MUD SAMPLE TEMPERATURE
RMB .OHMM                0.5 : RESISTIVITY MUD AT BHT
TCS .HRS                 2.5 : TIME CIRCULATED STOPPED
LUN .                   1772 : LOGGING UNIT NUMBER
LUL .                    GDM : LOGGING UNIT LOCATION
ENGI.                BUCKLEY : RECORDING ENGINEER
WITN.                  BLAND : WITNESSED BY
CLNT.                A2DTECH : CLIENT CODE
ORIG.            2" 5" PRINT : ORIGIN OF DATA
UWI .       100090605211W500 : UNIQUE WELL ID
DICO. A2D Technologies, Inc. : DIGITIZING COMPANY
~Other -----------------------------------------------------
~ASCII -----------------------------------------------------
# ...
 4800.00000  154.03510    3.79700    6.49940   16.29370   13.85020   16.35740  -60.54840
 4850.00000  152.16380    2.74910    7.14050   10.38680   14.62350   11.73990  -62.97520
 4900.00000  152.50280    2.89110    6.82270    7.80720   11.06380    8.62000  -76.29230
 4950.00000  157.45660    2.76490    6.97030    8.69200   10.85030   10.20410  -76.58000
 5000.00000  170.99020    2.65190    6.89880    9.84130   11.65200   11.08120  -75.82730
 5050.00000  165.60810    3.17730    7.16240    8.72510   11.15700   10.13470  -76.67170
 5100.00000  149.39660    3.01280    7.22810    7.92620   10.51630   10.17580  -75.12140
 5150.00000  153.85120    3.16110    7.15140    8.22410    8.68110    9.79510  -74.59450
 5200.00000  165.87630    2.85260    6.90710    7.05450   10.96420    9.16070  -75.06380
 5250.00000  153.98240    2.84760    6.46030    7.40880   10.67610    9.56730  -74.65160
 5300.00000  156.92440    3.01340    7.66630   10.28660    9.06850   11.07470  -73.43260
 5350.00000  157.21710    2.14670    6.00580   18.19480   14.58670   18.63510  -77.34310
 5400.00000  176.80120    2.78200    6.21040   12.12220   14.30600   12.86000  -72.10250
 5450.00000  161.52210    2.90570    6.16150   12.22210   12.27850   13.23200  -70.81340
 5500.00000  162.29570    2.93180    5.93450   10.76490   11.33320   12.16150  -70.77090
 5550.00000  158.29800    2.68090    5.94220   10.81440   14.88720   13.72020  -70.24300
 5600.00000  151.33160    3.13100    5.97890   11.28890   10.09540   12.67760  -66.75360
 5650.00000  156.88940    3.38230    5.88570   13.26270    8.38720   13.70360  -65.23580
 5700.00000  167.96510    5.06320    -999.25   15.32790    0.20750   14.14770  -37.04260
 5750.00000  178.60760    6.41640    -999.25   19.10360   14.85710   16.48350  -37.81760
 5800.00000  171.40050    7.77030    -999.25   21.36210   16.84090   16.25510  -38.05460
 5850.00000  177.96060    7.58980    -999.25   32.07320   27.39560   23.60600  -39.69710
 5900.00000  176.91120    7.95690    -999.25   19.74800   19.76890   15.98410  -36.95040
 5950.00000  186.78780    9.68880    -999.25   30.93460   25.08240   24.18970  -38.11400
 6000.00000  187.14620    7.93380    -999.25   18.51730   12.54790   15.64570  -39.47880
 6050.00000  180.74940    4.10650    -999.25   10.81700   10.99460    8.48660  -36.55040
 6100.00000  184.68390    4.01470    -999.25   10.60000   10.28340    8.71740  -35.36040
 6150.00000  179.49140    3.52250    -999.25   12.11560    9.72020    9.43460  -34.20120
 6200.00000  174.79230    7.93670    -999.25    8.95000    8.14530    8.32300  -34.62700
 6250.00000  175.74990    7.44510    -999.25    4.41220    3.22240    4.30880  -34.61370
 6300.00000  184.99970    7.32660    -999.25    6.61780    5.30890    6.93040  -34.37280
 6350.00000  227.23360    6.11130    -999.25   30.36590   22.79390   24.85240  -44.31720
 6400.00000  261.00070    4.59560    -999.25   21.94560   25.00730   17.67570  -46.87040
 6450.00000  168.68860    7.42060    -999.25    2.41600    2.95730    2.84320  -36.37090
 6500.00000  226.62760    3.40420    -999.25   26.53690   25.61240   22.01160  -68.74990
 6550.00000  245.22370    5.61370    -999.25   34.83530   10.36040   24.57620  -45.92120
 6600.00000  240.00110    4.74380    -999.25   35.67090   10.12070   21.81070  -47.50590
 6650.00000  229.38790    4.20040    -999.25   23.74620   41.30210   17.57980  -42.65300
 6700.00000  230.71150    5.78750    -999.25   34.46660   34.12510   22.96020  -38.37570
 6750.00000  228.87260    4.69440    -999.25   21.96040   15.87200   16.75670  -43.69000
 6800.00000  240.19150    5.74300    -999.25   20.14010    8.85800   19.43300  -48.43270
 6850.00000  206.55490    4.59080    -999.25   18.94160   17.10080   14.15670  -38.27570
 6900.00000  245.01940    3.68380    -999.25   31.34440   24.40570   22.38040  -39.97260
 6950.00000  209.75570    4.55290    -999.25   32.40110   35.04380   23.93740  -32.54250
 7000.00000  190.18980    5.40350    -999.25   43.55720   51.74450   30.08990  -28.11750
 7050.00000  194.11680    6.41990    -999.25   31.56920  148.39850   21.77660  -30.72440
 7100.00000  290.31000    2.12040    -999.25   90.19360   77.20190   51.66470  -51.52440
 7150.00000  211.31220    3.83610    -999.25   35.27370   29.84430   23.25830  -42.16510
 7200.00000  175.36890    6.18630    -999.25   11.73180   10.37450   10.93370  -35.30760
 7250.00000  345.72340    1.73800    -999.25  391.62130  400.49630  136.19700  -82.88000
 7300.00000  289.58080    1.46010    -999.25  653.68280  498.20300  178.76330  -85.56450
 7350.00000  333.93570    2.06710    -999.25 1003.98530 1783.29680  157.56170  -55.89610
 7400.00000  220.21540    3.96780    -999.25   48.16360  110.44510   22.37370  -62.06800
 7450.00000  293.80670    1.02110    -999.25  180.88490  246.05840   83.70230 -177.18450
 7500.00000  262.12050    4.80480    -999.25   26.77910   26.62660   25.77280  -55.19460
 7550.00000  265.15950    3.51390    -999.25   49.82060   40.05020   40.72170  -50.17730
 7600.00000  238.14100    3.93750    -999.25   23.40940   17.86560   19.87310  -60.85780
 7650.00000  259.49650    3.00000    -999.25   39.78950    8.10550   32.17900  -67.84460
 7700.00000  297.75380    2.78700    -999.25   37.51310   97.21440   29.06130  -54.33250
 7750.00000  338.28760    1.76450    -999.25  137.13730   77.24770   70.91910  -48.62900
 7800.00000  346.39550    2.30370    -999.25  168.26470  211.11450   69.78590  -40.94120
 7850.00000  324.10820    2.25300    -999.25  170.85350  357.70100   73.22710  -41.14120
 7900.00000  293.67100    2.38580    -999.25  215.23790  283.28490   83.47960  -38.12190
 7950.00000  343.90250    2.92640    -999.25  290.71600  490.59230   99.05020  -23.84360
 8000.00000  266.53250    5.60190    -999.25  184.36060 1105.39280   63.52050  -33.34950
 8050.00000  366.57690    1.88710    -999.25  556.79440 1642.31710  122.14680  -95.40100
 8100.00000  318.33200    1.22420    -999.25  530.51970  540.34280  135.63190 -117.32190
 8150.00000  272.22390    1.24470    -999.25  410.28070  603.40860  116.68950 -138.15340
 8200.00000  269.71250    1.29830    -999.25  415.30590  704.71780  102.87530 -134.35830
 8250.00000  265.05530    1.26990    -999.25  351.06640  498.43720   97.72970 -116.33330
 8300.00000  286.94060    1.57120    -999.25  451.53590  103.97000  152.17450 -124.77750
 8350.00000  294.29440    1.33880    -999.25  318.62750  873.37220   78.96790 -115.95750
 8400.00000  297.71770    1.59370    -999.25  153.71160  324.81230   69.22430 -165.57610
 8450.00000  287.37090    0.99270    -999.25  511.79360 1146.76730  113.84980 -111.03200
 8500.00000  273.37510    1.43790    -999.25  582.24690  825.95030  127.06150 -105.68690
 8550.00000  295.65740    1.35480    -999.25  502.06730  648.91080  112.21290 -105.39190
 8600.00000  305.56780    1.55300    -999.25  427.39730 1464.25840   97.44940  -91.23190
 8650.00000  238.91250    1.25570    -999.25   15.95630  173.73130   13.01940 -174.71000
 8700.00000  241.91110    2.01420    -999.25  187.99750  871.45430   81.20670  -70.10830
 8750.00000  226.62380    1.38980    -999.25  182.14180  194.73280   83.08180 -107.83590
 8800.00000  235.60180    2.01040    -999.25  199.87200  156.99180   73.75960 -108.60700
 8850.00000  260.10530    1.76360    -999.25  260.70890  770.04840   89.48470 -104.48660
 8900.00000  244.63610    4.70220    -999.25   85.58480  179.16310   49.84590  -40.76490
 8950.00000  208.19280    5.66450    -999.25   40.57480  120.69360   25.06180  -28.14990
 9000.00000  191.83130    5.35500    -999.25   27.85060   30.65410   21.28300  -28.44610
 9050.00000  225.64660    4.74200    -999.25   38.58950   44.10210   30.03600  -31.17720
 9100.00000  209.04410    5.79950    -999.25   21.53010   13.42930   20.94520  -34.15040
 9150.00000  248.50740    3.68390    -999.25  100.54640   95.47310   62.59500  -36.69470
 9200.00000  225.99970    5.96490    -999.25   24.82190   17.05800   20.53810  -31.79470
 9250.00000  226.63580    3.62110    -999.25   76.10500   77.14840   48.92550  -29.19430
