~Version ---------------------------------------------------
VERS. 2.0 : CWLS log ASCII Standard -VERSION 2.0
WRAP.  NO : ONE LINE PER DEPTH STEP
~Well ------------------------------------------------------
STRT.F                      950.0 : START DEPTH
STOP.F                    10050.0 : STOP DEPTH
STEP.F                   50.00000 : STEP LENGTH
NULL.                     -999.25 : NULL VALUE
COMP. SHELL CANADA RESOURCES LTD. : COMPANY
WELL.     ISH MAHASKA 11-32-56-13 : WELL
FLD .                             : FIELD
LOC .                             : LOCATION
CTRY.                      CANADA : COUNTRY
SRVC.                Schlumberger : SERVICE COMPANY
DATE.                 17-Nov-1977 : LOGDATE
PROV.                     Alberta : PROVINCE
UWI .            100113205613W500 : UNIQUE WELL ID
SLAT.WGS84               53.88366 : SURFACE LATITUDE
SLON.WGS84              -115.9002 : SURFACE LONGITUDE
~Curve Information -----------------------------------------
DEPT   .F    0   1   0  0 : 1 MEASURED DEPTH
MLL    .OHMM 20 270 04 00 : MICRO FOCUSED LATEROLOG RESISTIVITY
GRR    .GAPI 11 310 01 00 : GAMMA RAY FROM RESISTIVITY LOG
LLD    .OHMM 11 220 10 00 : LATEROLOG DEEP RESISTIVITY
LLS    .OHMM 11 220 09 00 : LATEROLOG SHALLOW RESISTIVITY
CALD   .IN   45 280 60 00 : CALIPER FROM DENSITY LOG
DRHO   .G/C3 45 356 01 00 : BULK DENSITY CORRECTION
GRD    .GAPI 45 310 01 00 : GAMMA RAY FROM DENSITY LOG
RHOB   .G/C3 45 350 01 00 : BULK DENSITY
DPHI_SS.DEC  45 890 12 00 : DENSITY POROSITY SANDSTONE
NPHI_SS.DEC  42 890 03 00 : NEUTRON POROSITY SANDSTONE
DPHI_LS.DEC  45 890 10 00 : DENSITY POROSITY LIMESTONE
NPHI_LS.DEC  42 890 01 00 : NEUTRON POROSITY LIMESTONE
GRS    .GAPI 60 310 01 00 : GAMMA RAY FROM SONIC LOG
DT     .US/F 60 500 00 00 : DELTA-T (INTERVAL TRANSIT TIME)
CALS   .IN   60 280 50 00 : CALIPER FROM SONIC LOG
~Params ----------------------------------------------------
PD  .                     GL : PERMANENT DATUM
EPD .FT               2734.7 : ELEVATION PERMANENT DATUM
LMF .                     KB : LOG MEASURED FROM
DAPD.FT                   13 : FEET ABOVE PERMANENT DATUM
DMF .                     KB : DRILLING MEASURED FROM
EKB .FT               2747.7 : KELLY BUSHING
EGL .FT               2734.7 : GROUND LEVEL
DATE.               11/17/77 : RUN DATE
RUN .                      1 : RUN NUMBER
DD  .FT                10070 : DEPTH DRILLER
DL  .FT                10075 : DEPTH LOGGER
BLI .FT                10074 : BOTTOM LOG INTERVAL
TLI .FT                 4250 : TOP LOG INTERVAL
CBD .FT                 1066 : CASING BOTTOM DRILLER
BS  .IN                 8.75 : BIT SIZE
BSD .FT                10070 : BIT SIZE AT DEPTH
DFT .                    KCL : DRILLING FLUID TYPE
DFD .                    9.3 : DRILLING FLUID DENSITY
DFV .                     85 : DRILLING FLUID VISCOSITY
DFPH.                   10.5 : DRILLING FLUID PH
RMS .OHMM               0.33 : RESISTIVITY MUD SAMPLE
MST .DEGF                 64 : MUD SAMPLE TEMPERATURE
RMF .OHMM               0.47 : RESISTIVITY MUD FILTRATE SAMPLE
MFST.DEGF                 61 : MUD FILTRATE SAMPLE TEMPERATURE
TCS .HRS                 700 : TIME CIRCULATED STOPPED
LUN .                   7730 : LOGGING UNIT NUMBER
LUL .                    EDM : LOGGING UNIT LOCATION
ENGI.                PERKINS : RECORDING ENGINEER
WITN.                  FUCHS : WITNESSED BY
CLNT.                A2DTECH : CLIENT CODE
ORIG.               5" PRINT : ORIGIN OF DATA
UWI .       100113205613W500 : UNIQUE WELL ID
DICO. A2D Technologies, Inc. : DIGITIZING COMPANY
~Other -----------------------------------------------------
~ASCII -----------------------------------------------------
# ...
 3250.00000    -999.25   53.22030   14.50090   16.56610    -999.25    -999.25    -999.25    -999.25    -999.25    -999.25    -999.25    -999.25   59.91430   74.71840    9.88350
 3300.00000    -999.25   43.10580    8.46730    6.96530    -999.25    -999.25    -999.25    -999.25    -999.25    -999.25    -999.25    -999.25   46.34330   79.15290    9.65420
 3350.00000    -999.25   88.52680    5.35960    5.80460    -999.25    -999.25    -999.25    -999.25    -999.25    -999.25    -999.25    -999.25   68.58480   88.41320    9.47540
 3400.00000    -999.25   78.13210    6.35630    5.91230    -999.25    -999.25    -999.25    -999.25    -999.25    -999.25    -999.25    -999.25   78.58590   93.54850    9.37400
 3450.00000    -999.25   80.13600    5.89840    5.49830    -999.25    -999.25    -999.25    -999.25    -999.25    -999.25    -999.25    -999.25   71.29700   92.16290    9.50960
 3500.00000    -999.25   72.62380    9.19830   10.02700    -999.25    -999.25    -999.25    -999.25    -999.25    -999.25    -999.25    -999.25   66.54940   83.88180    9.06030
 3550.00000    -999.25   79.51170    9.75150   10.84240    -999.25    -999.25    -999.25    -999.25    -999.25    -999.25    -999.25    -999.25   67.72960   81.04910    9.13990
 3600.00000    -999.25   85.41340    5.47980    6.18060    -999.25    -999.25    -999.25    -999.25    -999.25    -999.25    -999.25    -999.25   81.32290   91.97460    9.06800
 3650.00000    -999.25  110.70420    8.36950    8.83990    -999.25    -999.25    -999.25    -999.25    -999.25    -999.25    -999.25    -999.25   96.34500   83.98710    9.27830
 3700.00000    -999.25  114.38470    8.17710    9.07110    -999.25    -999.25    -999.25    -999.25    -999.25    -999.25    -999.25    -999.25   99.32940   85.73750    9.70260
 3750.00000    -999.25  114.41790    7.79650    8.88980    -999.25    -999.25    -999.25    -999.25    -999.25    -999.25    -999.25    -999.25   99.35900   86.69370   10.15940
 3800.00000    -999.25  115.97960    8.91940   10.18320    -999.25    -999.25    -999.25    -999.25    -999.25    -999.25    -999.25    -999.25  103.38060   89.62260    9.40250
 3850.00000    -999.25  123.77790    9.38250   10.27750    -999.25    -999.25    -999.25    -999.25    -999.25    -999.25    -999.25    -999.25  116.16790   88.01320    9.38570
 3900.00000    -999.25  182.34170   11.31390   13.35310    -999.25    -999.25    -999.25    -999.25    -999.25    -999.25    -999.25    -999.25  162.25460   92.38150    9.05850
 3950.00000    -999.25  119.04590   10.15470   11.48430    -999.25    -999.25    -999.25    -999.25    -999.25    -999.25    -999.25    -999.25  112.33340   91.11260    9.34560
 4000.00000    -999.25  119.36770    7.66900    8.92510    -999.25    -999.25    -999.25    -999.25    -999.25    -999.25    -999.25    -999.25  105.02490   92.93600    9.71130
 4050.00000    -999.25  109.51960    6.95010    7.44490    -999.25    -999.25    -999.25    -999.25    -999.25    -999.25    -999.25    -999.25  108.29700   87.85720   10.00170
 4100.00000    -999.25  116.06540    7.57840    8.40870    -999.25    -999.25    -999.25    -999.25    -999.25    -999.25    -999.25    -999.25  100.80820   83.82960    9.92630
 4150.00000    -999.25  110.05220    7.44290    8.28720    -999.25    -999.25    -999.25    -999.25    -999.25    -999.25    -999.25    -999.25  102.93410   83.70360   10.49220
 4200.00000    -999.25  109.43500    8.53420    9.45640    -999.25    -999.25    -999.25    -999.25    -999.25    -999.25    -999.25    -999.25  103.56610   82.85320    9.98590
 4250.00000    4.58620  114.17300    7.39780    8.81300    9.85980    0.11820  122.10740    2.44610    0.11950    0.32450    -999.25    -999.25  105.26510   85.30030    9.68170
 4300.00000    0.87540  113.22800    6.83020    7.49520   11.66700    0.19300  117.12410    2.00200    0.41510    0.36150    -999.25    -999.25  109.42960   87.43560   10.05850
 4350.00000    2.50390  118.45840    7.74410    8.68150   11.06280    0.19120  108.29450    2.03380    0.41050    0.36840    -999.25    -999.25  101.60090   83.98930   10.08640
 4400.00000    1.42570  113.71840    7.90660    8.72290   11.46510    0.20730  116.23600    2.08220    0.34540    0.33400    -999.25    -999.25  100.18250   83.86590   10.03870
 4450.00000    1.97300  112.48450   10.66330   12.18620   10.25040    0.20190  109.84910    2.31530    0.22590    0.28440    -999.25    -999.25  102.06350   79.24790    9.53750
 4500.00000   11.94960  125.93750   10.96400   11.95500   10.03130    0.09690  118.15040    2.50980    0.06940    0.28280    -999.25    -999.25  114.57110   78.86140    9.72960
 4550.00000    3.44440  122.84980    9.26500   10.52950    9.65250    0.11170  114.91080    2.34230    0.19710    0.29040    -999.25    -999.25  117.58380   80.65050    9.73500
 4600.00000    1.60370  125.16220    9.56270   10.43290   11.92470    0.20560  114.17620    2.24220    0.23280    0.33050    -999.25    -999.25  110.31460   79.61200   10.15660
 4650.00000    1.04760  124.74890    7.24110    8.24160   11.75230    0.17570  121.97480    2.15710    0.30870    0.35970    -999.25    -999.25  118.72600   88.43590    9.71200
 4700.00000    4.53020  132.17990    6.92880    8.07920   10.49310   -0.00070  132.40590    2.44420    0.13700    0.39940    -999.25    -999.25  119.27410   93.62270   10.09040
 4750.00000   11.86760  152.42940   10.31860   12.33830    9.85850    0.00380  135.20120    2.47060    0.11750    0.39530    -999.25    -999.25  135.56260   90.99720    9.62630
 4800.00000   12.06660  134.78170    8.75910   10.67040    9.37580    0.00610  130.49500    2.48380    0.10900    0.35350    -999.25    -999.25  127.74380   90.88600    9.17570
 4850.00000   14.08350  136.29980   10.73050   13.01850    9.26260    0.00160  142.03810    2.50760    0.08910    0.35660    -999.25    -999.25  135.04970   89.70620    9.16090
 4900.00000   18.07350  142.73550   14.91680   16.64100    9.10990    0.00990  143.90340    2.48120    0.10930    0.37280    -999.25    -999.25  140.44670   90.90980    9.09120
 4950.00000   14.56820  141.67530   11.23030   13.05760    9.43170    0.00080  134.68500    2.48920    0.09510    0.35650    -999.25    -999.25  126.61750   89.51300    9.35100
 5000.00000   17.56720  159.29350   11.86800   14.93090    9.82640    0.01510  153.05940    2.44830    0.12670    0.40520    -999.25    -999.25  145.76610   97.11220    9.44070
 5050.00000    3.96480  123.68590    8.20680    9.76910   10.96650   -0.00080  111.21420    2.38450    0.18060    0.30960    -999.25    -999.25  112.39850   83.55810    9.98660
 5100.00000    2.10540  131.98640    5.77370    6.83180   12.67840    0.15580  126.57790    2.03270    0.32620    0.39890    -999.25    -999.25  114.21870   88.89770   10.03040
 5150.00000    8.56120  116.31270    8.29430    9.12790   10.51140    0.00070  121.93560    2.50620    0.08850    0.30990    -999.25    -999.25  108.89770   77.92770    9.95260
 5200.00000    3.43220  128.44900    6.18320    7.29840   11.53400    0.19980  135.22640    2.32800    0.21060    0.36540    -999.25    -999.25  112.93830   87.93440    9.98110
 5250.00000    3.29420  123.30390    6.80350    7.93090   10.81210    0.15360  123.19520    2.28950    0.17390    0.32880    -999.25    -999.25  122.68240   84.83110   10.03980
 5300.00000    1.11700  122.36680    5.88540    7.13500   11.85400    0.17090  121.96640    2.18960    0.24230    0.37070    -999.25    -999.25  112.87370   86.90600    9.73740
 5350.00000    1.38170  143.16790    2.90210    3.48100   13.02850    0.15570  103.20490    2.05800    0.34790    0.44980    -999.25    -999.25  235.87270   97.39510    9.96090
 5400.00000    1.14250  106.19460    4.26910    5.02780   12.61560    0.15050  103.65120    1.88930    0.45110    0.42260    -999.25    -999.25  100.14700   87.27450   10.11600
 5450.00000    1.72040  121.23540    3.98850    4.47610   11.05530    0.17070  114.73080    2.13830    0.32490    0.37500    -999.25    -999.25  107.46820   90.90730   10.40520
 5500.00000    6.49910   40.06880    8.30430    9.08920    9.06940    0.03060   39.83070    2.38520    0.17200    0.18110    -999.25    -999.25   35.22880   72.81310    9.00150
