~Version ---------------------------------------------------
VERS.      2.0 : CWLS log ASCII Standard -VERSION 2.0
WRAP.       NO : One line per depth step
CREA. 01/05/18 : LAS Creation Date
~Well ------------------------------------------------------
STRT.FT                      950.0 : START DEPTH
STOP.FT                    10300.0 : STOP DEPTH
STEP.FT                   50.00000 : STEP LENGTH
NULL.                      -999.25 : NULL VALUE
COMP.         PETROFINA CANADA LTD : COMPANY
WELL. FINA ET AL KAYBOB 10-7-60-17 : WELL
FLD .                              : FIELD
LOC .                              : LOCATION
CTRY.                       CANADA : COUNTRY
SRVC.                 Schlumberger : SERVICE COMPANY
DATE.                  18-Jan-1976 : LOGDATE
PROV.                      Alberta : PROVINCE
UWI .             100100706017W500 : UNIQUE WELL ID
SLAT.WGS84                54.17689 : SURFACE LATITUDE
SLON.WGS84               -116.5329 : SURFACE LONGITUDE
~Curve Information -----------------------------------------
DEPT    .FT    : Depth Curve
CALDED  .IN    : CALIPER FROM DENSITY LOG [ADJ. TO RESISTIVITY LOG]
CALSED  .IN    : CALIPER FROM SONIC LOG
CALWS   .IN    : CALIPER [CALDED SPL. TO CALSED @ 1046']
CILDED  .MMHO  : CONDUCTIVITY FROM RESISTIVITY LOG
CONDWS  .MMHO  : CONDUCTIVITY [1000/DRESWS]
DCORED  .G/C3  : DENSITY CORRECTION FROM DENSITY LOG [ADJ. TO RESISTIVITY LOG]
DCORWS  .G/C3  : DENSITY CORRECTION [DCORED]
DENWS   .G/C3  : FORMATION BULK DENSITY [CALC. FROM DPOLSWS, M=M=2.71 F=1.00]
DPHILSED.V/V   : DENSITY POROSITY LIMESTONE [M=M=2.71 F=1.00] FROM DENSITY LOG [ADJ. TO RESISTIVITY LOG]
DPHISSED.V/V   : DENSITY POROSITY SANDSTONE [M=2.65 F=1.00] FROM DENSITY LOG [ADJ. TO RESISTIVITY LOG]
DPOLSWS .V/V   : DENSITY POROSITY LIMESTONE [DPHISSED CONVERTED TO LIMESTONE (M=2.71 F=1.00), SPL. TO DPHILSED @ 6847']
DRESWS  .OHMM  : DEEP RESISTIVITY [1000/CILDED, IF ILDED < 2, ILDED & SPL. TO ILDED @ 1043'-3980']
DTED    .US/F  : DELTA TIME FROM SONIC LOG
DTWS    .US/F  : COMPRESSIONAL SONIC [DTED]
GRDED   .GAPI  : GAMMA RAY FROM DENSITY LOG [ADJ. TO RESISTIVITY LOG]
GRSED   .GAPI  : GAMMA RAY FROM SONIC LOG
GRWS    .GAPI  : GAMMA RAY [GRSED]
ILDED   .OHMM  : DEEP  INDUCTION LOG RESISTIVITY FROM RESISTIVITY LOG
ILMED   .OHMM  : MEDIUM INDUCTION LOG RESISTIVITY FROM RESISTIVITY LOG
LL8ED   .OHMM  : 8 INCH LATEROLOG RESISTIVITY FROM RESISTIVITY LOG
MRESWS  .OHMM  : MEDIUM RESISTIVITY [ILMED]
NPHILSED.V/V   : NEUTRON POROSITY LIMESTONE FROM DENSITY LOG [ADJ. TO RESISTIVITY LOG]
NPHISSED.V/V   : NEUTRON POROSITY SANDSTONE FROM DENSITY LOG [ADJ. TO RESISTIVITY LOG]
NPOLSWS .V/V   : NEUTRON POROSITY LIMESTONE [NPHISSED MATRIX CONVERSION FOR LIMESTONE, SPL. TO NPHILSED @ 6847']
RHOBED  .G/C3  : BULK DENSITY FROM DENSITY LOG [ADJ. TO RESISTIVITY LOG]
SPRED   .MV    : SPONTANEOUS POTENTIAL FROM RESISTIVITY LOG
SPWS    .MV    : SPONTANEOUS POTENTIAL [BASELINE 0 MV, SPRED]
SRESWS  .OHMM  : SHALLOW RESISTIVITY [LL8ED]
~Params ----------------------------------------------------
PD  .                     GL : PERMANENT DATUM
EPD .FT              2627.65 : ELEVATION PERMANENT DATUM
LMF .                     KB : LOG MEASURED FROM
DAPD.FT                 14.2 : FEET ABOVE PERMANENT DATUM
EKB .FT              2641.85 : KELLY BUSHING
EGL .FT              2627.65 : GROUND LEVEL
DATE.               01/18/76 : RUN DATE
RUN .                      1 : RUN NUMBER
DD  .FT                10330 : DEPTH DRILLER
DL  .FT                10336 : DEPTH LOGGER
BLI .FT                10330 : BOTTOM LOG INTERVAL
TLI .FT                 1038 : TOP LOG INTERVAL
CBD .FT                 1039 : CASING BOTTOM DRILLER
CBL .FT                 1038 : CASING BOTTOM LOGGER
BS  .IN                 8.75 : BIT SIZE
BSD .FT                10330 : BIT SIZE AT DEPTH
DFT .            GEL CAUSTIC : DRILLING FLUID TYPE
DFD .                    9.1 : DRILLING FLUID DENSITY
DFV .                    220 : DRILLING FLUID VISCOSITY
DFPH.                   10.5 : DRILLING FLUID PH
DFL .                    9.5 : DRILLING FLUID LOSS
MSS .             CIRCULATED : MUD SAMPLE SOURCE
RMS .OHMM               2.67 : RESISTIVITY MUD SAMPLE
MST .DEGF                 52 : MUD SAMPLE TEMPERATURE
RMF .OHMM               2.43 : RESISTIVITY MUD FILTRATE SAMPLE
MFST.DEGF                 73 : MUD FILTRATE SAMPLE TEMPERATURE
RMB .OHMM               0.88 : RESISTIVITY MUD AT BHT
TCS .HRS                   4 : TIME CIRCULATED STOPPED
LUN .                   7667 : LOGGING UNIT NUMBER
LUL .                    EDM : LOGGING UNIT LOCATION
ENGI.                 DENNIS : RECORDING ENGINEER
WITN.                JOHNSON : WITNESSED BY
CLNT.                A2DTECH : CLIENT CODE
ORIG.            2" 5" PRINT : ORIGIN OF DATA
UWI .       100100706017W500 : UNIQUE WELL ID
DICO. A2D Technologies, Inc. : DIGITIZING COMPANY
~Other -----------------------------------------------------
~ASCII -----------------------------------------------------
# ...
 3450.00000    -999.25   10.88190   10.88190  160.71370  150.63870    -999.25    -999.25    -999.25    -999.25    -999.25    -999.25    6.63840   90.76140   90.76140    -999.25   71.44000   71.44000    6.63840    -999.25    7.10490    -999.25    -999.25    -999.25    -999.25    -999.25  -51.16180   -3.33570    7.10490
 3500.00000    -999.25   11.92210   11.92210  132.47740  131.33180    -999.25    -999.25    -999.25    -999.25    -999.25    -999.25    7.61430   87.04230   87.04230    -999.25   91.44980   91.44980    7.61430    -999.25    8.21660    -999.25    -999.25    -999.25    -999.25    -999.25  -53.23310   -5.40700    8.21660
 3550.00000    -999.25   11.79520   11.79520  122.36180  121.26190    -999.25    -999.25    -999.25    -999.25    -999.25    -999.25    8.24670   86.76980   86.76980    -999.25   91.84950   91.84950    8.24670    -999.25    8.53660    -999.25    -999.25    -999.25    -999.25    -999.25  -54.13000   -6.30390    8.53660
 3600.00000    -999.25   12.65940   12.65940  130.98520  126.81660    -999.25    -999.25    -999.25    -999.25    -999.25    -999.25    7.88540   84.68250   84.68250    -999.25   88.43800   88.43800    7.88540    -999.25    8.38210    -999.25    -999.25    -999.25    -999.25    -999.25  -54.36160   -6.53550    8.38210
 3650.00000    -999.25   12.17890   12.17890  134.18330  127.89850    -999.25    -999.25    -999.25    -999.25    -999.25    -999.25    7.81870   91.59170   91.59170    -999.25  102.85220  102.85220    7.81870    -999.25    8.51330    -999.25    -999.25    -999.25    -999.25    -999.25  -54.09780   -6.27170    8.51330
 3700.00000    -999.25   10.69380   10.69380  120.80270  112.08000    -999.25    -999.25    -999.25    -999.25    -999.25    -999.25    8.92220   95.66510   95.66510    -999.25  144.82750  144.82750    8.92220    -999.25   10.67530    -999.25    -999.25    -999.25    -999.25    -999.25  -50.20240   -2.37630   10.67530
 3750.00000    -999.25   10.28150   10.28150   91.15090   87.89820    -999.25    -999.25    -999.25    -999.25    -999.25    -999.25   11.37680   84.56960   84.56960    -999.25  108.25530  108.25530   11.37680    -999.25   12.62360    -999.25    -999.25    -999.25    -999.25    -999.25  -49.43680   -1.63790   12.62360
 3800.00000    -999.25   10.74960   10.74960  114.02890  104.81920    -999.25    -999.25    -999.25    -999.25    -999.25    -999.25    9.54090   87.67070   87.67070    -999.25   91.94310   91.94310    9.54090    -999.25   10.22740    -999.25    -999.25    -999.25    -999.25    -999.25  -52.11010   -4.48040   10.22740
 3850.00000    -999.25   11.55160   11.55160  149.64610  149.27600    -999.25    -999.25    -999.25    -999.25    -999.25    -999.25    6.69900   92.72670   92.72670    -999.25   96.72700   96.72700    6.69900    -999.25    7.24990    -999.25    -999.25    -999.25    -999.25    -999.25  -53.14350   -5.68460    7.24990
 3900.00000    -999.25   11.23370   11.23370  143.23910  133.49350    -999.25    -999.25    -999.25    -999.25    -999.25    -999.25    7.49100   90.01630   90.01630    -999.25   92.08470   92.08470    7.49100    -999.25    8.16510    -999.25    -999.25    -999.25    -999.25    -999.25  -53.07390   -5.78500    8.16510
 3950.00000    -999.25   11.35870   11.35870  113.27020  108.45400    -999.25    -999.25    -999.25    -999.25    -999.25    -999.25    9.22050   82.42510   82.42510    -999.25   91.71050   91.71050    9.22050    -999.25    9.61010    -999.25    -999.25    -999.25    -999.25    -999.25  -54.14920   -7.03030    9.61010
 4000.00000   13.27460   11.74040   11.74040    -999.25   99.00300    0.16490    0.16490    1.85450    -999.25    0.48210    0.50030   10.10070   80.60060   80.60060   87.08650   88.49510   88.49510   10.10070   10.66130   10.00460   10.66130    -999.25    0.40470    0.36190    1.84780  -53.26110   -6.31220   10.00460
 4050.00000   13.41310   11.54730   11.54730    -999.25  114.98560    0.25150    0.25150    2.01410    -999.25    0.38540    0.40700    8.69680   83.37540   83.37540   94.66350   98.06630   98.06630    8.69680    9.05090    9.20410    9.05090    -999.25    0.39450    0.35150    2.02480  -53.47710   -6.69730    9.20410
 4100.00000   13.14760   12.35810   12.35810    -999.25  140.53830    0.19090    0.19090    1.92170    -999.25    0.44140    0.46100    7.11550   86.70940   86.70940   93.08370   97.34280   97.34280    7.11550    7.40680    7.86680    7.40680    -999.25    0.41670    0.37420    1.91330  -52.35210   -5.74310    7.86680
 4150.00000   11.43750   11.01480   11.01480    -999.25  161.61880    0.15180    0.15180    2.21420    -999.25    0.26410    0.29000    6.18740   91.06120   91.06120  107.93470  109.61980  109.61980    6.18740    6.45530    6.83230    6.45530    -999.25    0.40040    0.35760    2.22520  -53.09600   -6.65700    6.83230
 4200.00000   14.83170   12.36110   12.36110    -999.25  117.99970    0.18250    0.18250    1.71410    -999.25    0.56720    0.58240    8.47460   85.17400   85.17400   89.93320   94.55540   94.55540    8.47460    8.84450    9.28540    8.84450    -999.25    0.46110    0.41970    1.68430  -56.53870  -10.26970    9.28540
 4250.00000   10.39860   10.05720   10.05720    -999.25   67.51470    0.08880    0.08880    2.45880    -999.25    0.11590    0.14690   14.81160   78.52460   78.52460   76.63450   74.04310   74.04310   14.81160   14.92080   14.00640   14.92080    -999.25    0.27730    0.23330    2.45880  -53.74400   -7.64500   14.00640
 4300.00000   12.54120   10.89870   10.89870    -999.25  102.89410    0.15360    0.15360    2.31610    -999.25    0.20240    0.23040    9.71880   81.92840   81.92840  100.74830  101.70700  101.70700    9.71880   10.11230   10.10970   10.11230    -999.25    0.30110    0.25710    2.32220  -51.50820   -5.57840   10.10970
 4350.00000   11.76270   10.68890   10.68890    -999.25   92.47960    0.25000    0.25000    2.39690    -999.25    0.15340    0.18310   10.81320   81.94090   81.94090  101.86180  100.75380  100.75380   10.81320   11.25080   12.90300   11.25080    -999.25    0.25500    0.21110    2.38800  -52.88050   -7.12150   12.90300
 4400.00000   11.82500   11.02110   11.02110    -999.25  113.16440    0.09680    0.09680    2.48170    -999.25    0.10200    0.13350    8.83670   83.06290   83.06290  101.24310  100.33980  100.33980    8.83670    9.19360    9.90930    9.19360    -999.25    0.31810    0.27420    2.46930  -53.35940   -7.77040    9.90930
 4450.00000   11.57230   11.22610   11.22610    -999.25  109.86720    0.25050    0.25050    2.45940    -999.25    0.11550    0.14650    9.10190   78.54380   78.54380   98.72660   89.86820   89.86820    9.10190    9.73360   10.53170    9.73360    -999.25    0.29180    0.24780    2.50000  -52.39090   -6.97190   10.53170
 4500.00000   13.18230   11.56520   11.56520    -999.25  136.61390    0.24610    0.24610    2.25230    -999.25    0.24100    0.26760    7.31990   90.30230   90.30230  115.26020  112.32840  112.32840    7.31990    7.63350    8.56510    7.63350    -999.25    0.36570    0.32230    2.26280  -52.09930   -6.85030    8.56510
 4550.00000   13.57490   10.76130   10.76130    -999.25  122.21060    0.23790    0.23790    2.34380    -999.25    0.18550    0.21410    8.18290   93.18410   93.18410  114.72070  119.97850  119.97850    8.18290    8.52450   10.00340    8.52450    -999.25    0.39440    0.35140    2.34140  -49.63330   -4.55340   10.00340
 4600.00000   11.78880   10.33380   10.33380    -999.25   96.69120    0.25020    0.25020    2.41720    -999.25    0.14110    0.17120   10.34220   90.81320   90.81320  125.42710  125.90300  125.90300   10.34220   11.09850   13.36600   11.09850    -999.25    0.34940    0.30580    2.44120  -47.76250   -2.85340   13.36600
 4650.00000   12.75070   10.61700   10.61700    -999.25  113.59890    0.21860    0.21860    2.18830    -999.25    0.27980    0.30510    8.80290   91.28600   91.28600  120.03000  118.06560  118.06560    8.80290    9.16010   11.02560    9.16010    -999.25    0.40280    0.36000    2.13660  -47.87460   -3.13550   11.02560
