~Version ---------------------------------------------------
VERS.      2.0 : CWLS log ASCII Standard -VERSION 2.0
WRAP.       NO : One line per depth step
CREA. 11/22/17 : LAS Creation Date
~Well ------------------------------------------------------
STRT.FT                              300.0 : START DEPTH
STOP.FT                            16950.0 : STOP DEPTH
STEP.FT                           50.00000 : STEP LENGTH
NULL.                              -999.25 : NULL VALUE
COMP.                        BANFF OIL LTD : COMPANY
WELL. BANFF AQUIT SIEBENS RAMR 14-21-37-11 : WELL
FLD .                                      : FIELD
LOC .                                      : LOCATION
CTRY.                               CANADA : COUNTRY
SRVC.                         Schlumberger : SERVICE COMPANY
DATE.                          21-Oct-1970 : LOGDATE
PROV.                              Alberta : PROVINCE
UWI .                     100142103711W500 : UNIQUE WELL ID
SLAT.WGS84                        52.19912 : SURFACE LATITUDE
SLON.WGS84                       -115.5164 : SURFACE LONGITUDE
~Curve Information -----------------------------------------
DEPT    .FT    : Depth Curve
CALDED  .IN    : CALIPER FROM DENSITY LOG [DEP. ADJ. TO ILMED]
CALNED  .IN    : CALIPER FROM NEUTRON LOG [DEP. ADJ. TO ILMED]
CALSED  .IN    : CALIPER FROM SONIC LOG [DEP. ADJ. TO ILMED]
CALWS   .IN    : CALIPER 148' CALSED 13012' CALNED 13190' CALDED 14980' CALSED 15315' CALDED 16246' CALSED]
CONDWS  .MMHO  : DEEP CONDUCTIVITY [1000/DRESWS]
DCORWS  .G/C3  : DENSITY CORRECTION [DRHOED]
DENWS   .G/C3  : BULK DENSITY [M=2.71, F=1.00] [RHOBED]
DPHILSED.V/V   : DENSITY POROSITY [M=2.71, F=1.00] FROM DENSITY LOG [DEP. ADJ. TO ILMED]
DPOLSWS .V/V   : DENSITY POROSITY [M=2.71, F=1.00] [CAL. FROM DENWS]
DRESWS  .OHMM  : DEEP RESISTIVITY [ILDED]
DRHOED  .G/C3  : DENSITY CORRECTION FROM DENSITY LOG [DEP. ADJ. TO ILMED]
DTED    .US/F  : DELTA TIME FROM SONIC LOG [DEP. ADJ. TO ILMED]
DTWS    .US/F  : DELTA TIME [DTED]
GRDED   .GAPI  : GAMMA RAY FROM DENSITY LOG [DEP. ADJ. TO ILMED]
GRNED   .GAPI  : GAMMA RAY FROM NEUTRON LOG [DEP. ADJ. TO ILMED]
GRSED   .GAPI  : GAMMA RAY FROM SONIC LOG [DEP. ADJ. TO ILMED]
GRWS    .GAPI  : GAMMA RAY [GRSED]
ILDED   .OHMM  : INDUCTION LOG DEEP RESISTIVITY
ILMED   .OHMM  : INDUCTION LOG MEDIUM RESISTIVITY
LL8ED   .OHMM  : 8 INCH LATEROLOG RESISTIVITY
MRESWS  .OHMM  : MEDIUM RESISTIVITY [ILMED]
NPOLSWS .V/V   : NEUTRON POROSITY LIMESTONE [SNPLSED]
RHOBED  .G/C3  : BULK DENSITY FROM DENSITY LOG [DEP. ADJ. TO ILMED]
SNPLSED .V/V   : SIDEWALL NEUTRON POROSITY [LIMESTONE] [DEP. ADJ. TO ILMED]
SPRED   .MV    : SPONTANEOUS POTENTIAL FROM RESIST. LOG [DIVIDED BY 2 BELOW 13778'], SHIFTS REMOVED, PATCHED]
SPWS    .MV    : SPONTANEOUS POTENTIAL [BASELINE 0 MV] [SPRED][PL. USE W/ RESERVATION]
SRESWS  .OHMM  : SHALLOW RESISTIVITY [LL8ED]
~Params ----------------------------------------------------
PD  .                     GL : PERMANENT DATUM
EPD .FT                 4914 : ELEVATION PERMANENT DATUM
LMF .                     KB : LOG MEASURED FROM
DAPD.FT                 18.7 : FEET ABOVE PERMANENT DATUM
EKB .FT               4932.7 : KELLY BUSHING
EGL .FT                 4914 : GROUND LEVEL
DATE.               10/21/70 : RUN DATE
RUN .                      4 : RUN NUMBER
DD  .FT                16960 : DEPTH DRILLER
DL  .FT                16960 : DEPTH LOGGER
BLI .FT                16954 : BOTTOM LOG INTERVAL
TLI .FT                16000 : TOP LOG INTERVAL
BS  .IN                8.375 : BIT SIZE
BSD .FT                16960 : BIT SIZE AT DEPTH
DFT .                    GEL : DRILLING FLUID TYPE
DFD .                   10.1 : DRILLING FLUID DENSITY
DFV .                     61 : DRILLING FLUID VISCOSITY
DFPH.                     10 : DRILLING FLUID PH
DFL .                    8.4 : DRILLING FLUID LOSS
MSS .               FLOWLINE : MUD SAMPLE SOURCE
RMS .OHMM               1.51 : RESISTIVITY MUD SAMPLE
MST .DEGF                 66 : MUD SAMPLE TEMPERATURE
RMF .OHMM               1.11 : RESISTIVITY MUD FILTRATE SAMPLE
MFST.DEGF                 70 : MUD FILTRATE SAMPLE TEMPERATURE
TCS .HRS                   4 : TIME CIRCULATED STOPPED
LUN .                   7002 : LOGGING UNIT NUMBER
LUL .                     RD : LOGGING UNIT LOCATION
ENGI.                 TALBOT : RECORDING ENGINEER
WITN.          LEMEE BRINKER : WITNESSED BY
CLNT.                A2DTECH : CLIENT CODE
ORIG.            2" 5" PRINT : ORIGIN OF DATA
UWI .       100142103711W500 : UNIQUE WELL ID
DICO. A2D Technologies, Inc. : DIGITIZING COMPANY
~Other -----------------------------------------------------
~ASCII -----------------------------------------------------
# ...
 13300.00000    7.68960    8.44010    7.97170    7.68960    0.79070    0.15080    2.58950    0.07130    0.07050 1264.71000    0.15080   58.04100   58.04100   13.00420   16.67090   17.07210   17.07210 1264.71000 1695.26950 1438.47310 1695.26950   -0.00210    2.58950   -0.00210  -38.65500 -100.67350 1438.47310
 13350.00000    8.47260    8.22210    7.94330    8.47260   10.63860    0.04290    2.69750    0.00090    0.00730   93.99720    0.04290   55.50650   55.50650    6.33860    6.85920    8.94380    8.94380   93.99720  239.43430  284.14110  239.43430    0.09490    2.69750    0.09490  -79.14020 -139.06150  284.14110
 13400.00000    8.19350    8.18320    7.94810    8.19350   19.30270    0.10460    2.70620   -0.00170    0.00220   51.80630    0.10460   55.63120   55.63120    7.02870    7.46280    9.56510    9.56510   51.80630   99.12350  188.94150   99.12350    0.05530    2.70620    0.05530  -91.27970 -149.10380  188.94150
 13450.00000    8.41360    8.14250    8.13890    8.41360   40.57450    0.12910    2.63760    0.03670    0.04230   24.64600    0.12910   64.69080   64.69080    6.76520    7.30670   11.76750   11.76750   24.64600   42.65340   66.71250   42.65340    0.16020    2.63760    0.16020  -83.93280 -139.65970   66.71250
 13500.00000   11.69760   11.32540   10.31170   11.69760    0.67470    0.12930    2.43850    0.15800    0.15880 1482.08680    0.12930   57.15660   57.15660   16.81740   18.54710   18.20020   18.20020 1482.08680  113.49410  363.49360  113.49410    0.14410    2.43850    0.14410  -52.25890 -105.88860  363.49360
 13550.00000   12.43120   11.70660    8.67480   12.43120    0.55960    0.22480    2.53510    0.10650    0.10230 1787.12460    0.22480   54.98740   54.98740   39.57250   36.93520   41.55630   41.55630 1787.12460  668.30910  413.20010  668.30910    0.08000    2.53510    0.08000  -11.65720  -63.18970  413.20010
 13600.00000   14.12010   13.92090    8.79710   14.12010    0.96310    0.21260    2.25730    0.26300    0.26470 1038.35130    0.21260   57.12370   57.12370    7.51980   17.56440   17.72850   17.72850 1038.35130  133.89390  695.23380  133.89390    0.10810    2.25730    0.10810  -16.04770  -65.48300  695.23380
 13650.00000   10.56260    9.99020    8.84040   10.56260    4.59680    0.19000    2.60170    0.06480    0.06330  217.54370    0.19000   55.03510   55.03510   10.52410   12.02450   10.13610   10.13610  217.54370   51.08950  472.66700   51.08950    0.07340    2.60170    0.07340  -63.84020 -111.17830  472.66700
 13700.00000   10.36590   10.17940    8.73040   10.36590    0.74560    0.09750    2.75290   -0.03140   -0.02510 1341.28930    0.09750   56.06320   56.06320    8.52390    6.12900    8.53930    8.53930 1341.28930 1540.04150  646.99070 1540.04150   -0.00200    2.75290   -0.00200 -105.91520 -151.15610  646.99070
 13750.00000   10.05200    9.75310    8.56070   10.05200    2.24710    0.09490    2.77150   -0.04330   -0.03600  445.00950    0.09490   53.25370   53.25370    7.46860    9.70500   10.75450   10.75450  445.00950 1597.13710 1374.82970 1597.13710    0.00590    2.77150    0.00590 -105.57710 -148.72080 1374.82970
 13800.00000   11.49800   11.40400    8.64710   11.49800    4.78470    0.25240    2.39690    0.18410    0.18310  208.99770    0.25240   57.46760   57.46760   40.49090   58.52470   60.62530   60.62530  208.99770   95.68500  135.34630   95.68500    0.09180    2.39690    0.09180  -65.49060 -107.19090  135.34630
 13850.00000   13.93550   13.71140    8.84670   13.93550   10.10320    0.16170    2.57910    0.07820    0.07650   98.97880    0.16170   55.78380   55.78380   17.61770   26.22870   21.20910   21.20910   98.97880  335.95150   80.27600  335.95150    0.06350    2.57910    0.06350  -66.23080 -107.87710   80.27600
 13900.00000   14.11050   13.02320    9.08880   14.11050    4.45460    0.14510    2.34380    0.20580    0.21420  224.48590    0.14510   55.94840   55.94840   28.46560   27.21770   31.60140   31.60140  224.48590  333.77070  258.66230  333.77070    0.09400    2.34380    0.09400  -49.73020  -91.32270  258.66230
 13950.00000   10.87170   10.41890    8.90050   10.87170    6.86700    0.24880    2.65240    0.02740    0.03370  145.62340    0.24880   56.91120   56.91120   30.31510   35.86630   30.97780   30.97780  145.62340   81.37790  193.87950   81.37790    0.02050    2.65240    0.02050  -52.28510  -93.82360  193.87950
 14000.00000   10.23240   10.03720    8.61220   10.23240    8.80190    0.21760    2.70150    0.00140    0.00500  113.61140    0.21760   57.37670   57.37670   31.72230   34.85620   39.26950   39.26950  113.61140  134.89400  181.19110  134.89400    0.00840    2.70150    0.00840  -48.29580  -89.78040  181.19110
 14050.00000    8.86800    8.62960    8.62990    8.86800    9.51260    0.10700    2.68910    0.00760    0.01220  105.12400    0.10700   59.34760   59.34760   32.19800   33.08110   34.66560   34.66560  105.12400  178.56800  161.14740  178.56800    0.00850    2.68910    0.00850  -43.19130  -84.62190  161.14740
 14100.00000    9.12440    8.75030    8.61460    9.12440   10.57610    0.08150    2.74690   -0.02460   -0.02160   94.55260    0.08150   59.19070   59.19070   24.58740   36.18380   34.34970   34.34970   94.55260  111.87280  140.34820  111.87280    0.00780    2.74690    0.00780  -35.59210  -76.96890  140.34820
 14150.00000    8.77240    8.60820    8.60740    8.77240    5.80080    0.03050    2.69330    0.00290    0.00980  172.39010    0.03050   57.30420   57.30420   14.66360   20.18700   23.85760   23.85760  172.39010  207.73120  279.14900  207.73120   -0.00030    2.69330   -0.00030  -43.55980  -84.88260  279.14900
 14200.00000    8.90140    8.61650    8.68270    8.90140    7.31760    0.02910    2.77590   -0.03540   -0.03850  136.65650    0.02910   57.23820   57.23820   17.22980   21.24060   19.92540   19.92540  136.65650  229.21550  247.92440  229.21550    0.00410    2.77590    0.00410  -37.63520  -78.90400  247.92440
 14250.00000   10.05620    9.08270    8.96470   10.05620    6.07690    0.06600    2.75730   -0.02870   -0.02770  164.55700    0.06600   57.31810   57.31810   16.37780   19.59940   19.99590   19.99590  164.55700  238.28840  273.09090  238.28840    0.05310    2.75730    0.05310  -40.39560  -81.61040  273.09090
 14300.00000    9.39450    9.41700    8.54820    9.39450    9.07170    0.04300    2.73340   -0.01900   -0.01370  110.23340    0.04300   59.79580   59.79580   24.45300   34.06770   31.96060   31.96060  110.23340  121.61110  136.15760  121.61110   -0.00360    2.73340   -0.00360  -32.71760  -73.87850  136.15760
 14350.00000    8.86900    8.91180    8.54020    8.86900   43.69640    0.09590    2.72080   -0.01720   -0.00630   22.88520    0.09590   67.88560   67.88560   45.59130   47.00360   48.75770   48.75770   22.88520   25.26480   31.06260   25.26480    0.05240    2.72080    0.05240  -23.54010  -64.64710   31.06260
 14400.00000    8.64640    8.57500    8.62290    8.64640   23.70650    0.04050    2.69190    0.00480    0.01060   42.18260    0.04050   64.22920   64.22920   37.02780   44.39740   51.36590   51.36590   42.18260   61.78890   88.54200   61.78890    0.01810    2.69190    0.01810  -29.85790  -70.91100   88.54200
 14450.00000   11.33400   11.25080    9.27600   11.33400    1.94050    0.25410    2.67450    0.00850    0.02080  515.32160    0.25410   54.81820   54.81820   13.88170   16.12020   17.97120   17.97120  515.32160 1336.99230  772.17640 1336.99230    0.03050    2.67450    0.03050  -49.15690  -90.15610  772.17640
 14500.00000   10.57210   10.43440    8.91380   10.57210    0.88020    0.25730    2.60760    0.05680    0.05990 1136.13750    0.25730   60.03410   60.03410   18.48630   22.68730   26.69640   26.69640 1136.13750 1320.29080 1420.49070 1320.29080    0.04220    2.60760    0.04220  -35.79460  -76.73980 1420.49070
 14550.00000    9.21870    9.11700    8.50870    9.21870   24.51350    0.02320    2.99670   -0.16820   -0.16770   40.79390    0.02320   56.06940   56.06940    7.59500    9.86260    9.02030    9.02030   40.79390   47.61660  106.85550   47.61660   -0.00960    2.99670   -0.00960   14.33640  -26.55490  106.85550
