~Version ---------------------------------------------------
VERS. 2.0 : CWLS log ASCII Standard -VERSION 2.0
WRAP. YES : MULTIPLE LINES PER DEPTH STEP
~Well ------------------------------------------------------
STRT.M                                      3000.0 : START DEPTH
STOP.M                                      4800.0 : STOP DEPTH
STEP.M                                    50.00000 : STEP LENGTH
NULL.                                      -999.25 : NULL VALUE
COMP.             AMOCO CANADA PETROLEUM CO., LTD. : COMPANY
WELL.        AMOCO ET AL BLACKSTONE A11-22-44-16W5 : WELL
FLD .                                              : FIELD
LOC .                                              : LOCATION
CTRY.                                       CANADA : COUNTRY
SRVC. ATLAS WIRELINE SERVICES / WESTERN ATLAS INTL : SERVICE COMPANY
DATE.                                  06-Oct-1987 : LOGDATE
PROV.                                      Alberta : PROVINCE
UWI .                             102112204416W500 : UNIQUE WELL ID
SLAT.WGS84                                52.81052 : SURFACE LATITUDE
SLON.WGS84                               -116.2431 : SURFACE LONGITUDE
~Curve Information -----------------------------------------
DEPT   .M                 : 
GR_1   .GAPI 35 310 01 00 : GAMMA RAY
CAL    .MM                : CALIPER FROM CALIPER LOG
CALX   .MM   60 280 01 00 : CALIPER X FROM SONIC
CALY   .MM   00 000 00 01 : CALIPER
GR     .GAPI              : GAMMA RAY FROM SPECTRAL GAMMA RAY LOG
SPR    .MV                : SPONTANEOUS POTENTIAL FROM RESISTIVITY
RD     .OHMM 10 220 10 00 : DEEP RESISTIVITY, MEMORY
RS     .OHMM 10 220 09 00 : RESISTIVITY SHALLOW
TENR   .LB   07 635 01 00 : TENSION FROM RESISTIVITY LOG
GRS    .GAPI              : GAMMA RAY FROM SONIC LOG
AC     .US/M              : ACOUSTIC
CALS   .MM                : CALIPER FROM SONIC LOG
TENS   .LB   15 635 01 00 : TENSION FROM GAMMA RAY-NEUTRON LOG
GRD    .GAPI              : GAMMA RAY FROM DENSITY LOG
CNC_SS .DEC  42 890 03 00 : NEUTRON POROSITY SANDSTONE
CALYD  .MM                : CALIPER FROM X AXIS OF X-Y CALIPER[S]
CALXD  .MM                : CALIPER X FROM DENSITY LOG
PE     .B/E  45 358 01 00 : PHOTOELECTRIC FACTOR
PORZ_LS.DEC               : POROSITY LIMESTONE
CNC_LS .DEC               : COMPENSATED NEUTRON POROSITY
ZDEN   .G/C3 45 350 01 00 : BULK DENSITY
C13    .MM   00 000 00 01 : CALIPER 13
C24    .MM                : CALIPER 24
RILM   .OHMM              : INDUCTION MEDIUM RESISTIVITY
RFOC   .OHMM              : SHALLOW FOCUSED LOG RESISTIVITY
RILD   .OHMM 05 120 00 00 : INDUCTION LOG RES.
PORZ_SS.DEC               : POROSITY SANDSTONE
TEND   .LB                : TENSION FROM DENSITY LOG
ZCOR   .G/C3              : DENSITY CORRECTION
SPR_R  .MV   00 000 00 01 : SELF POTENTIAL
RD_R   .OHMM 00 000 00 01 : DEEP RESISTIVITY, MEMORY
RS_R   .OHMM 00 000 00 01 : RESISTIVITY SHALLOW
TENR_R .LB   00 000 00 01 : TENSION
AC_R   .US/M 00 000 00 01 : ACOUSTIC
TENS_R .KG   00 000 00 01 : TENSION
~Params ----------------------------------------------------
PD  .                         GL : PERMANENT DATUM
EPD .M                    1169.7 : ELEVATION PERMANENT DATUM
LMF .                         KB : LOG MEASURED FROM
DAPD.M                      7.63 : FEET ABOVE PERMANENT DATUM
DMF .                         KB : DRILLING MEASURED FROM
EKB .M                    1177.4 : KELLY BUSHING
EGL .M                   1169.77 : GROUND LEVEL
DATE.                   10/06/87 : RUN DATE
RUN .                          2 : RUN NUMBER
DD  .M                      4820 : DEPTH DRILLER
DL  .M                    4819.6 : DEPTH LOGGER
BLI .M                      4809 : BOTTOM LOG INTERVAL
TLI .M                      4695 : TOP LOG INTERVAL
CS  .MM                    177.8 : CASING SIZE
CBD .M                      4697 : CASING BOTTOM DRILLER
CBL .M                      4695 : CASING BOTTOM LOGGER
BS  .MM                      149 : BIT SIZE
BSD .M                      4820 : BIT SIZE AT DEPTH
DFT .                   GEL CHEM : DRILLING FLUID TYPE
DFD .                       1035 : DRILLING FLUID DENSITY
DFV .                         48 : DRILLING FLUID VISCOSITY
DFPH.                       11.2 : DRILLING FLUID PH
DFL .                        9.4 : DRILLING FLUID LOSS
MSS .                   FLOWLINE : MUD SAMPLE SOURCE
RMS .OHMM                    2.1 : RESISTIVITY MUD SAMPLE
MST .DEGC                     18 : MUD SAMPLE TEMPERATURE
RMF .OHMM                   2.35 : RESISTIVITY MUD FILTRATE SAMPLE
MFST.DEGC                     18 : MUD FILTRATE SAMPLE TEMPERATURE
RMC .OHMM                    2.0 : RESISTIVITY MUD CAKE
MCST.DEGC                     18 : MUD CAKE SAMPLE TEMPERATURE
MFSS.                    MEASURE : MUD FILTRATE SAMPLE SOURCE
MCSS.                    MEASURE : MUD CAKE SAMPLE SOURCE
RMB .OHMM                   0.53 : RESISTIVITY MUD AT BHT
TCS .HRS                     9.5 : TIME CIRCULATED STOPPED
LUN .                    HL 6438 : LOGGING UNIT NUMBER
LUL .                   RED DEER : LOGGING UNIT LOCATION
ENGI.                   FRENETTE : RECORDING ENGINEER
WITN.                    EASTMAN : WITNESSED BY
CLNT.                    A2DTECH : CLIENT CODE
ORIG. 6.5"/100M 16.5"/100M PRINT : ORIGIN OF DATA
UWI .           102112204416W500 : UNIQUE WELL ID
DICO.     A2D Technologies, Inc. : DIGITIZING COMPANY
~Other -----------------------------------------------------
~ASCII -----------------------------------------------------
 3000.00000   37.14830    -999.25    -999.25    -999.25    -999.25    -999.25    -999.25    -999.25    -999.25    -999.25    -999.25    -999.25    -999.25    -999.25    -999.25    -999.25    -999.25    -999.25    -999.25    -999.25    -999.25    -999.25    -999.25    -999.25    -999.25    -999.25    -999.25    -999.25    -999.25    -999.25    -999.25    -999.25    -999.25    -999.25    -999.25
 3050.00000   36.31610    -999.25    -999.25    -999.25    -999.25    -999.25    -999.25    -999.25    -999.25    -999.25    -999.25    -999.25    -999.25    -999.25    -999.25    -999.25    -999.25    -999.25    -999.25    -999.25    -999.25    -999.25    -999.25    -999.25    -999.25    -999.25    -999.25    -999.25    -999.25    -999.25    -999.25    -999.25    -999.25    -999.25    -999.25
 3100.00000   37.96350    -999.25    -999.25    -999.25    -999.25    -999.25    -999.25    -999.25    -999.25    -999.25    -999.25    -999.25    -999.25    -999.25    -999.25    -999.25    -999.25    -999.25    -999.25    -999.25    -999.25    -999.25    -999.25    -999.25    -999.25    -999.25    -999.25    -999.25    -999.25    -999.25    -999.25    -999.25    -999.25    -999.25    -999.25
 3150.00000   30.22140    -999.25    -999.25    -999.25    -999.25    -999.25    -999.25    -999.25    -999.25    -999.25    -999.25    -999.25    -999.25    -999.25    -999.25    -999.25    -999.25    -999.25    -999.25    -999.25    -999.25    -999.25    -999.25    -999.25    -999.25    -999.25    -999.25    -999.25    -999.25    -999.25    -999.25    -999.25    -999.25    -999.25    -999.25
 3200.00000   33.73150    -999.25    -999.25    -999.25    -999.25    -999.25    -999.25    -999.25    -999.25   45.33450  212.38640    -999.25    -999.25   48.82460    0.35040    -999.25    -999.25    -999.25    -999.25    -999.25    -999.25    -999.25    -999.25    -999.25    -999.25    -999.25    -999.25    -999.25    -999.25    -999.25    -999.25    -999.25    -999.25    -999.25    -999.25
 3250.00000   18.92840  284.35550  157.56400  155.08990   26.70220   -9.09180    -999.25    -999.25 -112.71150   25.56730  215.49110  268.59850 -114.34510   27.30740    0.12020  278.84450  281.30910    5.12060    -999.25    -999.25    2.57320    -999.25    -999.25    3.60440   27.69530    5.32020    0.05700 -112.62960    0.04140    -999.25    -999.25    -999.25    -999.25    -999.25    -999.25
 3300.00000   33.25340  294.79130  128.88730  166.00340   41.20080  -56.60720    -999.25    -999.25  -71.21100   41.11100  211.90760  295.82970  -67.35110   42.01600    0.17880  341.06770  250.74470    5.71980    -999.25    -999.25    2.66140    -999.25    -999.25   15.23650   16.51120   14.57320   -0.01360  -75.27930    0.01140    -999.25    -999.25    -999.25    -999.25    -999.25    -999.25
 3350.00000   41.08740  342.90300  143.84010  209.19660   51.27340  -61.01780    -999.25    -999.25 -112.38690   49.91710  242.78160  330.26070 -112.32150   51.76650    0.32230  407.98110  281.58660    7.29530    -999.25    -999.25    2.08770    -999.25    -999.25   10.37720   13.08820   10.66290    0.13040  327.01800   -0.07640    -999.25    -999.25    -999.25    -999.25    -999.25    -999.25
 3400.00000   39.30650  296.17090  139.51450  159.41420   55.30220  -49.57190    -999.25    -999.25  -75.54890   52.88890  218.58600  311.74160  -68.16040   57.09710    0.17300  321.78570  272.06010    6.26820    -999.25    -999.25    2.62460    -999.25    -999.25   11.85050   13.78550   10.78800    0.01550 -108.21840    0.01640    -999.25    -999.25    -999.25    -999.25    -999.25    -999.25
 3450.00000   36.32480  344.12730  154.65230  182.94580   44.65740  -60.85870    -999.25    -999.25 -101.53410   44.39600  250.98240  320.33870 -101.75400   44.20480    0.32380  375.27330  315.42580    9.13560    -999.25    -999.25    2.22910    -999.25    -999.25    6.72410    9.82030    8.89710    0.27650 -191.09110   -0.05380    -999.25    -999.25    -999.25    -999.25    -999.25    -999.25
 3500.00000   38.59500  301.88390  146.50380  152.35260   46.84360  -28.51840    -999.25    -999.25 -107.91760   42.35770  237.80810  302.61260 -108.16950   46.87840    0.21150  302.85620  290.69300    9.27080    -999.25    -999.25    2.30900    -999.25    -999.25    6.64470   14.54840    9.77040    0.19250 -119.81680   -0.10010    -999.25    -999.25    -999.25    -999.25    -999.25    -999.25
 3550.00000   45.27920  278.83650  129.65180  151.44970   57.39910  -51.54960    -999.25    -999.25 -118.92780   57.05460  214.28760  290.02470 -118.04570   58.51370    0.16100  306.93900  252.44130    5.97180    -999.25    -999.25    2.67940    -999.25    -999.25   29.52490   38.28220   31.31510   -0.04900 -131.70180    0.04480    -999.25    -999.25    -999.25    -999.25    -999.25    -999.25
 3600.00000   44.41670  268.35070  135.21880  134.51970   64.36140  -58.21950    -999.25    -999.25  -88.00230   58.35110  237.03050  289.53920  -90.10390   63.13780    0.20020  282.59120  266.74300    6.87680    -999.25    -999.25    2.62170    -999.25    -999.25   15.85790   22.65900   16.09720    0.01330 -111.03260    0.01380    -999.25    -999.25    -999.25    -999.25    -999.25    -999.25
 3650.00000   58.31590  310.88150  128.92750  178.05630   67.57750  -56.77200    -999.25    -999.25  -92.63430   73.83470  239.02960  255.33790  -92.39490   73.89490    0.27750  363.62260  249.28990    8.51060    -999.25    -999.25    2.67690    -999.25    -999.25    7.68530   13.71360    8.23530   -0.02260 -119.80850    0.00170    -999.25    -999.25    -999.25    -999.25    -999.25    -999.25
 3700.00000   15.89410  219.40910  113.53520  107.78190   29.05830  -79.91320    -999.25    -999.25 -112.19940   19.67600  187.36360  221.77170 -110.32790   27.02240    0.06020  222.01240  219.44820    4.50750    0.04320    0.01940    2.63920    -999.25    -999.25    -999.25    -999.25    -999.25    0.00690 -116.93450    0.01670    -999.25    -999.25    -999.25    -999.25    -999.25    -999.25
 3750.00000   12.57740  222.99020  119.88090  105.34390   22.95650 -154.52770    -999.25    -999.25 -111.71230   20.08410  159.46770  216.81590 -112.80820   23.26820    -999.25  211.62680  232.65600    5.31440   -0.03600    0.03040    2.76980    -999.25    -999.25 1993.20280    -999.25 1601.63530    -999.25 -137.75460    0.00470    -999.25    -999.25    -999.25    -999.25    -999.25    -999.25
 3800.00000   13.66360  270.05870  129.74560  142.90980   17.13140  -67.83190    -999.25    -999.25 -117.40450   16.27660  165.93590  240.84780 -117.14460   17.40290    -999.25  276.44930  257.26500    9.15440    0.03020    0.01740    2.74330    -999.25    -999.25  163.73920  672.45570  170.42770    -999.25 -108.82470    0.07990    -999.25    -999.25    -999.25    -999.25    -999.25    -999.25
 3850.00000    4.88390  256.89530  122.38350  151.33020   10.91540 -162.91560    -999.25    -999.25 -111.73160    9.32160  158.01720  237.83780 -112.67520   12.12030    -999.25  276.43520  237.26860    6.46980    0.00900    0.00040    2.69860    -999.25    -999.25  294.53210 1965.61320  313.26890    -999.25 -157.66490   -0.01320    -999.25    -999.25    -999.25    -999.25    -999.25    -999.25
 3900.00000   55.56100  272.32360  124.52840  158.40700   83.62680  249.45420    -999.25    -999.25 -106.96030   71.00890  120.73220  272.73550 -108.69260   79.03830    -999.25  349.12440  243.84410    4.75160    0.00170    0.14760    2.70880    -999.25    -999.25   25.52680   41.82000   32.71970    -999.25 -129.71220    0.00580    -999.25    -999.25    -999.25    -999.25    -999.25    -999.25
 3950.00000   14.46140  228.23630  121.55720  109.23870   23.75190  249.85200    -999.25    -999.25 -103.89030   21.26060  167.88950  227.99510 -103.49480   24.49360    -999.25  224.17680  235.14980    5.44760    0.00350    0.01380    2.70780    -999.25    -999.25    -999.25  449.62120  174.56310    -999.25  -88.34250    0.00580    -999.25    -999.25    -999.25    -999.25    -999.25    -999.25
 4000.00000   20.25530  232.76230  121.72370  112.47980   34.34670  249.63360    -999.25    -999.25 -114.69390   32.53530  181.46220  230.38470 -112.77520   33.48420    -999.25  229.72190  237.37990    5.36960    0.01320    0.03880    2.68870    -999.25    -999.25 1316.62840  413.82320  114.98100    -999.25  -99.79530   -0.00040    -999.25    -999.25    -999.25    -999.25    -999.25    -999.25
