~Version ---------------------------------------------------
VERS.      2.0 : CWLS log ASCII Standard -VERSION 2.0
WRAP.       NO : One line per depth step
CREA. 09/06/13 : LAS Creation Date
~Well ------------------------------------------------------
STRT.M                           350.0 : START DEPTH
STOP.M                          4000.0 : STOP DEPTH
STEP.M                        50.00000 : STEP LENGTH
NULL.                          -999.25 : NULL VALUE
COMP. CHEVRON CANADA RESOURCES LIMITED : COMPANY
WELL.     CHEVRON SIMONETTE 11-6-64-26 : WELL
FLD .                                  : FIELD
LOC .                                  : LOCATION
CTRY.                           CANADA : COUNTRY
SRVC.                          Unknown : SERVICE COMPANY
DATE.                      18-Feb-1991 : LOGDATE
PROV.                          Alberta : PROVINCE
UWI .                 100110606426W500 : UNIQUE WELL ID
SLAT.WGS84                    54.51141 : SURFACE LATITUDE
SLON.WGS84                   -117.9251 : SURFACE LONGITUDE
~Curve Information -----------------------------------------
DEPT    .M      : DEPTH METER
C1ED    .MM     : CALIPER 1 FROM CNL-LDT LOG [ADJ. TO PISFL LOG]
C2ED    .MM     : CALIPER 2 FROM CNL-LDT LOG [ADJ. TO PISFL LOG]
CALSED  .MM     : CALIPER FROM BCS LOG [ADJ. TO PISFL LOG]
CALWS   .MM     : CALIPER [C1ED]
CONDWS  .MMHO   : CONDUCTIVITY [1000/DRESWS]
DCORWS  .KG/M3  : DENSITY CORRECTION [DRHOED]
DENWS   .KG/M3  : FORMATION BULK DENSITY [RHOBED SPL. TO CALC DPHILSED,M=2710,F=1000,@3678-3704.3M]
DPHILSED.V/V    : DENSITY POROSITY LIMESTONE [M=2710,F=1000] FROM CNL-LDT LOG [ADJ. TO PISFL LOG]
DPHISSED.V/V    : DENSITY POROSITY SANDSTONE [M=2650,F=1000] FROM CNL-LDT LOG [ADJ. TO PISFL LOG]
DPOLSWS .V/V    : DENSITY POROSITY LIMESTONE [CALC FROM DENWS,M=2710,F=1000]
DRESWS  .OHMM   : DEEP RESISTIVITY [IDPHED]
DRHOED  .KG/M3  : BULK DENSITY CORRECTION FROM CNL-LDT LOG [ADJ. TO PISFL LOG]
DT1ED   .US/M   : DELTA-T FROM ARRAY SONIC-STC-VDL LOG
DTCOED  .US/M   : DELTA TIME COMPRESSIONAL FROM ARRAY SONIC-STC-VDL LOG [ADJ. TO PISFL LOG]
DTED    .US/M   : DELTA TIME FROM BCS LOG [ADJ. TO RESISTIVITY LOG]
DTLED   .US/M   : DELTA-T LONG SPACING FROM ARRAY SONIC-STC-VDL LOG [ADJ. TO PISFL LOG]
DTLFED  .US/M   : DELTA TIME LONG SPACING FAR DETECTOR FROM ARRAY SONIC-STC-VDL LOG [ADJ. TO PISFL LOG]
DTLNED  .US/M   : DELTA TIME LONG SPACING NEAR DETECTOR FROM ARRAY SONIC-STC-VDL LOG [ADJ. TO PISFL LOG]
DTSMED  .US/M   : DELTA TIME SHEAR WAVE FROM ARRAY SONIC-STC-VDL LOG [ADJ. TO PISFL LOG]
DTSWS   .US/M   : SHEAR SONIC [DTSMED]
DTWS    .US/M   : COMPRESSIONAL SONIC [DTED SPL @3686.7-3724.5M TO DT1ED]
GRR1ED  .GAPI   : GAMMA RAY FROM DLL LOG [ADJ. TO PISFL LOG]
GRRED   .GAPI   : GAMMA RAY FROM PISFL LOG
GRSED   .GAPI   : GAMMA RAY [GRS SPL. TO GRS_1@3668M] FROM BCS-ARRAY SONIC-STC-VDL LOG [ADJ. TO PISFL LOG]
GRWS    .GAPI   : GAMMA RAY [GRRED SPL. TO GRSED @ 4031M]
HDSED   .MM     : HOLE DIAMETER FROM SONIC LOG [ADJ. TO PISFL LOG]
IDPHED  .OHMM   : DEEP INDUCTION RESISTIVITY FROM PISFL LOG
IMPHED  .OHMM   : MEDIUM INDUCTION RESISTIVITY FROM PISFL LOG
LLDED   .OHMM   : SHALLOW RESISTIVITY FROM DLL LOG [ADJ. TO PISFL LOG]
LLSED   .OHMM   : DEEP RESISTIVITY FROM DLL LOG [ADJ. TO PISFL LOG]
MRESWS  .OHMM   : MEDIUM RESISTIVITY [IMPHED]
NPHILSED.V/V    : NEUTRON POROSITY LIMESTONE FROM CNL-LDT LOG [ADJ. TO PISFL LOG]
NPHISSED.V/V    : NEUTRON POROSITY SANDSTONE FROM CNL-LDT LOG [ADJ. TO PISFL LOG]
NPOLSWS .V/V    : NEUTRON POROSITY LIMESTONE [NPHISSED CONVERTED TO LIMESTONE MATRIX,SPL. TO NPHILSED @2696M]
PEFED   .B/E    : PHOTOELECTRIC FACTOR FROM CNL-LDT LOG [ADJ. TO PISFL LOG]
PEFWS   .B/E    : PHOTOELECTRIC FACTOR [PEFED]
RHOBED  .KG/M3  : BULK DENSITY FROM CNL-LDT LOG [ADJ. TO PISFL LOG]
SFLUED  .OHMM   : SHALLOW FOCUS RESISTIVITY FROM PISFL LOG
SGRDDED .GAPI   : GAMMA RAY COMBINED FROM CNL-LDT LOG [ADJ. TO PISFL LOG]
SPR1ED  .MV     : SPONTANEOUS POTENTIAL  FROM DLL LOG [ADJ. TO PISFL LOG]
SPRED   .MV     : SPONTANEOUS POTENTIAL FROM PISFL LOG
SPWS    .MV     : SPONTANEOUS POTENTIAL [BASELINE 0 MV, SPRED]
SRESWS  .OHMM   : SHALLOW RESISTIVITY [SFLUED]
TENDED  .N      : TENSION FROM CNL-LDT LOG [ADJ. TO PISFL LOG]
TENRED  .N      : TENSION FROM PISFL-DLL LOG
TENSED  .N      : TENSION [TENS SPL. TO TENS_1@3724M] FROM BCS-ARRAY SONIC-STC-VDL LOG [ADJ. TO PISFL LOG]
~Params ----------------------------------------------------
PD  .                         GL : PERMANENT DATUM
EPD .M                     916.7 : ELEVATION PERMANENT DATUM
LMF .                         KB : LOG MEASURED FROM
DAPD.M                       6.7 : FEET ABOVE PERMANENT DATUM
DMF .                         KB : DRILLING MEASURED FROM
EKB .M                     923.4 : KELLY BUSHING
EDF .M                       923 : DRILLING FLOOR
EGL .M                     916.7 : GROUND LEVEL
DATE.                   02/18/91 : RUN DATE
RUN .                          1 : RUN NUMBER
DD  .M                      3725 : DEPTH DRILLER
DL  .M                    3705.6 : DEPTH LOGGER
BLI .M                    3704.8 : BOTTOM LOG INTERVAL
TLI .M                     450.4 : TOP LOG INTERVAL
CS  .MM                    244.5 : CASING SIZE
CBD .M                       451 : CASING BOTTOM DRILLER
CBL .M                     450.4 : CASING BOTTOM LOGGER
BS  .MM                      222 : BIT SIZE
BSD .M                      3725 : BIT SIZE AT DEPTH
DFT .                   GEL CHEM : DRILLING FLUID TYPE
DFD .                       1160 : DRILLING FLUID DENSITY
DFV .                         83 : DRILLING FLUID VISCOSITY
DFPH.                        9.5 : DRILLING FLUID PH
DFL .                          7 : DRILLING FLUID LOSS
MSS .                   MEASURED : MUD SAMPLE SOURCE
RMS .OHMM                   1.54 : RESISTIVITY MUD SAMPLE
MST .DEGC                     20 : MUD SAMPLE TEMPERATURE
RMF .OHMM                   1.15 : RESISTIVITY MUD FILTRATE SAMPLE
MFST.DEGC                     16 : MUD FILTRATE SAMPLE TEMPERATURE
RMC .OHMM                   0.86 : RESISTIVITY MUD CAKE
MCST.DEGC                      9 : MUD CAKE SAMPLE TEMPERATURE
MFSS.                   MEASURED : MUD FILTRATE SAMPLE SOURCE
MCSS.                   MEASURED : MUD CAKE SAMPLE SOURCE
RMB .OHMM                  0.602 : RESISTIVITY MUD AT BHT
TCS .HRS                     400 : TIME CIRCULATED STOPPED
TLAB.HRS                    1638 : TIME LOGGER AT BOTTOM
LUN .                       8204 : LOGGING UNIT NUMBER
LUL .              GRANE PRAIRIE : LOGGING UNIT LOCATION
ENGI.                     HAYDEN : RECORDING ENGINEER
WITN.                      CROWE : WITNESSED BY
CLNT.                    A2DTECH : CLIENT CODE
ORIG. 6.5"/100M 16.5"/100M PRINT : ORIGIN OF DATA
UWI .           100110606426W500 : UNIQUE WELL ID
DICO.     A2D Technologies, Inc. : DIGITIZING COMPANY
~Other -----------------------------------------------------
PI-SFL-DLL-CNL-LDT-STC-VDL-BCS TOOL RUN
~ASCII -----------------------------------------------------
# ...
 3550.00000  219.37070  301.22450  232.70440  219.37070    2.20280  -16.13240 2715.65750   -0.00400    -999.25   -0.00330  453.96460  -16.13240    -999.25    -999.25  167.22610    -999.25    -999.25    -999.25    -999.25    -999.25  167.22610    -999.25   21.65610   21.23210   21.65610    -999.25  453.96460  529.17460    -999.25    -999.25  529.17460    0.02600    -999.25    0.02600    5.49520    5.49520 2715.65750  464.64950   21.73660    -999.25 -303.18920 -193.00970  464.64950 24693.31840    -999.25 20860.43360
 3600.00000  250.84520  231.40630  223.80830  250.84520    5.98860  202.06630 2608.85940    0.05700    -999.25    0.05910  166.98430  202.06630    -999.25    -999.25  178.43380    -999.25    -999.25    -999.25    -999.25    -999.25  178.43380    -999.25   30.06020   29.87050   30.06020    -999.25  166.98430  501.00220    -999.25    -999.25  501.00220    0.03420    -999.25    0.03420    6.49260    6.49260 2608.85940  201.51960   26.49760    -999.25 -239.06110 -118.23400  201.51960 24473.12500    -999.25 21351.55860
 3650.00000  228.91040  349.12030  250.99460  228.91040  229.46310   40.35600 2588.83590    0.06250    -999.25    0.07090    4.35800   40.35600  182.10450    -999.25  251.01220    -999.25    -999.25    -999.25    -999.25    -999.25  251.01220    -999.25   77.84480   77.00610   77.84480    -999.25    4.35800    4.64170    -999.25    -999.25    4.64170    0.19790    -999.25    0.19790    5.49580    5.49580 2588.83590    4.26340   80.34960    -999.25 -135.80530   -5.00020    4.26340 25533.26950    -999.25 21575.75590
 3700.00000    -999.25    -999.25    -999.25    -999.25    -999.25    -999.25 2691.70300    0.01070    -999.25    0.01070    -999.25    -999.25  185.45050    -999.25    -999.25    -999.25    -999.25    -999.25    -999.25    -999.25  185.45050    -999.25   44.85280   41.20860   44.85280    -999.25    -999.25    -999.25    -999.25    -999.25    -999.25    -999.25    -999.25    -999.25    5.20840    5.20840    -999.25    -999.25    -999.25    -999.25    -999.25    -999.25    -999.25    -999.25    -999.25 21627.86330
 3750.00000  162.84480  161.81650    -999.25  162.84480  123.79000  -11.05130 2713.15990   -0.00180    -999.25   -0.00180    8.07820  -11.05130    -999.25  214.11390  215.27000  214.82870  214.34840  213.51460  398.88820  398.88820  215.27000   70.58870   75.93140   65.84150   75.93140  176.93040    8.07820    8.61290   12.26310   10.97950    8.61290    0.14060    -999.25    0.14060    4.67370    4.67370 2713.15990   11.67730   80.61880 -131.59650  -88.34020  -11.24610   11.67730 16652.86910 3082.89530 15868.72560
 3800.00000  151.85310  146.10020    -999.25  151.85310   14.04010   -7.14260 2552.50390    0.09190    -999.25    0.09210   71.22440   -7.14260    -999.25  233.23840  234.69110  233.76280  232.90540  231.87840  379.22550  379.22550  234.69110  162.15170  160.10230  141.62900  160.10230  170.07040   71.22440   59.32010  108.34430  139.87060   59.32010    0.04720    -999.25    0.04720    3.26870    3.26870 2552.50390  129.87540  171.43270  -67.61630 -111.39370   -8.43840  129.87540 16727.65430 3079.17820 15989.95510
 3850.00000  186.09540  142.64740    -999.25  186.09540    0.52220  162.25010 2712.55760   -0.00220    -999.25   -0.00150 1914.87210  162.25010    -999.25  160.76760  158.56610  158.06340  157.53770  157.07080  302.52230  302.52230  158.56610   11.06200    9.05670   10.35340    9.05670  176.77460 1914.87210 1954.81010 28098.78520 18389.79690 1954.81010    0.01270    -999.25    0.01270    6.61870    6.61870 2712.55760 1999.08200   12.85910 -120.45270 -252.20450 -116.38560 1999.08200 17031.58790 3112.12350 16090.98730
 3900.00000  369.92970  165.04120    -999.25  369.92970    0.50330  112.12580 2297.25900    0.24190    -999.25    0.24140 1986.72460  112.12580    -999.25  171.66460  198.62840  194.08590  176.35480  171.31480  358.97750  358.97750  198.62840   12.40100   12.22390   10.33200   12.22390  239.52960 1986.72460 1794.19170 39023.20310 1029.67820 1794.19170    0.01530    -999.25    0.01530   11.17570   11.17570 2297.25900 1844.52940   12.79770 -155.02150 -263.82270  -95.36100 1844.52940 16535.05080 3157.79150 15720.62300
 3950.00000  156.04530  154.80770    -999.25  156.04530    7.15190  -10.94800 2811.49660   -0.05850    -999.25   -0.05940  139.82230  -10.94800    -999.25  161.98730  164.34910  163.03350  162.51950  161.84430  295.12190  295.12190  164.34910   51.94830   56.55470   48.41080   56.55470  170.93370  139.82230  155.05720  203.04090  193.60270  155.05720    0.08870    -999.25    0.08870    3.33350    3.33350 2811.49660  173.88390   56.45800  -72.82310 -165.02390  -16.51350  173.88390 17310.77930 3222.09060 16308.86820
 4000.00000  159.32180  155.45670    -999.25  159.32180   27.52880   94.52320 2602.93310    0.06480    -999.25    0.06260   36.32560   94.52320    -999.25  198.63450  203.72180  204.29130  205.09240  207.33410  380.75410  380.75410  203.72180  154.78420  157.32290  132.98120  157.32290  171.89310   36.32560   33.83800   52.12750   56.93720   33.83800    0.12650    -999.25    0.12650    5.06160    5.06160 2602.93310   54.20670  153.21710  -11.54640 -124.15010   -5.16970   54.20670 17371.02930 3231.55540 16390.41600
