~Version ---------------------------------------------------
VERS.      2.0 : CWLS log ASCII Standard -VERSION 2.0
WRAP.       NO : One line per depth step
CREA. 10/03/17 : LAS Creation Date
~Well ------------------------------------------------------
STRT.FT                              1000.0 : START DEPTH
STOP.FT                             10700.0 : STOP DEPTH
STEP.FT                            50.00000 : STEP LENGTH
NULL.                               -999.25 : NULL VALUE
COMP. HUDSONS BAY OIL & GAS COMPANY LIMITED : COMPANY
WELL.        H.B. UNION KAYBOBS 11-27-62-20 : WELL
FLD .                                       : FIELD
LOC .                                       : LOCATION
CTRY.                                CANADA : COUNTRY
SRVC.                Schlumberger of Canada : SERVICE COMPANY
DATE.                           19-Sep-1961 : LOGDATE
PROV.                               Alberta : PROVINCE
UWI .                      100112706220W500 : UNIQUE WELL ID
SLAT.WGS84                          54.3942 : SURFACE LATITUDE
SLON.WGS84                        -116.9147 : SURFACE LONGITUDE
~Curve Information -----------------------------------------
DEPT  .FT         : Depth Curve
CALWS .IN         : CALIPER [MCALED]
CILDED.MMHO       : DEEP INDUCTION CONDUCTIVITY FROM RESISTIVITY LOG
CONDWS.MMHO       : CONDUCTIVITY [1000/DRESWS]
DRESWS.OHMM       : DEEP RESISTIVITY [CILDED/1000.IF ILDED <=5,ILDED]
DTED  .US/F       : DELTA-T FROM SONIC LOG [ADJ. TO RESISTIVITY LOG]
DTWS  .US/F       : COMPRESSIONAL SONIC [DTED]
GRNED .GAPI       : GAMMA RAY FROM GRN LOG [ADJ. TO RESISTIVITY LOG]
GRSED .UgRa-Eq/T  : GAMMA RAY FROM SONIC LOG [ADJ. TO RESISTIVITY LOG]
GRWS  .GAPI       : GAMMA RAY [GRSED*16.5]
ILDED .OHMM       : DEEP INDUCTION RESISTIVITY FROM RESISTIVITY LOG
MCALED.IN         : CALIPER FROM MICROLOG
NEUTED.NAPI       : NEUTRON FROM GRN LOG [ADJ. TO RESISTIVITY LOG]
NEUTWS.NAPI       : NEUTRON [NEUTED]
SNED  .OHMM       : SHORT NORMAL RESISTIVITY FROM RESISTIVITY LOG
SPRED .MV         : SPONTANEOUS POTENTIAL FROM RESISTIVITY LOG
SPWS  .MV         : SPONTANEOUS POTENTIAL [BASELINE 0 MV,SPRED]
SRESWS.OHMM       : SHALLOW RESISTIVITY [SNED]
~Params ----------------------------------------------------
PD  .                    CBF : PERMANENT DATUM
EPD .FT                 2733 : ELEVATION PERMANENT DATUM
LMF .                     KB : LOG MEASURED FROM
DAPD.FT                 15.6 : FEET ABOVE PERMANENT DATUM
EKB .FT               2748.6 : KELLY BUSHING
EDF .FT                 2733 : DRILLING FLOOR
EGL .FT                 2733 : GROUND LEVEL
DATE.               09/19/61 : RUN DATE
RUN .                      1 : RUN NUMBER
DD  .FT                10742 : DEPTH DRILLER
DL  .FT                10737 : DEPTH LOGGER
BLI .FT                10736 : BOTTOM LOG INTERVAL
TLI .FT                 1078 : TOP LOG INTERVAL
CBD .FT                 1078 : CASING BOTTOM DRILLER
CBL .FT                 1078 : CASING BOTTOM LOGGER
BS  .IN                    9 : BIT SIZE
BSD .FT                10742 : BIT SIZE AT DEPTH
DFT .                    GEL : DRILLING FLUID TYPE
DFD .                    9.8 : DRILLING FLUID DENSITY
DFV .                     90 : DRILLING FLUID VISCOSITY
DFPH.                      9 : DRILLING FLUID PH
DFL .                    7.8 : DRILLING FLUID LOSS
RMS .OHMM                1.7 : RESISTIVITY MUD SAMPLE
MST .DEGF                 74 : MUD SAMPLE TEMPERATURE
RMF .OHMM               1.42 : RESISTIVITY MUD FILTRATE SAMPLE
MFST.DEGF                 76 : MUD FILTRATE SAMPLE TEMPERATURE
RMC .OHMM               1.65 : RESISTIVITY MUD CAKE
MCST.DEGF                 77 : MUD CAKE SAMPLE TEMPERATURE
RMB .OHMM                0.6 : RESISTIVITY MUD AT BHT
TCS .HRS                 500 : TIME CIRCULATED STOPPED
LUN .                   1574 : LOGGING UNIT NUMBER
ENGI.                 BENNER : RECORDING ENGINEER
WITN.         BRITTON WALKER : WITNESSED BY
CLNT.                A2DTECH : CLIENT CODE
ORIG.            2" 5" PRINT : ORIGIN OF DATA
UWI .       100112706220W500 : UNIQUE WELL ID
DICO. A2D Technologies, Inc. : DIGITIZING COMPANY
~Other -----------------------------------------------------
IEL/GRN/SONIC LOG RAN
~ASCII -----------------------------------------------------
 1000.00000    -999.25    -999.25    -999.25    -999.25    -999.25    -999.25    -999.25    2.36490   39.02090    -999.25    -999.25    -999.25    -999.25    -999.25    -999.25    -999.25    -999.25
 1050.00000    -999.25    -999.25    -999.25    -999.25    -999.25    -999.25    -999.25    1.98900   32.81770    -999.25    -999.25    -999.25    -999.25    -999.25    -999.25    -999.25    -999.25
 1100.00000    -999.25  143.42820  149.44560    6.69140  107.63860  107.63860    -999.25    4.17400   68.87100    6.69140    -999.25    -999.25    -999.25    6.70590 -111.01090   -3.57500    6.70590
 1150.00000    -999.25  107.56240  107.56970    9.29630   79.40390   79.40390    -999.25    3.49640   57.69060    9.29630    -999.25    -999.25    -999.25    8.45630 -115.17920   -7.84810    8.45630
 1200.00000    -999.25  200.43270  225.49950    4.43460  108.09310  108.09310    -999.25    4.62550   76.31990    4.43460    -999.25    -999.25    -999.25    4.97770 -111.58440   -4.40170    4.97770
 1250.00000    -999.25  102.51740  105.60550    9.46920   90.17640   90.17640    -999.25    4.27390   70.51940    9.46920    -999.25    -999.25    -999.25    7.36660 -109.72340   -2.68810    7.36660
 1300.00000    -999.25   99.65250  107.31720    9.31860  104.65690  104.65690    -999.25    3.28010   54.12170    9.31860    -999.25    -999.25    -999.25    9.93940 -112.69250   -5.80470    9.93940
 1350.00000    -999.25  237.80640  266.66670    3.75000  120.56530  120.56530    -999.25    4.28220   70.65630    3.75000    -999.25    -999.25    -999.25    4.64340 -109.70300   -2.96360    4.64340
 1400.00000    -999.25  298.55910  332.25900    3.00970  118.52480  118.52480    -999.25    4.44570   73.35410    3.00970    -999.25    -999.25    -999.25    4.47220 -109.62360   -3.03160    4.47220
 1450.00000    -999.25   97.93150   97.71540   10.23380   86.13230   86.13230    -999.25    4.35400   71.84100   10.23380    -999.25    -999.25    -999.25    8.96090 -113.12520   -6.68160    8.96090
 1500.00000    -999.25  170.70680  195.25150    5.12160  101.07000  101.07000    -999.25    3.13200   51.67840    5.12160    -999.25    -999.25    -999.25    6.10600 -110.37200   -4.07590    6.10600
 1550.00000    -999.25  243.87100  237.69930    4.20700  120.80920  120.80920    -999.25    4.52550   74.67080    4.20700    -999.25    -999.25    -999.25    3.57370 -110.24790   -4.66170    3.57370
 1600.00000    -999.25  352.23760  387.53680    2.58040  125.08750  125.08750    -999.25    4.29590   70.88230    2.58040    -999.25    -999.25    -999.25    3.79850 -110.48030   -5.62020    3.79850
 1650.00000    -999.25  285.09770  323.11220    3.09490  118.35990  118.35990    -999.25    4.17530   68.89240    3.09490    -999.25    -999.25    -999.25    3.89500 -109.79710   -5.65820    3.89500
 1700.00000    -999.25   97.30690  109.07030    9.16840   91.86880   91.86880    -999.25    3.52080   58.09320    9.16840    -999.25    -999.25    -999.25    7.53630 -109.52280   -5.55160    7.53630
 1750.00000    -999.25  164.79840  168.42960    5.93720  120.78580  120.78580    -999.25    4.44470   73.33760    5.93720    -999.25    -999.25    -999.25    5.21320 -109.64280   -5.50880    5.21320
 1800.00000    -999.25  187.47010  200.78310    4.98070  108.45550  108.45550    -999.25    4.53930   74.89850    4.98070    -999.25    -999.25    -999.25    4.58980 -109.73410   -5.43730    4.58980
 1850.00000    -999.25  188.77000  177.09460    5.64670  106.34280  106.34280    -999.25    4.39060   72.44490    5.64670    -999.25    -999.25    -999.25    4.94630 -109.33100   -4.87030    4.94630
 1900.00000    -999.25  281.28520  303.06700    3.29960  119.74670  119.74670    -999.25    5.37570   88.69910    3.29960    -999.25    -999.25    -999.25    4.77830 -109.53750   -4.91400    4.77830
 1950.00000    -999.25  253.68210  286.31960    3.49260  107.20540  107.20540    -999.25    4.72340   77.93610    3.49260    -999.25    -999.25    -999.25    5.71900 -109.84810   -5.06070    5.71900
 2000.00000    -999.25  193.82360  219.08680    4.56440  108.56060  108.56060    -999.25    4.64090   76.57480    4.56440    -999.25    -999.25    -999.25    4.78270 -109.65770   -4.70750    4.78270
 2050.00000    -999.25  226.50810  214.45320    4.66320  113.70350  113.70350    -999.25    4.33970   71.60460    4.66320    -999.25    -999.25    -999.25    4.07870 -110.08050   -4.96750    4.07870
 2100.00000    -999.25  224.18140  267.45120    3.73900  139.83820  139.83820    -999.25    5.03440   83.06760    3.73900    -999.25    -999.25    -999.25    4.06440 -109.20820   -4.20010    4.06440
 2150.00000    -999.25  161.65090  170.72130    5.85750  120.46340  120.46340    -999.25    4.56430   75.31100    5.85750    -999.25    -999.25    -999.25    5.48220 -109.27910   -4.45450    5.48220
 2200.00000    -999.25  128.66780  137.13090    7.29230   94.18850   94.18850    -999.25    3.01450   49.73920    7.29230    -999.25    -999.25    -999.25    6.17320 -108.68820   -4.04820    6.17320
 2250.00000    -999.25  118.71360  126.04620    7.93360   98.44430   98.44430    -999.25    3.71880   61.36020    7.93360    -999.25    -999.25    -999.25    7.47590 -114.76460  -10.30810    7.47590
 2300.00000    -999.25   62.78080   65.30360   15.31790   85.81450   85.81450    -999.25    3.23160   53.32140   15.31790    -999.25    -999.25    -999.25   12.27660 -110.95950   -6.68650   12.27660
 2350.00000    -999.25  164.72500  185.20230    5.39950  140.28480  140.28480    -999.25    4.18640   69.07560    5.39950    -999.25    -999.25    -999.25    4.58030 -108.14650   -4.05810    4.58030
 2400.00000    -999.25  201.17580  243.65880    4.10410  139.26530  139.26530    -999.25    3.69340   60.94110    4.10410    -999.25    -999.25    -999.25    7.63270 -115.83300  -11.92810    7.63270
 2450.00000    -999.25  132.29060  134.30390    7.44580   98.75420   98.75420    -999.25    4.28960   70.77840    7.44580    -999.25    -999.25    -999.25    6.48110 -106.77620   -3.05600    6.48110
 2500.00000    -999.25  195.27310  236.80410    4.22290  134.71470  134.71470    -999.25    4.17750   68.92880    4.22290    -999.25    -999.25    -999.25    4.76350 -106.56190   -3.02510    4.76350
 2550.00000    -999.25  182.36840  199.70640    5.00730  120.17320  120.17320    -999.25    4.62070   76.24160    5.00730    -999.25    -999.25    -999.25    4.55230 -106.86530   -3.51200    4.55230
 2600.00000    -999.25   77.62550   91.27250   10.95620   89.41150   89.41150    -999.25    2.73210   45.07880   10.95620    -999.25    -999.25    -999.25   15.24750 -118.59500  -15.42630   15.24750
 2650.00000    -999.25  233.39030  254.90700    3.92300  103.36560  103.36560    -999.25    3.67050   60.56330    3.92300    -999.25    -999.25    -999.25    4.78790 -106.67790   -3.69270    4.78790
 2700.00000    -999.25   74.44310   81.09250   12.33160   90.93840   90.93840    -999.25    2.48180   40.94970   12.33160    -999.25    -999.25    -999.25   11.25750 -106.91140   -4.11090   11.25750
 2750.00000    -999.25  195.90930  199.94400    5.00140   82.09560   82.09560    -999.25    3.60490   59.48170    5.00140    -999.25    -999.25    -999.25    6.14510 -107.37380   -4.75670    6.14510
 2800.00000    -999.25  123.30180   96.23540   10.51250   80.26370   80.26370    -999.25    3.10410   51.21770   10.51250    -999.25    -999.25    -999.25    8.81640 -106.99560   -4.56200    8.81640
 2850.00000    -999.25  144.74770  143.45970    6.97060  116.35870  116.35870    -999.25    3.51030   57.92040    6.97060    -999.25    -999.25    -999.25    5.77870 -105.70760   -3.45870    5.77870
 2900.00000    -999.25  158.25930  166.14610    6.01880   96.06210   96.06210    -999.25    3.44460   56.83590    6.01880    -999.25    -999.25    -999.25    4.81370 -105.87180   -3.80630    4.81370
 2950.00000    -999.25   43.83000   47.93750   20.86050   88.71900   88.71900    -999.25    2.14340   35.36610   20.86050    -999.25    -999.25    -999.25   15.98270 -118.36190  -16.48110   15.98270
 3000.00000    -999.25   49.35890   54.13130   18.47360   89.39440   89.39440    -999.25    2.84640   46.96480   18.47360    -999.25    -999.25    -999.25   12.88880 -106.12460   -4.42720   12.88880
