~Version ---------------------------------------------------
VERS.      2.0 : CWLS log ASCII Standard -VERSION 2.0
WRAP.       NO : One line per depth step
CREA. 10/22/19 : LAS Creation Date
~Well ------------------------------------------------------
STRT.ft                                          300.0 : START DEPTH
STOP.ft                                        10300.0 : STOP DEPTH
STEP.ft                                       50.00000 : STEP LENGTH
NULL.                                          -999.25 : NULL VALUE
COMP.                             IMPERIAL OIL LIMITED : COMPANY
WELL. IMPERIAL CANADIAN SUPERIOR BUCK CREEK 14-29-48-6 : WELL
FLD .                                          WILDCAT : FIELD
LOC .                                                  : LOCATION
CTRY.                                           CANADA : COUNTRY
SRVC.                           Schlumberger of Canada : SERVICE COMPANY
DATE.                                      27-May-1954 : LOGDATE
PROV.                                          Alberta : PROVINCE
UWI .                                 100142904806W500 : UNIQUE WELL ID
SLAT.WGS84                                    53.17637 : SURFACE LATITUDE
SLON.WGS84                                   -114.8447 : SURFACE LONGITUDE
~Curve Information -----------------------------------------
DEPT   .ft     : Depth Curve
GRD    .GAPI   : GAMMA RAY FROM CNL LOG
GRN    .MR/HR  : GAMMA RAY FROM GRN LOG
LN     .OHMM   : LONG NORMAL RESISTIVITY
LT18   .OHMM   : LATERAL 18'
NEUT   .NAPI   : NEUTRON
NPHI_DM.DEC    : NEUTRON POROSITY DOLOMITE MATRIX FROM CNL LOG
NPHI_LS.DEC    : NEUTRON POROSITY LIMESTONE FROM CNL LOG
NPHI_SS.DEC    : NEUTRON POROSITY SANDSTONE FROM CNL LOG
SN     .OHMM   : SHORT NORMAL RESISTIVITY
SPR    .MV     : SPONTANEOUS POTENTIAL FROM RESISTIVITY LOG
~Params ----------------------------------------------------
LMF .                     KB : LOG MEASURED FROM
DMF .                     KB : DRILLING MEASURED FROM
EKB .FT                 2810 : KELLY BUSHING
DATE.               05/27/54 : RUN DATE
RUN .                      4 : RUN NUMBER
DD  .FT                10219 : DEPTH DRILLER
DL  .FT                10221 : DEPTH LOGGER
BLI .FT                10221 : BOTTOM LOG INTERVAL
TLI .FT                 7088 : TOP LOG INTERVAL
BS  .IN                8.625 : BIT SIZE
BSD .FT                10219 : BIT SIZE AT DEPTH
DFT .              LIME BASE : DRILLING FLUID TYPE
DFD .                   10.5 : DRILLING FLUID DENSITY
DFV .                    220 : DRILLING FLUID VISCOSITY
DFPH.                   12.5 : DRILLING FLUID PH
DFL .                    9.5 : DRILLING FLUID LOSS
RMS .OHMM                1.0 : RESISTIVITY MUD SAMPLE
MST .DEGF                 72 : MUD SAMPLE TEMPERATURE
RMB .OHMM               0.42 : RESISTIVITY MUD AT BHT
TCS .HRS                   2 : TIME CIRCULATED STOPPED
LUN .                   1772 : LOGGING UNIT NUMBER
ENGI.              HENDERSON : RECORDING ENGINEER
WITN.               MCKENZIE : WITNESSED BY
CLNT.                A2DTECH : CLIENT CODE
ORIG.            2" 5" PRINT : ORIGIN OF DATA
UWI .       100142904806W500 : UNIQUE WELL ID
DICO. A2D Technologies, Inc. : DIGITIZING COMPANY
~Other -----------------------------------------------------
CONVERTED CNL. CURVES FROM M to F. KEPT THE ENTIRE WELL AS FEET.
~ASCII -----------------------------------------------------
  300.00000    -999.25    3.24920    -999.25    -999.25   69.59180    -999.25    -999.25    -999.25    -999.25    -999.25
  350.00000    -999.25    3.16250    -999.25    -999.25  104.40140    -999.25    -999.25    -999.25    -999.25    -999.25
  400.00000    -999.25    3.70260    -999.25    -999.25  153.09860    -999.25    -999.25    -999.25    -999.25    -999.25
  450.00000    -999.25    4.21540    -999.25    -999.25  131.82480    -999.25    -999.25    -999.25    -999.25    -999.25
  500.00000    -999.25    2.94350    -999.25    -999.25  113.15580    -999.25    -999.25    -999.25    -999.25    -999.25
  550.00000    -999.25    3.94990    -999.25    -999.25   96.04750    -999.25    -999.25    -999.25    -999.25    -999.25
  600.00000    -999.25    4.28330    -999.25    -999.25  103.04890    -999.25    -999.25    -999.25    -999.25    -999.25
  650.00000    -999.25    5.80620   10.05850    8.27800  208.35890    -999.25    -999.25    -999.25   11.07890  -66.83730
  700.00000    -999.25    4.10770   11.04540    8.44830  463.31290    -999.25    -999.25    -999.25    8.48770  -67.49320
  750.00000    -999.25    4.81720    8.30050   10.51930  131.91330    -999.25    -999.25    -999.25    6.00660  -66.83410
  800.00000    -999.25    7.05480    4.48000   18.42190  166.56440    -999.25    -999.25    -999.25    3.61190  -66.17920
  850.00000    -999.25    5.17040   10.43550    5.49390   56.49070    -999.25    -999.25    -999.25    9.23110  -67.66220
  900.00000    -999.25    5.41950    4.62830   46.62610  273.30220    -999.25    -999.25    -999.25    9.03440  -67.85550
  950.00000    -999.25    4.01440   11.36900    9.90870  274.24850    -999.25    -999.25    -999.25    9.02640  -67.67870
 1000.00000    -999.25    5.25530   11.89310   12.68200  356.48050    -999.25    -999.25    -999.25   10.49350  -68.75690
 1050.00000    -999.25    4.89700   39.50030   19.58820  148.58520    -999.25    -999.25    -999.25   89.67310  -74.75140
 1100.00000    -999.25    4.95680   10.00050   15.91810  158.88250    -999.25    -999.25    -999.25    6.48080  -65.01340
 1150.00000    -999.25    3.56190   15.50230   10.75870  405.15920    -999.25    -999.25    -999.25   14.07430  -67.11280
 1200.00000    -999.25    6.23190    4.84200    6.06400  149.51170    -999.25    -999.25    -999.25    3.07750  -65.56330
 1250.00000    -999.25    5.77140   12.77720   12.64470  218.43700    -999.25    -999.25    -999.25   13.63410  -66.29190
 1300.00000    -999.25    4.66590   26.39670    1.73720  150.46620    -999.25    -999.25    -999.25   16.74960  -64.53200
 1350.00000    -999.25    5.90980    6.51820    3.44890  186.28340    -999.25    -999.25    -999.25   10.61360  -64.55370
 1400.00000    -999.25    5.23400    9.25220   13.74270  172.53100    -999.25    -999.25    -999.25    8.26170  -65.85770
 1450.00000    -999.25    5.33530    8.79810    8.44520  155.61130    -999.25    -999.25    -999.25    9.55360  -66.62470
 1500.00000    -999.25    5.31520   17.17130    9.02330  296.39940    -999.25    -999.25    -999.25   12.66800  -66.36080
 1550.00000    -999.25    5.46390    6.89160    9.90760  119.19260    -999.25    -999.25    -999.25    7.38760  -63.68080
 1600.00000    -999.25    5.51660    4.26080    6.84390  127.33090    -999.25    -999.25    -999.25    4.40540  -62.53600
 1650.00000    -999.25    4.37960    4.80030   16.16870  113.62060    -999.25    -999.25    -999.25    4.57000  -61.92360
 1700.00000    -999.25    5.21400    8.96020   15.46560  202.64580    -999.25    -999.25    -999.25   11.21120  -64.56350
 1750.00000    -999.25    5.26520    0.04920   36.85170  157.43390    -999.25    -999.25    -999.25    5.51710  -62.17710
 1800.00000    -999.25    4.99710    7.29330    5.27190  261.10050    -999.25    -999.25    -999.25    4.42170  -61.66150
 1850.00000    -999.25    6.82460    3.11620   11.97830  182.55430    -999.25    -999.25    -999.25    4.30720  -63.12260
 1900.00000    -999.25    3.90770    6.79790    8.21360  183.34000    -999.25    -999.25    -999.25    6.16220  -64.79650
 1950.00000    -999.25    4.89290    6.08660    9.29560  322.51920    -999.25    -999.25    -999.25    5.88770  -66.26140
 2000.00000    -999.25    4.97200    6.17800    9.80650  272.26010    -999.25    -999.25    -999.25    5.70540  -60.83670
 2050.00000    -999.25    4.92860   10.26930    8.83240  189.62780    -999.25    -999.25    -999.25   12.63410  -62.28900
 2100.00000    -999.25    4.06690    8.33190    8.75900  121.83050    -999.25    -999.25    -999.25    9.72560  -60.76870
 2150.00000    -999.25    4.94700   13.19450   19.57830  195.59930    -999.25    -999.25    -999.25   19.21800  -80.14720
 2200.00000    -999.25    5.41730    4.27750    5.42580  203.47930    -999.25    -999.25    -999.25    4.07260  -59.67970
 2250.00000    -999.25    4.58950    5.59780    5.50080  204.82060    -999.25    -999.25    -999.25    8.22680  -62.10060
 2300.00000    -999.25    5.04470    2.42010   27.16950  156.39720    -999.25    -999.25    -999.25   15.50130  -66.11880
 2350.00000    -999.25    5.73510    9.20090   11.77780  325.75360    -999.25    -999.25    -999.25   13.77190  -62.83300
 2400.00000    -999.25    4.69630    7.15430    6.80990  204.21760    -999.25    -999.25    -999.25    7.77260  -59.83360
 2450.00000    -999.25    4.97970    4.46130    5.83120  121.22330    -999.25    -999.25    -999.25    4.88490  -59.66950
 2500.00000    -999.25    5.07560    3.90230    3.93590  163.25860    -999.25    -999.25    -999.25    4.20580  -59.76320
 2550.00000    -999.25    4.63860   12.11690    4.27780  267.53260    -999.25    -999.25    -999.25   16.50570  -60.33950
 2600.00000   43.03040    5.08240    5.53210    9.11870  222.85080    0.31520    0.36500    0.40000    5.59380  -58.12400
 2650.00000   38.58930    5.50510    5.14920    5.22650  190.03170    0.20080    0.26880    0.31640    6.06400  -59.16820
 2700.00000   28.02060    3.53700   11.07960    7.04730  216.13070    0.21400    0.28200    0.32860   12.05060  -63.10630
 2750.00000   45.41560    4.86820    4.56850    4.12460  228.68750    0.23510    0.30000    0.35290    4.83500  -59.30870
 2800.00000   27.11180    4.31200    5.26910    4.17720  176.31860    0.51110    0.52150    0.54170    4.86580  -58.52710
 2850.00000   41.18040    4.80670    6.13200    8.65780  267.66200    0.33880    0.38740    0.42140    6.32630  -58.41510
 2900.00000   34.21040    3.60800   13.27130    9.23610  314.68260    0.19420    0.26310    0.30910   17.29470  -64.39390
 2950.00000   36.45070    4.27220    8.11750    8.39000  257.56850    0.33630    0.38240    0.41790    7.27720  -59.09670
 3000.00000   41.92580    4.12310    9.44730   14.12200  203.15930    0.24350    0.30720    0.34710   15.24020  -65.89670
 3050.00000   29.48700    3.89760    9.23340   11.68250  230.43900    0.29590    0.35150    0.39040   13.17090  -77.56200
 3100.00000   29.88480    3.79620   15.64100   12.54160  195.24980    0.20460    0.27500    0.31700   17.71720  -63.26480
 3150.00000   28.90930    3.90660    7.73210    6.21190  228.62310    0.33210    0.38100    0.41460    6.87450  -59.34850
 3200.00000   30.84260    4.02880    8.75410    7.45920  255.77820    0.27520    0.33480    0.37120    9.54400  -59.59110
 3250.00000   37.77010    3.36500    7.26380    6.56510  292.02420    0.20260    0.27280    0.31890    8.09490  -58.57910
 3300.00000   31.01360    3.81830    6.99770   11.26760  157.95140    0.40960    0.44130    0.47030    7.86180  -59.02650
 3350.00000   35.10060    3.57370    8.46810    6.26870  282.86350    0.38960    0.42450    0.45570    6.77410  -58.22750
 3400.00000   25.28790    4.08510   12.85330    3.76440  226.33200    0.13680    0.21070    0.26260   31.16110  -69.44470
 3450.00000   35.31500    3.59140    7.21500    6.89240  175.13500    0.35030    0.39170    0.42990    7.63220  -57.51710
 3500.00000   25.14320    3.31630   25.19790   12.16500  306.80950    0.26550    0.32560    0.36540   48.62460 -107.27670
 3550.00000   33.33010    4.72460    6.80310    8.22410  205.91180    0.47230    0.49230    0.51130    9.30410  -59.43990
