~Version ---------------------------------------------------
VERS.      2.0 : CWLS log ASCII Standard -VERSION 2.0
WRAP.       NO : One line per depth step
CREA. 08/24/13 : LAS Creation Date
~Well ------------------------------------------------------
STRT.M                           300.0 : START DEPTH
STOP.M                          3950.0 : STOP DEPTH
STEP.M                        50.00000 : STEP LENGTH
NULL.                          -999.25 : NULL VALUE
COMP. CHEVRON CANADA RESOURCES LIMITED : COMPANY
WELL.   CHEVRON SHELL SIMONETTE 1-23-6 : WELL
FLD .                                  : FIELD
LOC .                                  : LOCATION
CTRY.                           CANADA : COUNTRY
SRVC.                          Unknown : SERVICE COMPANY
DATE.                      19-Apr-1995 : LOGDATE
PROV.                          Alberta : PROVINCE
UWI .                 100012306427W500 : UNIQUE WELL ID
SLAT.WGS84                     54.5475 : SURFACE LATITUDE
SLON.WGS84                   -117.9618 : SURFACE LONGITUDE
~Curve Information -----------------------------------------
DEPT    .M      : DEPTH METER
AT10ED  .OHMM   : 10 INCH RESISTIVITY TWO FOOT RESOLUTION FROM AIT LOG
AT20ED  .OHMM   : 20 INCH RESISTIVITY TWO FOOT RESOLUTION FROM AIT LOG
AT30ED  .OHMM   : 30 INCH RESISTIVITY TWO FOOT RESOLUTION FROM AIT LOG
AT60ED  .OHMM   : 60 INCH RESISTIVITY TWO FOOT RESOLUTION FROM AIT LOG
AT90ED  .OHMM   : 90 INCH RESISTIVITY TWO FOOT RESOLUTION FROM AIT LOG
CALDED  .MM     : CALIPER FROM DENSITY LOG [ADJ. TO RESISTIVITY LOG]
CALSRED .MM     : CALIPER FROM RESISTIVITY LOG
CALWS   .MM     : CALIPER [CALDED]
CONDWS  .MMHO   : CONDUCTIVITY [1000/DRESWS]
DCORWS  .KG/M3  : DENSITY CORRECTION [DRHOED]
DENWS   .KG/M3  : FORMATION BULK DENSITY [CALC FROM,DPOLSWS,M=2710,F=1000]
DPHILSED.V/V    : DENSITY POROSITY LIMESTONE [M=2710,F=1000] FROM DENSITY LOG  [ADJ. TO RESISTIVITY LOG]
DPHISSED.V/V    : DENSITY POROSITY SANDSTONE [DPHISSED SPL. TO DPHISS1ED @ 2443M] [M=2650,F=1000] FROM DENSITY LOG  [ADJ. TO RESISTIVITY LOG]
DPOLSWS .V/V    : DENSITY POROSITY LIMESTONE [DPHISSED CONVERTED TO LIMESTONE MATRIX,M=2710,F=1000,SPL. TO DPHILSED @2501M]
DRESWS  .OHMM   : DEEP RESISTIVITY [AT90ED SPL. TO IDPHED @2499M]
DRHOED  .KG/M3  : BULK DENSITY CORRECTION FROM DENSITY LOG [ADJ. TO RESISTIVITY LOG]
DTED    .US/M   : DELTA-T FROM SONIC LOG  [ADJ. TO RESISTIVITY LOG]
DTWS    .US/M   : COMPRESSIONAL SONIC [DTED]
GRDED   .GAPI   : GAMMA RAY FROM DENSITY LOG  [ADJ. TO RESISTIVITY LOG]
GRRED   .GAPI   : GAMMA RAY FROM RESISTIVITY LOG
GRSED   .GAPI   : GAMM RAY FROM SONIC LOG [ADJ. TO RESISTIVITY LOG]
GRWS    .GAPI   : GAMMA RAY [GRSED SPL. TO GRDED @428M-476M & SPL. TO GRR1ED @1681M-TD]
HDSED   .MM     : HOLE DIAMETER FROM SONIC LOG [ADJ. TO RESISTIVITY LOG]
IDPHED  .OHMM   : DEEP INDUCTION PHASOR RESISTIVITY FROM PI-SFL LOG
IMPHED  .OHMM   : MEDIUM INDUCTION PHASOR RESISTIVITY FROM PI-SFL LOG
LAED    .MM     : CALIPER FROM SONIC LOG [ADJ. TO RESISTIVITY LOG]
LLDED   .OHMM   : DEEP RESISTIVITY FROM LATEROLOG
LLSED   .OHMM   : SHALLOW RESISTIVITY FROM LATEROLOG
MRESWS  .OHMM   : MEDIUM RESISTIVITY [AT30ED SPL. TO IMPHED @ 2496M]
MSFLED  .OHMM   : MICRO SPHERICALLY FOCUSED RESISTIVITY FROM LATEROLOG
NPOLSWS .V/V    : NEUTRON POROSITY LIMESTONE [NPORSSED CONVERTED TO LIMESTONE MATRIX,SPL. TO NPORLSED @2500M]
NPORLSED.V/V    : NEUTRON POROSITY LIMESTONE FROM DENSITY LOG  [ADJ. TO RESISTIVITY LOG]
NPORSSED.V/V    : NEUTRON POROSITY SANDSTONE [NPORSSED SPL. TO NPORSS1ED @2450M] FROM DENSITY LOG [ADJ. TO RESISTIVITY LOG]
PEFED   .B/E    : PHOTOELECTRIC FACTOR FROM DENSITY LOG  [ADJ. TO RESISTIVITY LOG]
PEFWS   .B/E    : PHOTOELECTRIC FACTOR [PEFED]
RHOBED  .KG/M3  : BULK DENSITY FROM DENSITY LOG  [ADJ. TO RESISTIVITY LOG]
SFLUED  .OHMM   : SHALLOW FOCUSED RESISTIVITY FROM PI-SFL LOG
SPRED   .MV     : SPONTANEOUS POTENTIAL [SPRED SPL. TO SPR1ED @ 2491M] FROM RESISTIVITY LOG
SPWS    .MV     : SPONTANEOUS POTENTIAL [BASELINE 0 MV,SPRED]
SRESWS  .OHMM   : SHALLOW RESISTIVITY [AT10ED SPL. TO SFLUED @2497M]
TENDED  .N      : TENSION FROM DENSITY LOG  [ADJ. TO RESISTIVITY LOG]
TENRED  .N      : TENSION FROM RESISTIVITY LOG
TENSED  .N      : TENSION FROM SONIC LOG [ADJ. TO RESISTIVITY LOG]
~Params ----------------------------------------------------
PD  .                         GL : PERMANENT DATUM
EPD .M                     952.4 : ELEVATION PERMANENT DATUM
LMF .                         KB : LOG MEASURED FROM
DAPD.M                       7.8 : FEET ABOVE PERMANENT DATUM
DMF .                         KB : DRILLING MEASURED FROM
EKB .M                     960.2 : KELLY BUSHING
EGL .M                     952.4 : GROUND LEVEL
DATE.                   04/19/95 : RUN DATE
RUN .                          2 : RUN NUMBER
DD  .M                      4000 : DEPTH DRILLER
DL  .M                      3994 : DEPTH LOGGER
BLI .M                    3992.2 : BOTTOM LOG INTERVAL
TLI .M                      1700 : TOP LOG INTERVAL
CS  .MM                    244.5 : CASING SIZE
CBD .M                    448.42 : CASING BOTTOM DRILLER
CBL .M                     448.5 : CASING BOTTOM LOGGER
BS  .MM                      222 : BIT SIZE
BSD .M                      4000 : BIT SIZE AT DEPTH
DFT .                   GEL CHEM : DRILLING FLUID TYPE
DFD .                       1105 : DRILLING FLUID DENSITY
DFV .                         58 : DRILLING FLUID VISCOSITY
DFPH.                       10.5 : DRILLING FLUID PH
DFL .                        7.4 : DRILLING FLUID LOSS
MSS .                   FLOWLINE : MUD SAMPLE SOURCE
RMS .OHMM                   1.32 : RESISTIVITY MUD SAMPLE
MST .DEGC                     21 : MUD SAMPLE TEMPERATURE
RMF .OHMM                   1.08 : RESISTIVITY MUD FILTRATE SAMPLE
MFST.DEGC                     22 : MUD FILTRATE SAMPLE TEMPERATURE
RMC .OHMM                   0.86 : RESISTIVITY MUD CAKE
MCST.DEGC                     18 : MUD CAKE SAMPLE TEMPERATURE
MFSS.                   MEASURED : MUD FILTRATE SAMPLE SOURCE
MCSS.                   MEASURED : MUD CAKE SAMPLE SOURCE
RMB .OHMM                  0.503 : RESISTIVITY MUD AT BHT
TCS .HRS                     800 : TIME CIRCULATED STOPPED
TLAB.HRS                    1620 : TIME LOGGER AT BOTTOM
LUN .                       2025 : LOGGING UNIT NUMBER
LUL .             GRANDE PRAIRIE : LOGGING UNIT LOCATION
ENGI.                      CORTI : RECORDING ENGINEER
WITN.                    TIMMINS : WITNESSED BY
CLNT.                    A2DTECH : CLIENT CODE
ORIG. 6.5"/100M 16.5"/100M PRINT : ORIGIN OF DATA
UWI .           100012306427W500 : UNIQUE WELL ID
DICO.     A2D Technologies, Inc. : DIGITIZING COMPANY
~Other -----------------------------------------------------
DLL-MSFL/AIT/PI-SFL/ML/CNL-LDT/BCS LOG RAN
RHOBED FROM SMALL SECTION
~ASCII -----------------------------------------------------
# ...
 2000.00000   22.71410   21.96080   19.66520   18.33690   17.41630  246.08090    -999.25  246.08090   57.41750   -2.46940 2501.50000    -999.25    0.09000    0.12190   17.41630   -2.46940  236.85190  236.85190   50.16560   42.03420   42.63450   42.03420  232.54430   19.85510   19.67570  189.49560    -999.25    -999.25   19.66520    -999.25    0.13530    -999.25    0.17840    2.29100    2.29100 2501.39180   20.54070  -60.65100  -74.50600   22.71410 16509.68160 14108.21580 15355.38280
 2050.00000    9.42320   18.92940   39.32910   53.72900   46.39170  386.07140    -999.25  386.07140   21.55560    1.14970 1401.61000    -999.25    0.75660    0.76510   46.39170    1.14970  452.65900  452.65900   42.70430   41.45320   39.01100   41.45320  315.70920   83.86270   95.45080  251.41900    -999.25    -999.25   39.32910    -999.25    0.52820    -999.25    0.56990    0.89140    0.89140 1409.79390   65.54100  -38.47690  -56.06240    9.42320 17174.84960 14356.72170 15615.95700
 2100.00000   10.15620   12.05540   11.64660   10.57520   10.93910  300.94320    -999.25  300.94320   91.41520  107.39940 2387.15500    -999.25    0.15930    0.18880   10.93910  107.39940  229.74910  229.74910   93.00100   69.02220   84.34720   69.02220  258.29400    9.68660   11.21040  213.06660    -999.25    -999.25   11.64660    -999.25    0.22490    -999.25    0.26890    2.37870    2.37870 2381.56130    9.84760  -34.64230  -55.95830   10.15620 16890.86520 14115.74900 15218.58690
 2150.00000   13.83540   18.25480   16.42560   15.54680   15.03340  389.25510    -999.25  389.25510   66.51860    0.27210 2190.14500    -999.25    0.27870    0.30400   15.03340    0.27210  234.42080  234.42080   73.32280   62.53000   68.73550   62.53000  250.11940   16.27510  100.61600  308.14820    -999.25    -999.25   16.42560    -999.25    0.36060    -999.25    0.40340    2.86120    2.86120 2192.88280   24.92860  -37.53810  -62.58460   13.83540 17882.32810 13985.45020 15859.97850
 2200.00000   25.20230   41.08150   47.17100   52.41370   61.94230  329.03910    -999.25  329.03910   16.14410  -24.73350 1706.20000    -999.25    0.57200    0.58700   61.94230  -24.73350  270.67800  270.67800   41.15470   35.43180   38.91380   35.43180  281.67560   28.71170   27.70960  214.54540    -999.25    -999.25   47.17100    -999.25    0.35700    -999.25    0.39990    1.84900    1.84900 1732.19310  291.35710   19.60610   -9.17090   25.20230 17789.25390 14444.55080 15902.58200
 2250.00000   13.41850   19.35650   17.60310   16.35410   15.85760  278.39440    -999.25  278.39440   63.06120   -6.02490 2468.83000    -999.25    0.10980    0.14100   15.85760   -6.02490  229.13280  229.13280   82.15750   66.67300   76.77060   66.67300  260.65790   15.31700   12.21920  311.45740    -999.25    -999.25   17.60310    -999.25    0.29410    -999.25    0.33790    3.04150    3.04150 2467.66940   13.80440  -24.46420  -56.97170   13.41850 17470.84180 15419.15430 16147.04390
 2300.00000   25.71210   43.67940   41.47720   40.72730   40.24380  260.31710    -999.25  260.31710   24.84850   -1.94640 2562.88000    -999.25    0.05280    0.08600   40.24380   -1.94640  227.44540  227.44540   53.60130   43.02160   50.85600   43.02160  253.86900   37.94880   31.36120  244.25940    -999.25    -999.25   41.47720    -999.25    0.11950    -999.25    0.16230    2.57940    2.57940 2562.88620   40.78360  -37.12970  -73.36780   25.71210 18977.47460 15697.70510 16464.66210
 2350.00000   27.17630   34.33120   33.61830   32.93220   32.11750  244.93590    -999.25  244.93590   31.13570   17.95590 2613.04000    -999.25    0.02240    0.05670   32.11750   17.95590  209.14850  209.14850   71.85090   59.03800   70.61570   59.03800  244.03310   31.20410   29.11780  280.09740    -999.25    -999.25   33.61830    -999.25    0.11650    -999.25    0.15930    2.65110    2.65110 2614.73100   72.54040   -6.41810  -46.38670   27.17630 17986.35940 16222.60060 16840.42770
 2400.00000   16.29600   18.95240   18.12110   17.08830   16.58800  347.19480    -999.25  347.19480   60.28450  100.58020 2113.25500    -999.25    0.32530    0.34900   16.58800  100.58020  219.36450  219.36450  109.61630   81.18210  100.72480   81.18210  235.81150   21.76000   17.56220  207.44290    -999.25    -999.25   18.12110    -999.25    0.17310    -999.25    0.21670    2.58270    2.58270 2195.14160   15.76970    0.06620  -43.63290   16.29600 18047.73830 16501.74800 17852.90820
 2450.00000    3.85740    3.73280    3.51540    3.28640    3.16340  494.60770    -999.25  494.60770  316.11560   18.43340 2449.19500    0.35840    0.12170    0.15250    3.16340   18.43340  305.01160  305.01160  111.85270   70.29030  106.30950   70.29030  238.03260    3.36550    2.81820  369.96040    -999.25    -999.25    3.51540    -999.25    0.45510    0.38280    0.49680    1.97030    1.97030 2082.83350    3.45890   24.27030  -23.15930    3.85740 18779.85550 16181.23140 18103.93550
 2500.00000    -999.25    -999.25    -999.25    -999.25    -999.25  234.62990    -999.25  234.62990    1.44480    7.81350 2504.14000    0.13830    0.08840    0.12040  692.14760    7.81350  235.75210  235.75210  122.29090  110.90820  110.90430  110.90820    -999.25  692.14760  234.97970  241.80320    -999.25    -999.25  234.97970    -999.25    0.13130    0.14920    0.17430    3.67950    3.67950 2472.83760 1966.28550  -92.19720 -140.97010 1966.28550 18245.65820 16321.11910 18344.58200
 2550.00000    -999.25    -999.25    -999.25    -999.25    -999.25  249.85030    -999.25  249.85030   26.98570    1.32540 2646.38800    0.03720    -999.25    0.03720   37.05670    1.32540  199.26130  199.26130   89.59370   89.16640   90.01740   89.16640    -999.25   37.05670   34.46980  244.83120    -999.25    -999.25   34.46980    -999.25    0.08400    0.08400    -999.25    2.90760    2.90760 2643.16530   40.46010  -38.28170  -87.33550   40.46010 18932.38870 17225.16800 17038.19530
 2600.00000    -999.25    -999.25    -999.25    -999.25    -999.25  249.42500    -999.25  249.42500   16.14850    4.95800 2688.62500    0.01250    -999.25    0.01250   61.92530    4.95800  192.31030  192.31030   69.10980   72.00830   72.18970   72.00830    -999.25   61.92530   55.68060  241.77880    -999.25    -999.25   55.68060    -999.25    0.06300    0.06300    -999.25    2.94950    2.94950 2691.14530   81.32060  -13.71460  -63.04920   81.32060 19024.11330 17559.61720 17385.07030
 2650.00000    -999.25    -999.25    -999.25    -999.25    -999.25  244.00610    -999.25  244.00610   12.79270   -3.41650 2683.83700    0.01530    -999.25    0.01530   78.16950   -3.41650  195.94180  195.94180   74.90420   77.92620   77.78760   77.92620    -999.25   78.16950   73.76260  246.39470    -999.25    -999.25   73.76260    -999.25    0.06790    0.06790    -999.25    3.04370    3.04370 2685.49580  104.37040  -17.37610  -66.99160  104.37040 19117.63480 17862.46090 17696.94530
 2700.00000    -999.25    -999.25    -999.25    -999.25    -999.25  240.21750    -999.25  240.21750   23.00540    7.72110 2550.62800    0.09320    -999.25    0.09320   43.46810    7.72110  193.35600  193.35600   16.90050   20.86810   21.12650   20.86810    -999.25   43.46810   62.60290  218.35100    -999.25    -999.25   62.60290    -999.25    0.06710    0.06710    -999.25    2.48730    2.48730 2546.47880  124.11100  -82.10270 -131.99900  124.11100 19595.34570 17944.08590 17741.73830
 2750.00000    -999.25    -999.25    -999.25    -999.25    -999.25  240.89890    -999.25  240.89890   20.16520    1.10460 2792.59300   -0.04830    -999.25   -0.04830   49.59040    1.10460  155.14380  155.14380   28.81570   29.32290   29.95420   29.32290    -999.25   49.59040   68.14130  231.49290    -999.25    -999.25   68.14130    -999.25    0.04250    0.04250    -999.25    3.46950    3.46950 2791.53860  299.50410  -44.57670  -94.75380  299.50410 19755.78320 18306.43160 18178.25590
 2800.00000    -999.25    -999.25    -999.25    -999.25    -999.25  224.90690    -999.25  224.90690    5.94950    2.61380 2831.41000   -0.07100    -999.25   -0.07100  168.08230    2.61380  167.73290  167.73290   37.06770   41.90970   42.08580   41.90970    -999.25  168.08230  167.77170  288.74730    -999.25    -999.25  167.77170    -999.25    0.05720    0.05720    -999.25    3.17720    3.17720 2826.73880  221.74840 -114.77260 -165.23060  221.74840 19906.68750 18475.21880 18236.06840
