~Version ---------------------------------------------------
VERS.      2.0 : CWLS log ASCII Standard -VERSION 2.0
WRAP.       NO : One line per depth step
CREA. 08/31/13 : LAS Creation Date
~Well ------------------------------------------------------
STRT.M                      400.0 : START DEPTH
STOP.M                     3850.0 : STOP DEPTH
STEP.M                   50.00000 : STEP LENGTH
NULL.                     -999.25 : NULL VALUE
COMP.                  SUNCOR INC : COMPANY
WELL. SUNCOR ET AL KARR 14-2-66-1 : WELL
FLD .                             : FIELD
LOC .                             : Location
CTRY.                      CANADA : COUNTRY
SRVC.                     Unknown : SERVICE COMPANY
DATE.                 23-Jul-1995 : LOGDATE
LOC1.                             : Location 1
SECT.                             : Section
TOWN.                             : Township
RNGE.                             : Range
PDAT.                             : Perm Datum
EPD .                       904.8 : Elevation
LMF .                          KB : Log Measured From
DMF .                          KB : Drill Measured From
APD .                             : Above Perm Datum
EKB .                       914.6 : Elev-Kelly Bushing.
EDF .                             : Elev-Drill Floor
EGL .                       904.8 : Elev-Ground Level
PROV.                     Alberta : PROVINCE
UWI .            100140206601W600 : UNIQUE WELL ID
SLAT.WGS84               54.68824 : SURFACE LATITUDE
SLON.WGS84              -118.0395 : SURFACE LONGITUDE
~Curve Information -----------------------------------------
DEPT    .M      : DEPTH METER
CAL1ED  .MM     : CALIPER 1 FROM DENSITY LOG
CAL2ED  .MM     : CALIPER 2 FROM DENSITY LOG
CALWS   .MM     : CALIPER [CAL1ED]
CONDWS  .MMHO   : CONDUCTIVITY [1000/DRESWS]
DCORWS  .KG/M3  : DENSITY CORRECTION [DRHOED]
DENWS   .KG/M3  : FORMATION BULK DENSITY [CALC FROM DPOLSWS, M=2710.F=1000]
DPHIDMED.V/V    : DENSITY POROSITY DOLOMITE [M=2850,F=1000] FROM DENSITY LOG
DPHILSED.V/V    : DENSITY POROSITY LIMESTONE [M=2710,F=1000] FROM DENSITY LOG
DPHISSED.V/V    : DENSITY POROSITY SANDSTONE [M=2650,F=1000] FROM DENSITY LOG
DPOLSWS .V/V    : DENSITY POROSITY LIMESTONE [DPHISSED CONVERTED TO LIMESTONE MATRIX, M=2710,F=1000 & SPL TO DPHILSED @ 2100.1M]
DRESWS  .OHMM   : DEEP RESISTIVITY [IDPHED]
DRHOED  .KG/M3  : DENSITY CORRECTION FROM DENSITY LOG
DTED    .US/M   : DELTA TIME FROM SONIC LOG
DTWS    .US/M   : COMPRESSIONAL  SONIC [DTED]
GRDED   .GAPI   : GAMMA RAY FROM DENSITY LOG
GRRED   .GAPI   : GAMMA RAY FROM RESISTIVITY LOG
GRWS    .GAPI   : GAMMA RAY [GRRED SPL. TO GRDED @3860M]
HDED    .MM     : HOLE DIAMETER FROM SONIC LOG
IDPHED  .OHMM   : DEEP INDUCTION PHASE RESISTIVITY FROM RESISTIVITY LOG
IMPHED  .OHMM   : MEDIUM INDUCTION PHASE RESISTIVITY FROM RESISTIVITY LOG
MRESWS  .OHMM   : MEDIUM RESISTIVITY [IMPHED]
NPHIDMED.V/V    : NEUTRON POROSITY DOLOMITE FROM DENSITY LOG
NPHILSED.V/V    : NEUTRON POROSITY LIMESTONE FROM DENSITY LOG
NPHISSED.V/V    : NEUTRON POROSITY SANDSTONE FROM DENSITY LOG
NPOLSWS .V/V    : NEUTRON POROSITY LIMESTONE [NPHISSED MATRIX CONVERSION FOR LIMESTONE, SPL. TO NPHILSED @ 2100.1M]
PEFED   .B/E    : PHOTOELECTRIC FACTOR FROM DENSITY LOG
PEFWS   .B/E    : PHOTOLELECTRIC FACTOR [PEFED]
RHOBED  .KG/M3  : BULK DENSITY FROM DENSITY LOG
TENDED  .N      : TENSION FROM DENSITY LOG
TENRED  .N      : TENSION FROM RESISTIVITY LOG
~Params ----------------------------------------------------
RUN .       2 : Run #
DATE.         : Date log was run
TDD .    3889 : Depth - Driller
TDL .    3886 : Depth - Logger
BLI .  3884.2 : Bottom Log Interval
TLI .  2600.0 : Top Log Interval
CBD .     452 : Casing - Driller
CBL .   452.5 : Casing - Logger
BS  .     222 : Bit Size
DFT .  INVERT : Type of Fluid In Hole
DFD .    1120 : Drilling Fluid Density
DFV .      60 : Drilling Fluid Viscosity
DFPH.         : Drilling Fluid pH
DFL .         : Drilling Fluid Loss
MSS .         : Source of Sample
RMS .         : Mud Resitivity
RMFS.         : Mud Filtrate Resistivity
RMCS.         : Mud Cake Resitivity
MFSS.         : Source of Rmf
MCSS.         : Source of Rmc
RMBH.         : Rm at BHT
MRT .      95 : Max Recorded Temperature
CLNT. A2DTECH : CLIENT CODE
~Other -----------------------------------------------------
PI-SFL-BCS LOG RAN IN COMBO & CNL-LDT LOG RAN
RHOB FROM SMALL SCALE SECTION
NEUTRON MATRIX CONVERSION USING SCHLUMBERGER CHART
~ASCII -----------------------------------------------------
  400.00000    -999.25    -999.25    -999.25    -999.25    -999.25    -999.25    -999.25    -999.25    -999.25    -999.25    -999.25    -999.25    -999.25    -999.25    -999.25   37.50170   37.50170    -999.25    -999.25    -999.25    -999.25    -999.25    -999.25    -999.25    -999.25    -999.25    -999.25    -999.25    -999.25    -999.25
  450.00000    -999.25    -999.25    -999.25    -999.25    -999.25    -999.25    -999.25    -999.25    -999.25    -999.25    -999.25    -999.25    -999.25    -999.25   43.53730   48.21270   48.21270    -999.25    -999.25    -999.25    -999.25    -999.25    -999.25    0.59550    0.56120    -999.25    -999.25    -999.25    -999.25    -999.25
  500.00000  222.86940  224.16860  222.86940   68.20120   31.35120 2280.89500    -999.25    -999.25    0.22370    0.25090   14.66250   31.35120  319.79510  319.79510   69.57990   57.19860   57.19860  231.70680   14.66250   12.77860   12.77860    -999.25    -999.25    0.32260    0.27870    2.83760    2.83760 2280.89500 6961.91020 7283.59180
  550.00000  230.58660  258.84000  230.58660  158.45100    0.47590 2133.88000    -999.25    -999.25    0.31280    0.33690    6.31110    0.47590  467.20650  467.20650   90.35480   83.51590   83.51590  253.13560    6.31110    6.20670    6.20670    -999.25    -999.25    0.52000    0.48120    2.31290    2.31290 2133.88000 7228.93120 7256.11380
  600.00000  227.95410  267.18490  227.95410  189.92630   11.95540 2374.12000    -999.25    -999.25    0.16720    0.19640    5.26520   11.95540  322.46760  322.46760   82.84190   80.52060   80.52060  236.66490    5.26520    4.98710    4.98710    -999.25    -999.25    0.32250    0.27860    2.75790    2.75790 2374.12000 7483.47750 7373.07670
  650.00000  229.79180  224.85390  229.79180   56.95800    7.38070 2316.53500    -999.25    -999.25    0.20210    0.23010   17.55680    7.38070  247.71160  247.71160   62.34010   59.22360   59.22360  237.42300   17.55680   16.08580   16.08580    -999.25    -999.25    0.30760    0.26360    3.19370    3.19370 2316.53500 7643.90430 7450.17580
  700.00000  232.27530  237.94810  232.27530  270.51150    9.78340 2373.62500    -999.25    -999.25    0.16750    0.19670    3.69670    9.78340  318.83220  318.83220  151.71950  142.78230  142.78230  243.08460    3.69670    3.14980    3.14980    -999.25    -999.25    0.38540    0.34230    2.66850    2.66850 2373.62500 8015.96530 7728.68120
  750.00000  227.60570  229.85470  227.60570  197.47240    9.75880 2375.44000    -999.25    -999.25    0.16640    0.19560    5.06400    9.75880  307.92480  307.92480  112.73780  100.09220  100.09220  238.85200    5.06400    4.49380    4.49380    -999.25    -999.25    0.33760    0.29380    3.19580    3.19580 2375.44000 8036.71240 7865.11620
  800.00000  230.42800  237.03830  230.42800  171.61780    5.90810 2417.02000    -999.25    -999.25    0.14120    0.17130    5.82690    5.90810  298.06010  298.06010   72.88870   65.60430   65.60430  236.09360    5.82690    5.32830    5.32830    -999.25    -999.25    0.31580    0.27190    2.91660    2.91660 2417.02000 8590.40820 8085.39360
  850.00000  232.83030  220.75880  232.83030  195.20570  105.32010 2361.91000    -999.25    -999.25    0.17460    0.20360    5.12280  105.32010  303.79400  303.79400   66.74870   65.47300   65.47300  237.78730    5.12280    5.40030    5.40030    -999.25    -999.25    0.35020    0.30660    3.74850    3.74850 2361.91000 8342.37990 8332.16410
  900.00000  223.86270  252.68880  223.86270  176.94730    7.01620 2492.26000    -999.25    -999.25    0.09560    0.12730    5.65140    7.01620  300.62700  300.62700   70.18620   61.19760   61.19760  242.68740    5.65140    5.23710    5.23710    -999.25    -999.25    0.35240    0.30880    3.17480    3.17480 2492.26000 8761.75000 8516.73540
  950.00000  230.47670  223.89190  230.47670   50.13210   26.83550 2246.41000    -999.25    -999.25    0.24460    0.27110   19.94730   26.83550  322.34980  322.34980   37.65960   35.28840   35.28840  235.78600   19.94730   23.48420   23.48420    -999.25    -999.25    0.34500    0.30130    2.56650    2.56650 2246.41000 8926.32810 9021.39550
 1000.00000  224.61240  235.15790  224.61240  180.63910   -0.28540 2445.23500    -999.25    -999.25    0.12410    0.15480    5.53590   -0.28540  320.25040  320.25040   64.07960   69.80890   69.80890  245.53040    5.53590    5.14890    5.14890    -999.25    -999.25    0.37260    0.32930    3.18800    3.18800 2445.23500 8885.27640 9078.12990
 1050.00000  230.41730  225.18720  230.41730  176.31710   14.91830 2445.73000    -999.25    -999.25    0.12380    0.15450    5.67160   14.91830  306.76320  306.76320   76.79150   72.07860   72.07860  235.48740    5.67160    5.35490    5.35490    -999.25    -999.25    0.37290    0.32960    3.65460    3.65460 2445.73000 9539.06350 9383.44040
 1100.00000  236.66970  223.45870  236.66970  109.58420   10.23050 2564.20000    -999.25    -999.25    0.05200    0.08530    9.12540   10.23050  295.70460  295.70460  120.15470  110.87500  110.87500  236.01140    9.12540    8.40590    8.40590    -999.25    -999.25    0.33730    0.29350    3.42710    3.42710 2564.20000 9373.03220 9516.05660
 1150.00000  227.02730  232.18160  227.02730   87.11860    2.38760 2578.06000    -999.25    -999.25    0.04360    0.07720   11.47860    2.38760  285.99850  285.99850  103.80390   96.95350   96.95350  232.11450   11.47860   10.61650   10.61650    -999.25    -999.25    0.30490    0.26090    3.48370    3.48370 2578.06000 9496.40140 9505.67680
 1200.00000  232.04720  226.02230  232.04720  106.94620    8.87210 2599.01500    -999.25    -999.25    0.03090    0.06490    9.35050    8.87210  281.40680  281.40680  111.86630  102.04920  102.04920  237.82610    9.35050    8.78850    8.78850    -999.25    -999.25    0.31610    0.27220    3.19350    3.19350 2599.01500 9799.83110 9802.96190
 1250.00000  227.04260  228.34300  227.04260  106.28120   12.25950 2566.67500    -999.25    -999.25    0.05050    0.08380    9.40900   12.25950  289.39210  289.39210  117.45080  110.77660  110.77660  238.01340    9.40900    9.10520    9.10520    -999.25    -999.25    0.32230    0.27840    3.25600    3.25600 2566.67500 10009.30370 9970.66800
 1300.00000  227.23420  224.52330  227.23420   59.90070   12.08540 2572.78000    -999.25    -999.25    0.04680    0.08020   16.69430   12.08540  256.81590  256.81590  108.80690  101.97170  101.97170  233.22930   16.69430   15.36650   15.36650    -999.25    -999.25    0.24530    0.20140    2.70890    2.70890 2572.78000 10393.18850 10038.82230
 1350.00000  226.46490  235.12910  226.46490  107.59170    5.82430 2567.99500    -999.25    -999.25    0.04970    0.08300    9.29440    5.82430  280.05710  280.05710  114.50150  112.62750  112.62750  235.65440    9.29440    8.70590    8.70590    -999.25    -999.25    0.31190    0.26800    3.36150    3.36150 2567.99500 10141.92970 10499.09770
 1400.00000  226.98750  230.53140  226.98750  100.34020   18.27850 2584.16500    -999.25    -999.25    0.03990    0.07360    9.96610   18.27850  292.48130  292.48130  117.59000  120.71250  120.71250  235.27270    9.96610    9.52740    9.52740    -999.25    -999.25    0.35310    0.30950    3.67630    3.67630 2584.16500 10445.36430 10517.92770
 1450.00000  232.94980  225.01910  232.94980  100.95610    8.68640 2591.09500    -999.25    -999.25    0.03570    0.06950    9.90530    8.68640  293.38470  293.38470  116.49580  108.83150  108.83150  234.89010    9.90530    9.23240    9.23240    -999.25    -999.25    0.33530    0.29150    3.41240    3.41240 2591.09500 10832.46090 10786.77830
 1500.00000  233.87880  224.38060  233.87880   99.24470   32.52250 2565.52000    -999.25    -999.25    0.05120    0.08450   10.07610   32.52250  299.02610  299.02610  124.33430  119.99510  119.99510  235.18320   10.07610    9.47530    9.47530    -999.25    -999.25    0.36590    0.32250    3.51200    3.51200 2565.52000 10930.89260 10990.98240
 1550.00000  226.59210  225.18760  226.59210   83.24660   17.93820 2599.67500    -999.25    -999.25    0.03050    0.06450   12.01250   17.93820  255.63110  255.63110  102.46230   95.51570   95.51570  237.12710   12.01250   11.81840   11.81840    -999.25    -999.25    0.25200    0.20810    2.90320    2.90320 2599.67500 11297.89550 11188.91500
