~Version ---------------------------------------------------
VERS.      2.0 : CWLS log ASCII Standard -VERSION 2.0
WRAP.       NO : One line per depth step
CREA. 11/17/17 : LAS Creation Date
~Well ------------------------------------------------------
STRT.FT                       700.0 : START DEPTH
STOP.FT                      6300.0 : STOP DEPTH
STEP.FT                    50.00000 : STEP LENGTH
NULL.                       -999.25 : NULL VALUE
COMP.      CHEVRON STANDARD LIMITED : COMPANY
WELL. CHEVRON GIFT LAKE 15-36-78-12 : WELL
FLD .                               : FIELD
LOC .                               : LOCATION
CTRY.                        CANADA : COUNTRY
SRVC.                       Unknown : SERVICE COMPANY
DATE.                   14-Feb-1976 : LOGDATE
PROV.                       Alberta : PROVINCE
UWI .              100153607812W500 : UNIQUE WELL ID
SLAT.WGS84                 55.80826 : SURFACE LATITUDE
SLON.WGS84                -115.7168 : SURFACE LONGITUDE
~Curve Information -----------------------------------------
DEPT    .FT    : Depth Curve
CALDED  .IN    : CALIPER FROM DENSITY LOG [ADJ TO RESISTIVITY LOG]
CALSED  .IN    : CALIPER FROM SONIC LOG
CALWS   .IN    : CALIPER [CALDED]
CONDWS  .MMHO  : CONDUCTIVITY [1000/DRESWS]
DCORWS  .G/C3  : DENSITY CORRECTION [DRHOED]
DENWS   .G/C3  : FORMATION BULK DENSITY [RHOBED]
DPHILSED.V/V   : DENSITY POROSITY LIMESTONE [M=2.71, F=1.00(ASSUMED)] FROM DENSITY LOG
DPHISSED.V/V   : DENSITY POROSITY SANDSTONE [M=2.65, F=1.00(ASSUMED)] FROM DENSITY LOG
DPOLSWS .V/V   : DENSITY POROSITY LIMESTONE [CALC FROM DENWS,M=2.71, F=1.00]
DRESWS  .OHMM  : DEEP RESISTIVITY [ILDED]
DRHOED  .G/C3  : DENSITY CORRECTION FROM DENSITY LOG [ADJ TO DPHISSED]
DTED    .US/F  : DELTA TIME FROM SONIC LOG
DTWS    .US/F  : COMPRESSIONAL SONIC [DTED]
GRDED   .GAPI  : GAMMA RAY FROM DENSITY LOG [ADJ TO RESISTIVITY LOG]
GRSED   .GAPI  : GAMMA RAY FROM SONIC LOG
GRWS    .GAPI  : GAMMA RAY [GRSED SPL @700' TO GRDED]
ILDED   .OHMM  : INDUCTION LOG DEEP RESISTIVITY FROM RESISTIVITY LOG
ILMED   .OHMM  : INDUCTION LOG MEDIUM RESISTIVITY FROM RESISTIVITY LOG
LL8ED   .OHMM  : 8 INCH LATEROLOG RESISTIVITY FROM RESISTIVITY LOG
MRESWS  .OHMM  : MEDIUM RESISTIVITY [ILMED]
NPHILSED.V/V   : NEUTRON POROSITY LIMESTONE FROM DENSITY LOG
NPHISSED.V/V   : NEUTRON POROSITY SANDSTONE FROM DENSITY LOG
NPOLSWS .V/V   : NEUTRON POROSITY LIMESTONE [NPHISSED MATRIX CONVERTED TO LIMESTONE(SLB CNL) SPL @2670' TO NPHILSED]
RHOBED  .G/C3  : BULK DENSITY FROM DENSITY LOG [ADJ TO DPHISSED]
SPRED   .MV    : SPONTANEOUS POTENTIAL FROM RESISTIVITY LOG
SPWS    .MV    : SPONTANEOUS POTENTIAL [BASELINE 0MV, SPRED]
SRESWS  .OHMM  : SHALLOW RESISTIVITY [LL8ED]
~Params ----------------------------------------------------
PD  .                     GL : PERMANENT DATUM
EPD .FT               2288.9 : ELEVATION PERMANENT DATUM
LMF .                     KB : LOG MEASURED FROM
DAPD.FT                 12.1 : FEET ABOVE PERMANENT DATUM
EKB .FT                 2301 : KELLY BUSHING
EGL .FT               2288.9 : GROUND LEVEL
DATE.               02/14/76 : RUN DATE
RUN .                      1 : RUN NUMBER
DD  .FT                 6318 : DEPTH DRILLER
DL  .FT                 6318 : DEPTH LOGGER
BLI .FT                 6312 : BOTTOM LOG INTERVAL
TLI .FT                  727 : TOP LOG INTERVAL
CBD .FT                  727 : CASING BOTTOM DRILLER
CBL .FT                  727 : CASING BOTTOM LOGGER
BS  .IN                7.875 : BIT SIZE
BSD .FT                 6318 : BIT SIZE AT DEPTH
DFT .                    GEL : DRILLING FLUID TYPE
DFD .                    9.6 : DRILLING FLUID DENSITY
DFV .                     68 : DRILLING FLUID VISCOSITY
DFPH.                    9.5 : DRILLING FLUID PH
DFL .                    8.5 : DRILLING FLUID LOSS
RMS .OHMM               1.06 : RESISTIVITY MUD SAMPLE
MST .DEGF                 64 : MUD SAMPLE TEMPERATURE
RMF .OHMM               0.79 : RESISTIVITY MUD FILTRATE SAMPLE
MFST.DEGF                 62 : MUD FILTRATE SAMPLE TEMPERATURE
RMB .OHMM               0.44 : RESISTIVITY MUD AT BHT
TCS .HRS                 2.5 : TIME CIRCULATED STOPPED
LUN .                   7636 : LOGGING UNIT NUMBER
LUL .                    EDM : LOGGING UNIT LOCATION
ENGI.             SLUSARCHUK : RECORDING ENGINEER
WITN.               SHEPPARD : WITNESSED BY
CLNT.                A2DTECH : CLIENT CODE
ORIG.            2" 5" PRINT : ORIGIN OF DATA
UWI .       100153607812W500 : UNIQUE WELL ID
DICO. A2D Technologies, Inc. : DIGITIZING COMPANY
~Other -----------------------------------------------------
DIL-FDC-CNL-GR-SLC TOOL RUN
~ASCII -----------------------------------------------------
# ...
 2000.00000    9.03140    9.08860    9.03140  128.07870    0.04840    2.20760    -999.25    0.26740    0.29380    7.80770    0.04840  111.74470  111.74470   62.33900   72.79040   62.33900    7.80770    8.57060    8.64750    8.57060    -999.25    0.48410    0.44360    2.20760  -50.48400  -16.84540    8.64750
 2050.00000   11.74120   11.04860   11.74120  270.37940    0.19870    2.14510    -999.25    0.31040    0.33040    3.69930    0.19870  115.20750  115.20750   86.09540   89.91590   86.09540    3.69930    3.80700    3.50420    3.80700    -999.25    0.47470    0.43380    2.14510  -45.30560  -11.49780    3.50420
 2100.00000   10.25810   10.11890   10.25810  216.52990    0.04260    2.31450    -999.25    0.20740    0.23130    4.61830    0.04260  109.25620  109.25620   73.38610   82.45050   73.38610    4.61830    4.73580    4.65350    4.73580    -999.25    0.43090    0.38870    2.31450  -46.24620  -12.26760    4.65350
 2150.00000   10.12270   10.22140   10.12270  197.74960    0.01550    2.33040    -999.25    0.19940    0.22200    5.05690    0.01550  102.74300  102.74300   85.03840   83.47090   85.03840    5.05690    5.28880    4.74070    5.28880    -999.25    0.43830    0.39630    2.33040  -45.33520  -11.18660    4.74070
 2200.00000   10.81500    9.51620   10.81500  261.41060    0.15290    2.06960    -999.25    0.39170    0.37450    3.82540    0.15290  127.93010  127.93010   80.03510   83.92360   80.03510    3.82540    4.11690    3.90670    4.11690    -999.25    0.53640    0.49850    2.06960  -47.79870  -13.48010    3.90670
 2250.00000    8.08320    8.44210    8.08320   55.42620    0.06360    2.26490    -999.25    0.23750    0.26030   18.04200    0.06360   90.95640   90.95640   37.13150   36.63070   37.13150   18.04200   23.61870  120.45880   23.61870    -999.25    0.40250    0.35970    2.26490  -50.35510  -16.21870  120.45880
 2300.00000    9.71800   10.25610    9.71800  142.54820    0.12330    2.32840    -999.25    0.20050    0.22310    7.02060    0.12330   98.22230   98.22230   72.20190   78.65900   72.20190    7.02060    7.49490    6.93640    7.49490    -999.25    0.38970    0.34660    2.32840  -49.87250  -16.26790    6.93640
 2350.00000   12.30970   11.77990   12.30970  139.72140    0.11450    2.30580    -999.25    0.21400    0.23640    7.15710    0.11450  101.06310  101.06310   88.75840  100.67810   88.75840    7.15710    7.37640    5.61210    7.37640    -999.25    0.37580    0.33250    2.30580  -50.82270  -17.75520    5.61210
 2400.00000    9.98250    9.32770    9.98250   86.49920    0.02320    2.22470    0.21150    -999.25    0.28380   11.56080    0.02320   79.94150   79.94150   48.23030   55.95400   48.23030   11.56080   11.20530   10.97340   11.20530    0.34720    -999.25    0.34720    2.22470  -41.23420   -8.70110   10.97340
 2450.00000    8.91030    9.13840    8.91030   92.33270    0.19010    2.52500    0.11650    -999.25    0.10820   10.83040    0.19010   79.75770   79.75770   43.06120   41.17080   43.06120   10.83040    9.62500   14.99200    9.62500    0.17790    -999.25    0.17790    2.52500  -36.95730   -4.95860   14.99200
 2500.00000    8.24760    8.49190    8.24760  136.03590    0.00180    2.60040    0.07580    -999.25    0.06410    7.35100    0.00180   59.07900   59.07900   23.91510   30.70630   23.91510    7.35100    8.46250   12.41220    8.46250    0.14970    -999.25    0.14970    2.60040  -43.13830  -11.67400   12.41220
 2550.00000    8.61110    8.85140    8.61110   44.07760    0.01070    2.64300    0.03740    -999.25    0.03920   22.68740    0.01070   63.70840   63.70840   31.67460   27.07730   31.67460   22.68740   25.36650   41.65920   25.36650    0.09040    -999.25    0.09040    2.64300  -41.56090  -10.62830   41.65920
 2600.00000   10.50680   10.95530   10.50680  145.18210    0.08530    2.55170    0.09500    -999.25    0.09260    6.88790    0.08530   85.11850   85.11850   61.21310   54.26280   61.21310    6.88790    7.18960    6.79340    7.18960    0.22370    -999.25    0.22370    2.55170  -34.91770   -4.52230    6.79340
 2650.00000    9.87080   10.47760    9.87080  182.79860   -0.00050    2.54740    0.09650    -999.25    0.09510    5.47050   -0.00050   91.82850   91.82850   59.63000   57.63180   59.63000    5.47050    5.63860    6.21330    5.63860    0.25630    -999.25    0.25630    2.54740  -31.85500   -1.99400    6.21330
 2700.00000    8.52690    8.91650    8.52690  109.06670    0.00360    2.61570    0.05750    -999.25    0.05510    9.16870    0.00360   65.58290   65.58290   36.01870   39.84770   36.01870    9.16870   10.72690   19.81450   10.72690    0.12150    -999.25    0.12150    2.61570  -43.91780  -14.96450   19.81450
 2750.00000    7.98650    8.32290    7.98650   22.01470    0.00960    2.58290    0.07720    -999.25    0.07430   45.42420    0.00960   56.11960   56.11960   16.31120   13.42380   16.31120   45.42420   59.93710  180.34670   59.93710    0.08800    -999.25    0.08800    2.58290  -67.87290  -40.15830  180.34670
 2800.00000   12.96760   12.60380   12.96760  455.22610    0.14490    1.93340    0.45000    -999.25    0.45420    2.20020    0.14490   80.00000   80.00000   69.38870   67.80040   69.38870    2.20020    2.45370    3.32470    2.45370    0.45980    -999.25    0.45980    1.93340  -45.62600  -19.14380    3.32470
 2850.00000   13.13950   12.50540   13.13950  218.05490    0.22580    2.32420    0.22440    -999.25    0.22560    4.58600    0.22580   94.02900   94.02900   71.33860   69.05360   71.33860    4.58600    5.30300    5.66020    5.30300    0.29750    -999.25    0.29750    2.32420  -42.08710  -16.84990    5.66020
 2900.00000   11.56270   13.72600   11.56270  368.62280    0.18170    1.97410    0.45030    -999.25    0.43040    2.71280    0.18170   99.29200   99.29200   69.81820   72.18780   69.81820    2.71280    2.98600    4.21740    2.98600    0.47860    -999.25    0.47860    1.97410  -41.25100  -17.25250    4.21740
 2950.00000    8.81490    9.27280    8.81490  153.36010    0.07850    2.63580    0.04530    -999.25    0.04340    6.52060    0.07850   72.92200   72.92200   51.75930   47.32500   51.75930    6.52060    8.12890   10.96740    8.12890    0.19370    -999.25    0.19370    2.63580  -26.46810   -3.70830   10.96740
 3000.00000    9.13840    9.35040    9.13840  141.00790    0.04840    2.51860    0.12290    -999.25    0.11190    7.09180    0.04840   74.17000   74.17000   43.79340   41.56220   43.79340    7.09180    7.77280    6.97970    7.77280    0.20320    -999.25    0.20320    2.51860  -28.03860   -6.51750    6.97970
 3050.00000    8.83710    9.15750    8.83710  112.60250    0.00630    2.65190    0.03690    -999.25    0.03400    8.88260    0.00630   66.18890   66.18890   32.79110   35.49270   32.79110    8.88260    9.20430   14.09900    9.20430    0.10770    -999.25    0.10770    2.65190  -22.06680   -1.77820   14.09900
 3100.00000    9.21660    9.19780    9.21660  112.47460    0.01930    2.62610    0.05220    -999.25    0.04910    8.89090    0.01930   64.83910   64.83910   33.97130   30.55420   33.97130    8.89090    7.65790   11.05630    7.65790    0.14990    -999.25    0.14990    2.62610  -39.80770  -20.09250   11.05630
 3150.00000    8.69010    8.91290    8.69010   67.48500    0.02000    2.64830    0.03550    -999.25    0.03610   14.81810    0.02000   59.30240   59.30240   37.26170   32.15620   37.26170   14.81810   18.34560   37.65740   18.34560    0.09740    -999.25    0.09740    2.64830  -41.08920  -21.76270   37.65740
 3200.00000    9.17860    9.76350    9.17860  208.25090    0.02930    2.57900    0.08320    -999.25    0.07660    4.80190    0.02930   73.14560   73.14560   57.06100   62.24220   57.06100    4.80190    4.95020    5.25720    4.95020    0.18550    -999.25    0.18550    2.57900  -33.44300  -14.50510    5.25720
 3250.00000    8.63710    8.96480    8.63710   90.41020   -0.00280    2.64710    0.04060    -999.25    0.03680   11.06070   -0.00280   63.34340   63.34340   50.35810   53.45340   50.35810   11.06070   11.40470   14.89420   11.40470    0.10280    -999.25    0.10280    2.64710  -22.43490   -3.88570   14.89420
