~Version ---------------------------------------------------
VERS.      2.0 : CWLS log ASCII Standard -VERSION 2.0
WRAP.       NO : One line per depth step
CREA. 07/23/13 : LAS Creation Date
~Well ------------------------------------------------------
STRT.FT                    300.0 : START DEPTH
STOP.FT                  13950.0 : STOP DEPTH
STEP.FT                 50.00000 : STEP LENGTH
NULL.                    -999.25 : NULL VALUE
COMP.   PENN WEST PETROLEUM LTD. : COMPANY
WELL. CONOCO WEB PECO 6-26-47-15 : WELL
FLD .                       PECO : FIELD
LOC .                            : LOCATION
CTRY.                     CANADA : COUNTRY
SRVC.     Schlumberger of Canada : SERVICE COMPANY
DATE.                03-May-1960 : LOGDATE
PROV.                    Alberta : PROVINCE
UWI .           100062604715W500 : UNIQUE WELL ID
SLAT.WGS84         53.0817985535 : SURFACE LATITUDE
SLON.WGS84       -116.0888900757 : SURFACE LONGITUDE
~Curve Information -----------------------------------------
DEPT .FT            : DEPTH FEET
CALM .IN            : CALIPER FROM MICRO LOG
CILD .MMHO          : CONDUCTIVITY FROM IL LOG
DT   .US/F          : DELTA-T 3 FEET SPACING FROM SONIC LOG
DT_1 .US/F          : DELTA-T 1 FEET SPACING FROM SONIC LOG
GRS  .UG_RA-EQ/TON  : GAMMA RAY FROM SONIC LOG
ILD  .OHMM          : DEEP INDUCTION FROM IL LOG
LN   .OHMM          : LONG NORMAL FROM EL LOG
LT18 .OHMM          : LATERAL 18 FROM EL LOG
MCAL .IN            : CALIPER FROM MICRO LOG
MLL  .OHMM          : MICRO LATEROLOG FROM MICRO LOG
SN   .OHMM          : SHORT NORMAL FROM EL LOG
SPR  .MV            : SPONTANEOUS POTENTIAL FROM EL LOG
SPR_1.MV            : SPONTANEOUS POTENTIAL FROM IL LOG
~Params ----------------------------------------------------
PD  .                    GND : PERMANENT DATUM
LMF .                    GND : LOG MEASURED FROM
DMF .                    GND : DRILLING MEASURED FROM
EGL .FT                 3857 : GROUND LEVEL
DATE.               05/03/60 : RUN DATE
RUN .                      2 : RUN NUMBER
DD  .FT                13975 : DEPTH DRILLER
DL  .FT                13965 : DEPTH LOGGER
BLI .FT                13960 : BOTTOM LOG INTERVAL
TLI .FT                 9389 : TOP LOG INTERVAL
CBD .FT                 9386 : CASING BOTTOM DRILLER
CBL .FT                 9389 : CASING BOTTOM LOGGER
BS  .IN                8.875 : BIT SIZE
BSD .FT                13975 : BIT SIZE AT DEPTH
DFT .                   LIME : DRILLING FLUID TYPE
DFD .                     10 : DRILLING FLUID DENSITY
DFV .                     96 : DRILLING FLUID VISCOSITY
DFPH.                     13 : DRILLING FLUID PH
RMS .OHMM               0.69 : RESISTIVITY MUD SAMPLE
MST .DEGF                 58 : MUD SAMPLE TEMPERATURE
RMF .OHMM                0.4 : RESISTIVITY MUD FILTRATE SAMPLE
MFST.DEGF                 70 : MUD FILTRATE SAMPLE TEMPERATURE
RMC .OHMM                0.7 : RESISTIVITY MUD CAKE
MCST.DEGF                 70 : MUD CAKE SAMPLE TEMPERATURE
RMB .OHMM               0.16 : RESISTIVITY MUD AT BHT
TCS .HRS                   5 : TIME CIRCULATED STOPPED
LUN .               DSU C 72 : LOGGING UNIT NUMBER
ENGI.                  JAMES : RECORDING ENGINEER
WITN.               SHERRIFF : WITNESSED BY
CLNT.                A2DTECH : CLIENT CODE
ORIG.            2" 5" PRINT : ORIGIN OF DATA
UWI .       100062604715W500 : UNIQUE WELL ID
DICO. A2D Technologies, Inc. : DIGITIZING COMPANY
~Other -----------------------------------------------------
~ASCII -----------------------------------------------------
# ...
 8100.00000    -999.25   88.24660   72.27430   69.56080    4.79590   11.67190   19.63030   26.63580   13.77800    -999.25    9.90690  -14.31740  -25.52700
 8150.00000    -999.25  116.90340   76.67690   77.44960    5.44670    8.94310   16.33200   22.95450   14.31440    -999.25    8.56100  -12.45720  -24.11760
 8200.00000    -999.25  129.86450   79.16210   80.04170    5.69780    8.11900   14.16540   17.56620   15.57390    -999.25    8.14100  -11.20660  -21.87720
 8250.00000    -999.25    -999.25   83.35250    -999.25    5.97760    -999.25   12.68210   14.60230   15.79940    -999.25    7.45700  -44.32160    -999.25
 8300.00000    -999.25    -999.25   80.23130    -999.25    5.88060    -999.25   12.80540   13.60440   15.03030    -999.25    7.71820  -43.66320    -999.25
 8350.00000    -999.25    -999.25   79.67240    -999.25    5.72480    -999.25   14.77130   15.71070   14.81330    -999.25    8.44300  -41.72060    -999.25
 8400.00000    -999.25    -999.25   89.35400    -999.25    6.12060    -999.25   14.29210   13.09310   15.09780    -999.25    8.44020  -43.41380    -999.25
 8450.00000    -999.25    -999.25   86.08410    -999.25    6.44540    -999.25   19.21580   22.89530   14.06490    -999.25   10.12900  -43.89260    -999.25
 8500.00000    -999.25    -999.25   84.92610    -999.25    6.14150    -999.25   16.91700   19.06330   14.02110    -999.25    9.76780  -44.71190    -999.25
 8550.00000    -999.25    -999.25   87.05560    -999.25    5.83730    -999.25   17.77990   18.91760   13.00150    -999.25    9.75300  -44.13690    -999.25
 8600.00000    -999.25    -999.25   90.38460    -999.25    6.21200    -999.25   17.15700   20.28610   12.69480    -999.25    9.47560  -44.78070    -999.25
 8650.00000    -999.25    -999.25   91.17480    -999.25    5.34620    -999.25   22.48040   24.46170   13.26310    -999.25   11.50890  -44.19470    -999.25
 8700.00000    -999.25    -999.25   86.20090    -999.25    6.14130    -999.25   28.35280   36.92020   13.00440    -999.25   13.59520  -45.47890    -999.25
 8750.00000    -999.25    -999.25   87.11330    -999.25    5.73340    -999.25   18.75850   26.65720   12.92170    -999.25    9.90400  -43.05880    -999.25
 8800.00000    -999.25    -999.25   93.96610    -999.25    6.57940    -999.25   15.00040   14.73490   14.80040    -999.25    8.45010  -40.90750    -999.25
 8850.00000    -999.25    -999.25   90.47670    -999.25    6.92050    -999.25   15.15320   20.25070   13.58320    -999.25    8.39660  -40.84540    -999.25
 8900.00000    8.76700    -999.25   81.73530    -999.25    5.10460    -999.25   13.16230    9.21140   12.83130    -999.25    7.95440  -41.09200    -999.25
 8950.00000    8.77930  176.20590   81.97780    -999.25    5.74080    6.15590   10.80610   19.61840   14.00800    -999.25    6.68730  -40.79560  -31.11100
 9000.00000    8.79600  214.66290   85.66680    -999.25    5.75960    4.84080    8.73410    9.83250   14.17020    -999.25    5.88830  -39.70880  -27.11180
 9050.00000    8.77210  153.09030   80.54330    -999.25    5.24130    6.99580   13.07800   13.40880   14.42750    -999.25    7.85700  -40.83940  -28.09430
 9100.00000    8.81470  243.47940   99.27050   97.94710    7.25820    4.01000    8.51580    9.74120   13.13230    -999.25    5.69350  -37.28400  -24.35220
 9150.00000    8.71770  245.48000   90.53670   88.55740    5.32130    4.15470    6.17950    4.43260   15.25190    -999.25    4.59740  -34.88390  -21.80990
 9200.00000    8.73770  214.11860   87.82450   85.79110    5.20440    4.85580    8.76120    7.21620   13.56690    -999.25    5.91450  -35.05830  -22.58250
 9250.00000    8.81730  104.16460   67.81910   55.15070    4.73250    9.99380   16.84700   25.09710   10.05760    -999.25   10.65590  -39.59680  -27.66020
 9300.00000    8.73830  263.25020   94.48010  102.12320    5.14550    3.80070    8.19630   12.10820    8.82090    -999.25    5.75780  -38.07950  -21.98590
 9350.00000    8.77070  144.47290   73.24960   72.99040    5.58860    7.40510   10.62260    7.59650    9.17930    -999.25    8.27190  -41.26400  -28.82790
 9400.00000   10.61030   64.39800   70.22530   70.99210    1.50960   15.04700   20.07340    -999.25    -999.25   11.74780   11.60480    -999.25  -64.60090
 9450.00000   11.61430  111.19810   78.69070   73.22370    3.33020    8.90360   17.35260   21.49710    -999.25   26.19940    7.38980    -999.25  -40.05540
 9500.00000   12.29600  151.67240   75.15560   80.24270    4.01130    7.22770   12.07340   20.91290    -999.25    3.84030    6.21580    -999.25  -36.19050
 9550.00000   12.04000   97.16520   69.13640   77.42530    3.59850   10.78770   19.67140   24.27370    -999.25    2.87470    8.90850    -999.25  -47.12170
 9600.00000   10.86060   83.15530   76.90610   77.81940    3.84400   12.11640   23.42480   17.29880    -999.25   10.14780    9.86770    -999.25  -53.10750
 9650.00000   11.26280   82.47110   68.90500   69.79720    3.95310   12.24850   26.73550   24.62210    -999.25    6.98820   10.39080    -999.25  -50.14140
 9700.00000   11.99650  101.76130   73.83290   72.95940    2.47780    9.85180   33.78090   59.18440    -999.25    3.32240   11.71890    -999.25  -46.45300
 9750.00000   10.88980   93.11500   77.63290   73.02620    4.27660   10.55190   23.24520   24.65150    -999.25    5.63690    9.39930    -999.25  -44.68720
 9800.00000    9.90510   32.52120   59.79020   59.04620    1.92550   27.41030   30.15490   40.71400    -999.25  140.26010   14.99160    -999.25  -60.74530
 9850.00000   10.58670   76.41890   73.89080   71.42850    3.16420   12.88670   21.42870   22.99420    -999.25    6.81490   10.35100    -999.25  -43.16520
 9900.00000   10.03390   44.17660   69.23850   67.55580    1.99890   25.01920   35.15080   68.30170    -999.25   14.62790   14.78250    -999.25  -47.83370
 9950.00000   10.92950   17.30950   74.18960   61.34490    5.48390   48.94040   41.09700   38.16640    -999.25    3.93430   16.59030    -999.25  -57.33900
 10000.00000    9.95160   31.77140   73.48380   74.06470    3.56240   33.72740   58.58210  135.82550    -999.25  100.33920   18.58660    -999.25  -55.21860
 10050.00000    9.93170   16.35400   66.99180   64.88110    5.07480   70.10090  109.02930  122.21330    -999.25   47.37810   32.23900    -999.25  -74.99650
 10100.00000   10.02040   17.05520   61.29230   62.52540    6.20150   82.33630   60.95200   44.18590    -999.25    5.83760   21.06780    -999.25  -63.52400
 10150.00000   12.50970   36.97550   72.97070   74.65160    3.78660   26.73300   55.26970  100.99460    -999.25   57.08040   17.63670    -999.25  -60.82910
 10200.00000   12.43300  162.33530   90.69250   78.62130    5.23430    8.11850   34.49410   33.20820    -999.25    2.38650    7.96260    -999.25  -57.48600
 10250.00000    8.35020   10.25670   58.56440   55.89760    1.49350  104.84740   93.21420  132.80780    -999.25   62.67510   30.47180    -999.25  -84.85210
 10300.00000   12.22610  107.31130   80.04620   80.01050    5.29190    9.48140   22.86670   24.49330    -999.25    2.67860    8.70470    -999.25  -48.11410
 10350.00000    8.59720    3.00970   57.53240   59.25060    4.10720  254.13500  210.03130  204.31140    -999.25  160.28750   63.44540    -999.25 -102.29420
 10400.00000    8.36070    7.14610   57.15500   57.10330    1.66840  337.58690  395.44200    -999.25    -999.25  134.99350   62.30180    -999.25  -93.93400
 10450.00000    8.71560    2.91370   56.64960   57.46480    1.99020  339.97110  377.01190  484.98770    -999.25  129.22980   60.60790    -999.25  -92.41490
 10500.00000    9.20020   11.05650   52.35610   53.74890    2.25360  102.27240  134.80870  417.80960    -999.25    5.29710   28.18080    -999.25  -77.02330
 10550.00000    9.57350   33.51720   54.42120   56.58570    2.11970   31.88550  119.21500  131.82050    -999.25    3.89900   33.52240    -999.25  -89.71800
 10600.00000   10.06130   29.81030   54.84100   57.29850    1.43460   34.09160  166.50180  242.35130    -999.25    7.89720   39.78270    -999.25  -86.07510
 10650.00000    9.95730   38.75070   58.49450   62.90710    0.93800   26.15770  111.33500  416.59550    -999.25    7.09860   20.74820    -999.25  -73.93200
