~Version ---------------------------------------------------
VERS.      2.0 : CWLS log ASCII Standard -VERSION 2.0
WRAP.       NO : One line per depth step
CREA. 08/01/17 : LAS Creation Date
~Well ------------------------------------------------------
STRT.FT                         950.0 : START DEPTH
STOP.FT                        9900.0 : STOP DEPTH
STEP.FT                      50.00000 : STEP LENGTH
NULL.                         -999.25 : NULL VALUE
COMP. GENERAL CRUDE OIL, NORTHERN LTD : COMPANY
WELL.   GCON HB PUSKWASKAU 11-6-73-24 : WELL
FLD .                                 : FIELD
LOC .                                 : LOCATION
CTRY.                          CANADA : COUNTRY
SRVC.          Schlumberger of Canada : SERVICE COMPANY
DATE.                     29-Jan-1973 : LOGDATE
PROV.                         Alberta : PROVINCE
UWI .                100110607324W500 : UNIQUE WELL ID
SLAT.WGS84                   55.29715 : SURFACE LATITUDE
SLON.WGS84                  -117.6848 : SURFACE LONGITUDE
~Curve Information -----------------------------------------
DEPT  .FT    : Depth Curve
CALSED.IN    : CALIPER FROM SONIC LOG
CALWS .IN    : CALIPER [CALSED]
CILDED.MMHO  : CONDUCTIVITY FROM RESISTIVITY LOG
CONDWS.MMHO  : CONDUCTIVITY [1000/DRESWS]
DRESWS.OHMM  : DEEP RESISTIVITY [ILDED] [1000/CILDED, IF ILDED<5, ILDED]
DTED  .US/F  : DELTA TIME FROM SONIC LOG
DTWS  .US/F  : DELTA TIME [DTED]
GRSED .GAPI  : GAMMA RAY FROM SONIC LOG
GRWS  .GAPI  : GAMMA RAY [GRSED]
ILDED .OHMM  : INDUCTION LOG DEEP RESISTIVITY
ILMED .OHMM  : INDUCTION LOG MEDIUM RESISTIVITY
LL8ED .OHMM  : 8 INCH LATEROLOG RESISTIVITY
MRESWS.OHMM  : MEDIUM RESISTIVITY [ILMED]
SPRED .MV    : SPONTANEOUS POTENTIAL FROM RESISTIVITY LOG
SPWS  .MV    : SPONTANEOUS POTENTIAL [BASELINE 0 MV] [SPRED]
SRESWS.OHMM  : SHALLOW RESISTIVITY [LL8ED]
~Params ----------------------------------------------------
PD  .                     GL : PERMANENT DATUM
EPD .FT                 2352 : ELEVATION PERMANENT DATUM
LMF .                     KB : LOG MEASURED FROM
DAPD.FT                   14 : FEET ABOVE PERMANENT DATUM
EKB .FT                 2366 : KELLY BUSHING
EGL .FT                 2352 : GROUND LEVEL
DATE.               01/73/29 : RUN DATE
RUN .                      1 : RUN NUMBER
DD  .FT                 9931 : DEPTH DRILLER
DL  .FT                 9919 : DEPTH LOGGER
BLI .FT                 9913 : BOTTOM LOG INTERVAL
TLI .FT                 1011 : TOP LOG INTERVAL
CBD .FT                 1011 : CASING BOTTOM DRILLER
CBL .FT                 1011 : CASING BOTTOM LOGGER
BS  .IN                 8.75 : BIT SIZE
BSD .FT                 9931 : BIT SIZE AT DEPTH
DFT .                    GEL : DRILLING FLUID TYPE
DFD .                    9.5 : DRILLING FLUID DENSITY
DFV .                     95 : DRILLING FLUID VISCOSITY
DFPH.                    7.5 : DRILLING FLUID PH
DFL .                    8.2 : DRILLING FLUID LOSS
RMF .OHMM               1.35 : RESISTIVITY MUD FILTRATE SAMPLE
MFST.DEGF                 68 : MUD FILTRATE SAMPLE TEMPERATURE
RMB .OHMM               0.56 : RESISTIVITY MUD AT BHT
TCS .HRS                   4 : TIME CIRCULATED STOPPED
LUN .                   7635 : LOGGING UNIT NUMBER
LUL .                     DC : LOGGING UNIT LOCATION
ENGI.                  BAKER : RECORDING ENGINEER
WITN.                JOHNSON : WITNESSED BY
CLNT.                A2DTECH : CLIENT CODE
ORIG.            2" 5" PRINT : ORIGIN OF DATA
UWI .       100110607324W500 : UNIQUE WELL ID
DICO. A2D Technologies, Inc. : DIGITIZING COMPANY
~Other -----------------------------------------------------
~ASCII -----------------------------------------------------
# ...
 5250.00000    8.80080    8.80080    -999.25   68.24080   14.65400   60.77270   60.77270   39.10040   39.10040   14.65400   16.72930   65.92490   16.72930 -162.70550  -55.64860   65.92490
 5300.00000    8.75290    8.75290    -999.25  175.65390    5.69610   62.52870   62.52870   26.44510   26.44510    5.69610    8.05390   37.02110    8.05390 -190.86660  -80.94450   37.02110
 5350.00000   13.45160   13.45160    -999.25  572.34430    1.74720  122.21350  122.21350   82.34160   82.34160    1.74720    1.48120    2.15400    1.48120 -127.28800  -14.47180    2.15400
 5400.00000   12.27450   12.27450    -999.25  212.77350    4.70280   92.42410   92.42410  167.96660  167.96660    4.70280    3.91330    5.02080    3.91330 -117.13970   -1.45820    5.02080
 5450.00000    9.29700    9.29700    -999.25  440.02460    2.27260   64.68650   64.68650   53.14370   53.14370    2.27260    3.29160   14.30950    3.29160 -189.11520  -75.29620   14.30950
 5500.00000    9.36080    9.36080    -999.25   59.03540   16.93900   54.03760   54.03760   37.58480   37.58480   16.93900   20.20420   26.43240   20.20420 -163.44140  -51.85730   26.43240
 5550.00000   10.11040   10.11040    -999.25   99.33930   11.15380   52.03070   52.03070   14.35010   14.35010   11.15380   84.68170  142.62250   84.68170 -148.40510  -39.04470  142.62250
 5600.00000   10.28770   10.28770    -999.25   37.77650   26.47150   50.88280   50.88280   18.19460   18.19460   26.47150   51.94400  430.60330   51.94400 -178.25280  -71.13840  430.60330
 5650.00000   10.34000   10.34000    -999.25  692.90880    1.44540   73.14180   73.14180   48.08820   48.08820    1.44540    1.51960    2.68030    1.51960 -151.97510  -47.08430    2.68030
 5700.00000    9.73470    9.73470    -999.25   34.64180   28.86690   54.10350   54.10350   50.93240   50.93240   28.86690  359.33170   59.01410  359.33170 -143.10210  -40.45740   59.01410
 5750.00000   10.01560   10.01560    -999.25  672.04300    1.48800   69.34990   69.34990   79.22180   79.22180    1.48800    1.96750    5.89870    1.96750 -149.67650  -49.26660    5.89870
 5800.00000    8.76310    8.76310    -999.25  924.27890    1.08250   82.97640   82.97640   21.26460   21.26460    1.08250    1.94050    5.59640    1.94050 -188.37850  -90.19230    5.59640
 5850.00000    9.69340    9.69340    -999.25  183.74580    5.44230   55.30280   55.30280   24.00380   24.00380    5.44230    9.59680   43.45900    9.59680 -175.76760  -79.57230   43.45900
 5900.00000    9.56180    9.56180    -999.25  572.14570    1.76130   63.80440   63.80440   31.48000   31.48000    1.76130    3.20530   12.80120    3.20530 -169.11840  -74.42140   12.80120
 5950.00000    8.94270    8.94270    -999.25  342.11430    2.92300   58.35550   58.35550   23.08180   23.08180    2.92300    5.49460   21.61320    5.49460 -192.90450  -99.72100   21.61320
 6000.00000    9.88990    9.88990    -999.25  137.75430    7.25930   57.51930   57.51930   41.13610   41.13610    7.25930   10.21620   29.17020   10.21620 -116.40150  -24.72380   29.17020
 6050.00000    9.38080    9.38080    -999.25  227.42540    4.45900   56.76950   56.76950   23.53580   23.53580    4.45900    5.07320  148.35530    5.07320 -179.13040  -88.95120  148.35530
 6100.00000    9.51150    9.51150    -999.25  103.81840    9.63220   54.30300   54.30300   32.82460   32.82460    9.63220   13.00900   16.97060   13.00900 -118.87160  -30.20570   16.97060
 6150.00000    8.84230    8.84230    -999.25  134.53820    7.43330   59.55380   59.55380   20.48200   20.48200    7.43330   13.25470   61.62280   13.25470 -188.11520 -100.94770   61.62280
 6200.00000   10.68690   10.68690    -999.25  145.36360    6.87930   79.72380   79.72380   49.23350   49.23350    6.87930    7.33450    7.22350    7.33450  -88.30150   -2.64740    7.22350
 6250.00000    9.31330    9.31330    -999.25    1.03860  962.81090   51.83170   51.83170   29.42720   29.42720  962.81090  132.41840  272.29520  132.41840 -113.25830  -28.17430  272.29520
 6300.00000    9.52310    9.52310    -999.25  336.27770    3.05590   56.25700   56.25700   22.74200   22.74200    3.05590    3.56380   31.58760    3.56380 -150.56050  -65.66350   31.58760
 6350.00000    9.02680    9.02680    -999.25   95.40070   10.48210   58.01500   58.01500   16.87390   16.87390   10.48210   14.96290   42.88870   14.96290 -191.58370 -106.87550   42.88870
 6400.00000    9.53120    9.53120    -999.25   68.37430   14.64120   57.62990   57.62990   47.85440   47.85440   14.64120   16.86060   19.51490   16.86060 -121.80560  -37.28440   19.51490
 6450.00000    9.51020    9.51020    -999.25   40.61290   24.62270   59.20450   59.20450   47.18390   47.18390   24.62270   28.55070   30.98190   28.55070 -107.16520  -22.83280   30.98190
 6500.00000    9.45770    9.45770    -999.25   20.02780   49.93060   51.32440   51.32440   21.75710   21.75710   49.93060   66.29210  170.11320   66.29210 -151.30480  -67.16030  170.11320
 6550.00000    9.86370    9.86370    -999.25   58.88450   16.99440   55.31750   55.31750   18.61330   18.61330   16.99440   22.60870  100.20960   22.60870 -189.63510 -105.67760  100.20960
 6600.00000    9.89910    9.89910    -999.25   14.09580   70.94300   52.26870   52.26870   17.50080   17.50080   70.94300   74.23710   57.99690   74.23710 -176.73990  -92.97120   57.99690
 6650.00000    9.85610    9.85610    -999.25    9.08680  110.49920   50.99040   50.99040   17.01160   17.01160  110.49920  118.09220  163.09700  118.09220 -176.27780  -92.69610  163.09700
 6700.00000   11.43000   11.43000    -999.25  128.18540    7.80120   64.09850   64.09850   56.80030   56.80030    7.80120    8.12830    8.56030    8.12830 -118.53050  -35.13760    8.56030
 6750.00000    9.97740    9.97740    -999.25  326.44530    3.06330   68.19530   68.19530   68.51750   68.51750    3.06330    3.79880    4.35950    3.79880 -123.95480  -40.74990    4.35950
 6800.00000    9.90510    9.90510    -999.25  180.57850    5.54580   61.43960   61.43960   54.50520   54.50520    5.54580    7.36240   17.31010    7.36240 -116.12210  -33.10400   17.31010
 6850.00000   10.67380   10.67380    -999.25  177.42770    5.63610   71.10070   71.10070   64.48140   64.48140    5.63610    5.54520    9.21400    5.54520 -115.18130  -32.35210    9.21400
 6900.00000    9.34510    9.34510    -999.25   28.33250   35.43570   51.25220   51.25220   20.59240   20.59240   35.43570   41.37050  143.81530   41.37050 -126.32810  -43.68580  143.81530
 6950.00000    9.25490    9.25490    -999.25   55.55340   18.00070   58.56030   58.56030   34.95850   34.95850   18.00070   19.74270   23.16740   19.74270 -110.99240  -28.53900   23.16740
 7000.00000    9.24140    9.24140    -999.25   27.62160   36.20350   55.79020   55.79020   35.67380   35.67380   36.20350   39.54670   49.56600   39.54670  -91.80730   -9.54180   49.56600
 7050.00000    9.24500    9.24500    -999.25   25.17150   39.73900   55.95580   55.95580   37.28790   37.28790   39.73900   44.49920   52.80510   44.49920  -90.78150   -8.70300   52.80510
 7100.00000    9.23170    9.23170    -999.25   30.36660   32.93090   56.57550   56.57550   41.14030   41.14030   32.93090   35.72960   37.05810   35.72960  -97.01340  -15.12370   37.05810
 7150.00000    9.45670    9.45670    -999.25   39.52190   25.30240   57.92780   57.92780   45.69410   45.69410   25.30240   27.18840   28.19340   27.18840  -88.61960   -6.91690   28.19340
 7200.00000    9.48530    9.48530    -999.25   51.38720   19.46010   61.17000   61.17000   45.98840   45.98840   19.46010   20.93830   21.61520   20.93830  -82.27590   -0.76200   21.61520
 7250.00000    9.60090    9.60090    -999.25   55.88340   17.89440   61.60630   61.60630   48.14440   48.14440   17.89440   19.05010   21.52360   19.05010  -91.80450   -9.92300   21.52360
 7300.00000    8.95320    8.95320    -999.25   11.49000   87.06340   54.61220   54.61220   27.77610   27.77610   87.06340  100.25550  158.20890  100.25550 -109.05960  -25.52270  158.20890
 7350.00000    9.41710    9.41710    -999.25   35.31520   28.31640   65.39840   65.39840   57.03640   57.03640   28.31640   31.54750   35.47130   31.54750  -90.65890   -5.45000   35.47130
