~Version ---------------------------------------------------
VERS.      2.0 : CWLS log ASCII Standard -VERSION 2.0
WRAP.       NO : One line per depth step
CREA. 08/02/17 : LAS Creation Date
~Well ------------------------------------------------------
STRT.FT                        300.0 : START DEPTH
STOP.FT                      10200.0 : STOP DEPTH
STEP.FT                     50.00000 : STEP LENGTH
NULL.                        -999.25 : NULL VALUE
COMP.           IMPERIAL OIL LIMITED : COMPANY
WELL. IMPERIAL GOOSE RIVER 2-1-67-19 : WELL
FLD .                                : FIELD
LOC .                                : LOCATION
CTRY.                         CANADA : COUNTRY
SRVC.                   Schlumberger : SERVICE COMPANY
DATE.                    10-Mar-1960 : LOGDATE
PROV.                        Alberta : PROVINCE
UWI .               100020106719W500 : UNIQUE WELL ID
SLAT.WGS84                  54.76551 : SURFACE LATITUDE
SLON.WGS84                 -116.7556 : SURFACE LONGITUDE
~Curve Information -----------------------------------------
DEPT  .FT         : Depth Curve
CALWS .IN         : CALIPER [MCALED]
CILDED.MMHO       : DEEP INDUCTION CONDUCTIVITY FROM IEL LOG
CONDWS.MMHO       : CONDUCTIVITY [1000/DRESWS]
DRESWS.OHMM       : DEEP RESISTIVITY [CALCULATED FROM 1000/CONDWS, IF ILDED<1, ILDED]
DTED  .US/F       : DELTA-T (INTERVAL TRANSIT TIME) FROM SONIC LOG
DTWS  .US/F       : COMPRESSIONAL  SONIC [DTED]
GRSED .UgRa-Eq/T  : GAMMA RAY FROM SONIC LOG
GRWS  .GAPI       : GAMMA RAY [GRSED*16.50]
ILDED .OHMM       : DEEP INDUCTION FROM IEL LOG
MCALED.IN         : MICROLOG CALIPER FROM MLL LOG
SNED  .OHMM       : SHORT NORMAL INDUCTION FROM IEL LOG
SPRED .MV         : SPONTANEOUS POTENTIAL FROM IEL LOG
SPWS  .MV         : SPONTANEOUS POTENTIAL [BASELINE 0 MV, SPRED]
SRESWS.OHMM       : SHALLOW RESISTIVITY [SNED]
~Params ----------------------------------------------------
LMF .                     KB : LOG MEASURED FROM
DMF .                     KB : DRILLING MEASURED FROM
EKB .FT                 2467 : KELLY BUSHING
DATE.               03/10/60 : RUN DATE
RUN .                      1 : RUN NUMBER
DD  .FT                10228 : DEPTH DRILLER
DL  .FT                10340 : DEPTH LOGGER
BLI .FT                10335 : BOTTOM LOG INTERVAL
TLI .FT                  983 : TOP LOG INTERVAL
CBD .FT                  983 : CASING BOTTOM DRILLER
CBL .FT                  983 : CASING BOTTOM LOGGER
BS  .IN                    9 : BIT SIZE
BSD .FT                10228 : BIT SIZE AT DEPTH
DFT .                    GEL : DRILLING FLUID TYPE
DFD .                   10.1 : DRILLING FLUID DENSITY
DFV .                    150 : DRILLING FLUID VISCOSITY
DFPH.                    9.5 : DRILLING FLUID PH
DFL .                   10.2 : DRILLING FLUID LOSS
MSS .               FILTRATE : MUD SAMPLE SOURCE
RMS .OHMM                1.6 : RESISTIVITY MUD SAMPLE
MST .DEGF                 60 : MUD SAMPLE TEMPERATURE
RMF .OHMM               0.94 : RESISTIVITY MUD FILTRATE SAMPLE
MFST.DEGF                 72 : MUD FILTRATE SAMPLE TEMPERATURE
RMC .OHMM                1.4 : RESISTIVITY MUD CAKE
MCST.DEGF                 58 : MUD CAKE SAMPLE TEMPERATURE
RMB .OHMM               0.43 : RESISTIVITY MUD AT BHT
TCS .HRS                 500 : TIME CIRCULATED STOPPED
LUN .                   1511 : LOGGING UNIT NUMBER
LUL .                     DC : LOGGING UNIT LOCATION
ENGI.             RICHARDSON : RECORDING ENGINEER
WITN.                FLEWITT : WITNESSED BY
CLNT.                A2DTECH : CLIENT CODE
ORIG.            2" 5" PRINT : ORIGIN OF DATA
UWI .       100020106719W500 : UNIQUE WELL ID
DICO. A2D Technologies, Inc. : DIGITIZING COMPANY
~Other -----------------------------------------------------
~ASCII -----------------------------------------------------
# ...
 2750.00000    -999.25  156.25200  169.31360    5.90620   93.76220   93.76220    6.87130  113.37640    5.90620    -999.25    8.38250 -132.09920   -9.35910    8.38250
 2800.00000    -999.25  187.39910  215.13240    4.64830  100.96320  100.96320    7.62560  125.82240    4.64830    -999.25    7.64120 -131.17760   -8.58850    7.64120
 2850.00000    -999.25  172.40080  185.67690    5.38570   95.43150   95.43150    7.72220  127.41630    5.38570    -999.25    8.39270 -131.49590   -9.05770    8.39270
 2900.00000    -999.25  181.27570  202.19990    4.94560   86.76660   86.76660    7.03060  116.00490    4.94560    -999.25    8.25790 -130.56830   -8.28110    8.25790
 2950.00000    -999.25  178.30460  193.91120    5.15700   94.50770   94.50770    7.01230  115.70300    5.15700    -999.25    8.22200 -129.87130   -7.73500    8.22200
 3000.00000    -999.25  185.39140  200.40880    4.98980   93.99390   93.99390    6.79170  112.06300    4.98980    -999.25    8.05360 -126.80710   -4.82180    8.05360
 3050.00000    -999.25  222.10230  260.61350    3.83710   99.81010   99.81010    7.30550  120.54080    3.83710    -999.25    7.11560 -131.49290   -9.65850    7.11560
 3100.00000    -999.25  227.42500  269.56360    3.70970  107.45160  107.45160    8.15950  134.63170    3.70970    -999.25    7.32900 -127.64760   -5.96420    7.32900
 3150.00000    -999.25  186.40520  206.76540    4.83640  107.01370  107.01370    7.84400  129.42600    4.83640    -999.25    8.50320 -125.82150   -4.31170    8.50320
 3200.00000    -999.25  198.74160  224.25040    4.45930  105.13890  105.13890    7.99310  131.88620    4.45930    -999.25    8.25530 -125.83760   -5.04610    8.25530
 3250.00000    -999.25  160.96640  175.68830    5.69190  108.79730  108.79730    8.74770  144.33710    5.69190    -999.25   10.71010 -126.83280   -6.75960   10.71010
 3300.00000    -999.25  133.08390  139.78390    7.15390   89.45080   89.45080    8.19080  135.14820    7.15390    -999.25   13.55670 -130.95070  -11.59580   13.55670
 3350.00000    -999.25  141.69030  153.95750    6.49530  117.91020  117.91020   10.59340  174.79110    6.49530    -999.25   12.44540 -127.78520   -9.14850   12.44540
 3400.00000    -999.25  178.70640  204.52830    4.88930   89.79800   89.79800    6.69610  110.48570    4.88930    -999.25    8.16100 -128.42130  -10.50290    8.16100
 3450.00000    -999.25  234.33570  274.10780    3.64820   97.40710   97.40710    7.37940  121.76010    3.64820    -999.25    6.97180 -127.75380  -10.55370    6.97180
 3500.00000    -999.25  206.82760  233.77590    4.27760   94.77810   94.77810    7.38100  121.78650    4.27760    -999.25    7.45170 -128.97110  -12.48930    7.45170
 3550.00000    -999.25  208.76820  239.38910    4.17730   90.28350   90.28350    7.10660  117.25890    4.17730    -999.25    7.96960 -126.38940  -10.62590    7.96960
 3600.00000    -999.25  205.27050  236.98930    4.21960   95.39100   95.39100    6.78920  112.02180    4.21960    -999.25    7.57960 -127.46490  -12.41960    7.57960
 3650.00000    -999.25  229.81420  273.74010    3.65310   94.05230   94.05230    6.74100  111.22650    3.65310    -999.25    6.76860 -127.60170  -13.27470    6.76860
 3700.00000    -999.25  258.64580  313.30280    3.19180   95.82220   95.82220    7.99330  131.88940    3.19180    -999.25    6.31550 -128.76790  -15.15920    6.31550
 3750.00000    -999.25  245.41710  292.55160    3.41820   95.09870   95.09870    7.95650  131.28230    3.41820    -999.25    6.65490 -127.70460  -14.81420    6.65490
 3800.00000    -999.25  441.45820  637.51120    1.56860  111.39210  111.39210    9.22870  152.27360    1.56860    -999.25    4.22280 -127.82120  -15.64910    4.22280
 3850.00000    -999.25  544.58940  544.58940    1.83620  117.06960  117.06960    7.61010  125.56670    0.91910    -999.25    3.82430 -128.78530  -17.33140    3.82430
 3900.00000   10.56240  342.12480  516.15570    1.93740   93.62000   93.62000    7.58320  125.12280    1.93740   10.56240    5.06000 -129.05220  -18.31660    5.06000
 3950.00000    9.68580  218.48140  267.97440    3.73170   84.56950   84.56950    6.53000  107.74500    3.73170    9.68580    6.99720 -130.51310  -20.49580    6.99720
 4000.00000    8.98540  193.92650  232.39060    4.30310   88.61670   88.61670    7.13970  117.80510    4.30310    8.98540    8.12950 -131.06490  -21.76590    8.12950
 4050.00000    7.57780   86.39130   92.83760   10.77150   78.84790   78.84790    3.42590   56.52730   10.77150    7.57780   17.14720 -163.70790  -55.12710   17.14720
 4100.00000    9.22900  245.24190  313.12630    3.19360   82.91370   82.91370    6.23600  102.89400    3.19360    9.22900    7.09260 -132.83530  -24.97280    7.09260
 4150.00000    8.78370  118.61800  134.21020    7.45100   82.44350   82.44350    5.74300   94.75950    7.45100    8.78370   12.45080 -128.54610  -21.40190   12.45080
 4200.00000    7.62060   93.83110  101.62810    9.83980   85.38210   85.38210    2.87430   47.42600    9.83980    7.62060   17.53980 -176.02240  -69.59650   17.53980
 4250.00000    9.76970  170.46270  199.10400    5.02250   81.19850   81.19850    4.93740   81.46710    5.02250    9.76970    8.88070 -124.26530  -18.55770    8.88070
 4300.00000    8.30790   70.62800   69.99420   14.28690   73.83300   73.83300    3.44340   56.81610   14.28690    8.30790   19.45140 -151.24610  -46.25670   19.45140
 4350.00000    9.57560  199.92740  243.48080    4.10710   81.53910   81.53910    5.92900   97.82850    4.10710    9.57560    8.50690 -122.65630  -18.38520    8.50690
 4400.00000    9.43310  148.21750  168.29070    5.94210   87.76700   87.76700    5.24420   86.52930    5.94210    9.43310    9.80070 -119.84550  -16.29270    9.80070
 4450.00000    9.16160  205.79590  253.14530    3.95030   84.93400   84.93400    5.72850   94.52030    3.95030    9.16160    8.02390 -122.93190  -20.09740    8.02390
 4500.00000    8.96900  178.11170  217.68940    4.59370   80.68640   80.68640    5.78950   95.52680    4.59370    8.96900    9.34820 -120.14590  -18.02960    9.34820
 4550.00000    8.05320  153.00460  172.42570    5.79960   83.02510   83.02510    4.85500   80.10750    5.79960    8.05320   12.77260 -147.94740  -46.54940   12.77260
 4600.00000    8.79980  177.45220  205.97750    4.85490   82.81400   82.81400    6.20330  102.35450    4.85490    8.79980    9.97590 -139.79950  -39.11980    9.97590
 4650.00000    8.79120  187.59360  226.01420    4.42450   83.65130   83.65130    6.23180  102.82470    4.42450    8.79120    7.97570 -122.72760  -22.76620    7.97570
 4700.00000    8.94560  187.42870  220.18190    4.54170   90.67490   90.67490    5.99610   98.93570    4.54170    8.94560    8.76750 -128.60620  -29.36310    8.76750
 4750.00000    8.72880  143.85570  159.91810    6.25320   69.94850   69.94850    4.30000   70.95000    6.25320    8.72880   13.34300 -138.68820  -40.16330   13.34300
 4800.00000    8.68430  158.86150  183.16360    5.45960   82.23890   82.23890    6.50820  107.38530    5.45960    8.68430    9.74250 -115.89220  -18.08560    9.74250
 4850.00000    8.99890  165.90230  189.30070    5.28260   80.04000   80.04000    5.53910   91.39520    5.28260    8.99890    9.67740 -110.62630  -13.53800    9.67740
 4900.00000    9.74140  185.39860  215.31770    4.64430   77.29440   77.29440    5.65740   93.34710    4.64430    9.74140    8.56320 -115.91190  -20.67000    8.56320
 4950.00000    9.91510  262.40370  344.76810    2.90050   91.83670   91.83670    6.48820  107.05530    2.90050    9.91510    7.02480 -121.06200  -28.00360    7.02480
 5000.00000    8.90860  109.10910  118.78320    8.41870   81.75940   81.75940    5.92910   97.83020    8.41870    8.90860   14.52080 -137.78920  -46.91420   14.52080
 5050.00000    7.84870  193.74520  232.03470    4.30970   87.80150   87.80150    4.88990   80.68340    4.30970    7.84870   14.29410 -199.13180 -110.44030   14.29410
 5100.00000   10.35400  427.85930  660.54560    1.51390  107.79410  107.79410    6.68970  110.38010    1.51390   10.35400    4.30390 -116.44380  -29.93570    4.30390
 5150.00000   10.37980  274.92980  353.65680    2.82760   98.54080   98.54080    6.67820  110.19030    2.82760   10.37980    5.59100 -102.62850  -18.30380    5.59100
