~Version ---------------------------------------------------
VERS.      2.0 : CWLS log ASCII Standard -VERSION 2.0
WRAP.       NO : One line per depth step
CREA. 11/20/17 : LAS Creation Date
~Well ------------------------------------------------------
STRT.FT                          1000.0 : START DEPTH
STOP.FT                         10550.0 : STOP DEPTH
STEP.FT                        50.00000 : STEP LENGTH
NULL.                           -999.25 : NULL VALUE
COMP.                  LL&E  CANADA LTD : COMPANY
WELL. LL&E ET AL SAKWATAMAU 10-22-61-14 : WELL
FLD .                                   : FIELD
LOC .                                   : LOCATION
CTRY.                            CANADA : COUNTRY
SRVC.                      Schlumberger : SERVICE COMPANY
DATE.                       05-Jan-1969 : LOGDATE
PROV.                           Alberta : PROVINCE
UWI .                  100102206114W500 : UNIQUE WELL ID
SLAT.WGS84                     54.29276 : SURFACE LATITUDE
SLON.WGS84                    -116.0087 : SURFACE LONGITUDE
~Curve Information -----------------------------------------
DEPT   .FT    : Depth Curve
CALDED .IN    : CALIPER FROM DENSITY LOG
CALSED .IN    : CALIPER FROM SONIC LOG
CALWS  .IN    : CALIPER [CALSED]
CILDED .MMHO  : CONDUCTIVITY FROM RESISTIVITY LOG
CONDWS .MMHO  : CONDUCTIVITY [1000/DRESWS]
DCORED .G/C3  : DENSITY CORRECTION FROM DENSITY LOG
DCORWS .G/C3  : DENSITY CORRECTION [DCORED]
DENWS  .G/C3  : FORMATION BULK DENSITY [RHOBED]
DPOLSWS.V/V   : DENSITY POROSITY LIMESTONE [CALC. FROM DENWS M=2.71, F=1.00 ASSUMED]
DRESWS .OHMM  : DEEP RESISTIVITY [ILDED]
DTED   .US/F  : DELTA TIME FROM SONIC LOG
DTWS   .US/F  : COMPRESSIONAL SONIC [DTED]
GRSED  .GAPI  : GAMMA RAY FROM SONIC LOG
GRWS   .GAPI  : GAMMA RAY [GRSED]
ILDED  .OHMM  : DEEP  INDUCTIONRESISTIVITY FROM RESISTIVITY LOG
RHOBED .G/C3  : BULK DENSITY FROM DENSITY LOG
SNED   .OHMM  : SHORT NORMAL RESISTIVITY FROM RESISTIVITY LOG
SPRED  .MV    : SPONTANEOUS POTENTIAL FROM RESISTIVITY LOG
SPWS   .MV    : SPONTANEOUS POTENTIAL [BASELINE 0 MV, SPRED]
SRESWS .OHMM  : SHALLOW RESISTIVITY [SNED]
~Params ----------------------------------------------------
PD  .                     GL : PERMANENT DATUM
EPD .FT              3084.84 : ELEVATION PERMANENT DATUM
LMF .                     KB : LOG MEASURED FROM
DAPD.FT                16.05 : FEET ABOVE PERMANENT DATUM
EKB .FT              3100.89 : KELLY BUSHING
EGL .FT              3084.84 : GROUND LEVEL
DATE.               01/05/69 : RUN DATE
RUN .                      1 : RUN NUMBER
DD  .FT                10596 : DEPTH DRILLER
DL  .FT                10595 : DEPTH LOGGER
BLI .FT                10594 : BOTTOM LOG INTERVAL
TLI .FT                 1003 : TOP LOG INTERVAL
CBD .FT                 1003 : CASING BOTTOM DRILLER
CBL .FT                 1003 : CASING BOTTOM LOGGER
BS  .IN                 8.75 : BIT SIZE
BSD .FT                10596 : BIT SIZE AT DEPTH
DFT .                    GEL : DRILLING FLUID TYPE
DFD .                    9.7 : DRILLING FLUID DENSITY
DFV .                     97 : DRILLING FLUID VISCOSITY
DFPH.                     11 : DRILLING FLUID PH
DFL .                    6.6 : DRILLING FLUID LOSS
RMS .OHMM               2.32 : RESISTIVITY MUD SAMPLE
MST .DEGF                 60 : MUD SAMPLE TEMPERATURE
RMF .OHMM                1.7 : RESISTIVITY MUD FILTRATE SAMPLE
MFST.DEGF                 64 : MUD FILTRATE SAMPLE TEMPERATURE
RMC .OHMM               2.51 : RESISTIVITY MUD CAKE
MCST.DEGF                 62 : MUD CAKE SAMPLE TEMPERATURE
TCS .HRS                   5 : TIME CIRCULATED STOPPED
LUN .                   7501 : LOGGING UNIT NUMBER
LUL .                    EDM : LOGGING UNIT LOCATION
ENGI.               STUEHMER : RECORDING ENGINEER
WITN.               LEVEILLE : WITNESSED BY
CLNT.                A2DTECH : CLIENT CODE
ORIG.            2" 5" PRINT : ORIGIN OF DATA
UWI .       100102206114W500 : UNIQUE WELL ID
DICO. A2D Technologies, Inc. : DIGITIZING COMPANY
~Other -----------------------------------------------------
IEL-FDC-BHC LOG RUN
~ASCII -----------------------------------------------------
# ...
 2750.00000    -999.25   11.39160   11.39160  287.22140  318.76570    -999.25    -999.25    -999.25    -999.25    3.13710  113.96270  113.96270   53.92100   53.92100    3.13710    -999.25    2.57570  -68.95010   -3.47290    2.57570
 2800.00000    -999.25   10.53640   10.53640  279.90550  298.74820    -999.25    -999.25    -999.25    -999.25    3.34730  163.47850  163.47850   60.29930   60.29930    3.34730    -999.25    2.51450  -67.78920   -2.48560    2.51450
 2850.00000    -999.25   10.40970   10.40970  244.51870  265.54780    -999.25    -999.25    -999.25    -999.25    3.76580  133.06070  133.06070   52.06570   52.06570    3.76580    -999.25    2.58890  -67.17490   -2.04370    2.58890
 2900.00000    -999.25    7.77230    7.77230   64.84150   67.48640    -999.25    -999.25    -999.25    -999.25   14.81780   90.27320   90.27320   40.42000   40.42000   14.81780    -999.25   11.87720  -88.37550  -23.18250   11.87720
 2950.00000    -999.25    7.59120    7.59120   58.97580   60.95630    -999.25    -999.25    -999.25    -999.25   16.41660   96.99210   96.99210   41.99710   41.99710   16.41660    -999.25   16.75860  -86.08680  -20.69810   16.75860
 3000.00000    -999.25   10.05410   10.05410  255.45060  266.79470    -999.25    -999.25    -999.25    -999.25    3.74820  121.43570  121.43570   60.63620   60.63620    3.74820    -999.25    5.62970  -67.29920   -1.71700    5.62970
 3050.00000    -999.25   10.33530   10.33530  274.19090  298.53420    -999.25    -999.25    -999.25    -999.25    3.34970   99.41740   99.41740   55.55240   55.55240    3.34970    -999.25    4.24850  -68.55240   -2.77520    4.24850
 3100.00000    -999.25   10.58160   10.58160  249.89110  268.99800    -999.25    -999.25    -999.25    -999.25    3.71750  108.03730  108.03730   60.43890   60.43890    3.71750    -999.25    5.47570  -67.49110   -1.51960    5.47570
 3150.00000    -999.25    9.20650    9.20650  248.78440  264.51530    -999.25    -999.25    -999.25    -999.25    3.78050  102.44020  102.44020   60.17850   60.17850    3.78050    -999.25    4.62310  -68.55820   -2.39180    4.62310
 3200.00000    -999.25    9.13000    9.13000   80.53710   84.72460    -999.25    -999.25    -999.25    -999.25   11.81310   90.16550   90.16550   48.09860   48.09860   11.81310    -999.25   12.42900  -75.31360   -9.45090   12.42900
 3250.00000    -999.25    9.67600    9.67600  288.54350  317.53090    -999.25    -999.25    -999.25    -999.25    3.14930  102.49890  102.49890   64.76540   64.76540    3.14930    -999.25    3.98420  -68.88130   -3.36240    3.98420
 3300.00000    -999.25   10.13510   10.13510  268.71960  286.23770    -999.25    -999.25    -999.25    -999.25    3.49360  106.15520  106.15520   69.95210   69.95210    3.49360    -999.25    4.33010  -69.26370   -4.17400    4.33010
 3350.00000    -999.25   13.47130   13.47130  197.57430  208.81620    -999.25    -999.25    -999.25    -999.25    4.78890  109.57190  109.57190   73.73890   73.73890    4.78890    -999.25    5.16120  -73.67470   -8.81910    5.16120
 3400.00000    -999.25   10.71920   10.71920  153.83000  156.43820    -999.25    -999.25    -999.25    -999.25    6.39230   94.72500   94.72500   74.68670   74.68670    6.39230    -999.25    6.77890  -72.86390   -7.85600    6.77890
 3450.00000    -999.25   11.41190   11.41190  188.34920  194.57530    -999.25    -999.25    -999.25    -999.25    5.13940  103.29600  103.29600   93.63410   93.63410    5.13940    -999.25    5.90130  -73.34540   -8.18470    5.90130
 3500.00000    -999.25   11.23950   11.23950  194.15990  200.14410    -999.25    -999.25    -999.25    -999.25    4.99640  115.26930  115.26930  101.63450  101.63450    4.99640    -999.25    6.04100  -72.15070   -6.83910    6.04100
 3550.00000    -999.25    9.40770    9.40770  112.88580  114.37850    -999.25    -999.25    -999.25    -999.25    8.74290   90.89940   90.89940   96.23600   96.23600    8.74290    -999.25   11.11870  -71.11120   -5.61340   11.11870
 3600.00000    -999.25   10.40140   10.40140  167.92690  166.99230    -999.25    -999.25    -999.25    -999.25    5.98830  101.46620  101.46620   92.40720   92.40720    5.98830    -999.25    7.62850  -69.82290   -4.27230    7.62850
 3650.00000    -999.25   10.48100   10.48100  152.42570  153.49900    -999.25    -999.25    -999.25    -999.25    6.51470   91.52550   91.52550   86.42580   86.42580    6.51470    -999.25    7.85960  -71.54430   -5.94130    7.85960
 3700.00000    -999.25   11.68080   11.68080  147.50360  144.64990    -999.25    -999.25    -999.25    -999.25    6.91320   97.59130   97.59130   83.00440   83.00440    6.91320    -999.25    6.69420  -72.38300   -6.72740    6.69420
 3750.00000    -999.25   11.38620   11.38620  137.88310  139.50500    -999.25    -999.25    -999.25    -999.25    7.16820   86.72050   86.72050   78.69750   78.69750    7.16820    -999.25    7.53460  -72.65890   -6.95080    7.53460
 3800.00000    -999.25   11.85660   11.85660  145.35370  139.15950    -999.25    -999.25    -999.25    -999.25    7.18600   86.02200   86.02200   89.40860   89.40860    7.18600    -999.25    7.58310  -71.96820   -6.20770    7.58310
 3850.00000    -999.25   11.79820   11.79820  162.99270  162.66250    -999.25    -999.25    -999.25    -999.25    6.14770   95.62870   95.62870   88.53710   88.53710    6.14770    -999.25    7.05310  -69.26850   -3.45530    7.05310
 3900.00000    -999.25   12.01010   12.01010  182.22060  185.00020    -999.25    -999.25    -999.25    -999.25    5.40540   95.00670   95.00670   85.81260   85.81260    5.40540    -999.25    6.02130  -70.77220   -5.08110    6.02130
 3950.00000    -999.25   10.88750   10.88750  162.29140  164.11240    -999.25    -999.25    -999.25    -999.25    6.09410   92.82430   92.82430   86.10550   86.10550    6.09410    -999.25    6.74730  -70.13090   -4.91870    6.74730
 4000.00000    -999.25   10.81680   10.81680  144.17660  145.02840    -999.25    -999.25    -999.25    -999.25    6.89520   88.12330   88.12330   86.32360   86.32360    6.89520    -999.25    7.45730  -69.00590   -4.26740    7.45730
 4050.00000    -999.25   10.06980   10.06980  101.69110   99.32060    -999.25    -999.25    -999.25    -999.25   10.06840   97.09520   97.09520   72.20430   72.20430   10.06840    -999.25   12.85260  -74.36660  -10.10460   12.85260
 4100.00000    -999.25   12.09220   12.09220  146.40170  148.45160    -999.25    -999.25    -999.25    -999.25    6.73620   89.62060   89.62060   88.64560   88.64560    6.73620    -999.25    7.50900  -67.96190   -4.17600    7.50900
 4150.00000    -999.25    9.42880    9.42880  154.92160  155.67840    -999.25    -999.25    -999.25    -999.25    6.42350   92.54220   92.54220   87.92690   87.92690    6.42350    -999.25    7.63590  -68.52790   -5.21850    7.63590
 4200.00000    -999.25    9.70560    9.70560  158.15580  157.82380    -999.25    -999.25    -999.25    -999.25    6.33630   90.77150   90.77150  102.84510  102.84510    6.33630    -999.25    7.19420  -67.80910   -4.97850    7.19420
 4250.00000    -999.25   10.43860   10.43860  187.09630  193.88110    -999.25    -999.25    -999.25    -999.25    5.15780  100.09440  100.09440   89.54660   89.54660    5.15780    -999.25    6.56940  -65.85260   -3.49580    6.56940
 4300.00000    -999.25    9.82040    9.82040  196.21560  209.01260    -999.25    -999.25    -999.25    -999.25    4.78440   97.16880   97.16880   96.16930   96.16930    4.78440    -999.25    6.59180  -65.36800   -3.40110    6.59180
 4350.00000    -999.25    8.81710    8.81710  156.76500  161.68930    -999.25    -999.25    -999.25    -999.25    6.18470   98.49410   98.49410  104.94830  104.94830    6.18470    -999.25    9.13840  -65.33310   -3.43020    9.13840
 4400.00000    -999.25    9.15310    9.15310  143.71330  148.51340    -999.25    -999.25    -999.25    -999.25    6.73340   96.88720   96.88720  105.21460  105.21460    6.73340    -999.25    9.67900  -64.47530   -2.63690    9.67900
 4450.00000    -999.25    8.55320    8.55320  112.70920  116.38930    -999.25    -999.25    -999.25    -999.25    8.59380   99.09360   99.09360  122.95450  122.95450    8.59380    -999.25   12.61840  -64.15820   -2.38450   12.61840
