~Version ---------------------------------------------------
VERS.      2.0 : CWLS log ASCII Standard -VERSION 2.0
WRAP.       NO : One line per depth step
CREA. 12/21/17 : LAS Creation Date
~Well ------------------------------------------------------
STRT.FT                       650.0 : START DEPTH
STOP.FT                     10100.0 : STOP DEPTH
STEP.FT                    50.00000 : STEP LENGTH
NULL.                       -999.25 : NULL VALUE
COMP.        CALIFORNIA STANDARD CO : COMPANY
WELL. CALSTAN B A KAYBOB 2-27-63-19 : WELL
FLD .                               : FIELD
LOC .                               : LOCATION
CTRY.                        CANADA : COUNTRY
SRVC.                       Unknown : SERVICE COMPANY
DATE.                   05-Jul-1959 : LOGDATE
PROV.                       Alberta : PROVINCE
UWI .              100022706319W500 : UNIQUE WELL ID
SLAT.WGS84                  54.4744 : SURFACE LATITUDE
SLON.WGS84                -116.7821 : SURFACE LONGITUDE
~Curve Information -----------------------------------------
DEPT  .FT    : Depth Curve
CALWS .IN    : CALIPER [MCALED]
CILDED.MMHO  : CONDUCTIVITY FROM IE RESISTIVITY LOG
CONDWS.MMHO  : CONDUCTIVITY [1000/DRESWS]
DRESWS.OHMM  : DEEP RESISTIVITY [ILDED]
GRED  .CU    : GAMMA RAY FROM CASED HOLE GAMMA RAY LOG
GRNED .CU    : GAMMA RAY FROM CASED HOLE NEUTRON GAMMA RAY LOG
GRWS  .GAPI  : GAMMA RAY [GRNED, IN PSEUDO API UNIT]
ILDED .OHMM  : INDUCTION LOG DEEP RESISTIVITY FROM IEL
MCALED.IN    : CALIPER MICROLOG
NEUTED.CU    : NEUTRON FROM CASED HOLE NEUTRON GAMMA RAY LOG
NEUTWS.CU    : NEUTRON [NEUTED]
SNED  .OHMM  : 16 INCH SHORT NORMAL RESISTIVITY FROM IEL
SPRED .MV    : SPONTANEOUS POTENTIAL FROM RESISTIVITY LOG
SPWS  .MV    : SPONTANEOUS POTENTIAL [BASELINE 0 MV] [SPRED]
SRESWS.OHMM  : SHALLOW RESISTIVITY [SNED]
~Params ----------------------------------------------------
PD  .                     GL : PERMANENT DATUM
LMF .                     KB : LOG MEASURED FROM
DAPD.FT                   11 : FEET ABOVE PERMANENT DATUM
DMF .                     KB : DRILLING MEASURED FROM
EKB .FT                 2611 : KELLY BUSHING
EGL .FT                 2600 : GROUND LEVEL
DATE.               07/05/59 : RUN DATE
RUN .                      1 : RUN NUMBER
DD  .FT                10111 : DEPTH DRILLER
DL  .FT                10113 : DEPTH LOGGER
BLI .FT                10108 : BOTTOM LOG INTERVAL
TLI .FT                  633 : TOP LOG INTERVAL
CBD .FT                636.6 : CASING BOTTOM DRILLER
CBL .FT                  633 : CASING BOTTOM LOGGER
BS  .IN                6.125 : BIT SIZE
BSD .FT                10111 : BIT SIZE AT DEPTH
DFT .       GEL OIL EMULSION : DRILLING FLUID TYPE
DFD .                   10.4 : DRILLING FLUID DENSITY
DFV .                    122 : DRILLING FLUID VISCOSITY
DFPH.                    9.5 : DRILLING FLUID PH
DFL .                      7 : DRILLING FLUID LOSS
RMS .OHMM               2.13 : RESISTIVITY MUD SAMPLE
MST .DEGF                 83 : MUD SAMPLE TEMPERATURE
RMF .OHMM               1.99 : RESISTIVITY MUD FILTRATE SAMPLE
MFST.DEGF                 73 : MUD FILTRATE SAMPLE TEMPERATURE
RMC .OHMM               2.87 : RESISTIVITY MUD CAKE
MCST.DEGF                 72 : MUD CAKE SAMPLE TEMPERATURE
TCS .HRS                 3.5 : TIME CIRCULATED STOPPED
LUN .                  1573C : LOGGING UNIT NUMBER
LUL .                     WC : LOGGING UNIT LOCATION
ENGI.              HAUSEGGER : RECORDING ENGINEER
WITN.                  SMITH : WITNESSED BY
CLNT.                A2DTECH : CLIENT CODE
ORIG.            2" 5" PRINT : ORIGIN OF DATA
UWI .       100022706319W500 : UNIQUE WELL ID
DICO. A2D Technologies, Inc. : DIGITIZING COMPANY
~Other -----------------------------------------------------
ALL CURVES FROM IEL ARE FROM THE LINEAR SCALE OF 5" LOG IMAGE
CU=COMPANY UNIT (NO UNIT FOR GR & GRN CURVES IN THE LOG)
~ASCII -----------------------------------------------------
# ...
 5250.00000   11.89170  107.34070  105.27200    9.49920    -999.25    -999.25    -999.25    9.49920   11.89170    -999.25    -999.25   12.07640 -157.87290  -11.33370   12.07640
 5300.00000   11.30090   77.08960   72.94580   13.70880    -999.25    -999.25    -999.25   13.70880   11.30090    -999.25    -999.25   17.33320 -155.74780  -11.67620   17.33320
 5350.00000   11.58790  102.91960  101.80290    9.82290    -999.25    -999.25    -999.25    9.82290   11.58790    -999.25    -999.25   13.53610 -160.11960  -18.51570   13.53610
 5400.00000   10.75240   90.11680   89.62180   11.15800    -999.25    -999.25    -999.25   11.15800   10.75240    -999.25    -999.25   18.86960 -145.08170   -5.94540   18.86960
 5450.00000   14.52620  121.50370  122.68280    8.15110    -999.25    -999.25    -999.25    8.15110   14.52620    -999.25    -999.25    9.30450 -129.87700    6.92130    9.30450
 5500.00000   10.75340   92.64410   91.39350   10.94170    -999.25    -999.25    -999.25   10.94170   10.75340    -999.25    -999.25   16.40280 -177.45110  -42.77030   16.40280
 5550.00000   12.28620  109.65800  108.91110    9.18180    -999.25    -999.25    -999.25    9.18180   12.28620    -999.25    -999.25   11.21790 -139.54020   -6.97680   11.21790
 5600.00000    9.13840  116.48430  115.57750    8.65220    -999.25    -999.25    -999.25    8.65220    9.13840    -999.25    -999.25   13.27480 -161.14620  -30.70020   13.27480
 5650.00000   10.80560   90.91540   89.21640   11.20870    -999.25    -999.25    -999.25   11.20870   10.80560    -999.25    -999.25   14.01570 -149.45450  -21.12600   14.01570
 5700.00000   10.07640   76.08160   72.71670   13.75200    -999.25    -999.25    -999.25   13.75200   10.07640    -999.25    -999.25   16.83520 -145.29350  -19.08240   16.83520
 5750.00000   11.49050  204.37030  196.06690    5.10030    -999.25    -999.25    -999.25    5.10030   11.49050    -999.25    -999.25    7.26130 -137.13400  -13.04030    7.26130
 5800.00000    9.78800   60.21410   56.78080   17.61160    -999.25    -999.25    -999.25   17.61160    9.78800    -999.25    -999.25   22.43740 -159.95430  -37.97810   22.43740
 5850.00000   10.95290   52.06660   46.77290   21.37990    -999.25    -999.25    -999.25   21.37990   10.95290    -999.25    -999.25   26.82860 -162.08040  -42.22160   26.82860
 5900.00000    8.76970   93.58700   91.65900   10.91000    -999.25    -999.25    -999.25   10.91000    8.76970    -999.25    -999.25   26.35050 -136.37710  -18.63570   26.35050
 5950.00000   11.21930  170.28210  167.03140    5.98690    -999.25    -999.25    -999.25    5.98690   11.21930    -999.25    -999.25    8.79990 -129.03190  -13.40790    8.79990
 6000.00000   10.95370  263.36640  253.94890    3.93780    -999.25    -999.25    -999.25    3.93780   10.95370    -999.25    -999.25    5.59220 -148.04790  -34.54140    5.59220
 6050.00000   12.09490  273.06750  263.11640    3.80060    -999.25    -999.25    -999.25    3.80060   12.09490    -999.25    -999.25    5.14100 -127.41080  -16.02170    5.14100
 6100.00000   10.24550  138.23970  124.31780    8.04390    -999.25    -999.25    -999.25    8.04390   10.24550    -999.25    -999.25   14.11290 -130.11890  -20.84720   14.11290
 6150.00000    8.97780   19.46180   13.87960   72.04830    -999.25    -999.25    -999.25   72.04830    8.97780    -999.25    -999.25   71.15100 -140.13960  -32.98540   71.15100
 6200.00000    8.55390   11.04960    6.91700  144.57150    -999.25    -999.25    -999.25  144.57150    8.55390    -999.25    -999.25  179.68190 -150.16880  -45.13200  179.68190
 6250.00000    9.21540   64.29430   61.75850   16.19210    -999.25    -999.25    -999.25   16.19210    9.21540    -999.25    -999.25   24.28910 -162.84880  -59.92940   24.28910
 6300.00000    9.27960  170.09380  166.76120    5.99660    -999.25    -999.25    -999.25    5.99660    9.27960    -999.25    -999.25   11.08730 -151.38510  -50.58310   11.08730
 6350.00000    9.25130   93.15340   93.08730   10.74260    -999.25    -999.25    -999.25   10.74260    9.25130    -999.25    -999.25   15.33420 -150.05140  -51.36690   15.33420
 6400.00000    8.22000  121.93660   93.00420   10.75220    -999.25    -999.25    -999.25   10.75220    8.22000    -999.25    -999.25   46.19470 -183.53390  -86.96680   46.19470
 6450.00000    8.77230   25.71210   20.95990   47.71020    -999.25    -999.25    -999.25   47.71020    8.77230    -999.25    -999.25   61.08030 -182.62830  -88.17860   61.08030
 6500.00000    7.21790   87.51050   83.19740   12.01960    -999.25    -999.25    -999.25   12.01960    7.21790    -999.25    -999.25   43.43200 -253.79380 -161.46160   43.43200
 6550.00000    9.69350   14.19230   10.39030   96.24350    -999.25    -999.25    -999.25   96.24350    9.69350    -999.25    -999.25  115.86570 -173.18870  -82.97390  115.86570
 6600.00000    9.12620   29.84120   20.14310   49.64490    -999.25    -999.25    -999.25   49.64490    9.12620    -999.25    -999.25   68.36250 -136.85080  -48.75340   68.36250
 6650.00000    9.06490  174.13280  167.32760    5.97630    -999.25    -999.25    -999.25    5.97630    9.06490    -999.25    -999.25   24.68230 -229.66380 -143.68390   24.68230
 6700.00000    8.73700  169.61980  164.39260    6.08300    -999.25    -999.25    -999.25    6.08300    8.73700    -999.25    -999.25   21.47220 -204.02780 -120.16530   21.47220
 6750.00000    9.16050   37.86720   32.61320   30.66240    -999.25    -999.25    -999.25   30.66240    9.16050    -999.25    -999.25   55.49750 -157.91260  -76.16750   55.49750
 6800.00000   10.08280   14.83810   10.50340   95.20760    -999.25    -999.25    -999.25   95.20760   10.08280    -999.25    -999.25   92.66790 -231.77850 -152.15080   92.66790
 6850.00000    8.62470   45.78490   39.93790   25.03890    -999.25    -999.25    -999.25   25.03890    8.62470    -999.25    -999.25   72.21610 -299.97170 -222.46150   72.21610
 6900.00000    9.73710   27.58100   22.95770   43.55830    -999.25    -999.25    -999.25   43.55830    9.73710    -999.25    -999.25   85.23960 -285.36130 -209.96850   85.23960
 6950.00000    9.43360   58.90090   50.25660   19.89790    -999.25    -999.25    -999.25   19.89790    9.43360    -999.25    -999.25   30.09290 -172.51560  -99.24020   30.09290
 7000.00000    9.03720  171.31190  167.70640    5.96280    -999.25    -999.25    -999.25    5.96280    9.03720    -999.25    -999.25    9.91310 -180.28280 -109.12490    9.91310
 7050.00000    9.94010  224.35360  203.59960    4.91160    -999.25    -999.25    -999.25    4.91160    9.94010    -999.25    -999.25    9.12460 -178.51360 -109.47310    9.12460
 7100.00000    9.49770   24.97720   20.85960   47.93950    -999.25    -999.25    -999.25   47.93950    9.49770    -999.25    -999.25   54.78750 -165.39310  -98.47000   54.78750
 7150.00000   10.36400   15.61220   11.52450   86.77200    -999.25    -999.25    -999.25   86.77200   10.36400    -999.25    -999.25   81.65150 -146.14700  -81.34130   81.65150
 7200.00000    9.44970    2.66660   14.86080   67.29100    -999.25    -999.25    -999.25   67.29100    9.44970    -999.25    -999.25   64.99290 -139.63100  -76.94280   64.99290
 7250.00000   10.19480   22.51860   18.03320   55.45330    -999.25    -999.25    -999.25   55.45330   10.19480    -999.25    -999.25   73.41930 -199.37000 -138.79920   73.41930
 7300.00000    8.73430   29.70570   26.73720   37.40110    -999.25    -999.25    -999.25   37.40110    8.73430    -999.25    -999.25    -999.25 -148.84610  -90.39270   50.18880
 7350.00000    8.64380   26.26030   22.37930   44.68420    -999.25    -999.25    -999.25   44.68420    8.64380    -999.25    -999.25   61.29030 -163.76210 -107.42620   61.29030
 7400.00000    8.47620   17.43280   14.16310   70.60580    -999.25    -999.25    -999.25   70.60580    8.47620    -999.25    -999.25   71.74110 -143.08130  -88.86280   71.74110
 7450.00000    8.57930   11.14720    7.91420  126.35530    -999.25    -999.25    -999.25  126.35530    8.57930    -999.25    -999.25  121.52620 -139.78700  -87.68590  121.52620
 7500.00000    8.70720   27.59950   24.34490   41.07630    -999.25    -999.25    -999.25   41.07630    8.70720    -999.25    -999.25   53.16510 -126.61340  -76.62980   53.16510
