~Version ---------------------------------------------------
VERS.      2.0 : CWLS log ASCII Standard -VERSION 2.0
WRAP.       NO : One line per depth step
CREA. 11/07/17 : LAS Creation Date
~Well ------------------------------------------------------
STRT.FT                    600.0 : START DEPTH
STOP.FT                   5900.0 : STOP DEPTH
STEP.FT                 50.00000 : STEP LENGTH
NULL.                    -999.25 : NULL VALUE
COMP.               PETRO-CANADA : COMPANY
WELL. ATLANTIC MUSKWA 16-11-81-8 : WELL
FLD .                            : FIELD
LOC .                            : LOCATION
CTRY.                     CANADA : COUNTRY
SRVC.               Schlumberger : SERVICE COMPANY
DATE.                08-Oct-1965 : LOGDATE
PROV.                    Alberta : PROVINCE
UWI .           100161108108W500 : UNIQUE WELL ID
SLAT.WGS84         56.0125236511 : SURFACE LATITUDE
SLON.WGS84       -115.1262664795 : SURFACE LONGITUDE
~Curve Information -----------------------------------------
DEPT  .FT    : Depth Curve
CALSED.IN    : CALIPER FROM SONIC LOG [DEPTH SHIFTED TO RES.]
CALWS .IN    : CALIPER [CALSED]
CILDED.MMHO  : CONDUCTIVITY FROM RESISTIVITY LOG
CONDWS.MMHO  : CONDUCTIVITY [1000/DRESWS]
DRESWS.OHMM  : DEEP RESISTIVITY [ILDED] IF ILDED<2;1000/CILDED;ELSE ILDED
DTED  .US/F  : DELTA TIME FROM SONIC LOG [DEPTH SHIFTED TO RES.]
DTWS  .US/F  : DELTA TIME [DTED]
GRSED .GAPI  : GAMMA RAY FROM SONIC LOG
GRWS  .GAPI  : GAMMA RAY [GRSED] CSG @ 637'
ILDED .OHMM  : INDUCTION LOG DEEP RESISTIVITY
SNED  .OHMM  : 16 INCH SHORT NORMAL RESISTIVITY FROM IEL
SPRED .MV    : SPONTANEOUS POTENTIAL FROM RESISTIVITY LOG
SPWS  .MV    : SPONTANEOUS POTENTIAL [BASELINE 0 MV] [SPRED]
SRESWS.OHMM  : SHALLOW RESISTIVITY [SNED]
~Params ----------------------------------------------------
PD  .                     GL : PERMANENT DATUM
EPD .FT               2160.5 : ELEVATION PERMANENT DATUM
LMF .                     KB : LOG MEASURED FROM
DAPD.FT                 12.5 : FEET ABOVE PERMANENT DATUM
EKB .FT                 2173 : KELLY BUSHING
EGL .FT               2160.5 : GROUND LEVEL
DATE.               10/08/65 : RUN DATE
RUN .                      2 : RUN NUMBER
DD  .FT                 5923 : DEPTH DRILLER
DL  .FT                 5923 : DEPTH LOGGER
BLI .FT                 5922 : BOTTOM LOG INTERVAL
TLI .FT                 5300 : TOP LOG INTERVAL
CBD .FT                  636 : CASING BOTTOM DRILLER
CBL .FT                  637 : CASING BOTTOM LOGGER
BS  .IN                7.875 : BIT SIZE
BSD .FT                 5923 : BIT SIZE AT DEPTH
DFT .                    GEL : DRILLING FLUID TYPE
DFD .                    9.4 : DRILLING FLUID DENSITY
DFV .                     55 : DRILLING FLUID VISCOSITY
DFPH.                   10.5 : DRILLING FLUID PH
DFL .                   22.6 : DRILLING FLUID LOSS
MSS .                    MUD : MUD SAMPLE SOURCE
RMS .OHMM               0.33 : RESISTIVITY MUD SAMPLE
MST .DEGF                 63 : MUD SAMPLE TEMPERATURE
RMF .OHMM                0.3 : RESISTIVITY MUD FILTRATE SAMPLE
MFST.DEGF                 61 : MUD FILTRATE SAMPLE TEMPERATURE
RMC .OHMM               0.57 : RESISTIVITY MUD CAKE
MCST.DEGF                 58 : MUD CAKE SAMPLE TEMPERATURE
RMB .OHMM                0.2 : RESISTIVITY MUD AT BHT
TCS .HRS                   5 : TIME CIRCULATED STOPPED
LUN .                   2548 : LOGGING UNIT NUMBER
LUL .                     SL : LOGGING UNIT LOCATION
ENGI.              DEMETRICK : RECORDING ENGINEER
WITN.           DUTTON SMITH : WITNESSED BY
CLNT.                A2DTECH : CLIENT CODE
ORIG.            2" 5" PRINT : ORIGIN OF DATA
UWI .       100161108108W500 : UNIQUE WELL ID
DICO. A2D Technologies, Inc. : DIGITIZING COMPANY
~Other -----------------------------------------------------
~ASCII -----------------------------------------------------
# ...
 3050.00000   10.30620   10.30620   23.23850   17.86970   55.96070   54.77570   54.77570   16.30790   16.30790   55.96070  101.09560 -107.74820  -59.68040  101.09560
 3100.00000   10.70920   10.70920   22.59290   17.60320   56.81160   53.33020   53.33020   14.19970   14.19970   56.81160  102.83940 -101.02620  -53.14980  102.83940
 3150.00000   10.72960   10.72960   18.33430   12.61430   79.27530   53.02820   53.02820   15.65680   15.65680   79.27530  106.47490 -108.60000  -60.91310  106.47490
 3200.00000    9.81260    9.81260   18.36080   12.72440   78.58900   53.03740   53.03740   11.39760   11.39760   78.58900  111.53690 -100.74790  -53.25340  111.53690
 3250.00000    9.29250    9.29250   18.47340   12.72130   78.66640   53.74380   53.74380   17.47340   17.47340   78.66640  132.82750 -106.59010  -59.28510  132.82750
 3300.00000    9.91290    9.91290   20.42410   14.56600   68.65290   52.35820   52.35820   16.58930   16.58930   68.65290   62.08470  -91.36000  -44.24450   62.08470
 3350.00000    9.97380    9.97380   17.95170   11.19470   89.42810   50.31220   50.31220   11.12070   11.12070   89.42810  101.32760  -94.91360  -47.98950  101.32760
 3400.00000    9.20980    9.20980   35.27080   31.65550   31.59010   49.60070   49.60070   14.23530   14.23530   31.59010  105.62060 -118.27000  -71.53540  105.62060
 3450.00000   11.96930   11.96930  162.04810  170.44490    5.86700   74.72050   74.72050   59.57650   59.57650    5.86700    7.23700  -70.39920  -23.85700    7.23700
 3500.00000    9.24790    9.24790   32.08200   27.36850   36.57820   50.73700   50.73700   15.32350   15.32350   36.57820   84.12920  -96.40550  -50.05290   84.12920
 3550.00000    9.76580    9.76580   38.87130   34.99800   28.57310   51.15150   51.15150   20.81080   20.81080   28.57310   72.26370 -109.48480  -63.32160   72.26370
 3600.00000    9.22500    9.22500   75.90750   72.38380   13.81550   59.76490   59.76490   18.32750   18.32750   13.81550   35.14280  -95.77930  -49.80750   35.14280
 3650.00000    9.45830    9.45830   22.30330   17.70230   56.48990   50.21540   50.21540   18.66140   18.66140   56.48990   74.06640  -73.20460  -27.42240   74.06640
 3700.00000    9.29590    9.29590   18.89320   10.62310   94.13450   51.69680   51.69680   25.18640   25.18640   94.13450   96.78450  -80.63630  -35.04650   96.78450
 3750.00000    9.32890    9.32890   21.50320   16.51970   60.53620   51.25490   51.25490   17.51330   17.51330   60.53620  119.06560 -115.69580  -70.29540  119.06560
 3800.00000    9.31640    9.31640   41.33740   35.30100   28.32780   57.39930   57.39930   29.87340   29.87340   28.32780   36.64920  -62.77040  -17.55960   36.64920
 3850.00000   10.08010   10.08010  100.74290   95.73320   10.44570   69.58110   69.58110   55.22540   55.22540   10.44570   13.49010  -51.76850   -5.42650   13.49010
 3900.00000   10.72580   10.72580  150.05450  156.31110    6.39750   77.37410   77.37410   56.97290   56.97290    6.39750    7.50820  -57.03140   -9.11240    7.50820
 3950.00000    9.95900    9.95900   99.10350   92.75150   10.78150   74.27230   74.27230   50.21700   50.21700   10.78150   11.59880  -57.77510   -8.25540   11.59880
 4000.00000   11.30230   11.30230  331.13890  400.57780    2.49640   96.73030   96.73030   72.00400   72.00400    2.49640    3.56630  -70.55690  -19.46030    3.56630
 4050.00000   12.07510   12.07510  303.71770  319.81580    3.12680   95.15440   95.15440   67.37630   67.37630    3.12680    3.81380  -71.31330  -18.63980    3.81380
 4100.00000    9.76000    9.76000  242.89360  268.52940    3.74630   78.85730   78.85730   64.99290   64.99290    3.74630    5.91590  -63.12510   -8.85870    5.91590
 4150.00000   12.51990   12.51990  250.34680  270.08050    3.70260   96.82380   96.82380   74.02200   74.02200    3.70260    3.93580  -72.81120  -16.96790    3.93580
 4200.00000    9.34850    9.34850   75.99460   72.30660   13.83000   55.66650   55.66650   33.24550   33.24550   13.83000   21.86230  -68.21020  -11.09320   21.86230
 4250.00000   10.54720   10.54720  113.53450  110.92510    9.01540   74.90870   74.90870   62.11600   62.11600    9.01540   11.49140  -60.05210   -3.07070   11.49140
 4300.00000    9.15320    9.15320   76.28900   70.26760   14.23130   64.18920   64.18920   35.08380   35.08380   14.23130   18.73090  -70.86630  -14.02060   18.73090
 4350.00000    9.71850    9.71850   97.46590   92.51240   10.80940   69.15540   69.15540   43.34420   43.34420   10.80940   13.56580  -58.89110   -2.18230   13.56580
 4400.00000    8.87580    8.87580   51.42130   47.16850   21.20060   57.80810   57.80810   22.42780   22.42780   21.20060   25.47200  -78.51740  -21.94420   25.47200
 4450.00000   10.18750   10.18750  165.57080  172.81600    5.78650   79.54020   79.54020   59.24340   59.24340    5.78650    7.79600  -62.19010   -5.75460    7.79600
 4500.00000    9.24940    9.24940  122.79930  120.60650    8.29620   72.45670   72.45670   61.18660   61.18660    8.29620   10.56610  -58.05790   -1.79540   10.56610
 4550.00000    9.53660    9.53660  181.37700  186.74830    5.35480   76.30860   76.30860   50.91330   50.91330    5.35480    -999.25  -72.04210  -15.96340    -999.25
 4600.00000   13.07080   13.07080  374.10410  432.39870    2.31270  104.43610  104.43610   75.51680   75.51680    2.31270    3.01780  -79.56980  -23.67670    3.01780
 4650.00000   13.05440   13.05440  434.34110  434.34110    2.30230  115.68230  115.68230   82.84240   82.84240    1.72790    2.58980  -70.84410  -15.13470    2.58980
 4700.00000   11.16430   11.16430  307.72390  331.86210    3.01330   87.78690   87.78690   74.02240   74.02240    3.01330    3.79980  -65.33490   -9.81190    3.79980
 4750.00000   11.78390   11.78390  350.71620  411.95570    2.42800   93.86350   93.86350   73.67200   73.67200    2.42800    3.46750  -64.81120   -9.47200    3.46750
 4800.00000   12.59910   12.59910  380.50980  459.47440    2.17640  101.07760  101.07760   74.84470   74.84470    2.17640    3.19690  -75.42350  -20.70680    3.19690
 4850.00000   11.17180   11.17180  235.88150  248.37300    4.02680   81.14610   81.14610   75.74890   75.74890    4.02680    5.08700  -70.42180  -16.45620    5.08700
 4900.00000   10.67490   10.67490  171.19450  178.52360    5.60150   78.56480   78.56480   55.64260   55.64260    5.60150    7.41970  -62.29970   -9.07760    7.41970
 4950.00000   11.10760   11.10760  168.34230  168.29920    5.94180   72.41890   72.41890   51.32820   51.32820    5.94180    7.00200  -60.99070   -8.52340    7.00200
 5000.00000   11.39160   11.39160  218.48730  227.50740    4.39860   80.50130   80.50130   62.98760   62.98760    4.39860    5.70530  -58.42660   -7.05990    5.70530
 5050.00000   10.48460   10.48460   89.21010   83.83850   11.92770   64.61680   64.61680   33.58580   33.58580   11.92770   13.75610  -56.36340   -6.77040   13.75610
 5100.00000    9.05370    9.05370   28.18750   23.21380   43.10160   54.40610   54.40610   19.52190   19.52190   43.10160   52.07800  -61.16510  -13.36360   52.07800
 5150.00000    9.75650    9.75650   48.26380   42.59540   23.47670   56.46660   56.46660   27.07230   27.07230   23.47670   29.41910  -53.33120   -7.30330   29.41910
 5200.00000   10.70070   10.70070  162.61990  165.68640    6.03550   77.99050   77.99050   62.01430   62.01430    6.03550    8.85020  -45.24450   -1.01700    8.85020
 5250.00000   10.10330   10.10330  171.47400  175.68050    5.69220   75.80250   75.80250   68.87830   68.87830    5.69220    8.25350  -53.85470  -10.89020    8.25350
 5300.00000   10.00130   10.00130  200.07610  208.34200    4.79980   85.11050   85.11050   77.54110   77.54110    4.79980    7.17130  -45.46860   -3.63860    7.17130
 5350.00000    9.84740    9.84740  179.79000  189.59030    5.27450   74.63330   74.63330   73.23290   73.23290    5.27450    7.90830  -46.20120   -5.51710    7.90830
 5400.00000    8.50540    8.50540  117.28210  111.11110    9.00000   58.00460   58.00460   14.83600   14.83600    9.00000   32.01580  -99.64300  -60.75600   32.01580
 5450.00000    8.64600    8.64600   37.67800   31.69580   31.54990   58.77570   58.77570   27.08660   27.08660   31.54990   43.07650  -38.12460   -1.08540   43.07650
