~Version ---------------------------------------------------
VERS.      2.0 : CWLS log ASCII Standard -VERSION 2.0
WRAP.       NO : One line per depth step
CREA. 08/31/17 : LAS Creation Date
~Well ------------------------------------------------------
STRT.FT                           950.0 : START DEPTH
STOP.FT                         10350.0 : STOP DEPTH
STEP.FT                        50.00000 : STEP LENGTH
NULL.                           -999.25 : NULL VALUE
COMP.     THE ATLANTIC REFINING COMPANY : COMPANY
WELL. ATLANTIC SOUTH KAYBOB 10-18-63-19 : WELL
FLD .                                wc : FIELD
LOC .                                   : LOCATION
CTRY.                            CANADA : COUNTRY
SRVC.                      Schlumberger : SERVICE COMPANY
DATE.                       29-Oct-1962 : LOGDATE
PROV.                           Alberta : PROVINCE
UWI .                  100101806319W500 : UNIQUE WELL ID
SLAT.WGS84                     54.45213 : SURFACE LATITUDE
SLON.WGS84                    -116.8583 : SURFACE LONGITUDE
~Curve Information -----------------------------------------
DEPT  .FT    : Depth Curve
CALSED.IN    : CALIPER FROM SL-GR-CAL LOG
CALWS .IN    : CALIPER [CALSED]
CILDED.MMHO  : DEEP INDUCTION CONDUCTIVITY FROM IEL LOG
CONDWS.OHMM  : CONDUCTIVITY [1000/DRESWS]
DRESWS.OHMM  : DEEP RESISTIVITY [ILDED]
DTED  .US/F  : DELTA-T (INTERVAL TRANSIT TIME)
DTWS  .US/F  : COMPRESSIONAL SONIC [DTED]
GRSED .GAPI  : GAMMA RAY FROM SL-GR-CAL LOG
GRWS  .GAPI  : GAMMA RAY [GRSED]
ILDED .OHMM  : DEEP INDUCTION RESISTIVITY FROM IEL LOG
SNED  .OHMM  : SHORT NORMAL RESISTIVITY FROM IEL LOG
SPRED .MV    : SPONTANEOUS POTENTIAL FROM IEL LOG
SPWS  .MV    : SPONTANEOUS POTENTIAL [SPRED]
SRESWS.OHMM  : SHALLOW RESISTIVITY [SNED]
~Params ----------------------------------------------------
PD  .                     GL : PERMANENT DATUM
LMF .                     KB : LOG MEASURED FROM
EKB .FT                 2596 : KELLY BUSHING
DATE.               10/29/62 : RUN DATE
RUN .                      1 : RUN NUMBER
DD  .FT                10362 : DEPTH DRILLER
DL  .FT                10367 : DEPTH LOGGER
BLI .FT                10366 : BOTTOM LOG INTERVAL
TLI .FT                 1039 : TOP LOG INTERVAL
CBD .FT                 1037 : CASING BOTTOM DRILLER
CBL .FT                 1039 : CASING BOTTOM LOGGER
BS  .IN                 8.75 : BIT SIZE
BSD .FT                10362 : BIT SIZE AT DEPTH
DFT .                    GEL : DRILLING FLUID TYPE
DFD .                   10.1 : DRILLING FLUID DENSITY
DFV .                     95 : DRILLING FLUID VISCOSITY
DFPH.                    9.8 : DRILLING FLUID PH
DFL .                    6.6 : DRILLING FLUID LOSS
RMS .OHMM               1.43 : RESISTIVITY MUD SAMPLE
MST .DEGF                 97 : MUD SAMPLE TEMPERATURE
RMF .OHMM               1.25 : RESISTIVITY MUD FILTRATE SAMPLE
MFST.DEGF                 70 : MUD FILTRATE SAMPLE TEMPERATURE
RMC .OHMM               2.43 : RESISTIVITY MUD CAKE
MCST.DEGF                 70 : MUD CAKE SAMPLE TEMPERATURE
RMB .OHMM               0.74 : RESISTIVITY MUD AT BHT
TCS .HRS                 3.5 : TIME CIRCULATED STOPPED
LUN .                   3534 : LOGGING UNIT NUMBER
LUL .                    WCT : LOGGING UNIT LOCATION
ENGI.              HAUSEGGER : RECORDING ENGINEER
WITN.                 STRACK : WITNESSED BY
CLNT.                A2DTECH : CLIENT CODE
ORIG.            2" 5" PRINT : ORIGIN OF DATA
UWI .       100101806319W500 : UNIQUE WELL ID
DICO. A2D Technologies, Inc. : DIGITIZING COMPANY
~Other -----------------------------------------------------
~ASCII -----------------------------------------------------
# ...
 8300.00000    9.59870    9.59870    0.00040    4.39570  227.49570   49.93190   49.93190   20.85060   20.85060  227.49570  173.62560 -133.90380 -125.43690  173.62560
 8350.00000    9.52530    9.52530    0.00040    5.20000  192.30920   51.76360   51.76360   18.16310   18.16310  192.30920  138.58130 -125.09030 -115.91010  138.58130
 8400.00000    9.54680    9.54680    2.58820    7.71420  129.63160   50.25530   50.25530   17.92570   17.92570  129.63160   77.38190 -135.23520 -125.34630   77.38190
 8450.00000    9.06560    9.06560    2.60620   10.10920   98.91940   51.04350   51.04350   21.28650   21.28650   98.91940  101.54700 -158.32530 -147.72310  101.54700
 8500.00000    9.66030    9.66030   16.43550   24.38300   41.01210   51.90590   51.90590   17.52170   17.52170   41.01210   73.79190 -155.42140 -144.11060   73.79190
 8550.00000    9.41560    9.41560    0.00040    2.51370  401.38810   50.66290   50.66290   18.84040   18.84040  401.38810  117.34290 -139.68210 -127.66260  117.34290
 8600.00000   10.05690   10.05690    7.23180   12.28590   81.39380   51.93230   51.93230   25.54880   25.54880   81.39380   62.94730 -150.60870 -137.87590   62.94730
 8650.00000    9.90690    9.90690   19.99140   26.65230   37.52020   53.80800   53.80800   31.35800   31.35800   37.52020   39.10730 -130.02400 -116.58250   39.10730
 8700.00000    9.60890    9.60890    5.16080   10.45670   95.63280   48.91730   48.91730   23.74170   23.74170   95.63280   63.29510 -117.21330 -103.05850   63.29510
 8750.00000    9.59110    9.59110    6.90020   11.65060   85.83260   50.62490   50.62490   21.95240   21.95240   85.83260   80.92620 -166.99280 -152.12940   80.92620
 8800.00000    9.24250    9.24250    4.40620   11.41440   87.93760   53.20060   53.20060   43.71730   43.71730   87.93760   78.96770  -99.78420  -84.21210   78.96770
 8850.00000    9.35000    9.35000    0.71110    7.59980  131.58190   53.77350   53.77350   53.26690   53.26690  131.58190  112.41200  -83.41310  -67.12770  112.41200
 8900.00000   11.92140   11.92140   58.13510   67.76770   14.75630   66.43120   66.43120   77.30910   77.30910   14.75630   20.09380  -72.61740  -55.62340   20.09380
 8950.00000   11.66230   11.66230   74.84000   84.59020   11.82170   67.77240   67.77240   78.24260   78.24260   11.82170   15.07740  -43.18090  -25.47350   15.07740
 9000.00000   10.63330   10.63330   80.76140   90.28610   11.07590   63.82520   63.82520   72.41640   72.41640   11.07590   16.49080  -33.46400  -15.04800   16.49080
 9050.00000   10.59730   10.59730   81.29050   91.62230   10.91460   65.03570   65.03570   69.95600   69.95600   10.91460   17.20840  -33.50880  -14.38410   17.20840
 9100.00000   10.03220   10.03220   59.36840   68.96740   14.49960   64.32130   64.32130   63.34150   63.34150   14.49960   24.10460  -45.19700  -24.18990   24.10460
 9150.00000   10.01280   10.01280   60.69580   69.23190   14.44420   62.14360   62.14360   55.59060   55.59060   14.44420   18.84550  -58.23150  -34.60490   18.84550
 9200.00000    9.55960    9.55960   52.48300   61.74520   16.19560   68.85730   68.85730   77.54150   77.54150   16.19560   25.04510  -68.16190  -41.89860   25.04510
 9250.00000   13.19490   13.19490  180.31350  194.27280    5.14740   66.23470   66.23470   60.11710   60.11710    5.14740    5.81280  -77.25990  -48.37710    5.81280
 9300.00000   14.83100   14.83100  165.70440  178.80380    5.59580   77.00550   77.00550   71.52370   71.52370    5.59580    5.68350  -66.02890  -34.52660    5.68350
 9350.00000   15.00000   15.00000  195.41270  242.94250    4.11620   83.53240   83.53240   66.70530   66.70530    4.11620    4.61600  -82.70050  -48.56140    4.61600
 9400.00000   15.00000   15.00000  268.69130  306.82380    3.25920   81.78170   81.78170   67.21330   67.21330    3.25920    3.61910  -72.18380  -35.49170    3.61910
 9450.00000   10.95700   10.95700   69.89450   81.31140   12.29840   65.96140   65.96140   64.07810   64.07810   12.29840   16.93990  -66.04030  -31.79830   16.93990
 9500.00000   11.16720   11.16720  101.56640  113.51000    8.80980   67.15630   67.15630   78.18110   78.18110    8.80980   12.58120  -72.07960  -40.27170   12.58120
 9550.00000   10.97050   10.97050   82.93570   94.28710   10.60600   66.04850   66.04850   74.65410   74.65410   10.60600   15.43300  -74.69860  -45.32470   15.43300
 9600.00000   11.27200   11.27200  122.46480  135.76070    7.36590   73.11420   73.11420   93.11350   93.11350    7.36590   10.77250  -75.34320  -48.41940   10.77250
 9650.00000   11.52760   11.52760  145.79460  159.45150    6.27150   79.77910   79.77910   91.66640   91.66640    6.27150    9.14480  -86.56930  -62.07960    9.14480
 9700.00000   11.07620   11.07620  129.04720  138.49260    7.22060   75.18110   75.18110   93.57240   93.57240    7.22060   11.28460  -82.99410  -60.95440   11.28460
 9750.00000   11.23710   11.23710  128.78590  141.65710    7.05930   75.25670   75.25670   77.77240   77.77240    7.05930   11.30260  -69.56440  -49.95880   11.30260
 9800.00000   10.40680   10.40680    7.72260   10.74830   93.06420   77.63790   77.63790  113.70080  113.70080   93.06420   99.69000  -50.13710  -32.96550   99.69000
 9850.00000   10.88210   10.88210    0.08120    8.27210  120.88810   75.65900   75.65900  113.74410  113.74410  120.88810  105.42790  -42.97150  -28.25000  105.42790
 9900.00000   10.33890   10.33890   14.43110   17.80830   56.15370   51.91290   51.91290   31.26550   31.26550   56.15370   68.89360  -42.24020  -29.95280   68.89360
 9950.00000   11.51780   11.51780  114.54210  126.25780    7.92030   84.43500   84.43500  114.66840  114.66840    7.92030   14.90910  -48.75860  -38.92130   14.90910
 10000.00000    9.07070    9.07070    9.78260   13.93880   71.74240   58.89640   58.89640   55.14340   55.14340   71.74240   76.56380  -41.56830  -34.16500   76.56380
 10050.00000    9.64510    9.64510    4.15580    7.52150  132.98430   51.74400   51.74400   31.27240   31.27240  132.98430   87.90900  -34.01220  -29.04300   87.90900
 10100.00000    9.06670    9.06670   17.48820   23.45230   42.63970   52.60180   52.60180   45.14540   45.14540   42.63970   61.72960  -10.48520   -7.96600   61.72960
 10150.00000    8.72070    8.72070   17.61280   21.90700   45.64760   50.72030   50.72030   38.56150   38.56150   45.64760   63.09750  -11.22630  -11.14120   63.09750
 10200.00000    8.87040    8.87040   16.94580   22.71600   44.02180   55.42000   55.42000   45.64960   45.64960   44.02180   66.41340  -11.32070  -12.29250   66.41340
 10250.00000    8.81190    8.81190    0.60590    3.32130  301.08410   50.33190   50.33190   18.38400   18.38400  301.08410  255.89000  -35.69330  -36.66510  255.89000
 10300.00000    8.95460    8.95460    4.08250    6.94740  143.97570   52.11850   52.11850   23.90500   23.90500  143.97570  128.46930  -90.24470  -91.21650  128.46930
 10350.00000    8.78180    8.78180  179.47650  204.72090    4.88470   66.64140   66.64140    -999.25    -999.25    4.88470   21.94680 -111.75280 -112.72460   21.94680
