~Version ---------------------------------------------------
VERS.      2.0 : CWLS log ASCII Standard -VERSION 2.0
WRAP.       NO : One line per depth step
CREA. 10/25/17 : LAS Creation Date
~Well ------------------------------------------------------
STRT.FT                       1050.0 : START DEPTH
STOP.FT                      10200.0 : STOP DEPTH
STEP.FT                     50.00000 : STEP LENGTH
NULL.                        -999.25 : NULL VALUE
COMP.           MARATHON OIL COMPANY : COMPANY
WELL. MARATHON HEAVYSOUND 7-16-62-17 : WELL
FLD .                                : FIELD
LOC .                                : LOCATION
CTRY.                         CANADA : COUNTRY
SRVC.                        Unknown : SERVICE COMPANY
DATE.                    27-Feb-1976 : LOGDATE
PROV.                        Alberta : PROVINCE
UWI .               100071606217W500 : UNIQUE WELL ID
SLAT.WGS84                  54.36142 : SURFACE LATITUDE
SLON.WGS84                 -116.4847 : SURFACE LONGITUDE
~Curve Information -----------------------------------------
DEPT    .FT                                       : Depth Curve
CALDED  .IN                                       : CALIPER FROM DENSITY LOG [DEP. ADJ. TO GRSED]
CALSED  .IN                                       : CALIPER FROM SONIC LOG
CALWS   .IN                                       : CALIPER [1132' CALSED 5088' CALDED 8507' CALSED 10228' CALDED]
CILDED  .MMho : CONDUCTIVITY FROM RESISTIVITY LOG : 
CONDWS  .MMHO                                     : CONDUCTIVITY [1000/DRESWS]
DCORED  .G/C3                                     : DENSITY CORRECTION FROM DENSITY LOG [DEP. ADJ. TO GRSED]
DCORWS  .G/C3                                     : DENSITY CORRECTION [DCORED]
DENWS   .G/C3                                     : BULK DENSITY [M=2.71, F=1.00] [RHOBED]
DPHILSED.V/V                                      : DENSITY POROSITY [M=2.71, F=1.00] FROM DENSITY LOG [DEP. ADJ. TO GRSED]
DPHISSED.V/V                                      : DENSITY POROSITY [M=2.65, F=1.00] FROM DENSITY LOG [DEP. ADJ. TO GRSED]
DPOLSWS .V/V                                      : DENSITY POROSITY [M=2.71, F=1.00] [CAL. FROM DENWS]
DRESWS  .OHMM                                     : DEEP RESISTIVITY [1132' 1000/CILDED 5088' ILDED 8507' 1000/CILDED 10228' ILDED][REDUC. TO 2000 OHMM]
DTED    .US/F                                     : DELTA TIME FROM SONIC LOG
DTWS    .US/F                                     : DELTA TIME [DTED]
GRDED   .GAPI                                     : GAMMA RAY FROM DENSITY LOG [DEP. ADJ. TO GRSED]
GRSED   .GAPI                                     : GAMMA RAY FROM SONIC LOG
GRWS    .GAPI                                     : GAMMA RAY [1050' GRSED 10222' GRDED]
ILDED   .OHMM                                     : INDUCTION LOG DEEP RESISTIVITY
ILMED   .OHMM                                     : INDUCTION LOG MEDIUM RESISTIVITY
LL8ED   .OHMM                                     : 8 INCH LATEROLOG RESISTIVITY
MRESWS  .OHMM                                     : MEDIUM RESISTIVITY [ILMED]
NPHILSED.V/V                                      : NEUTRON POROSITY LIMESTONE FROM DENSITY LOG [DEP. ADJ. TO GRSED]
NPHISSED.V/V                                      : NEUTRON POROSITY SANDSTONE FROM DENSITY LOG [DEP. ADJ. TO GRSED]
NPOLSWS .V/V                                      : NEUTRON POROSITY SANDSTONE [5098' [NPHISSED IS CONVERTED TO LIMESTONE MATRIX] 6397' NPHILSED]
RHOBED  .G/C3                                     : BULK DENSITY FROM DENSITY LOG [DEP. ADJ. TO GRSED]
SPRED   .MV                                       : SPONTANEOUS POTENTIAL FROM RESISTIVITY LOG
SPWS    .MV                                       : SPONTANEOUS POTENTIAL [BASELINE 0 MV] [SPRED]
SRESWS  .OHMM                                     : SHALLOW RESISTIVITY [LL8ED] [FILLED GAPS]
~Params ----------------------------------------------------
PD  .                     GL : PERMANENT DATUM
EPD .FT                 2966 : ELEVATION PERMANENT DATUM
LMF .                     KB : LOG MEASURED FROM
DAPD.FT                   14 : FEET ABOVE PERMANENT DATUM
EKB .FT                 2980 : KELLY BUSHING
EGL .FT                 2966 : GROUND LEVEL
DATE.               02/27/76 : RUN DATE
RUN .                      1 : RUN NUMBER
DD  .FT                10240 : DEPTH DRILLER
DL  .FT                10242 : DEPTH LOGGER
BLI .FT                10239 : BOTTOM LOG INTERVAL
TLI .FT                 1133 : TOP LOG INTERVAL
CS  .IN                9.625 : CASING SIZE
CBD .FT                 1128 : CASING BOTTOM DRILLER
CBL .FT                 1133 : CASING BOTTOM LOGGER
BS  .IN                 8.75 : BIT SIZE
BSD .FT                10240 : BIT SIZE AT DEPTH
RMS .OHMM                2.3 : RESISTIVITY MUD SAMPLE
MST .DEGF                 68 : MUD SAMPLE TEMPERATURE
RMF .OHMM                2.1 : RESISTIVITY MUD FILTRATE SAMPLE
MFST.DEGF                 68 : MUD FILTRATE SAMPLE TEMPERATURE
TCS .HRS                   2 : TIME CIRCULATED STOPPED
LUN .                   7636 : LOGGING UNIT NUMBER
LUL .                    EDM : LOGGING UNIT LOCATION
ENGI.                  LAZOR : RECORDING ENGINEER
WITN.                 DEWULF : WITNESSED BY
CLNT.                A2DTECH : CLIENT CODE
ORIG.            2" 5" PRINT : ORIGIN OF DATA
UWI .       100071606217W500 : UNIQUE WELL ID
DICO. A2D Technologies, Inc. : DIGITIZING COMPANY
~Other -----------------------------------------------------
~ASCII -----------------------------------------------------
# ...
 7300.00000    9.06340    9.28440    9.06340    7.75170    7.75170    0.01020    0.01020    2.70020    0.00600    -999.25    0.00570  129.00400   52.88250   52.88250   32.39840   34.52870   34.52870  157.27260    -999.25  162.69210    -999.25    0.02010    -999.25    0.02010    2.70020  -11.48080  -48.09570  162.69210
 7350.00000    9.13460    9.33510    9.13460    1.44880    1.44880    0.00950    0.00950    2.71320   -0.00560    -999.25   -0.00190  690.22640   51.85530   51.85530   26.07620   25.03890   25.03890    -999.25    -999.25  472.35370    -999.25    0.01440    -999.25    0.01440    2.71320  -10.46580  -51.37580  472.35370
 7400.00000    9.03440    9.21410    9.03440    2.57640    2.57640    0.00890    0.00890    2.67280    0.02090    -999.25    0.02180  388.13850   51.87620   51.87620   22.79730   26.91100   26.91100  259.68380    -999.25  197.01900    -999.25    0.01920    -999.25    0.01920    2.67280  -18.23390  -63.39630  197.01900
 7450.00000    9.05640    9.32540    9.05640   19.07530   19.07530    0.01630    0.01630    2.70830   -0.00190    -999.25    0.00100   52.42380   55.78040   55.78040   62.10130   59.78580   59.78580   58.99900    -999.25   58.17990    -999.25    0.03990    -999.25    0.03990    2.70830   47.81560   -1.64200   58.17990
 7500.00000    9.20090    9.46750    9.20090    1.81010    1.81010    0.00460    0.00460    2.69070    0.00870    -999.25    0.01130  552.45570   51.61690   51.61690   29.02760   28.07610   28.07610    -999.25    -999.25    -999.25    -999.25    0.01650    -999.25    0.01650    2.69070   -8.17810  -56.08490  440.71040
 7550.00000   10.43670   10.40090   10.43670    1.87430    1.87430    0.25260    0.25260    2.64380    0.03060    -999.25    0.03870  533.53250   49.98720   49.98720   23.47040   24.54620   24.54620  479.14640    -999.25    -999.25    -999.25    0.00770    -999.25    0.00770    2.64380   13.21270  -31.33210  343.39120
 7600.00000    9.50750    9.57750    9.50750    1.98770    1.98770    0.05460    0.05460    2.73320   -0.00480    -999.25   -0.01350  503.09400   49.50600   49.50600   21.42370   21.74210   21.74210    -999.25    -999.25    -999.25    -999.25    0.03740    -999.25    0.03740    2.73320  -16.70110  -51.47670  493.69500
 7650.00000   10.00730    9.60840   10.00730    1.48290    1.48290    0.02460    0.02460    2.67170    0.01670    -999.25    0.02240  674.35430   50.81190   50.81190   16.08320   19.39210   19.39210    -999.25    -999.25  309.52830    -999.25    0.04160    -999.25    0.04160    2.67170 -103.53840 -120.35170  309.52830
 7700.00000   11.07400    9.88140   11.07400    1.24250    1.24250    0.20510    0.20510    2.65300    0.03520    -999.25    0.03330  804.82900   49.04800   49.04800   20.99490   20.87590   20.87590    -999.25    -999.25    -999.25    -999.25    0.02460    -999.25    0.02460    2.65300 -108.43410 -107.10460  440.09090
 7750.00000   10.39490    9.74470   10.39490   13.12000   13.12000    0.16180    0.16180    2.66290    0.02630    -999.25    0.02750   76.21950   50.25550   50.25550   12.72950   10.18530   10.18530   77.89850    -999.25  238.62250    -999.25    0.03760    -999.25    0.03760    2.66290 -149.98100 -130.68920  238.62250
 7800.00000   11.60120    9.94880   11.60120    1.54790    1.54790    0.07100    0.07100    2.20090    0.28810    -999.25    0.29770  646.03660   47.92020   47.92020   13.97340   13.69970   13.69970  500.50290    -999.25  499.99590    -999.25    0.03150    -999.25    0.03150    2.20090 -149.68160 -112.33720  499.99590
 7850.00000   11.39940    9.62960   11.39940    2.21330    2.21330    0.18740    0.18740    2.42250    0.17140    -999.25    0.16810  451.81400   49.90400   49.90400   14.40850   14.96350   14.96350    -999.25    -999.25  267.27610    -999.25    0.02610    -999.25    0.02610    2.42250 -163.07740 -107.59010  267.27610
 7900.00000   12.04200    9.81090   12.04200   24.22860   24.22860    0.21680    0.21680    2.31990    0.22890    -999.25    0.22810   41.27350   51.58150   51.58150   14.33870   12.39300   12.39300   45.10470    -999.25   71.34930    -999.25    0.05350    -999.25    0.05350    2.31990 -167.25410  -93.80460   71.34930
 7950.00000   10.16490    9.65130   10.16490    3.64400    3.64400    0.18710    0.18710    2.65760    0.02560    -999.25    0.03060  274.42370   49.23900   49.23900   13.76660   16.33570   16.33570    -999.25    -999.25  445.29900    -999.25    0.02780    -999.25    0.02780    2.65760 -183.35840  -91.76610  445.29900
 8000.00000   11.32670    9.82940   11.32670    2.65140    2.65140    0.25040    0.25040    2.54180    0.09850    -999.25    0.09840  377.15920   49.44680   49.44680   11.28710   11.49280   11.49280    -999.25    -999.25  306.42940    -999.25    0.01830    -999.25    0.01830    2.54180    -999.25    -999.25  306.42940
 8050.00000   11.69340    9.84870   11.69340    1.02030    1.02030    0.20010    0.20010    2.59460    0.06560    -999.25    0.06750  980.10390   49.94750   49.94750   16.72030   16.83480   16.83480    -999.25    -999.25  501.06690    -999.25    0.02300    -999.25    0.02300    2.59460    -999.25    -999.25  501.06690
 8100.00000   11.02200    9.77450   11.02200    2.18600    2.18600    0.22020    0.22020    2.52600    0.10760    -999.25    0.10760  457.45650   49.44010   49.44010   16.41650   14.63960   14.63960    -999.25    -999.25  193.41020    -999.25    0.01640    -999.25    0.01640    2.52600    -999.25    -999.25  193.41020
 8150.00000   10.56540    9.81500   10.56540   11.33010   11.33010    0.17260    0.17260    2.65560    0.02810    -999.25    0.03180   88.26050   49.86030   49.86030   12.03790   11.56430   11.56430  118.51350    -999.25  119.51810    -999.25    0.00890    -999.25    0.00890    2.65560    -999.25    -999.25  119.51810
 8200.00000    9.65370    9.31050    9.65370   22.47260   22.47260    0.15270    0.15270    2.64110    0.03320    -999.25    0.04030   44.49860   51.30670   51.30670   12.39320   11.89880   11.89880   49.11180    -999.25  141.36110    -999.25    0.03650    -999.25    0.03650    2.64110    -999.25    -999.25  141.36110
 8250.00000   12.02360    9.72470   12.02360    6.61460    6.61460    0.22090    0.22090    2.51770    0.11170    -999.25    0.11250  151.18070   48.78050   48.78050   19.43870   19.21760   19.21760  156.11820    -999.25    -999.25    -999.25    0.01520    -999.25    0.01520    2.51770    -999.25    -999.25  499.84540
 8300.00000    9.08200    9.46180    9.08200    2.31870    2.31870    0.01430    0.01430    2.96090    -999.25    -999.25   -0.14670  431.27610   49.28170   49.28170   11.78370   10.89030   10.89030    -999.25    -999.25    -999.25    -999.25    0.03220    -999.25    0.03220    2.96090 -174.45040  -94.50900  289.27150
 8350.00000    9.21030    9.41490    9.21030   37.80750   37.80750    0.00970    0.00970    2.74270   -0.00580    -999.25   -0.01910   26.44980   49.86620   49.86620   24.70260   23.35110   23.35110   25.47570    -999.25   38.13180    -999.25    0.03110    -999.25    0.03110    2.74270 -132.68630  -58.18100   38.13180
 8400.00000   12.31250    9.64150   12.31250    1.11890    1.11890    0.18990    0.18990    2.49640    0.12960    -999.25    0.12490  893.73490   48.98130   48.98130   22.75620   22.08690   22.08690  313.97300    -999.25  382.62970    -999.25    0.02050    -999.25    0.02050    2.49640 -189.84530 -120.72190  382.62970
 8450.00000   10.76300    9.81210   10.76300    2.32280    2.32280    0.19890    0.19890    2.77970    -999.25    -999.25   -0.04080  430.51490   48.96450   48.96450   22.69500   27.54350   27.54350  223.11810    -999.25  172.71630    -999.25    0.01220    -999.25    0.01220    2.77970 -152.15540  -88.46810  172.71630
 8500.00000   10.76140    9.67190   10.76140   37.37470   37.37470    0.26060    0.26060    2.67580    0.02320    -999.25    0.02000   26.75610   50.53160   50.53160   27.29450   29.86900   29.86900   26.35310    -999.25   29.67540    -999.25    0.01760    -999.25    0.01760    2.67580 -121.18820  -62.88280   29.67540
