~Version ---------------------------------------------------
VERS.      2.0 : CWLS log ASCII Standard -VERSION 2.0
WRAP.       NO : One line per depth step
CREA. 08/16/13 : LAS Creation Date
~Well ------------------------------------------------------
STRT.M                          400.0 : START DEPTH
STOP.M                         3500.0 : STOP DEPTH
STEP.M                       50.00000 : STEP LENGTH
NULL.                         -999.25 : NULL VALUE
COMP.     CANADA NORTHWEST ENERGY LTD : COMPANY
WELL. CNW ET AL ANTE CREEK 16-2-66-25 : WELL
FLD .                                 : FIELD
LOC .                                 : LOCATION
CTRY.                          CANADA : COUNTRY
SRVC.                         Unknown : SERVICE COMPANY
DATE.                     15-Feb-1985 : LOGDATE
PROV.                         Alberta : PROVINCE
UWI .                100160206625W500 : UNIQUE WELL ID
SLAT.WGS84                   54.68811 : SURFACE LATITUDE
SLON.WGS84                  -117.6596 : SURFACE LONGITUDE
~Curve Information -----------------------------------------
DEPT    .M      : DEPTH METER
C2ED    .MM     : CALIPER 2 FROM DENSITY LOG [ADJ. TO RESISTIVITY LOG]
CALDED  .MM     : CALIPER FROM DENSITY LOG [ADJ. TO RESISTIVITY LOG]
CALSED  .MM     : CALIPER FROM SONIC LOG
CALWS   .MM     : CALIPER [CALDED]
CONDWS  .MMHO   : CONDUCTIVITY [1000/DRESWS]
DCORWS  .KG/M3  : DENSITY CORRECTION [DRHOED]
DENWS   .KG/M3  : FORMATION BULK DENSITY [CALC FROM DPOLSWS, M=2710,F=1000]
DPHILSED.V/V    : DENSITY POROSITY LIMESTONE [M=2710,F=1000] FROM DENSITY LOG [ADJ. TO RESISTIVITY LOG]
DPHISSED.V/V    : DENSITY POROSITY SANDSTONE [M=2650,F=1000] FROM DENSITY LOG [ADJ. TO RESISTIVITY LOG]
DPOLSWS .V/V    : DENSITY POROSITY LIMESTONE [DPHISSED CONVERTED TO LIMESTONE(M=2710,F=1000) & SPL TO DPHILSED @2150M]
DRESWS  .OHMM   : DEEP RESISTIVITY [ILDED]
DRHOED  .KG/M3  : DENSITY CORRECTION FROM DENSITY LOG [ADJ. TO RESISTIVITY LOG]
DTED    .US/M   : DELTA TIME FROM SONIC LOG
DTWS    .US/M   : COMPRESSIONAL  SONIC [DTED]
GRDED   .GAPI   : GAMMA RAY FROM DENSITY LOG [ADJ. TO RESISTIVITY LOG]
GRRED   .GAPI   : GAMMA RAY FROM RESISTIVITY LOG
GRWS    .GAPI   : GAMMA RAY [GRRED]
ILDED   .OHMM   : DEEP INDUCTION FROM RESISTIVITY LOG
ILMED   .OHMM   : MEDIUM INDUCTION FROM RESISTIVITY LOG
MRESWS  .OHMM   : MEDIUM RESISTIVITY [ILMED]
NPHILSED.V/V    : NEUTRON POROSITY LIMESTONE FROM DENSITY LOG [ADJ. TO RESISTIVITY LOG]
NPHISSED.V/V    : NEUTRON POROSITY SANDSTONE FROM DENSITY LOG [ADJ. TO RESISTIVITY LOG]
NPOLSWS .V/V    : NEUTRON POROSITY LIMESTONE [NPHISSED MATRIX CONVERSION FOR LIMESTONE & SPL. TO NPHILSED @2150M']
RHOBED  .KG/M3  : BULK DENSITY FROM DENSITY LOG [ADJ. TO RESISTIVITY LOG]
SFLUED  .OHMM   : SPHERICALLY FOCUSED RESISTIVITY FROM RESISTIVITY LOG
SPRED   .MV     : SPONTANEOUS POTENTIAL FROM RESISTIVITY LOG
SPWS    .MV     : SPONTANEOUS POTENTIAL [BASELINE 0 MV, SPRED]
SRESWS  .OHMM   : SHALLOW RESISTIVITY [SFLUED]
TENDED  .N      : TENSION FROM DENSITY LOG [ADJ. TO RESISTIVITY LOG]
TENRED  .N      : TENSION FROM RESISTIVITY LOG
~Params ----------------------------------------------------
PD  .                         GL : PERMANENT DATUM
EPD .M                     767.2 : ELEVATION PERMANENT DATUM
LMF .                         KB : LOG MEASURED FROM
DAPD.M                       6.3 : FEET ABOVE PERMANENT DATUM
DMF .                         KB : DRILLING MEASURED FROM
EKB .M                     773.5 : KELLY BUSHING
EDF .M                     773.1 : DRILLING FLOOR
EGL .M                     767.2 : GROUND LEVEL
DATE.                   02/15/85 : RUN DATE
RUN .                          1 : RUN NUMBER
DD  .M                      3495 : DEPTH DRILLER
DL  .M                      3497 : DEPTH LOGGER
BLI .M                      3496 : BOTTOM LOG INTERVAL
TLI .M                       400 : TOP LOG INTERVAL
CS  .MM                    244.5 : CASING SIZE
CBD .M                       400 : CASING BOTTOM DRILLER
CBL .M                       400 : CASING BOTTOM LOGGER
BS  .MM                      222 : BIT SIZE
BSD .M                      3495 : BIT SIZE AT DEPTH
DFT .                   GEL CHEM : DRILLING FLUID TYPE
DFD .                       1110 : DRILLING FLUID DENSITY
DFV .                         91 : DRILLING FLUID VISCOSITY
DFPH.                         10 : DRILLING FLUID PH
DFL .                        8.1 : DRILLING FLUID LOSS
MSS .                   FLOWLINE : MUD SAMPLE SOURCE
RMS .OHMM                   1.92 : RESISTIVITY MUD SAMPLE
MST .DEGC                     23 : MUD SAMPLE TEMPERATURE
RMF .OHMM                   1.83 : RESISTIVITY MUD FILTRATE SAMPLE
MFST.DEGC                     20 : MUD FILTRATE SAMPLE TEMPERATURE
RMC .OHMM                  0.714 : RESISTIVITY MUD CAKE
MCST.DEGC                     85 : MUD CAKE SAMPLE TEMPERATURE
MFSS.                       MEAS : MUD FILTRATE SAMPLE SOURCE
MCSS.                       MEAS : MUD CAKE SAMPLE SOURCE
RMB .OHMM                  0.804 : RESISTIVITY MUD AT BHT
TCS .HRS                    1600 : TIME CIRCULATED STOPPED
LUN .                       8100 : LOGGING UNIT NUMBER
LUL .                         GP : LOGGING UNIT LOCATION
ENGI.                     YEAGER : RECORDING ENGINEER
WITN.                       WEBB : WITNESSED BY
CLNT.                    A2DTECH : CLIENT CODE
ORIG. 6.5"/100M 16.5"/100M PRINT : ORIGIN OF DATA
UWI .           100160206625W500 : UNIQUE WELL ID
DICO.     A2D Technologies, Inc. : DIGITIZING COMPANY
~Other -----------------------------------------------------
DIL-SFL-BCS LOG RAN IN COMBO & CNL-FDC LOG RAN
RHOB HAS BEEN VERIFIED FROM SMALL LOG
~ASCII -----------------------------------------------------
# ...
 1600.00000  291.03100  304.40650  298.39210  304.40650   78.23930   53.86740 2496.55000    -999.25    0.09300    0.12480   12.78130   53.86740  245.03450  245.03450   35.48170   33.74060   33.74060   12.78130   11.21350   11.21350    -999.25    0.28430    0.24030 2496.55000   15.57200  -58.86890  -18.19720   15.57200 88320.31250 88345.46880
 1650.00000  315.80300  309.89790  325.32450  309.89790  156.46760   54.81370 2194.76500    -999.25    0.27590    0.30130    6.39110   54.81370  293.77910  293.77910   66.90470   60.88540   60.88540    6.39110    6.15420    6.15420    -999.25    0.50350    0.46390 2194.76500    7.47850  -62.61030  -26.36620    7.47850 88472.77340 88400.32030
 1700.00000  266.26440  248.71250  262.71300  248.71250   61.55740   29.65330 2427.25000    -999.25    0.13500    0.16540   16.24500   29.65330  233.71690  233.71690   38.27980   37.13820   37.13820   16.24500   20.33490   20.33490    -999.25    0.23390    0.19010 2427.25000   22.72480 -106.99200  -75.17550   22.72480 88355.43750 88463.97660
 1750.00000  294.25570  304.97530  308.72030  304.97530   98.33040  -14.20400 2535.82000    -999.25    0.06920    0.10190   10.16980  -14.20400  246.68210  246.68210   66.05990   57.36220   57.36220   10.16980   10.32710   10.32710    -999.25    0.32080    0.27690 2535.82000   10.68630  -30.63580   -3.24700   10.68630 88002.67970 87930.85160
 1800.00000  297.30270  338.17340  324.57420  338.17340  106.97360   18.88540 2482.69000    -999.25    0.10140    0.13290    9.34810   18.88540  244.63330  244.63330   55.59460   49.42920   49.42920    9.34810   10.59120   10.59120    -999.25    0.28820    0.24420 2482.69000   13.47740  -78.95590  -49.34130   13.47740 88418.67970 87915.32030
 1850.00000  263.35790  248.49920  250.43730  248.49920  100.61880   68.53870 2426.75500    -999.25    0.13530    0.16560    9.93850   68.53870  234.01950  234.01950   48.59740   41.80670   41.80670    9.93850   13.05210   13.05210    -999.25    0.24800    0.20410 2426.75500   18.26300 -122.91950  -89.92340   18.26300 87950.05470 87525.57810
 1900.00000  322.16200  309.46160  310.83650  309.46160   43.65310   17.02760 2500.01500    -999.25    0.09090    0.12280   22.90790   17.02760  251.79950  251.79950   76.90490   74.65290   74.65290   22.90790   36.16570   36.16570    -999.25    0.32320    0.27930 2500.01500   26.06330  -76.90000  -40.52240   26.06330 87243.03910 87011.23440
 1950.00000  299.88080  286.46020  295.92930  286.46020   43.07210   -4.78840 2634.32500    -999.25    0.00950    0.04430   23.21690   -4.78840  222.78670  222.78670   73.52460   66.72980   66.72980   23.21690   25.27360   25.27360    -999.25    0.22890    0.18510 2634.32500   29.78280  -73.31890  -33.55980   29.78280 87080.11720 86977.22660
 2000.00000  381.24770  412.60390  375.50870  412.60390  346.32030    1.00590 1540.04500    -999.25    0.67270    0.68420    2.88750    1.00590  406.22500  406.22500   65.60100   61.63610   61.63610    2.88750    2.42810    2.42810    -999.25    0.60880    0.57540 1540.04500    2.96610  -48.46900   -5.29970    2.96610 87093.90620 86760.21880
 2050.00000  274.50870  319.46970  301.31190  319.46970   18.87090    5.01930 2507.60500    -999.25    0.08630    0.11840   52.99160    5.01930  219.13240  219.13240   70.53560   66.76390   66.76390   52.99160   43.83790   43.83790    -999.25    0.20720    0.16370 2507.60500   42.50550  -64.10960  -16.66010   42.50550 86839.04690 86355.50780
 2100.00000  273.24180  279.15420  283.86960  279.15420   34.57800  -14.94110 2621.62000    -999.25    0.01720    0.05170   28.92010  -14.94110  197.45000  197.45000   66.54380   64.99050   64.99050   28.92010   29.20900   29.20900    -999.25    0.12900    0.08660 2621.62000   32.58940  -29.51710   20.22650   32.58940 86338.00000 86324.92970
 2150.00000  269.46550  283.70190  284.52720  283.70190   28.44340   -7.69240 2682.01000    0.01870   -0.01940    0.01640   35.15750   -7.69240  196.13570  196.13570   76.84930   63.48580   63.48580   35.15750   36.82350   36.82350    0.11950    0.13300    0.09060 2672.72200   41.08720  -34.37250   15.37110   41.08720 86415.38280 86229.15620
 2200.00000  252.68580  316.11070  279.97340  316.11070   60.98710  243.08140 2605.17700    0.06130    -999.25    0.06130   16.39690  243.08140  181.68250  181.68250   24.12430   22.30460   22.30460   16.39690   17.36670   17.36670    0.19160    -999.25    0.19160 2605.17700   25.33790  -34.59790    9.25560   25.33790 86324.47660 86049.46880
 2250.00000  239.90390  240.86470  250.89450  240.86470   11.66940   -9.15090 2778.57100   -0.04010    -999.25   -0.04010   85.69430   -9.15090  172.29680  172.29680   59.01400   51.58050   51.58050   85.69430   79.49140   79.49140    0.09620    -999.25    0.09620 2778.57100  128.57060   26.35380   64.48110  128.57060 86037.60160 85247.77340
 2300.00000  225.87110  247.76260  243.84480  247.76260  189.94800   40.04040 2551.14100    0.09290    -999.25    0.09290    5.26460   40.04040  210.96660  210.96660   25.80700   24.37830   24.37830    5.26460    7.79450    7.79450    0.21700    -999.25    0.21700 2551.14100   13.17880  -19.10270   17.93390   13.17880 85613.07030 85677.34380
 2350.00000  259.45550  236.84050  261.46130  236.84050  230.94150  -14.37820 2684.69200    0.01480    -999.25    0.01480    4.33010  -14.37820  174.64470  174.64470   15.58160   19.65000   19.65000    4.33010    5.75490    5.75490    0.06160    -999.25    0.06160 2684.69200   24.94940   34.84070   69.25170   24.94940 85497.64060 84879.76560
 2400.00000  313.37220  231.06970  264.29030  231.06970  183.49630  -12.26120 2694.09700    0.00930    -999.25    0.00930    5.44970  -12.26120  176.02920  176.02920   19.50740   22.51500   22.51500    5.44970    6.95780    6.95780    0.06500    -999.25    0.06500 2694.09700   29.28480   -5.78250   23.07590   29.28480 85227.83590 85246.56250
 2450.00000  301.78500  247.46580  279.66860  247.46580    1.90480   -5.83770 2587.05100    0.07190    -999.25    0.07190  524.99570   -5.83770  176.97880  176.97880   11.23730   14.25540   14.25540  524.99570 1919.56100 1919.56100    0.06020    -999.25    0.06020 2587.05100 1153.99490  -48.37850  -30.91050 1153.99490 84713.58590 84442.78120
 2500.00000  291.38450  244.06790  268.18620  244.06790   17.57630   -9.24420 2681.44300    0.01670    -999.25    0.01670   56.89470   -9.24420  168.41690  168.41690   23.61760   16.80840   16.80840   56.89470  143.95810  143.95810    0.03250    -999.25    0.03250 2681.44300 1934.60360  -38.50610  -33.98020 1934.60360 84607.76560 84120.57030
 2550.00000  271.15710  292.34620  297.22620  292.34620    7.65100  178.91680 2507.02300    0.11870    -999.25    0.11870  130.70180  178.91680  174.65870  174.65870   32.76230   31.23250   31.23250  130.70180   86.15650   86.15650    0.04790    -999.25    0.04790 2507.02300  501.16060   -1.62330   -3.55540  501.16060 84253.52340 84049.28910
 2600.00000  311.38460  298.97620  282.40700  298.97620   15.39860   16.47960 2653.74100    0.03290    -999.25    0.03290   64.94090   16.47960  192.42400  192.42400   48.80390   50.92710   50.92710   64.94090   47.82430   47.82430    0.08390    -999.25    0.08390 2653.74100   81.32770  -17.28480  -12.29450   81.32770 83996.15620 83888.81250
 2650.00000  281.99790  273.11300  284.44210  273.11300   14.44060   -9.92190 2708.29000    0.00100    -999.25    0.00100   69.24910   -9.92190  191.42370  191.42370   63.82620   55.84030   55.84030   69.24910   78.08740   78.08740    0.10580    -999.25    0.10580 2708.29000   82.35070  -37.98190  -26.06920   82.35070 84030.00780 83652.56250
 2700.00000  346.01160  243.50980  257.23430  243.50980    1.94000   -1.56250 2654.93800    0.03220    -999.25    0.03220  515.46530   -1.56250  162.38930  162.38930   16.79560   17.40970   17.40970  515.46530 2006.40770 2006.40770    0.01800    -999.25    0.01800 2654.93800  982.30560  -85.98220  -69.47930  982.30560 83859.33590 83213.68750
 2750.00000  312.08200  221.40460  247.18860  221.40460    0.50000  -13.01670 2703.67300    0.00370    -999.25    0.00370 2000.00000  -13.01670  159.04470  159.04470   13.98090   15.03490   15.03490 2000.00000 2000.00000 2000.00000    0.00130    -999.25    0.00130 2703.67300 1935.81370 -207.17590 -193.30850 1935.81370 83797.03910 82763.50780
