~Version ---------------------------------------------------
VERS.      2.0 : CWLS log ASCII Standard -VERSION 2.0
WRAP.       NO : One line per depth step
CREA. 08/01/17 : LAS Creation Date
~Well ------------------------------------------------------
STRT.FT                  900.0 : START DEPTH
STOP.FT                 9500.0 : STOP DEPTH
STEP.FT               50.00000 : STEP LENGTH
NULL.                  -999.25 : NULL VALUE
COMP. BP CANADA ENERGY COMPANY : COMPANY
WELL. AMOCO HB WIND 3-32-60-15 : WELL
FLD .                          : FIELD
LOC .                          : LOCATION
CTRY.                   CANADA : COUNTRY
SRVC.   Schlumberger of Canada : SERVICE COMPANY
DATE.              25-Jan-1971 : LOGDATE
PROV.                  Alberta : PROVINCE
UWI .         100033206015W500 : UNIQUE WELL ID
SLAT.WGS84             54.2274 : SURFACE LATITUDE
SLON.WGS84           -116.2148 : SURFACE LONGITUDE
~Curve Information -----------------------------------------
DEPT    .FT    : Depth Curve
CALDED  .IN    : CALIPER FROM DENSITY LOG
CALNED  .IN    : CALIPER FROM NEUTRON LOG
CALSED  .IN    : CALIPER FROM SONIC LOG
CALWS   .IN    : CALIPER [CALSED]
CONDWS  .MMHO  : CONDUCTIVITY [1000/DRESWS]
CORRED  .G/C3  : DENSITY CORRECTION FROM DENSITY LOG
DCORWS  .G/C3  : DENSITY CORR4ECTION [CORRED]
DENWS   .G/C3  : BULK DENSITY RHOBED]
DPHILSED.V/V   : DENSITY POROSITY [M=2.71, F=1.00] FROM DENSITY LOG
DPOLSWS .V/V   : DENSITY POROSITY LIMESTONE [CALCULATED FROM DENWS]
DRESWS  .OHMM  : DEEP RESISTIVITY [ILDED]
DTED    .US/F  : DELTA TIME FROM SONIC LOG
DTWS    .US/F  : DELTA TIME [DTED]
GRDED   .GAPI  : GAMMA RAY FROM DENSITY LOG
GRNED   .GAPI  : GAMMA RAY FROM NEUTRON LOG
GRSED   .GAPI  : GAMMA RAY FROM SONIC LOG
GRWS    .GAPI  : GAMMA RAY [GRDED]
ILDED   .OHMM  : INDUCTION LOG DEEP RESISTIVITY
ILMED   .OHMM  : INDUCTION LOG MEDIUM RESISTIVITY
LL8ED   .OHMM  : 8 INCH LATEROLOG RESISTIVITY
MRESWS  .OHMM  : MEDIUM RESISTIVITY [ILMED]
NPOLSWS .V/V   : NEUTRON POROSITY LIMESTONE [SNPLSED]
RHOBED  .G/C3  : BULK DENSITY FROM DENSITY LOG
SNPLSED .V/V   : SIDEWALL NEUTRON POROSITY LIMESONTE
SPRED   .MV    : SPONTANEOUS POTENTIAL FROM RESISTIVITY LOG
SPWS    .MV    : SPONTANEOUS POTENTIAL [BASELINE 0 MV] [SPRED]
SRESWS  .OHMM  : SHALLOW RESISTIVITY [LL8ED]
~Params ----------------------------------------------------
PD  .                     GL : PERMANENT DATUM
EPD .FT               2499.5 : ELEVATION PERMANENT DATUM
LMF .                     KB : LOG MEASURED FROM
DAPD.FT                   14 : FEET ABOVE PERMANENT DATUM
EKB .FT               2513.5 : KELLY BUSHING
EGL .FT               2499.5 : GROUND LEVEL
DATE.               01/25/71 : RUN DATE
RUN .                      1 : RUN NUMBER
DD  .FT                 8540 : DEPTH DRILLER
DL  .FT                 8541 : DEPTH LOGGER
BLI .FT                 8535 : BOTTOM LOG INTERVAL
TLI .FT                  921 : TOP LOG INTERVAL
CBD .FT                  921 : CASING BOTTOM DRILLER
CBL .FT                  920 : CASING BOTTOM LOGGER
BS  .IN                 8.75 : BIT SIZE
BSD .FT                 9540 : BIT SIZE AT DEPTH
DFT .                GELCHEM : DRILLING FLUID TYPE
DFD .                    9.7 : DRILLING FLUID DENSITY
DFV .                    122 : DRILLING FLUID VISCOSITY
DFPH.                     10 : DRILLING FLUID PH
DFL .                      8 : DRILLING FLUID LOSS
MSS .               FLOWLINE : MUD SAMPLE SOURCE
RMF .OHMM               0.97 : RESISTIVITY MUD FILTRATE SAMPLE
MFST.DEGF                 73 : MUD FILTRATE SAMPLE TEMPERATURE
RMC .OHMM               1.49 : RESISTIVITY MUD CAKE
MCST.DEGF                 72 : MUD CAKE SAMPLE TEMPERATURE
TCS .HRS                   4 : TIME CIRCULATED STOPPED
LUN .                   7501 : LOGGING UNIT NUMBER
LUL .                    EDM : LOGGING UNIT LOCATION
ENGI.                 SLADEN : RECORDING ENGINEER
WITN.       HEIKKINEN MORRIS : WITNESSED BY
CLNT.                A2DTECH : CLIENT CODE
ORIG.            2" 5" PRINT : ORIGIN OF DATA
UWI .       100033206015W500 : UNIQUE WELL ID
DICO. A2D Technologies, Inc. : DIGITIZING COMPANY
~Other -----------------------------------------------------
~ASCII -----------------------------------------------------
# ...
 6100.00000    -999.25    -999.25    9.70000    9.70000   13.13940    -999.25    -999.25    -999.25    -999.25    -999.25   76.10680   55.38450   55.38450    -999.25    -999.25   46.65560   46.65560   76.10680   68.98690  132.09440   68.98690    -999.25    -999.25    -999.25 -102.11070  -45.69410  132.09440
 6150.00000    -999.25    -999.25    8.75350    8.75350   45.21780    -999.25    -999.25    -999.25    -999.25    -999.25   22.11520   53.01590   53.01590    -999.25    -999.25   13.27600   13.27600   22.11520   40.14460   85.80050   40.14460    -999.25    -999.25    -999.25 -186.48210 -130.45480   85.80050
 6200.00000    -999.25    -999.25    9.07770    9.07770   46.62310    -999.25    -999.25    -999.25    -999.25    -999.25   21.46840   51.73110   51.73110    -999.25    -999.25   11.55380   11.55380   21.46840   34.39090  174.97640   34.39090    -999.25    -999.25    -999.25 -197.69200 -142.05600  174.97640
 6250.00000    -999.25    -999.25    9.11260    9.11260  121.09910    -999.25    -999.25    -999.25    -999.25    -999.25    8.25770   61.28400   61.28400    -999.25    -999.25   60.21110   60.21110    8.25770    8.76920   11.52890    8.76920    -999.25    -999.25    -999.25  -97.40810  -42.15960   11.52890
 6300.00000    -999.25    -999.25    8.86560    8.86560   37.86790    -999.25    -999.25    -999.25    -999.25    -999.25   26.40760   56.34200   56.34200    -999.25    -999.25   58.12710   58.12710   26.40760   31.00280   40.87930   31.00280    -999.25    -999.25    -999.25  -80.21720  -25.35800   40.87930
 6350.00000    -999.25    -999.25    9.15110    9.15110  109.25620    -999.25    -999.25    -999.25    -999.25    -999.25    9.15280   53.13060   53.13060    -999.25    -999.25   35.14630   35.14630    9.15280   10.53300   25.82760   10.53300    -999.25    -999.25    -999.25  -88.04440  -33.57460   25.82760
 6400.00000    -999.25    -999.25    9.02640    9.02640   37.31720    -999.25    -999.25    -999.25    -999.25    -999.25   26.79730   51.77860   51.77860    -999.25    -999.25   18.45070   18.45070   26.79730   37.12940   95.06440   37.12940    -999.25    -999.25    -999.25  -83.11750  -29.03710   95.06440
 6450.00000    -999.25    -999.25    9.24260    9.24260   38.93600    -999.25    -999.25    -999.25    -999.25    -999.25   25.81070   59.39880   59.39880    -999.25    -999.25   33.92300   33.92300   25.81070   29.45370   45.29040   29.45370    -999.25    -999.25    -999.25  -64.43990  -10.75080   45.29040
 6500.00000    -999.25    -999.25    8.96500    8.96500   39.68430    -999.25    -999.25    -999.25    -999.25    -999.25   25.19890   58.69870   58.69870    -999.25    -999.25   46.82720   46.82720   25.19890   28.10340   32.29190   28.10340    -999.25    -999.25    -999.25  -61.11610   -7.81440   32.29190
 6550.00000    -999.25    -999.25    9.04610    9.04610    7.71790    -999.25    -999.25    -999.25    -999.25    -999.25  129.56880   52.96490   52.96490    -999.25    -999.25   19.10290   19.10290  129.56880  191.00160  229.54480  191.00160    -999.25    -999.25    -999.25  -76.85130  -23.93900  229.54480
 6600.00000    -999.25    -999.25    8.90040    8.90040    5.62350    -999.25    -999.25    -999.25    -999.25    -999.25  177.82410   53.24330   53.24330    -999.25    -999.25   20.44090   20.44090  177.82410  325.22430  284.55450  325.22430    -999.25    -999.25    -999.25  -74.73680  -22.21380  284.55450
 6650.00000    -999.25    -999.25    8.89910    8.89910    1.94090    -999.25    -999.25    -999.25    -999.25    -999.25  515.21190   52.22660   52.22660    -999.25    -999.25   30.14220   30.14220  515.21190 1491.93920 1587.19030 1491.93920    -999.25    -999.25    -999.25  -70.99220  -18.85860 1587.19030
 6700.00000    -999.25    -999.25    9.02210    9.02210    3.79240    -999.25    -999.25    -999.25    -999.25    -999.25  264.36910   51.64460   51.64460    -999.25    -999.25   42.55480   42.55480  264.36910  436.32870  511.46110  436.32870    -999.25    -999.25    -999.25  -70.23490  -18.49270  511.46110
 6750.00000    -999.25    -999.25    9.09700    9.09700    7.97470    -999.25    -999.25    -999.25    -999.25    -999.25  125.39620   65.03970   65.03970    -999.25    -999.25   94.28160   94.28160  125.39620  162.97540  236.44220  162.97540    -999.25    -999.25    -999.25  -58.52110   -7.16620  236.44220
 6800.00000    -999.25    -999.25    9.27100    9.27100   37.32920    -999.25    -999.25    -999.25    -999.25    -999.25   26.78870   75.30970   75.30970    -999.25    -999.25  191.65950  191.65950   26.78870   24.87970   35.31970   24.87970    -999.25    -999.25    -999.25  -60.23650   -9.27100   35.31970
 6850.00000    -999.25    -999.25    9.70330    9.70330    0.67270    -999.25    -999.25    -999.25    -999.25    -999.25 1486.47720   50.62070   50.62070    -999.25    -999.25   13.31010   13.31010 1486.47720  705.60750  501.34280  705.60750    -999.25    -999.25    -999.25 -112.25580  -61.67970  501.34280
 6900.00000    -999.25    -999.25    9.18330    9.18330    0.71070    -999.25    -999.25    -999.25    -999.25    -999.25 1407.10000   50.12190   50.12190    -999.25    -999.25   13.21620   13.21620 1407.10000 1584.16000 1511.16280 1584.16000    -999.25    -999.25    -999.25 -117.89340  -67.70660 1511.16280
 6950.00000    -999.25    -999.25    9.27390    9.27390    0.79780    -999.25    -999.25    -999.25    -999.25    -999.25 1256.33220   49.34540   49.34540    -999.25    -999.25   10.31930   10.31930 1256.33220 1512.71290  695.73730 1512.71290    -999.25    -999.25    -999.25 -139.26730  -89.47180  695.73730
 7000.00000    -999.25    -999.25    9.12790    9.12790    0.98280    -999.25    -999.25    -999.25    -999.25    -999.25 1017.51190   49.13100   49.13100    -999.25    -999.25    9.76880    9.76880 1017.51190 1117.37560  601.42990 1117.37560    -999.25    -999.25    -999.25 -138.93370  -89.52570  601.42990
 7050.00000    -999.25    -999.25    9.35780    9.35780    3.29320    -999.25    -999.25    -999.25    -999.25    -999.25  303.65830   49.67250   49.67250    -999.25    -999.25   11.90290   11.90290  303.65830  321.58190  282.46020  321.58190    -999.25    -999.25    -999.25 -138.75850  -89.73980  282.46020
 7100.00000    -999.25    -999.25    9.10070    9.10070    0.69380    -999.25    -999.25    -999.25    -999.25    -999.25 1441.35450   48.50620   48.50620    -999.25    -999.25   10.50950   10.50950 1441.35450  641.40800 1571.56710  641.40800    -999.25    -999.25    -999.25 -147.38340  -98.75410 1571.56710
 7150.00000    -999.25    -999.25    9.35760    9.35760    6.92240    -999.25    -999.25    -999.25    -999.25    -999.25  144.45840   50.13740   50.13740    -999.25    -999.25    8.33390    8.33390  144.45840  127.84060  306.43550  127.84060    -999.25    -999.25    -999.25 -152.28050 -104.04060  306.43550
 7200.00000    -999.25    -999.25    9.39580    9.39580    3.04000    -999.25    -999.25    -999.25    -999.25    -999.25  332.22850   48.49150   48.49150    -999.25    -999.25   12.13280   12.13280  332.22850  193.45670  205.09960  193.45670    -999.25    -999.25    -999.25 -140.10690  -92.25820  205.09960
 7250.00000    -999.25    -999.25    9.42300    9.42300    0.67750    -999.25    -999.25    -999.25    -999.25    -999.25 1476.04900   49.19140   49.19140    -999.25    -999.25   11.59530   11.59530 1476.04900 1646.81300  854.34630 1646.81300    -999.25    -999.25    -999.25 -140.53710  -93.07590  854.34630
 7300.00000    -999.25   10.53090    9.18380    9.18380    4.36510    -999.25    -999.25    -999.25    -999.25    -999.25  229.09220   49.92610   49.92610    -999.25    8.93930   11.86690   11.86690  229.09220  103.98080  151.76380  103.98080    0.01120    -999.25    0.01120 -137.78400  -90.71220  151.76380
 7350.00000    -999.25    9.04640    8.83050    8.83050   29.15340    -999.25    -999.25    -999.25    -999.25    -999.25   34.30130   52.31980   52.31980    -999.25    7.76930   10.41770   10.41770   34.30130   50.29530  150.70880   50.29530    0.07680    -999.25    0.07680 -190.39990 -143.71740  150.70880
