~Version ---------------------------------------------------
VERS.      2.0 : CWLS log ASCII Standard -VERSION 2.0
WRAP.       NO : One line per depth step
CREA. 07/10/13 : LAS Creation Date
~Well ------------------------------------------------------
STRT.FT                         55.3 : START DEPTH
STOP.FT                      11119.8 : STOP DEPTH
STEP.FT                      0.50000 : STEP LENGTH
NULL.                        -999.25 : NULL VALUE
COMP.         PACIFIC PETROLEUMS LTD : COMPANY
WELL. PACIFIC ET AL TONY 10-18-63-21 : WELL
FLD .                     TONY TOWER : FIELD
LOC .                                : LOCATION
CTRY.                         CANADA : COUNTRY
SRVC.                   Schlumberger : SERVICE COMPANY
DATE.                    24-Sep-1975 : LOGDATE
PROV.                        Alberta : PROVINCE
UWI .               100101806321W500 : UNIQUE WELL ID
SLAT.WGS84                  54.45338 : SURFACE LATITUDE
SLON.WGS84                 -117.1585 : SURFACE LONGITUDE
~Curve Information -----------------------------------------
DEPT   .FT    : DEPTH FEET
CALD   .IN    : CALIPER FROM DENSITY LOG
DCOR   .G/C3  : DENSITY CORRECTION FROM DENSITY LOG
DPHI_LS.DEC   : DENSITY POROSITY LIMESTONE [M=2.71,F=1.0] FROM DENSITY LOG
DPHI_SS.DEC   : DENSITY POROSITY SANDSTONE [M=2.65,F=1.0] FROM DENSITY LOG
GRD    .GAPI  : GAMMA RAY FROM DENSITY LOG
ILD    .OHMM  : DEEP INDUCTION FROM RESISTIVITY LOG
ILM    .OHMM  : MEDIUM INDUCTION FROM RESISTIVITY LOG
LL8    .OHMM  : LATEROLOG FROM RESISTIVITY LOG
NPHI_LS.DEC   : NEUTRON POROSITY LIMESTONE FROM DENSITY LOG
NPHI_SS.DEC   : NEUTRON POROSITY SANDSTONE FROM DENSITY LOG
RHOB   .G/C3  : BULK DENSITY FROM DENSITY LOG
SPR    .MV    : SPONTANEOUS POTENTIAL FROM RESISTIVITY LOG
~Params ----------------------------------------------------
PD  .                     GL : PERMANENT DATUM
EPD .FT                 2714 : ELEVATION PERMANENT DATUM
LMF .                     KB : LOG MEASURED FROM
DAPD.FT                 13.7 : FEET ABOVE PERMANENT DATUM
EKB .FT               2727.7 : KELLY BUSHING
EGL .FT                 2714 : GROUND LEVEL
DATE.               09/24/75 : RUN DATE
RUN .                      1 : RUN NUMBER
DD  .FT                11125 : DEPTH DRILLER
DL  .FT                11121 : DEPTH LOGGER
BLI .FT                11115 : BOTTOM LOG INTERVAL
TLI .FT                 1125 : TOP LOG INTERVAL
CBD .FT                 1125 : CASING BOTTOM DRILLER
CBL .FT                 1125 : CASING BOTTOM LOGGER
BS  .IN                 8.75 : BIT SIZE
BSD .FT                11125 : BIT SIZE AT DEPTH
DFT .               GEL CHEM : DRILLING FLUID TYPE
DFD .                    9.3 : DRILLING FLUID DENSITY
DFV .                    147 : DRILLING FLUID VISCOSITY
DFPH.                    9.5 : DRILLING FLUID PH
DFL .                    9.2 : DRILLING FLUID LOSS
MSS .               FLOWLINE : MUD SAMPLE SOURCE
RMS .OHMM               1.62 : RESISTIVITY MUD SAMPLE
MST .DEGF                 72 : MUD SAMPLE TEMPERATURE
RMF .OHMM               1.26 : RESISTIVITY MUD FILTRATE SAMPLE
MFST.DEGF                 68 : MUD FILTRATE SAMPLE TEMPERATURE
RMB .OHMM               0.41 : RESISTIVITY MUD AT BHT
TCS .HRS                 3.5 : TIME CIRCULATED STOPPED
LUN .                   7691 : LOGGING UNIT NUMBER
LUL .                    EDM : LOGGING UNIT LOCATION
ENGI.              CROCKFORD : RECORDING ENGINEER
WITN.                   ROSS : WITNESSED BY
CLNT.                A2DTECH : CLIENT CODE
ORIG.            2" 5" PRINT : ORIGIN OF DATA
UWI .       100101806321W500 : UNIQUE WELL ID
DICO. A2D Technologies, Inc. : DIGITIZING COMPANY
~Other -----------------------------------------------------
~ASCII -----------------------------------------------------
# ...
 5767.30000    9.93770    0.06910    -999.25    0.04580   70.50500   14.04900   12.52380   14.48530    -999.25    0.22100    2.58600  -97.07620
 5767.80000    9.93560    0.06670    -999.25    0.05670   72.70660   13.87950   12.34920   14.28680    -999.25    0.21600    2.58060  -95.84940
 5768.30000    9.93340    0.04580    -999.25    0.05800   75.65990   13.75260   12.15960   14.54040    -999.25    0.21050    2.55790  -94.62260
 5768.80000    9.93240    0.02700    -999.25    0.04810   79.86020   13.58400   11.97290   14.44460    -999.25    0.21020    2.56420  -93.39580
 5769.30000    9.93250    0.02580    -999.25    0.03840   82.15140   13.29550   11.78910   14.12900    -999.25    0.21990    2.58270  -92.16900
 5769.80000    9.93270    0.03930    -999.25    0.02260   83.98420   12.88800   11.57360   13.87560    -999.25    0.22620    2.60540  -90.94220
 5770.30000    9.93280    0.05070    -999.25    0.01100   85.86300   12.19220   11.21130   13.46100    -999.25    0.22980    2.62760  -89.71540
 5770.80000    9.93290    0.06580    -999.25    0.00110   87.76310   11.53390   10.66170   12.48310    -999.25    0.23520    2.64650  -88.98780
 5771.30000    9.93310    0.10270    -999.25   -0.00330   88.70470   10.91110   10.08390   11.53520    -999.25    0.23950    2.66190  -88.43230
 5771.80000    9.93320    0.08720    -999.25    0.02110   88.68290   10.32200    9.53740   11.00580    -999.25    0.24200    2.62850  -88.07710
 5772.30000    9.93210    0.12410    -999.25   -0.00100   86.27840   10.06160    9.10360   10.51600    -999.25    0.25100    2.62270  -87.74370
 5772.80000    9.92830    0.16560    -999.25   -0.00890   83.22020    9.97850    9.07120   10.29620    -999.25    0.25690    2.66510  -87.41020
 5773.30000    9.92440    0.14350    -999.25    0.01070   79.64130   10.13860    9.35700   10.42170    -999.25    0.24510    2.64370  -87.07680
 5773.80000    9.92060    0.07630    -999.25    0.02660   76.04740   10.54670    9.91320   12.05380    -999.25    0.23130    2.60670  -86.74330
 5774.30000    9.91670    0.01990    -999.25   -0.01110   75.04610   10.99900   10.49900   15.43370    -999.25    0.21800    2.64940  -86.40960
 5774.80000    9.91290    0.02450    -999.25   -0.01110   78.75120   11.43840   11.11940   19.00230    -999.25    0.21290    2.70460  -86.75790
 5775.30000    9.90900    0.02850    -999.25   -0.01110   83.02410   11.89530   11.68040   18.62870    -999.25    0.21200    2.70000  -87.31420
 5775.80000    9.90520    0.02010    -999.25    0.00780   86.24730   12.28590   11.90160   17.09760    -999.25    0.21630    2.66310  -87.01210
 5776.30000    9.90440    0.00530    -999.25    0.02430   88.97300   12.47720   11.82350   16.72600    -999.25    0.22220    2.62120  -86.64250
 5776.80000    9.91610    0.04960    -999.25    0.01420   90.54080   12.45040   11.17630   16.25650    -999.25    0.22510    2.61560  -86.42820
 5777.30000    9.92780    0.04790    -999.25    0.01020   90.81730   12.33900   10.52650   14.59280    -999.25    0.23810    2.63260  -86.96510
 5777.80000    9.93950    0.04020    -999.25   -0.00260   90.15890   12.27570   10.49970   12.47800    -999.25    0.25490    2.63850  -87.44220
 5778.30000    9.93650    0.08440    -999.25   -0.00170   87.91630   12.21270   10.78660   12.22020    -999.25    0.26090    2.66410  -87.80460
 5778.80000    9.91780    0.06610    -999.25    0.03090   85.17830   12.34840   11.39420   12.61830    -999.25    0.24490    2.60760  -87.17950
 5779.30000    9.89900   -0.00020    -999.25    0.04210   82.37320   12.52000   12.04790   14.16570    -999.25    0.22390    2.58440  -86.55440
 5779.80000    9.88030    0.00330    -999.25    0.03390   79.89390   12.94670   12.73910   16.00270    -999.25    0.21180    2.59350  -86.40730
 5780.30000    9.86150    0.01970    -999.25    0.03130   80.72240   13.38800   13.46990   18.07800    -999.25    0.21280    2.60520  -86.51870
 5780.80000    9.86470    0.01850    -999.25    0.03560   82.91410   13.73490   14.24270   20.21310    -999.25    0.21860    2.60020  -86.52130
 5781.30000    9.87050    0.01310    -999.25    0.03390   85.10580   13.90000   14.45530   20.28970    -999.25    0.22510    2.59610  -86.51650
 5781.80000    9.87630    0.01360    -999.25    0.02680   86.76280   13.90040   14.34830   19.13410    -999.25    0.23790    2.60080  -86.39390
 5782.30000    9.87890    0.02760    -999.25    0.02400   88.32690   13.70060   13.02010   17.34110    -999.25    0.25190    2.61420  -86.40560
 5782.80000    9.90290    0.05950    -999.25    0.04520   88.97290   13.35220   11.58700   15.71600    -999.25    0.26970    2.59680  -86.42980
 5783.30000    9.99640    0.14310    -999.25    0.05190   89.02970   12.89760   10.31160   13.63130    -999.25    0.29380    2.57650  -86.45400
 5783.80000   10.08060    0.17330    -999.25    0.05440   88.79010   12.32630    9.58530   11.48220    -999.25    0.31300    2.56610  -86.47820
 5784.30000   10.12150    0.13110    -999.25    0.11300   88.25370   11.71900    9.76600   10.43660    -999.25    0.32510    2.50410  -86.50240
 5784.80000   10.04950    0.08700    -999.25    0.14270   87.34710   11.18010   10.30370   11.73180    -999.25    0.31550    2.42900  -86.52670
 5785.30000   10.00260    0.03520    -999.25    0.12560   86.09480   10.96770   10.37190   13.62440    -999.25    0.31250    2.44030  -86.55090
 5785.80000    9.98440    0.06440    -999.25    0.10100   84.81680   10.87240   10.18090   14.87630    -999.25    0.32910    2.48490  -86.57320
 5786.30000   10.09860    0.11090    -999.25    0.11540   83.30600   10.91300    9.90660   15.08660    -999.25    0.34150    2.49060  -86.35720
 5786.80000   10.18230    0.11160    -999.25    0.12740   81.26750   11.05420   10.10280   14.57650    -999.25    0.32540    2.46360  -85.45260
 5787.30000   10.13070    0.10520    -999.25    0.13690   78.99280   11.38550   10.58440   14.69930    -999.25    0.27310    2.43140  -84.54790
 5787.80000   10.03750    0.06620    -999.25    0.08290   76.21090   11.73850   11.34450   16.04860    -999.25    0.23460    2.43120  -84.09530
 5788.30000    9.95790    0.02690    -999.25    0.03660   74.04560   12.18230   11.66820   19.19290    -999.25    0.22220    2.56610  -84.11520
 5788.80000    9.92110    0.01200    -999.25    0.01220   72.49620   12.71470   11.89960   21.46610    -999.25    0.22200    2.61100  -84.36180
 5789.30000    9.88440    0.02190    -999.25    0.01250   71.46120   13.34220   12.13310   22.06900    -999.25    0.22690    2.63330  -85.04190
 5789.80000    9.84770    0.03010    -999.25    0.02470   71.13540   14.00070   12.79260   22.27870    -999.25    0.23100    2.62420  -85.72190
 5790.30000    9.83110    0.03060    -999.25    0.03450   71.05280   14.69160   13.60260   22.74020    -999.25    0.23600    2.60350  -86.40200
 5790.80000    9.82410    0.02280    -999.25    0.04770   71.20260   15.41670   14.46390   23.62980    -999.25    0.24180    2.58720  -86.80160
 5791.30000    9.82350    0.01230    -999.25    0.06040   72.07150   15.88220   15.10120   26.11410    -999.25    0.24800    2.56830  -86.82120
 5791.80000    9.83430    0.00010    -999.25    0.06970   75.01630   15.80760   15.09730   31.29790    -999.25    0.25560    2.54830  -86.76710
 5792.30000    9.86590    0.00150    -999.25    0.08860   78.85300   15.40240   14.30840   32.88230    -999.25    0.26740    2.52740  -86.44880
 5792.80000    9.90390    0.02310    -999.25    0.12640   82.54790   14.55500   13.14600   26.72220    -999.25    0.30240    2.48320  -86.08450
 5793.30000    9.93850    0.06750    -999.25    0.17660   84.35100   13.63810   11.96260   15.01130    -999.25    0.33530    2.41350  -86.39670
 5793.80000    9.93890    0.07670    -999.25    0.22150   84.45880   12.77900   11.29130   12.00840    -999.25    0.35510    2.34440  -86.05510
 5794.30000    9.93920    0.03960    -999.25    0.22290   85.10020   11.97400   10.80560   13.56830    -999.25    0.31020    2.27630  -85.67000
 5794.80000    9.94560    0.03390    -999.25    0.14840   88.46630   11.21970   10.34270   16.79540    -999.25    0.25190    2.35560  -85.47200
