~Version ---------------------------------------------------
VERS.      2.0 : CWLS log ASCII Standard -VERSION 2.0
WRAP.       NO : One line per depth step
CREA. 09/22/17 : LAS Creation Date
~Well ------------------------------------------------------
STRT.FT                            1200.0 : START DEPTH
STOP.FT                           11700.0 : STOP DEPTH
STEP.FT                          50.00000 : STEP LENGTH
NULL.                             -999.25 : NULL VALUE
COMP.        PAN AMERICAN PETROLEUM CORP. : COMPANY
WELL. PAN AM FINA G-1 KAYBOBS 10-19-58-18 : WELL
FLD .                                  WC : FIELD
LOC .                                     : LOCATION
CTRY.                              CANADA : COUNTRY
SRVC.                        Schlumberger : SERVICE COMPANY
DATE.                         16-Apr-1969 : LOGDATE
PROV.                             Alberta : PROVINCE
UWI .                    100101905818W500 : UNIQUE WELL ID
SLAT.WGS84                       54.03118 : SURFACE LATITUDE
SLON.WGS84                      -116.6587 : SURFACE LONGITUDE
~Curve Information -----------------------------------------
DEPT    .FT    : Depth Curve
CALDED  .IN    : CALIPER FROM DENSITY LOG [DEP. ADJ. TO RESIS. LOG]
CALNED  .IN    : CALIPER FROM SNP LOG [DEP. ADJ. TO RESIS. LOG]
CALSED  .IN    : CALIPER FROM SONIC LOG
CALWS   .IN    : CALIPER [1200' CALSED 10727' CALDED]
CONDWS  .MMHO  : CONDUCTIVITY [1000/DRESWS]
DCORED  .G/C3  : DENSITY CORRECTION FROM DENSITY LOG [DEP. ADJ. TO RESIS. LOG]
DCORWS  .G/C3  : DENSITY CORRECTION [DCORED]
DENWS   .G/C3  : BULK DENSITY [M=2.71, F=1.00] [RHOBED]
DPHILSED.V/V   : DENSITY POROSITY [M=2.71, F=1.00] FROM DENSITY LOG [DEP. ADJ. TO RESIS. LOG]
DPOLSWS .V/V   : DENSITY POROSITY [M=2.71, F=1.00] [DPHILSED]
DRESWS  .OHMM  : DEEP RESISTIVITY [ILDED]
DTED    .US/F  : DELTA TIME FROM SONIC LOG
DTWS    .US/F  : DELTA TIME [DTED]
GRNED   .GAPI  : GAMMA RAY FROM SNP LOG [DEP. ADJ. TO RESIS. LOG]
GRSED   .GAPI  : GAMMA RAY FROM SONIC LOG
GRWS    .GAPI  : GAMMA RAY [1178' GRSED 11700' GRNED]
ILDED   .OHMM  : INDUCTION LOG DEEP RESISTIVITY
ILMED   .OHMM  : INDUCTION LOG MEDIUM RESISTIVITY
LL8ED   .OHMM  : 8 INCH LATEROLOG RESISTIVITY
MRESWS  .OHMM  : MEDIUM RESISTIVITY [ILMED]
NPOLSWS .V/V   : NEUTRON POROSITY LIMESTONE [SNPLSED]
RHOBED  .G/C3  : BULK DENSITY FROM DENSITY LOG [DEP. ADJ. TO RESIS. LOG]
SNPLSED .V/V   : SIDEWALL NEUTRON POROSITY [LIMESTONE] [DEP. ADJ. TO RESIS. LOG]
SPRED   .MV    : SPONTANEOUS POTENTIAL FROM RESISTIVITY LOG
SPWS    .MV    : SPONTANEOUS POTENTIAL [BASELINE 0 MV] [SPRED]
SRESWS  .OHMM  : SHALLOW RESISTIVITY [LL8ED]
~Params ----------------------------------------------------
PD  .                     GL : PERMANENT DATUM
EPD .FT                 3475 : ELEVATION PERMANENT DATUM
LMF .                     KB : LOG MEASURED FROM
DAPD.FT                   12 : FEET ABOVE PERMANENT DATUM
EKB .FT                 3487 : KELLY BUSHING
EGL .FT                 3475 : GROUND LEVEL
DATE.               04/16/69 : RUN DATE
RUN .                      1 : RUN NUMBER
DD  .FT                11735 : DEPTH DRILLER
DL  .FT                11734 : DEPTH LOGGER
BLI .FT                11729 : BOTTOM LOG INTERVAL
TLI .FT                 1202 : TOP LOG INTERVAL
CBD .FT                 1202 : CASING BOTTOM DRILLER
CBL .FT                 1202 : CASING BOTTOM LOGGER
BS  .IN                 8.75 : BIT SIZE
BSD .FT                11735 : BIT SIZE AT DEPTH
DFT .              GEL BENEX : DRILLING FLUID TYPE
DFD .                    9.3 : DRILLING FLUID DENSITY
DFV .                     90 : DRILLING FLUID VISCOSITY
DFPH.                    8.0 : DRILLING FLUID PH
DFL .                   11.2 : DRILLING FLUID LOSS
RMS .OHMM               2.37 : RESISTIVITY MUD SAMPLE
MST .DEGF                 67 : MUD SAMPLE TEMPERATURE
RMF .OHMM               1.81 : RESISTIVITY MUD FILTRATE SAMPLE
MFST.DEGF                 66 : MUD FILTRATE SAMPLE TEMPERATURE
RMC .OHMM               2.83 : RESISTIVITY MUD CAKE
MCST.DEGF                 68 : MUD CAKE SAMPLE TEMPERATURE
RMB .OHMM               0.62 : RESISTIVITY MUD AT BHT
TCS .HRS                   2 : TIME CIRCULATED STOPPED
LUN .                   7502 : LOGGING UNIT NUMBER
LUL .                    EDM : LOGGING UNIT LOCATION
ENGI.               ARMENTAN : RECORDING ENGINEER
WITN.                   CHUK : WITNESSED BY
CLNT.                A2DTECH : CLIENT CODE
ORIG.            2" 5" PRINT : ORIGIN OF DATA
UWI .       100101905818W500 : UNIQUE WELL ID
DICO. A2D Technologies, Inc. : DIGITIZING COMPANY
~Other -----------------------------------------------------
~ASCII -----------------------------------------------------
 1200.00000    -999.25    -999.25    -999.25    -999.25    -999.25    -999.25    -999.25    -999.25    -999.25    -999.25    -999.25    -999.25    -999.25    -999.25   53.32690   53.32690    -999.25    -999.25    -999.25    -999.25    -999.25    -999.25    -999.25    -999.25    -999.25    -999.25
 1250.00000    -999.25    -999.25   10.79590   10.79590  152.72070    -999.25    -999.25    -999.25    -999.25    -999.25    6.54790  130.33270  130.33270    -999.25   80.32630   80.32630    6.54790    6.23010    6.27070    6.23010    -999.25    -999.25    -999.25   85.35720   -9.53250    6.27070
 1300.00000    -999.25    -999.25   10.18570   10.18570  112.35270    -999.25    -999.25    -999.25    -999.25    -999.25    8.91630  100.61940  100.61940    -999.25   60.65840   60.65840    8.91630    7.37460    7.61750    7.37460    -999.25    -999.25    -999.25   85.69620   -9.30150    7.61750
 1350.00000    -999.25    -999.25   10.87250   10.87250   50.17360    -999.25    -999.25    -999.25    -999.25    -999.25   19.93080   88.63040   88.63040    -999.25   83.04430   83.04430   19.93080   22.84350   20.93540   22.84350    -999.25    -999.25    -999.25   70.79050  -24.31590   20.93540
 1400.00000    -999.25    -999.25   11.69070   11.69070  109.73750    -999.25    -999.25    -999.25    -999.25    -999.25    9.11970   98.80370   98.80370    -999.25   92.62280   92.62280    9.11970    8.99800   10.18150    8.99800    -999.25    -999.25    -999.25   86.27660   -8.93780   10.18150
 1450.00000    -999.25    -999.25   12.86500   12.86500   96.30940    -999.25    -999.25    -999.25    -999.25    -999.25   10.38320  105.98160  105.98160    -999.25   90.66990   90.66990   10.38320    9.91400   11.92130    9.91400    -999.25    -999.25    -999.25   86.56780   -8.75530   11.92130
 1500.00000    -999.25    -999.25   10.79200   10.79200   57.55160    -999.25    -999.25    -999.25    -999.25    -999.25   17.37570   85.97100   85.97100    -999.25   76.78040   76.78040   17.37570   18.72590   19.17310   18.72590    -999.25    -999.25    -999.25   82.37650  -13.05460   19.17310
 1550.00000    -999.25    -999.25   10.60940   10.60940   35.72550    -999.25    -999.25    -999.25    -999.25    -999.25   28.12290   84.60540   84.60540    -999.25   61.90600   61.90600   28.12290   28.52900   26.69580   28.52900    -999.25    -999.25    -999.25   69.91300  -25.62610   26.69580
 1600.00000    -999.25    -999.25   14.78800   14.78800  159.49470    -999.25    -999.25    -999.25    -999.25    -999.25    6.26980  131.32600  131.32600    -999.25   76.81320   76.81320    6.26980    4.79910    6.02100    4.79910    -999.25    -999.25    -999.25   85.72060   -9.92720    6.02100
 1650.00000    -999.25    -999.25   10.87310   10.87310   76.02730    -999.25    -999.25    -999.25    -999.25    -999.25   13.16020  127.35710  127.35710    -999.25   63.76280   63.76280   13.16020   13.23640   23.35270   13.23640    -999.25    -999.25    -999.25   85.54580  -10.21000   23.35270
 1700.00000    -999.25    -999.25   11.00980   11.00980   75.18800    -999.25    -999.25    -999.25    -999.25    -999.25   13.30000   88.49340   88.49340    -999.25   73.03720   73.03720   13.30000   12.47280   16.80680   12.47280    -999.25    -999.25    -999.25   79.63910  -16.22540   16.80680
 1750.00000    -999.25    -999.25   10.92270   10.92270  145.93640    -999.25    -999.25    -999.25    -999.25    -999.25    6.85230   99.91870   99.91870    -999.25   77.94040   77.94040    6.85230    5.98380    6.80710    5.98380    -999.25    -999.25    -999.25   85.35620  -10.61630    6.80710
 1800.00000    -999.25    -999.25   11.02560   11.02560  171.01390    -999.25    -999.25    -999.25    -999.25    -999.25    5.84990   85.83340   85.83340    -999.25   59.55980   59.55980    5.84990    5.65110    5.40050    5.65110    -999.25    -999.25    -999.25   87.47680   -8.60360    5.40050
 1850.00000    -999.25    -999.25   11.34250   11.34250  162.59110    -999.25    -999.25    -999.25    -999.25    -999.25    6.15040   95.57210   95.57210    -999.25   58.00260   58.00260    6.15040    5.26080    4.86410    5.26080    -999.25    -999.25    -999.25   88.27800   -7.91110    4.86410
 1900.00000    -999.25    -999.25   11.28180   11.28180  174.51750    -999.25    -999.25    -999.25    -999.25    -999.25    5.73470  100.76460  100.76460    -999.25   74.69970   74.69970    5.73470    5.61930    5.94830    5.61930    -999.25    -999.25    -999.25   87.47270   -8.82440    5.94830
 1950.00000    -999.25    -999.25   11.17990   11.17990  365.89830    -999.25    -999.25    -999.25    -999.25    -999.25    2.73300  121.70640  121.70640    -999.25   84.63400   84.63400    2.73300    2.67350    3.06010    2.67350    -999.25    -999.25    -999.25   90.41230   -5.99350    3.06010
 2000.00000    -999.25    -999.25   11.95050   11.95050  205.47380    -999.25    -999.25    -999.25    -999.25    -999.25    4.86680   95.56170   95.56170    -999.25   70.30780   70.30780    4.86680    4.97620    4.77660    4.97620    -999.25    -999.25    -999.25   87.29800   -9.21580    4.77660
 2050.00000    -999.25    -999.25   12.68410   12.68410  221.17540    -999.25    -999.25    -999.25    -999.25    -999.25    4.52150   92.24560   92.24560    -999.25   72.09580   72.09580    4.52150    4.56410    4.69410    4.56410    -999.25    -999.25    -999.25   92.44040   -4.18140    4.69410
 2100.00000    -999.25    -999.25   11.67990   11.67990  144.05280    -999.25    -999.25    -999.25    -999.25    -999.25    6.94190   87.68630   87.68630    -999.25   73.42460   73.42460    6.94190    7.03330    6.86440    7.03330    -999.25    -999.25    -999.25   92.23580   -4.48050    6.86440
 2150.00000    -999.25    -999.25   13.06410   13.06410  173.19890    -999.25    -999.25    -999.25    -999.25    -999.25    5.79010  120.83850  120.83850    -999.25   71.83440   71.83440    5.79010    5.52100   10.39810    5.52100    -999.25    -999.25    -999.25   92.55210   -4.16420   10.39810
 2200.00000    -999.25    -999.25   12.81620   12.81620  150.34200    -999.25    -999.25    -999.25    -999.25    -999.25    6.65150   90.64800   90.64800    -999.25   82.46840   82.46840    6.65150    6.87630    7.62560    6.87630    -999.25    -999.25    -999.25   90.08420   -6.63210    7.62560
 2250.00000    -999.25    -999.25   12.93920   12.93920  299.01620    -999.25    -999.25    -999.25    -999.25    -999.25    3.34430   98.37890   98.37890    -999.25   80.72490   80.72490    3.34430    3.24930    3.50150    3.24930    -999.25    -999.25    -999.25   91.59300   -5.12330    3.50150
 2300.00000    -999.25    -999.25   11.70920   11.70920  146.41400    -999.25    -999.25    -999.25    -999.25    -999.25    6.83450   84.29840   84.29840    -999.25   59.56410   59.56410    6.83450    6.92150    7.24140    6.92150    -999.25    -999.25    -999.25   85.37120  -11.34510    7.24140
 2350.00000    -999.25    -999.25   12.79980   12.79980  204.96420    -999.25    -999.25    -999.25    -999.25    -999.25    4.87890   93.88450   93.88450    -999.25   72.83520   72.83520    4.87890    4.92380    4.57510    4.92380    -999.25    -999.25    -999.25   89.29500   -7.42130    4.57510
 2400.00000    -999.25    -999.25   11.26290   11.26290  155.46200    -999.25    -999.25    -999.25    -999.25    -999.25    6.44240   76.71410   76.71410    -999.25   61.46950   61.46950    6.44240    6.83080   10.93420    6.83080    -999.25    -999.25    -999.25   90.11370   -6.60260   10.93420
 2450.00000    -999.25    -999.25   11.97150   11.97150  184.16550    -999.25    -999.25    -999.25    -999.25    -999.25    5.42990   91.96170   91.96170    -999.25   78.78220   78.78220    5.42990    5.49880    5.04670    5.49880    -999.25    -999.25    -999.25   89.44170   -7.27460    5.04670
 2500.00000    -999.25    -999.25   11.84240   11.84240  105.92210    -999.25    -999.25    -999.25    -999.25    -999.25    9.44090   90.25120   90.25120    -999.25   67.75130   67.75130    9.44090    9.75750    9.16270    9.75750    -999.25    -999.25    -999.25   87.17260   -9.54370    9.16270
