~Version ---------------------------------------------------
VERS.      2.0 : CWLS log ASCII Standard -VERSION 2.0
WRAP.       NO : One line per depth step
CREA. 08/04/17 : LAS Creation Date
~Well ------------------------------------------------------
STRT.FT                       1050.0 : START DEPTH
STOP.FT                      11000.0 : STOP DEPTH
STEP.FT                     50.00000 : STEP LENGTH
NULL.                        -999.25 : NULL VALUE
COMP.           PETROFINA CANADA LTD : COMPANY
WELL. FINA AMOCO HB GROAT 10-9-58-16 : WELL
FLD .                             WC : FIELD
LOC .                                : LOCATION
CTRY.                         CANADA : COUNTRY
SRVC.         Schlumberger of Canada : SERVICE COMPANY
DATE.                    08-Apr-1977 : LOGDATE
PROV.                        Alberta : PROVINCE
UWI .               100100905816W500 : UNIQUE WELL ID
SLAT.WGS84                  54.00097 : SURFACE LATITUDE
SLON.WGS84                 -116.3132 : SURFACE LONGITUDE
~Curve Information -----------------------------------------
DEPT    .FT    : Depth Curve
CALDED  .IN    : CALIPER FROM COMPENSATED NEUTRON FORMATION DENSITY LOG
CALSED  .IN    : CALIPER FROM BOREHOLE COMPENSATED SONIC LOG [ADJ. TO ILDED/CALDED]
CALWS   .IN    : CALIPER [CALSED SPL. TO CALDED @ 6213']
CONDWS  .MMHO  : CONDUCTIVITY [1000/DRESWS]
DCORED  .G/C3  : DENSITY CORRECTION FROM COMPENSATED NEUTRON FORMATION DENSITY LOG
DCORWS  .G/C3  : DENSITY CORRECTION [DCORED]
DENWS   .G/C3  : FORMATION BULK DENSITY [RHOBED]
DPHILSED.V/V   : DENSITY POROSITY LIMESTONE [M=2.71 F=1.0] FROM COMPENSATED NEUTRON FORMATION DENSITY LOG [ADJ. TO RHOBED]
DPHISSED.V/V   : DENSITY POROSITY SANDSTONE [M=2.65 F=1.0] FROM COMPENSATED NEUTRON FORMATION DENSITY LOG [ADJ. TO RHOBED]
DPOLSWS .V/V   : DENSITY POROSITY LIMESTONE [M=2.71 F=1.0 CALCULATED FROM DENWS]
DRESWS  .OHMM  : DEEP RESISTIVITY [ILDED]
DTED    .US/F  : DELTA-T (INTERVAL TRANSIT TIME)  FROM BOREHOLE COMPENSATED SONIC LOG [ADJ. TO ILDED]
DTWS    .US/F  : COMPRESSIONAL SONIC [DTED]
GRDED   .GAPI  : GAMMA RAY FROM COMPENSATED NEUTRON FORMATION DENSITY LOG
GRSED   .GAPI  : GAMMA RAY  FROM BOREHOLE COMPENSATED SONIC LOG [GRSED IN CASING FROM 1045 - 1158.5'] [ADJ. TO ILDED]
GRWS    .GAPI  : GAMMA RAY [GRSED]
ILDED   .OHMM  : DEEP INDUCTION RESISTIVITY  FROM DUAL INDUCTION-LATEROLOG
ILMED   .OHMM  : MEDIUM INDUCTION RESISTIVITY  FROM DUAL INDUCTION-LATEROLOG
LL8ED   .OHMM  : LATEROLOG 8 FROM DUAL INDUCTION-LATEROLOG
MRESWS  .OHMM  : MEDIUM RESISTIVITY [ILMED]
NPHILSED.V/V   : NEUTRON POROSITY LIMESTONE FROM COMPENSATED NEUTRON FORMATION DENSITY LOG [ADJ. TO RHOBED]
NPHISSED.V/V   : NEUTRON POROSITY SANDSTONE FROM COMPENSATED NEUTRON FORMATION DENSITY LOG [ADJ. TO RHOBED]
NPOLSWS .V/V   : NEUTRON POROSITY LIMESTONE [NPHISSED MATRIX CONVERTED TO LIMESTONE AND SPL. TO NPHILSED FROM 2478 - 7249']
RHOBED  .G/C3  : FORMATION BULK DENSITY FROM COMPENSATED NEUTRON FORMATION DENSITY LOG
SPRED   .MV    : SPONTANEOUS POTENTIAL FROM DUAL INDUCTION-LATEROLOG
SPWS    .MV    : SPONTANEOUS POTENTIAL [BASELINE 0 MV, SPRED]
SRESWS  .OHMM  : SHALLOW RESISTIVITY [LL8ED]
~Params ----------------------------------------------------
PD  .                     GL : PERMANENT DATUM
EPD .FT               3310.2 : ELEVATION PERMANENT DATUM
LMF .                     KB : LOG MEASURED FROM
DAPD.FT                 13.5 : FEET ABOVE PERMANENT DATUM
EKB .FT                 3324 : KELLY BUSHING
EGL .FT               3310.2 : GROUND LEVEL
DATE.               04/08/77 : RUN DATE
RUN .                      1 : RUN NUMBER
DD  .FT                11000 : DEPTH DRILLER
DL  .FT                11005 : DEPTH LOGGER
BLI .FT                10999 : BOTTOM LOG INTERVAL
TLI .FT                 1159 : TOP LOG INTERVAL
CBD .FT                 1159 : CASING BOTTOM DRILLER
CBL .FT                 1159 : CASING BOTTOM LOGGER
BS  .IN                 8.75 : BIT SIZE
BSD .FT                11000 : BIT SIZE AT DEPTH
DFT .                    GEL : DRILLING FLUID TYPE
DFD .                    9.2 : DRILLING FLUID DENSITY
DFV .                    245 : DRILLING FLUID VISCOSITY
DFPH.                     10 : DRILLING FLUID PH
DFL .                    7.2 : DRILLING FLUID LOSS
MSS .               FLOWLINE : MUD SAMPLE SOURCE
RMS .OHMM               2.52 : RESISTIVITY MUD SAMPLE
MST .DEGF                 56 : MUD SAMPLE TEMPERATURE
RMF .OHMM               2.35 : RESISTIVITY MUD FILTRATE SAMPLE
MFST.DEGF                 50 : MUD FILTRATE SAMPLE TEMPERATURE
TCS .HRS                 3.5 : TIME CIRCULATED STOPPED
LUN .                   7809 : LOGGING UNIT NUMBER
LUL .                    EDM : LOGGING UNIT LOCATION
ENGI.               BERNISKY : RECORDING ENGINEER
WITN.                 HALKOW : WITNESSED BY
CLNT.                A2DTECH : CLIENT CODE
ORIG.            2" 5" PRINT : ORIGIN OF DATA
UWI .       100100905816W500 : UNIQUE WELL ID
DICO. A2D Technologies, Inc. : DIGITIZING COMPANY
~Other -----------------------------------------------------
~ASCII -----------------------------------------------------
 1050.00000    -999.25    -999.25    -999.25    -999.25    -999.25    -999.25    -999.25    -999.25    -999.25    -999.25    -999.25    -999.25    -999.25    -999.25   44.10940   44.10940    -999.25    -999.25    -999.25    -999.25    -999.25    -999.25    -999.25    -999.25    -999.25    -999.25    -999.25
 1100.00000    -999.25    -999.25    -999.25    -999.25    -999.25    -999.25    -999.25    -999.25    -999.25    -999.25    -999.25    -999.25    -999.25    -999.25   54.77900   54.77900    -999.25    -999.25    -999.25    -999.25    -999.25    -999.25    -999.25    -999.25    -999.25    -999.25    -999.25
 1150.00000    -999.25    -999.25    -999.25    -999.25    -999.25    -999.25    -999.25    -999.25    -999.25    -999.25    -999.25    -999.25    -999.25    -999.25   40.21500   40.21500    -999.25    -999.25    -999.25    -999.25    -999.25    -999.25    -999.25    -999.25    -999.25    -999.25    -999.25
 1200.00000    -999.25    9.93070    9.93070  137.81240    -999.25    -999.25    -999.25    -999.25    -999.25    -999.25    7.25640   71.75710   71.75710    -999.25  121.72140  121.72140    7.25640    8.79990    9.35990    8.79990    -999.25    -999.25    -999.25    -999.25  -73.99800   -3.98310    9.35990
 1250.00000    -999.25   10.25720   10.25720  190.68320    -999.25    -999.25    -999.25    -999.25    -999.25    -999.25    5.24430  105.20590  105.20590    -999.25   90.70890   90.70890    5.24430    6.28530    8.68000    6.28530    -999.25    -999.25    -999.25    -999.25  -77.63340   -7.37640    8.68000
 1300.00000    -999.25   10.23370   10.23370  211.93620    -999.25    -999.25    -999.25    -999.25    -999.25    -999.25    4.71840  105.84910  105.84910    -999.25   83.49800   83.49800    4.71840    5.30420    5.43060    5.30420    -999.25    -999.25    -999.25    -999.25  -75.86630   -5.36600    5.43060
 1350.00000    -999.25   10.38960   10.38960  249.33300    -999.25    -999.25    -999.25    -999.25    -999.25    -999.25    4.01070   96.38020   96.38020    -999.25   81.34300   81.34300    4.01070    4.74370    4.36700    4.74370    -999.25    -999.25    -999.25    -999.25  -73.94900   -3.20530    4.36700
 1400.00000    -999.25   10.03390   10.03390   56.12240    -999.25    -999.25    -999.25    -999.25    -999.25    -999.25   17.81820  126.02000  126.02000    -999.25   36.99910   36.99910   17.81820   32.12650   69.97820   32.12650    -999.25    -999.25    -999.25    -999.25  -75.93420   -4.94720   69.97820
 1450.00000    -999.25    9.98940    9.98940  202.91080    -999.25    -999.25    -999.25    -999.25    -999.25    -999.25    4.93790   89.90370   89.90370    -999.25   77.37800   77.37800    4.93790    5.66250    5.09560    5.66250    -999.25    -999.25    -999.25    -999.25  -73.35470   -2.12320    5.09560
 1500.00000    -999.25    9.95210    9.95210  204.39870    -999.25    -999.25    -999.25    -999.25    -999.25    -999.25    4.89240   94.44760   94.44760    -999.25   84.73420   84.73420    4.89240    5.61060    5.94830    5.61060    -999.25    -999.25    -999.25    -999.25  -75.10160   -3.62790    5.94830
 1550.00000    -999.25    9.95350    9.95350  256.73280    -999.25    -999.25    -999.25    -999.25    -999.25    -999.25    3.89510   96.79150   96.79150    -999.25   77.70240   77.70240    3.89510    4.39580    4.12950    4.39580    -999.25    -999.25    -999.25    -999.25  -76.62260   -4.90560    4.12950
 1600.00000    -999.25    9.35570    9.35570  132.71750    -999.25    -999.25    -999.25    -999.25    -999.25    -999.25    7.53480   97.00540   97.00540    -999.25   62.75380   62.75380    7.53480    6.68920    6.60840    6.68920    -999.25    -999.25    -999.25    -999.25  -78.25720   -7.30030    6.60840
 1650.00000    -999.25    9.01240    9.01240  214.85050    -999.25    -999.25    -999.25    -999.25    -999.25    -999.25    4.65440   95.64320   95.64320    -999.25   61.46690   61.46690    4.65440    4.46390    4.52220    4.46390    -999.25    -999.25    -999.25    -999.25  -77.35200   -7.62740    4.52220
 1700.00000    -999.25    9.37000    9.37000  178.29660    -999.25    -999.25    -999.25    -999.25    -999.25    -999.25    5.61430   86.66070   86.66070    -999.25   67.65510   67.65510    5.61430    5.37100    5.54450    5.37100    -999.25    -999.25    -999.25    -999.25  -72.74720   -4.26110    5.54450
 1750.00000    -999.25    9.48580    9.48580  189.17540    -999.25    -999.25    -999.25    -999.25    -999.25    -999.25    5.28610  121.35090  121.35090    -999.25   65.74960   65.74960    5.28610    6.25530   11.51430    6.25530    -999.25    -999.25    -999.25    -999.25  -72.65250   -5.39260   11.51430
 1800.00000    -999.25    9.18480    9.18480  242.98380    -999.25    -999.25    -999.25    -999.25    -999.25    -999.25    4.11550   98.98870   98.98870    -999.25   82.83110   82.83110    4.11550    4.48260    5.27920    4.48260    -999.25    -999.25    -999.25    -999.25  -74.34370   -7.11650    5.27920
 1850.00000    -999.25    9.47450    9.47450  211.26020    -999.25    -999.25    -999.25    -999.25    -999.25    -999.25    4.73350   99.09100   99.09100    -999.25   72.43500   72.43500    4.73350    5.36280    4.41820    5.36280    -999.25    -999.25    -999.25    -999.25  -75.13860   -7.62520    4.41820
 1900.00000    -999.25   10.42190   10.42190  379.99700    -999.25    -999.25    -999.25    -999.25    -999.25    -999.25    2.63160  129.24950  129.24950    -999.25  115.20750  115.20750    2.63160    2.26180    2.04620    2.26180    -999.25    -999.25    -999.25    -999.25  -75.15240   -7.35280    2.04620
 1950.00000    -999.25   10.01590   10.01590  213.50330    -999.25    -999.25    -999.25    -999.25    -999.25    -999.25    4.68520   89.17020   89.17020    -999.25   87.96210   87.96210    4.68520    5.04270    4.55680    5.04270    -999.25    -999.25    -999.25    -999.25  -73.94540   -5.85820    4.55680
 2000.00000    -999.25   10.76510   10.76510  179.60420    -999.25    -999.25    -999.25    -999.25    -999.25    -999.25    5.56780   91.81170   91.81170    -999.25   81.59900   81.59900    5.56780    6.12930    5.08320    6.12930    -999.25    -999.25    -999.25    -999.25  -75.22160   -6.84960    5.08320
 2050.00000    -999.25    9.91210    9.91210  153.25670    -999.25    -999.25    -999.25    -999.25    -999.25    -999.25    6.52500   84.43040   84.43040    -999.25   75.64860   75.64860    6.52500    6.82490    5.37620    6.82490    -999.25    -999.25    -999.25    -999.25  -73.64330   -4.98510    5.37620
 2100.00000    -999.25   10.03810   10.03810  159.51000    -999.25    -999.25    -999.25    -999.25    -999.25    -999.25    6.26920   92.94710   92.94710    -999.25   61.31930   61.31930    6.26920    6.86670    7.79430    6.86670    -999.25    -999.25    -999.25    -999.25  -74.37500   -5.61050    7.79430
 2150.00000    -999.25   10.54930   10.54930  232.30420    -999.25    -999.25    -999.25    -999.25    -999.25    -999.25    4.30470  110.28720  110.28720    -999.25   69.08320   69.08320    4.30470    4.54800    6.59530    4.54800    -999.25    -999.25    -999.25    -999.25  -69.26790   -2.21540    6.59530
 2200.00000    -999.25   10.24180   10.24180  129.95630    -999.25    -999.25    -999.25    -999.25    -999.25    -999.25    7.69590   87.98190   87.98190    -999.25   65.94540   65.94540    7.69590    8.20750    7.86320    8.20750    -999.25    -999.25    -999.25    -999.25  -69.96150   -3.03210    7.86320
 2250.00000    -999.25   10.56700   10.56700  350.84030    -999.25    -999.25    -999.25    -999.25    -999.25    -999.25    2.85030  112.33140  112.33140    -999.25   80.35280   80.35280    2.85030    3.14750    3.08130    3.14750    -999.25    -999.25    -999.25    -999.25  -70.37080   -3.51480    3.08130
 2300.00000    -999.25   10.03930   10.03930  254.94600    -999.25    -999.25    -999.25    -999.25    -999.25    -999.25    3.92240  117.77480  117.77480    -999.25  100.04950  100.04950    3.92240    4.40840    4.33730    4.40840    -999.25    -999.25    -999.25    -999.25  -70.96720   -4.18480    4.33730
