~Version ---------------------------------------------------
VERS.      2.0 : CWLS log ASCII Standard -VERSION 2.0
WRAP.       NO : One line per depth step
CREA. 08/16/13 : LAS Creation Date
~Well ------------------------------------------------------
STRT.M                          400.0 : START DEPTH
STOP.M                         3500.0 : STOP DEPTH
STEP.M                       50.00000 : STEP LENGTH
NULL.                         -999.25 : NULL VALUE
COMP.     CANADA NORTHWEST ENERGY LTD : COMPANY
WELL. CNW ET AL ANTE CREEK 16-2-66-25 : WELL
FLD .                                 : FIELD
LOC .                                 : LOCATION
CTRY.                          CANADA : COUNTRY
SRVC.                         Unknown : SERVICE COMPANY
DATE.                     15-Feb-1985 : LOGDATE
PROV.                         Alberta : PROVINCE
UWI .                100160206625W500 : UNIQUE WELL ID
SLAT.WGS84                   54.68811 : SURFACE LATITUDE
SLON.WGS84                  -117.6596 : SURFACE LONGITUDE
~Curve Information -----------------------------------------
DEPT    .M      : DEPTH METER
C2ED    .MM     : CALIPER 2 FROM DENSITY LOG [ADJ. TO RESISTIVITY LOG]
CALDED  .MM     : CALIPER FROM DENSITY LOG [ADJ. TO RESISTIVITY LOG]
CALSED  .MM     : CALIPER FROM SONIC LOG
CALWS   .MM     : CALIPER [CALDED]
CONDWS  .MMHO   : CONDUCTIVITY [1000/DRESWS]
DCORWS  .KG/M3  : DENSITY CORRECTION [DRHOED]
DENWS   .KG/M3  : FORMATION BULK DENSITY [CALC FROM DPOLSWS, M=2710,F=1000]
DPHILSED.V/V    : DENSITY POROSITY LIMESTONE [M=2710,F=1000] FROM DENSITY LOG [ADJ. TO RESISTIVITY LOG]
DPHISSED.V/V    : DENSITY POROSITY SANDSTONE [M=2650,F=1000] FROM DENSITY LOG [ADJ. TO RESISTIVITY LOG]
DPOLSWS .V/V    : DENSITY POROSITY LIMESTONE [DPHISSED CONVERTED TO LIMESTONE(M=2710,F=1000) & SPL TO DPHILSED @2150M]
DRESWS  .OHMM   : DEEP RESISTIVITY [ILDED]
DRHOED  .KG/M3  : DENSITY CORRECTION FROM DENSITY LOG [ADJ. TO RESISTIVITY LOG]
DTED    .US/M   : DELTA TIME FROM SONIC LOG
DTWS    .US/M   : COMPRESSIONAL  SONIC [DTED]
GRDED   .GAPI   : GAMMA RAY FROM DENSITY LOG [ADJ. TO RESISTIVITY LOG]
GRRED   .GAPI   : GAMMA RAY FROM RESISTIVITY LOG
GRWS    .GAPI   : GAMMA RAY [GRRED]
ILDED   .OHMM   : DEEP INDUCTION FROM RESISTIVITY LOG
ILMED   .OHMM   : MEDIUM INDUCTION FROM RESISTIVITY LOG
MRESWS  .OHMM   : MEDIUM RESISTIVITY [ILMED]
NPHILSED.V/V    : NEUTRON POROSITY LIMESTONE FROM DENSITY LOG [ADJ. TO RESISTIVITY LOG]
NPHISSED.V/V    : NEUTRON POROSITY SANDSTONE FROM DENSITY LOG [ADJ. TO RESISTIVITY LOG]
NPOLSWS .V/V    : NEUTRON POROSITY LIMESTONE [NPHISSED MATRIX CONVERSION FOR LIMESTONE & SPL. TO NPHILSED @2150M']
RHOBED  .KG/M3  : BULK DENSITY FROM DENSITY LOG [ADJ. TO RESISTIVITY LOG]
SFLUED  .OHMM   : SPHERICALLY FOCUSED RESISTIVITY FROM RESISTIVITY LOG
SPRED   .MV     : SPONTANEOUS POTENTIAL FROM RESISTIVITY LOG
SPWS    .MV     : SPONTANEOUS POTENTIAL [BASELINE 0 MV, SPRED]
SRESWS  .OHMM   : SHALLOW RESISTIVITY [SFLUED]
TENDED  .N      : TENSION FROM DENSITY LOG [ADJ. TO RESISTIVITY LOG]
TENRED  .N      : TENSION FROM RESISTIVITY LOG
~Params ----------------------------------------------------
PD  .                         GL : PERMANENT DATUM
EPD .M                     767.2 : ELEVATION PERMANENT DATUM
LMF .                         KB : LOG MEASURED FROM
DAPD.M                       6.3 : FEET ABOVE PERMANENT DATUM
DMF .                         KB : DRILLING MEASURED FROM
EKB .M                     773.5 : KELLY BUSHING
EDF .M                     773.1 : DRILLING FLOOR
EGL .M                     767.2 : GROUND LEVEL
DATE.                   02/15/85 : RUN DATE
RUN .                          1 : RUN NUMBER
DD  .M                      3495 : DEPTH DRILLER
DL  .M                      3497 : DEPTH LOGGER
BLI .M                      3496 : BOTTOM LOG INTERVAL
TLI .M                       400 : TOP LOG INTERVAL
CS  .MM                    244.5 : CASING SIZE
CBD .M                       400 : CASING BOTTOM DRILLER
CBL .M                       400 : CASING BOTTOM LOGGER
BS  .MM                      222 : BIT SIZE
BSD .M                      3495 : BIT SIZE AT DEPTH
DFT .                   GEL CHEM : DRILLING FLUID TYPE
DFD .                       1110 : DRILLING FLUID DENSITY
DFV .                         91 : DRILLING FLUID VISCOSITY
DFPH.                         10 : DRILLING FLUID PH
DFL .                        8.1 : DRILLING FLUID LOSS
MSS .                   FLOWLINE : MUD SAMPLE SOURCE
RMS .OHMM                   1.92 : RESISTIVITY MUD SAMPLE
MST .DEGC                     23 : MUD SAMPLE TEMPERATURE
RMF .OHMM                   1.83 : RESISTIVITY MUD FILTRATE SAMPLE
MFST.DEGC                     20 : MUD FILTRATE SAMPLE TEMPERATURE
RMC .OHMM                  0.714 : RESISTIVITY MUD CAKE
MCST.DEGC                     85 : MUD CAKE SAMPLE TEMPERATURE
MFSS.                       MEAS : MUD FILTRATE SAMPLE SOURCE
MCSS.                       MEAS : MUD CAKE SAMPLE SOURCE
RMB .OHMM                  0.804 : RESISTIVITY MUD AT BHT
TCS .HRS                    1600 : TIME CIRCULATED STOPPED
LUN .                       8100 : LOGGING UNIT NUMBER
LUL .                         GP : LOGGING UNIT LOCATION
ENGI.                     YEAGER : RECORDING ENGINEER
WITN.                       WEBB : WITNESSED BY
CLNT.                    A2DTECH : CLIENT CODE
ORIG. 6.5"/100M 16.5"/100M PRINT : ORIGIN OF DATA
UWI .           100160206625W500 : UNIQUE WELL ID
DICO.     A2D Technologies, Inc. : DIGITIZING COMPANY
~Other -----------------------------------------------------
DIL-SFL-BCS LOG RAN IN COMBO & CNL-FDC LOG RAN
RHOB HAS BEEN VERIFIED FROM SMALL LOG
~ASCII -----------------------------------------------------
  400.00000    -999.25    -999.25    -999.25    -999.25    -999.25    -999.25    -999.25    -999.25    -999.25    -999.25    -999.25    -999.25    -999.25    -999.25   42.10570   38.30210   38.30210    -999.25    -999.25    -999.25    -999.25    0.60170    0.56780    -999.25    -999.25    -999.25    -999.25    -999.25 93797.52340 93613.51560
  450.00000  385.77610  238.80080  293.01510  238.80080  213.64330    3.99710 2322.14500    -999.25    0.19870    0.22680    4.68070    3.99710  349.92280  349.92280   66.51640   65.46540   65.46540    4.68070    4.18120    4.18120    -999.25    0.48880    0.44850 2322.14500    4.04720  -67.06240   -4.37000    4.04720 93688.90620 93675.14840
  500.00000  252.06250  240.02740  282.93820  240.02740  334.19110    3.43250 2212.58500    -999.25    0.26510    0.29090    2.99230    3.43250  371.23320  371.23320   71.44290   67.38350   67.38350    2.99230    2.81190    2.81190    -999.25    0.51030    0.47100 2212.58500    2.70510  -62.70010   -1.66560    2.70510 93454.31250 93318.44530
  550.00000  275.72460  230.27260  261.47710  230.27260  164.66870    2.41630 2292.11500    -999.25    0.21690    0.24440    6.07280    2.41630  329.60780  329.60780   63.36650   61.54710   61.54710    6.07280    5.63730    5.63730    -999.25    0.37320    0.32990 2292.11500    5.54040  -63.55990   -4.18330    5.54040 93253.83590 93042.85160
  600.00000  317.18980  280.07460  324.87330  280.07460  204.16500  107.72210 1877.80000    -999.25    0.46800    0.48670    4.89800  107.72210  355.70720  355.70720   53.35640   50.08790   50.08790    4.89800    4.20900    4.20900    -999.25    0.47140    0.43040 1877.80000    3.68300  -62.12900   -4.41030    3.68300 92847.10160 92994.14060
  650.00000  249.53620  304.50300  319.53540  304.50300  213.94490   74.26020 1863.61000    -999.25    0.47660    0.49500    4.67410   74.26020  366.90550  366.90550   51.37040   46.40280   46.40280    4.67410    4.13250    4.13250    -999.25    0.54940    0.51220 1863.61000    3.14130  -62.55930   -4.47630    3.14130 92620.43750 92888.27340
  700.00000  241.47690  294.47940  278.22050  294.47940  212.82480  102.84590 1954.85500    -999.25    0.42130    0.44160    4.69870  102.84590  357.43630  357.43630   55.52630   56.46930   56.46930    4.69870    4.23750    4.23750    -999.25    0.51310    0.47390 1954.85500    3.23080  -62.22220   -3.31880    3.23080 92116.08590 92511.39840
  750.00000  234.96410  220.89660  235.24300  220.89660   92.27900   14.19650 2298.71500    -999.25    0.21290    0.24050   10.83670   14.19650  309.11000  309.11000   43.26700   43.48350   43.48350   10.83670   10.57620   10.57620    -999.25    0.33720    0.29340 2298.71500   10.56910  -65.82660   -6.10280   10.56910 92092.83590 92264.63280
  800.00000  274.54090  245.18800  274.43530  245.18800  216.20690  115.82610 1936.87000    -999.25    0.43220    0.45210    4.62520  115.82610  315.74400  315.74400   66.77260   61.35320   61.35320    4.62520    4.40950    4.40950    -999.25    0.45720    0.41570 1936.87000    5.23430  -62.09390   -1.90480    5.23430 92216.96880 91917.18750
  850.00000  256.02440  239.22530  244.47980  239.22530  200.92430  131.35760 2209.12000    -999.25    0.26720    0.29290    4.97700  131.35760  333.58440  333.58440   59.81360   62.33480   62.33480    4.97700    4.54780    4.54780    -999.25    0.48110    0.44050 2209.12000    4.41450  -62.55690   -2.69270    4.41450 91870.79690 91570.34380
  900.00000  308.98300  250.76570  273.72410  250.76570  112.10130   41.40870 2299.87000    -999.25    0.21220    0.23980    8.92050   41.40870  317.92120  317.92120   98.01760   93.85240   93.85240    8.92050    8.29070    8.29070    -999.25    0.42820    0.38590 2299.87000    9.08620  -66.49930   -6.96000    9.08620 91836.33590 91810.19530
  950.00000  345.87600  228.24390  274.78750  228.24390  102.87320  115.83360 2278.58500    -999.25    0.22510    0.25230    9.72070  115.83360  319.42850  319.42850   86.47480   85.65810   85.65810    9.72070    8.85390    8.85390    -999.25    0.48210    0.44150 2278.58500   10.30270  -65.20210   -5.98760   10.30270 91704.22660 91520.92190
 1000.00000  345.01990  248.15190  296.62400  248.15190   80.31480  103.08410 2334.52000    -999.25    0.19120    0.21960   12.45100  103.08410  284.63790  284.63790   68.16680   67.43120   67.43120   12.45100   10.45390   10.45390    -999.25    0.38450    0.34130 2334.52000    9.99630  -67.81440   -8.92480    9.99630 91068.14840 91665.81250
 1050.00000  233.88600  318.83050  271.47770  318.83050  105.97600   24.78970 2229.74500    -999.25    0.25470    0.28090    9.43610   24.78970  280.78230  280.78230   84.76960   87.72280   87.72280    9.43610    8.73200    8.73200    -999.25    0.39820    0.35530 2229.74500    8.10950  -66.19690   -7.63220    8.10950 91269.84380 91346.11720
 1100.00000  234.06390  283.88500  259.35730  283.88500   91.76670   41.98980 2262.25000    -999.25    0.23500    0.26180   10.89720   41.98980  285.64850  285.64850   94.39690   87.11730   87.11730   10.89720   10.24160   10.24160    -999.25    0.33100    0.28720 2262.25000   11.29950  -64.84280   -6.60300   11.29950 90862.44530 90940.96880
 1150.00000  238.53250  283.92280  271.46360  283.92280  110.26450  111.97230 2864.83000    -999.25   -0.13020   -0.09050    9.06910  111.97230  295.71870  295.71870   93.94790   97.01860   97.01860    9.06910    8.32470    8.32470    -999.25    0.36470    0.32120 2864.83000    8.19080  -63.50150   -5.58660    8.19080 90774.69530 91136.28120
 1200.00000  312.23470  275.58810  271.01260  275.58810  117.54610   57.12330 2423.62000    -999.25    0.13720    0.16750    8.50730   57.12330  308.45320  308.45320   96.70400   92.72390   92.72390    8.50730    7.90400    7.90400    -999.25    0.42010    0.37760 2423.62000    9.02240  -62.13840   -4.54840    9.02240 90672.34380 90836.96090
 1250.00000  297.72220  225.17310  253.37570  225.17310   75.13150   94.04150 2414.38000    -999.25    0.14280    0.17290   13.31000   94.04150  318.60850  318.60850  121.60380  102.70690  102.70690   13.31000   13.65730   13.65730    -999.25    0.47550    0.43470 2414.38000   15.00590  -63.12440   -5.85930   15.00590 90561.24220 90195.48440
 1300.00000  303.22020  224.98130  246.40240  224.98130   98.84840   71.38070 2467.84000    -999.25    0.11040    0.14160   10.11650   71.38070  270.20760  270.20760   87.76070   88.39920   88.39920   10.11650    9.66200    9.66200    -999.25    0.33390    0.29010 2467.84000   11.10940  -60.64900   -3.70880   11.10940 89971.80470 89560.93750
 1350.00000  223.30660  226.09280  226.85290  226.09280   88.66580    7.93740 2384.51500    -999.25    0.16090    0.19030   11.27830    7.93740  272.58110  272.58110   51.69860   47.84770   47.84770   11.27830   12.57310   12.57310    -999.25    0.25440    0.21050 2384.51500   14.85320  -87.84650  -31.23120   14.85320 90043.71090 89729.71880
 1400.00000  319.66840  229.21960  259.05550  229.21960  140.78950   88.79380 2471.80000    -999.25    0.10800    0.13930    7.10280   88.79380  264.77900  264.77900   84.25730   81.28200   81.28200    7.10280    6.88050    6.88050    -999.25    0.30390    0.25990 2471.80000    7.17880  -57.17960   -1.92320    7.17880 89383.59380 89267.54690
 1450.00000  377.39240  243.13010  299.17570  243.13010  174.31620   97.60610 2051.87500    -999.25    0.36250    0.38490    5.73670   97.60610  315.72860  315.72860   93.13050   82.09920   82.09920    5.73670    5.12000    5.12000    -999.25    0.53840    0.50060 2051.87500    5.47460  -54.43660   -1.54870    5.47460 89051.65620 89109.10160
 1500.00000  255.47180  374.37260  288.96850  374.37260  191.18630  142.22910 1940.33500    -999.25    0.43010    0.45010    5.23050  142.22910  281.07740  281.07740   79.55140   73.81290   73.81290    5.23050    5.04230    5.04230    -999.25    0.44240    0.40050 1940.33500    5.41380  -54.69540   -5.16840    5.41380 88540.10940 89494.42190
 1550.00000  283.38300  337.81450  302.46980  337.81450  206.74830   72.11510 1832.26000    -999.25    0.49560    0.51330    4.83680   72.11510  285.54260  285.54260   75.16260   74.59810   74.59810    4.83680    4.50620    4.50620    -999.25    0.42790    0.38560 1832.26000    4.36730  -56.14850  -11.04910    4.36730 88501.10160 88856.85160
