~Version ---------------------------------------------------
VERS.      2.0 : CWLS log ASCII Standard -VERSION 2.0
WRAP.       NO : One line per depth step
CREA. 12/29/17 : LAS Creation Date
~Well ------------------------------------------------------
STRT.FT                            300.0 : START DEPTH
STOP.FT                          10550.0 : STOP DEPTH
STEP.FT                         50.00000 : STEP LENGTH
NULL.                            -999.25 : NULL VALUE
COMP.      HUDSON'S BAY OIL & GAS CO LTD : COMPANY
WELL. HB PAN AM FINA KAYBOBS 10-29-59-18 : WELL
FLD .                                    : FIELD
LOC .                                    : LOCATION
CTRY.                             CANADA : COUNTRY
SRVC.                      Dresser Atlas : SERVICE COMPANY
DATE.                        20-Nov-1968 : LOGDATE
PROV.                            Alberta : PROVINCE
UWI .                   100102905918W500 : UNIQUE WELL ID
SLAT.WGS84                      54.13226 : SURFACE LATITUDE
SLON.WGS84                     -116.6597 : SURFACE LONGITUDE
~Curve Information -----------------------------------------
DEPT  .FT    : Depth Curve
ACED  .US/F  : DELTA TIME (ACOUSTIC) FROM SONIC LOG [ADJ TO ILDED]
CALWS .IN    : CALIPER [MCALED]
CILDED.MMHO  : CONDUCTIVITY FROM RESISTIVITY LOG
CONDWS.MMHO  : CONDUCTIVITY [1000/DRESWS]
DRESWS.OHMM  : DEEP RESISTIVITY [ILDED] IF ILDED<2;1000/CILDED;ELSE ILDED
DTWS  .US/F  : DELTA TIME [ACED]
GRED  .GAPI  : GAMMA RAY FROM GR LOG [ADJ TO GRSED]
GRSED .GAPI  : GAMMA RAY FROM SONIC LOG [ADJ TO ILDED]
GRWS  .GAPI  : GAMMA RAY [SPL GRD3ED <1112'> GRSED]
ILDED .OHMM  : INDUCTION LOG DEEP RESISTIVITY
ILMED .OHMM  : INDUCTION LOG MEDIUM RESISTIVITY
MCALED.IN    : CALIPER MICROLOG
MRESWS.OHMM  : MEDIUM RESISTIVITY [ILMED]
SFLED .OHMM  : SPHERICALLY FOCUSED LOG RESISTIVITY
SPRED .MV    : SPONTANEOUS POTENTIAL FROM RESISTIVITY LOG
SPWS  .MV    : SPONTANEOUS POTENTIAL [BASELINE 0 MV] [SPRED]
SRESWS.OHMM  : SHALLOW RESISTIVITY [SFLED]
~Params ----------------------------------------------------
PD  .                     GL : PERMANENT DATUM
EPD .FT               2683.7 : ELEVATION PERMANENT DATUM
LMF .                     KB : LOG MEASURED FROM
DAPD.FT                 13.3 : FEET ABOVE PERMANENT DATUM
DMF .                     KB : DRILLING MEASURED FROM
EKB .FT               2697.0 : KELLY BUSHING
EGL .FT               2683.7 : GROUND LEVEL
DATE.               11/20/68 : RUN DATE
RUN .                      1 : RUN NUMBER
DD  .FT                10598 : DEPTH DRILLER
DL  .FT                10592 : DEPTH LOGGER
BLI .FT                10588 : BOTTOM LOG INTERVAL
TLI .FT                 1145 : TOP LOG INTERVAL
CS  .IN                9.625 : CASING SIZE
CBD .FT                 1145 : CASING BOTTOM DRILLER
CBL .FT                 1145 : CASING BOTTOM LOGGER
BS  .IN                7.875 : BIT SIZE
BSD .FT                10598 : BIT SIZE AT DEPTH
DFT .                MUD GEL : DRILLING FLUID TYPE
DFD .                    9.7 : DRILLING FLUID DENSITY
DFV .                     68 : DRILLING FLUID VISCOSITY
DFPH.                   10.5 : DRILLING FLUID PH
DFL .                    9.8 : DRILLING FLUID LOSS
MSS .                   CIRC : MUD SAMPLE SOURCE
RMS .OHMM                2.2 : RESISTIVITY MUD SAMPLE
MST .DEGF                 55 : MUD SAMPLE TEMPERATURE
RMF .OHMM                1.9 : RESISTIVITY MUD FILTRATE SAMPLE
MFST.DEGF                 55 : MUD FILTRATE SAMPLE TEMPERATURE
RMC .OHMM                1.4 : RESISTIVITY MUD CAKE
MCST.DEGF                 55 : MUD CAKE SAMPLE TEMPERATURE
MFSS.                   MEAS : MUD FILTRATE SAMPLE SOURCE
MCSS.                   MEAS : MUD CAKE SAMPLE SOURCE
RMB .OHMM               0.51 : RESISTIVITY MUD AT BHT
TCS .HRS                 4.5 : TIME CIRCULATED STOPPED
LUN .                   6002 : LOGGING UNIT NUMBER
LUL .                    V V : LOGGING UNIT LOCATION
ENGI.              KOWALCHUK : RECORDING ENGINEER
WITN.                 HARRIS : WITNESSED BY
CLNT.                A2DTECH : CLIENT CODE
ORIG.            2" 5" PRINT : ORIGIN OF DATA
UWI .       100102905918W500 : UNIQUE WELL ID
DICO. A2D Technologies, Inc. : DIGITIZING COMPANY
~Other -----------------------------------------------------
IE-DIL-ML-SONIC LOGS RUN
RHOBED CURVE DATA FROM 2" SCALE
MCALED CURVE TOP-5380' FROM 2" SCALE
IE LOG ALL CURVES TOP-5300' FROM 2" SCALE
SONIC LOG ALL CURVES TOP-5300' FROM 2" SCALE
~ASCII -----------------------------------------------------
  300.00000    -999.25    -999.25    -999.25    -999.25    -999.25    -999.25   37.58580    -999.25   37.58580    -999.25    -999.25    -999.25    -999.25    -999.25    -999.25    -999.25    -999.25
  350.00000    -999.25    -999.25    -999.25    -999.25    -999.25    -999.25   32.65190    -999.25   32.65190    -999.25    -999.25    -999.25    -999.25    -999.25    -999.25    -999.25    -999.25
  400.00000    -999.25    -999.25    -999.25    -999.25    -999.25    -999.25   34.68610    -999.25   34.68610    -999.25    -999.25    -999.25    -999.25    -999.25    -999.25    -999.25    -999.25
  450.00000    -999.25    -999.25    -999.25    -999.25    -999.25    -999.25   38.66830    -999.25   38.66830    -999.25    -999.25    -999.25    -999.25    -999.25    -999.25    -999.25    -999.25
  500.00000    -999.25    -999.25    -999.25    -999.25    -999.25    -999.25   43.17610    -999.25   43.17610    -999.25    -999.25    -999.25    -999.25    -999.25    -999.25    -999.25    -999.25
  550.00000    -999.25    -999.25    -999.25    -999.25    -999.25    -999.25   45.81660    -999.25   45.81660    -999.25    -999.25    -999.25    -999.25    -999.25    -999.25    -999.25    -999.25
  600.00000    -999.25    -999.25    -999.25    -999.25    -999.25    -999.25   31.94730    -999.25   31.94730    -999.25    -999.25    -999.25    -999.25    -999.25    -999.25    -999.25    -999.25
  650.00000    -999.25    -999.25    -999.25    -999.25    -999.25    -999.25   47.24680    -999.25   47.24680    -999.25    -999.25    -999.25    -999.25    -999.25    -999.25    -999.25    -999.25
  700.00000    -999.25    -999.25    -999.25    -999.25    -999.25    -999.25   45.95180    -999.25   45.95180    -999.25    -999.25    -999.25    -999.25    -999.25    -999.25    -999.25    -999.25
  750.00000    -999.25    -999.25    -999.25    -999.25    -999.25    -999.25   34.28960    -999.25   34.28960    -999.25    -999.25    -999.25    -999.25    -999.25    -999.25    -999.25    -999.25
  800.00000    -999.25    -999.25    -999.25    -999.25    -999.25    -999.25   35.78750    -999.25   35.78750    -999.25    -999.25    -999.25    -999.25    -999.25    -999.25    -999.25    -999.25
  850.00000    -999.25    -999.25    -999.25    -999.25    -999.25    -999.25   23.04870    -999.25   23.04870    -999.25    -999.25    -999.25    -999.25    -999.25    -999.25    -999.25    -999.25
  900.00000    -999.25    -999.25    -999.25    -999.25    -999.25    -999.25   34.95740    -999.25   34.95740    -999.25    -999.25    -999.25    -999.25    -999.25    -999.25    -999.25    -999.25
  950.00000    -999.25    -999.25    -999.25    -999.25    -999.25    -999.25   43.31370    -999.25   43.31370    -999.25    -999.25    -999.25    -999.25    -999.25    -999.25    -999.25    -999.25
 1000.00000    -999.25    -999.25    -999.25    -999.25    -999.25    -999.25   28.20590    -999.25   28.20590    -999.25    -999.25    -999.25    -999.25    -999.25    -999.25    -999.25    -999.25
 1050.00000    -999.25    -999.25    -999.25    -999.25    -999.25    -999.25   31.35040    -999.25   31.35040    -999.25    -999.25    -999.25    -999.25    -999.25    -999.25    -999.25    -999.25
 1100.00000    -999.25    -999.25    -999.25    -999.25    -999.25    -999.25   24.99470    -999.25   24.99470    -999.25    -999.25    -999.25    -999.25    -999.25    -999.25    -999.25    -999.25
 1150.00000   91.69820    -999.25  102.84370  104.20140    9.59680   91.69820   44.63560   45.10920   45.10920    9.59680    -999.25    -999.25    -999.25   10.03290 -100.44400   -1.64820   10.03290
 1200.00000  103.92440    -999.25  172.73340  159.58000    6.26650  103.92440   70.94040   63.60940   63.60940    6.26650    -999.25    -999.25    -999.25    5.85070 -103.73070   -4.93480    5.85070
 1250.00000  140.58820    -999.25  242.48950  198.75970    5.03120  140.58820  110.54520   80.51100   80.51100    5.03120    -999.25    -999.25    -999.25    4.82860 -101.14650   -2.64920    4.82860
 1300.00000  113.86180    -999.25   98.95590   97.54770   10.25140  113.86180   61.04140   49.29070   49.29070   10.25140    -999.25    -999.25    -999.25   12.19170 -101.59930   -3.46610   12.19170
 1350.00000   89.17080    -999.25  108.62130  110.99030    9.00980   89.17080   49.15960   59.04110   59.04110    9.00980    -999.25    -999.25    -999.25    8.58530  -99.36320   -1.59410    8.58530
 1400.00000   97.02920    -999.25  124.76690  127.99340    7.81290   97.02920   50.88010   59.63310   59.63310    7.81290    -999.25    -999.25    -999.25    7.44800  -99.91740   -2.51230    7.44800
 1450.00000   96.02320    -999.25  125.58190  127.75880    7.82720   96.02320   71.27480   60.47380   60.47380    7.82720    -999.25    -999.25    -999.25    7.68830 -100.60810   -3.56890    7.68830
 1500.00000  109.34990    -999.25  174.15090  167.32760    5.97630  109.34990   76.85290   70.36220   70.36220    5.97630    -999.25    -999.25    -999.25    5.05950  -99.25360   -2.57670    5.05950
 1550.00000   97.30280    -999.25  143.18840  132.02710    7.57420   97.30280   43.22070   63.81090   63.81090    7.57420    -999.25    -999.25    -999.25    7.14520 -100.07810   -3.76520    7.14520
 1600.00000   88.44450    -999.25   62.66060   65.69480   15.22190   88.44450   47.86720   42.39380   42.39380   15.22190    -999.25    -999.25    -999.25   19.81060 -100.62950   -4.68070   19.81060
 1650.00000  122.59940    -999.25  159.03190  152.82570    6.54340  122.59940   70.64660   64.63090   64.63090    6.54340    -999.25    -999.25    -999.25    8.20560  -98.90820   -3.32350    8.20560
 1700.00000   87.34620    -999.25  109.87490   99.48420   10.05190   87.34620   54.56020   61.53050   61.53050   10.05190    -999.25    -999.25    -999.25    8.85920 -100.33750   -5.11860    8.85920
 1750.00000   87.38770    -999.25  114.39490  109.21320    9.15640   87.38770   76.25990   83.95140   83.95140    9.15640    -999.25    -999.25    -999.25    9.89390 -102.92410   -8.06750    9.89390
 1800.00000   87.99510    -999.25  144.90840  135.49950    7.38010   87.99510   56.61900   49.91210   49.91210    7.38010    -999.25    -999.25    -999.25    7.49110 -100.05660   -5.56410    7.49110
 1850.00000  130.91550    -999.25  219.09800  212.88830    4.69730  130.91550   56.82880   58.49470   58.49470    4.69730    -999.25    -999.25    -999.25    4.24000 -101.18430   -7.05580    4.24000
 1900.00000  103.57650   15.02690  173.56070  172.92360    5.78290  103.57650   72.56130   72.26960   72.26960    5.78290    -999.25   15.02690    -999.25    5.02260 -100.96880   -7.20440    5.02260
 1950.00000   52.95750   14.58880   94.38950  100.58190    9.94210   52.95750   47.83760   49.18750   49.18750    9.94210    -999.25   14.58880    -999.25    9.09650  -99.88720   -6.48860    9.09650
 2000.00000   95.58140   15.42830  180.41570  172.83990    5.78570   95.58140   72.42870   65.95120   65.95120    5.78570    -999.25   15.42830    -999.25    4.99490 -100.01540   -6.97910    4.99490
 2050.00000  102.66970   14.41040  154.43230  157.93050    6.33190  102.66970   71.61380   77.93510   77.93510    6.33190    -999.25   14.41040    -999.25    5.80460  -98.25550   -5.58330    5.80460
 2100.00000   81.90030   14.60830  144.61680  138.46960    7.22180   81.90030   56.69610   60.90530   60.90530    7.22180    -999.25   14.60830    -999.25    7.29640  -96.33720   -4.02910    7.29640
 2150.00000   99.13250   14.73550  271.93160  231.71750    4.31560   99.13250   77.98740   84.39210   84.39210    4.31560    -999.25   14.73550    -999.25    3.87590  -94.96610   -3.22750    3.87590
 2200.00000  103.87580   13.61210  171.51930  162.53420    6.15250  103.87580   66.70390   74.40910   74.40910    6.15250    -999.25   13.61210    -999.25    5.66630  -95.20940   -4.13170    5.66630
 2250.00000  104.96930   13.43590  133.15480  126.97120    7.87580  104.96930   51.20200   58.42330   58.42330    7.87580    -999.25   13.43590    -999.25    9.51140  -93.43070   -3.00730    9.51140
 2300.00000   96.08270   13.51140   68.65060   72.04200   13.88080   96.08270   69.67450   52.29170   52.29170   13.88080    -999.25   13.51140    -999.25   16.66870 -108.15880  -18.39290   16.66870
