~Version ---------------------------------------------------
VERS.      2.0 : CWLS log ASCII Standard -VERSION 2.0
WRAP.       NO : One line per depth step
CREA. 10/27/17 : LAS Creation Date
~Well ------------------------------------------------------
STRT.FT                              1150.0 : START DEPTH
STOP.FT                             12400.0 : STOP DEPTH
STEP.FT                            50.00000 : STEP LENGTH
NULL.                               -999.25 : NULL VALUE
COMP. HUDSONS BAY OIL & GAS COMPANY LIMITED : COMPANY
WELL.        HB SHELL SIMONETTE 13-23-63-25 : WELL
FLD .                                       : FIELD
LOC .                                       : LOCATION
CTRY.                                CANADA : COUNTRY
SRVC.                          Schlumberger : SERVICE COMPANY
DATE.                           12-Mar-1973 : LOGDATE
PROV.                               Alberta : PROVINCE
UWI .                      100132306325W500 : UNIQUE WELL ID
SLAT.WGS84                            54.47 : SURFACE LATITUDE
SLON.WGS84                        -117.6781 : SURFACE LONGITUDE
~Curve Information -----------------------------------------
DEPT   .FT    : Depth Curve
ASNED  .OHMM  : AMPLIFIED SHORT NORMAL RESISTIVITY FROM IEL LOG [ADJ. TO DIL LOG]
CALSED .IN    : CALIPER FROM SONIC LOG
CALWS  .IN    : CALIPER [CALSED]
CILD1ED.MMHO  : CONDUCTIVITY FROM IEL LOG [ADJ. TO DIL LOG]
CILDED .MMHO  : CONDUCTIVITY FROM DIL LOG
CONDWS .MMHO  : CONDUCTIVITY [1000/DRESWS]
DRESWS .OHMM  : DEEP RESISTIVITY [SPLICED ILDED/ILD1ED AT 1737/3618] [FROM TOP TO 1737 IF ILDED<5;1000/CILDED;ELSE ILDED/ILD1ED<1;1000/CILD1ED;ELSED ILD1ED]
DTED   .US/F  : DELTA TIME FROM SONIC LOG [DEPTH ADJ TO RESISTIVITY LOG]
DTWS   .US/F  : COMPRESSIONAL SONIC [DTED]
GRNED  .GAPI  : GAMMA RAY FROM GRN LOG
GRSED  .GAPI  : GAMMA RAY FROM SONIC LOG
GRWS   .GAPI  : GAMMA RAY [GRSED SPL.  TO GRNED @ 11962']
ILD1ED .OHMM  : DEEP INDUCTION RESISTIVITY  FROM IEL LOG [ADJ. TO DIL LOG]
ILDED  .OHMM  : DEEP  INDUCTION RESISTIVITY FROM DIL LOG
ILMED  .OHMM  : MEDIUM INDUCTION RESISTIVITY FROM DIL LOG
LL8ED  .OHMM  : LATEROLOG 8 FROM DIL LOG
MRESWS .OHMM  : MEDIUM RESISTIVITY [ILMED]
NEUTED .NAPI  : NEUTRON FROM GRN LOG [DEPTH ADJ TO RESISTIVITY LOG]
NEUTWS .NAPI  : NEUTRON [NEUTED]
SPED   .MV    : SPONTANEOUS POTENTIAL [SPRED SPL. TO SPR1ED @ 11990']
SPR1ED .MV    : SPONTANEOUS POTENTIAL FROM IEL LOG [ADJ. TO DIL LOG]
SPRED  .MV    : SPONTANEOUS POTENTIAL FROM DIL LOG
SPWS   .MV    : SPONTANEOUS POTENIAL [BASELINE 0 MV, SPRED]
SRESWS .OHMM  : SHALLOW RESISTIVITY [LL8ED SPL. TO ASNED @ 11946']
~Params ----------------------------------------------------
PD  .                     GL : PERMANENT DATUM
EPD .FT                 2976 : ELEVATION PERMANENT DATUM
LMF .                     KB : LOG MEASURED FROM
DAPD.FT                   21 : FEET ABOVE PERMANENT DATUM
EKB .FT                 2997 : KELLY BUSHING
EGL .FT                 2976 : GROUND LEVEL
DATE.             03/12/1973 : RUN DATE
RUN .                      1 : RUN NUMBER
DD  .FT                12400 : DEPTH DRILLER
DL  .FT                11435 : DEPTH LOGGER
BLI .FT                12434 : BOTTOM LOG INTERVAL
TLI .FT                11300 : TOP LOG INTERVAL
CS  .IN               13.375 : CASING SIZE
BS  .IN                 8.75 : BIT SIZE
BSD .FT                12434 : BIT SIZE AT DEPTH
DFT .              FRESH GEL : DRILLING FLUID TYPE
DFD .                    9.3 : DRILLING FLUID DENSITY
DFV .                    400 : DRILLING FLUID VISCOSITY
DFPH.                   10.5 : DRILLING FLUID PH
DFL .                    8.4 : DRILLING FLUID LOSS
RMB .OHMM                1.1 : RESISTIVITY MUD AT BHT
LUN .               7670 EDM : LOGGING UNIT NUMBER
ENGI.                 CALVIN : RECORDING ENGINEER
WITN.                FOGARTY : WITNESSED BY
CLNT.                A2DTECH : CLIENT CODE
ORIG.            2" 5' PRINT : ORIGIN OF DATA
UWI .       100132306325W500 : UNIQUE WELL ID
DICO. A2D Technologies, Inc. : DIGITIZING COMPANY
~Other -----------------------------------------------------
DIL-IEL-GRN-BCS LOG RUN
SUFFIX OF THE CURVES ARE NOT REMOVED DUE TO DIFFERENT TOOL. BUT THEY HAVE SAME MNEMONICS
~ASCII -----------------------------------------------------
# ...
 9850.00000    -999.25    9.08520    9.08520    -999.25    -999.25   59.71680   16.74570   68.87560   68.87560    -999.25  100.29730  100.29730    -999.25   16.74570   19.93370   31.02010   19.93370    -999.25    -999.25  -28.97930    -999.25  -39.97930   -3.80790   31.02010
 9900.00000    -999.25    9.16770    9.16770    -999.25    -999.25   28.62240   34.93770   59.02580   59.02580    -999.25   90.06800   90.06800    -999.25   34.93770   35.69460   59.15080   35.69460    -999.25    -999.25  -58.25500    -999.25  -69.25500  -31.79270   59.15080
 9950.00000    -999.25    9.60440    9.60440    -999.25    -999.25    2.25500  443.45020   50.60420   50.60420    -999.25   10.11380   10.11380    -999.25  443.45020 1170.04990 1665.15760 1170.04990    -999.25    -999.25  -86.76800    -999.25  -97.76800  -59.37460 1665.15760
 10000.00000    -999.25    9.38480    9.38480    -999.25    -999.25    0.63540 1573.90700   49.21690   49.21690    -999.25   13.24640   13.24640    -999.25 1573.90700 1318.90140 1665.44090 1318.90140    -999.25    -999.25  -75.11820    -999.25  -86.11820  -46.79370 1665.44090
 10050.00000    -999.25    9.50750    9.50750    -999.25    -999.25    0.63480 1575.20360   48.34350   48.34350    -999.25   14.16690   14.16690    -999.25 1575.20360 1218.48770 1657.94410 1218.48770    -999.25    -999.25 -103.83280    -999.25 -114.83280  -74.58180 1657.94410
 10100.00000    -999.25    9.34290    9.34290    -999.25    -999.25    0.66040 1514.30940   49.47180   49.47180    -999.25    6.65280    6.65280    -999.25 1514.30940  606.99180 1633.81160  606.99180    -999.25    -999.25 -102.96860    -999.25 -113.96860  -72.78190 1633.81160
 10150.00000    -999.25    9.56900    9.56900    -999.25    -999.25    0.61370 1629.52100   47.81200   47.81200    -999.25    9.35800    9.35800    -999.25 1629.52100 1024.48680 1625.24610 1024.48680    -999.25    -999.25 -153.76740    -999.25 -164.76740 -122.64960 1625.24610
 10200.00000    -999.25    9.38270    9.38270    -999.25    -999.25    0.63670 1570.70370   48.36680   48.36680    -999.25   11.24650   11.24650    -999.25 1570.70370 1269.63720 1687.99060 1269.63720    -999.25    -999.25 -135.82910    -999.25 -146.82910 -103.78020 1687.99060
 10250.00000    -999.25    9.46730    9.46730    -999.25    -999.25    0.63810 1567.20680   49.54540   49.54540    -999.25    8.95480    8.95480    -999.25 1567.20680 1218.81290 1632.76350 1218.81290    -999.25    -999.25 -141.63120    -999.25 -152.63120 -108.65120 1632.76350
 10300.00000    -999.25    9.54960    9.54960    -999.25    -999.25    0.64030 1561.79820   48.62320   48.62320    -999.25   11.95020   11.95020    -999.25 1561.79820 1259.00510 1646.64680 1259.00510    -999.25    -999.25 -146.72770    -999.25 -157.72770 -112.82120 1646.64680
 10350.00000    -999.25    9.44820    9.44820    -999.25    -999.25    0.63290 1580.03270   49.32930   49.32930    -999.25   10.66090   10.66090    -999.25 1580.03270 1272.84960 1659.47400 1272.84960    -999.25    -999.25 -135.77710    -999.25 -146.77710 -100.93490 1659.47400
 10400.00000    -999.25    9.68110    9.68110    -999.25    -999.25    0.63960 1563.59400   51.12180   51.12180    -999.25    9.63750    9.63750    -999.25 1563.59400  488.85190 1658.70350  488.85190    -999.25    -999.25 -129.65230    -999.25 -140.65230  -93.87900 1658.70350
 10450.00000    -999.25    9.54730    9.54730    -999.25    -999.25    0.65440 1528.00730   49.00790   49.00790    -999.25   10.11420   10.11420    -999.25 1528.00730 1237.07700 1615.28920 1237.07700    -999.25    -999.25 -142.41770    -999.25 -153.41770 -105.71330 1615.28920
 10500.00000    -999.25    9.59430    9.59430    -999.25    -999.25    2.26300  441.89950   49.21390   49.21390    -999.25    8.99830    8.99830    -999.25  441.89950  894.52980 1576.94430  894.52980    -999.25    -999.25 -148.52740    -999.25 -159.52740 -110.89190 1576.94430
 10550.00000    -999.25    9.58150    9.58150    -999.25    -999.25    1.09330  914.68780   49.95320   49.95320    -999.25   13.02310   13.02310    -999.25  914.68780 1285.44020 1624.13730 1285.44020    -999.25    -999.25 -153.86560    -999.25 -164.86560 -115.30370 1624.13730
 10600.00000    -999.25    9.28500    9.28500    -999.25    -999.25    1.39660  716.03300   50.79520   50.79520    -999.25   12.94990   12.94990    -999.25  716.03300  301.02610 1627.07890  301.02610    -999.25    -999.25 -143.98360    -999.25 -154.98360 -104.48590 1627.07890
 10650.00000    -999.25    8.86040    8.86040    -999.25    -999.25   18.23150   54.85020   50.19950   50.19950    -999.25    9.74830    9.74830    -999.25   54.85020   70.36580  103.62200   70.36580    -999.25    -999.25 -148.25890    -999.25 -159.25890 -107.83010  103.62200
 10700.00000    -999.25    8.95910    8.95910    -999.25    -999.25    0.63270 1580.42750   49.97660   49.97660    -999.25    8.70400    8.70400    -999.25 1580.42750 1315.07590 1728.33900 1315.07590    -999.25    -999.25 -136.25230    -999.25 -147.25230  -94.89240 1728.33900
 10750.00000    -999.25    8.62370    8.62370    -999.25    -999.25    8.57960  116.55610   47.63910   47.63910    -999.25   10.08540   10.08540    -999.25  116.55610  970.60000 1692.78640  970.60000    -999.25    -999.25 -143.68540    -999.25 -154.68540 -101.39440 1692.78640
 10800.00000    -999.25    8.87490    8.87490    -999.25    -999.25    6.99300  143.00110   47.07760   47.07760    -999.25   19.51960   19.51960    -999.25  143.00110  149.32670 1599.21190  149.32670    -999.25    -999.25 -175.61380    -999.25 -186.61380 -132.39630 1599.21190
 10850.00000    -999.25    9.24340    9.24340    -999.25    -999.25    2.15070  464.96510   48.97570   48.97570    -999.25   18.73570   18.73570    -999.25  464.96510 1205.19570 1689.82740 1205.19570    -999.25    -999.25 -147.70470    -999.25 -182.70470 -103.55150 1689.82740
 10900.00000    -999.25    8.75320    8.75320    -999.25    -999.25    1.51380  660.60020   49.99510   49.99510    -999.25   16.21920   16.21920    -999.25  660.60020  747.28830 1676.54260  747.28830    -999.25    -999.25 -102.63300    -999.25 -137.63300  -57.54870 1676.54260
 10950.00000    -999.25    8.76180    8.76180    -999.25    -999.25   27.29400   36.63810   53.46450   53.46450    -999.25   33.84580   33.84580    -999.25   36.63810   44.46810   80.29250   44.46810    -999.25    -999.25  -52.83680    -999.25  -87.83680   -6.82140   80.29250
 11000.00000    -999.25    8.78410    8.78410    -999.25    -999.25   28.87570   34.63120   53.75490   53.75490    -999.25   33.61930   33.61930    -999.25   34.63120   41.65050   70.52770   41.65050    -999.25    -999.25  -55.70240    -999.25  -90.70240  -12.95820   70.52770
 11050.00000    -999.25    8.71750    8.71750    -999.25    -999.25   10.02600   99.74040   51.73350   51.73350    -999.25   27.46920   27.46920    -999.25   99.74040  125.38590  308.26290  125.38590    -999.25    -999.25  -88.42800    -999.25 -123.42800  -52.50040  308.26290
 11100.00000    -999.25    8.87390    8.87390    -999.25    -999.25    3.03120  329.90490   50.88100   50.88100    -999.25   19.08020   19.08020    -999.25  329.90490 1208.71940 1646.89980 1208.71940    -999.25    -999.25  -96.34800    -999.25 -131.34800  -67.30560 1646.89980
 11150.00000    -999.25    8.79170    8.79170    -999.25    -999.25   17.01640   58.76700   46.93040   46.93040    -999.25   30.37010   30.37010    -999.25   58.76700   76.17450  184.82920   76.17450    -999.25    -999.25  -96.66380    -999.25 -131.66380  -74.47230  184.82920
 11200.00000    -999.25    8.82110    8.82110    -999.25    -999.25   12.15700   82.25720   52.37960   52.37960    -999.25   32.07790   32.07790    -999.25   82.25720  109.28470  333.70680  109.28470    -999.25    -999.25  -92.43190    -999.25 -127.43190  -77.09130  333.70680
 11250.00000    -999.25    8.71660    8.71660    -999.25    -999.25   13.19170   75.80550   52.95200   52.95200    -999.25   21.72730   21.72730    -999.25   75.80550  102.65020  368.16210  102.65020    -999.25    -999.25  -16.28750    -999.25  -51.28750   -6.79100  368.16210
