~Version ---------------------------------------------------
VERS.      2.0 : CWLS log ASCII Standard -VERSION 2.0
WRAP.       NO : One line per depth step
CREA. 09/25/17 : LAS Creation Date
~Well ------------------------------------------------------
STRT.FT                               300.0 : START DEPTH
STOP.FT                              8350.0 : STOP DEPTH
STEP.FT                            50.00000 : STEP LENGTH
NULL.                               -999.25 : NULL VALUE
COMP. CANADA CITIES SERVICE PETROLEUM CORP. : COMPANY
WELL.          CITIES SERVICE KEYSTONE 8-15 : WELL
FLD .                                       : FIELD
LOC .                                       : LOCATION
CTRY.                                CANADA : COUNTRY
SRVC.                               Unknown : SERVICE COMPANY
DATE.                           07-May-1956 : LOGDATE
PROV.                               Alberta : PROVINCE
UWI .                      100081504804W500 : UNIQUE WELL ID
SLAT.WGS84                         53.13956 : SURFACE LATITUDE
SLON.WGS84                         -114.492 : SURFACE LONGITUDE
~Curve Information -----------------------------------------
DEPT   .FT         : Depth Curve
CALMED .IN         : CALIPER FROM MICROLATEROLOG [ADJ TO SLB EL LOG]
CALWS  .IN         : CALIPER [MCALED SPL. @6414' TO CALMED]
CONDWS .MMHO       : CONDUCTIVITY [1000/DRESWS]
DRESWS .OHMM       : DEEP RESISTIVITY [LNED]
GRN1ED .UgRa-Eq/T  : GAMMA RAY FROM SLB GRN-RADIATION LOG
GRN2ED .GAPI       : GAMMA RAY FROM GRN LOG [ADJ TO SLB EL LOG]
GRNED  .UR/HR      : GAMMA RAY FROM McCULLOUGH GRN RADIATION LOG
GRWS   .GAPI       : GAMMA RAY [GRNED*10.4 SPL @ 5170' TO GRN1ED*16.50]
LAT9ED .OHMM       : LATERAL 9' FROM HLB EL LOG [ADJ TO SLB EL LOG]
LNED   .OHMM       : LONG NORMAL RESISTIVITY FROM SLB EL LOG
LT16ED .OHMM       : 16 INCH LATERAL  FROM HLB EL LOG [ADJ TO SLB EL LOG]
LT18ED .OHMM       : 18 INCH LATERAL  FROM SLB EL LOG
MCALED .IN         : CALIPER CONTACT TOOL FROM HLB EL LOG
MLLED  .OHMM       : MICRO FOCUSED LATEROLOG RESISTIVITY  FROM MICROLATEROLOG [ADJ TO SLB EL LOG]
NEUT1ED.NAPI       : NEUTRON FROM SLB GRN-RADIATION LOG
NEUT2ED.NAPI       : NEUTRON FROM GRN LOG [ADJ TO SLB EL LOG]
NEUTED .NAPI       : NEUTRON FROM McCULLOUGH GRN RADIATION LOG
NEUTWS .NAPI       : NEUTRON [NEUTED SPL @5182' TO NEUT1ED]
SN1ED  .OHMM       : SHORT NORMAL 18 INCH FROM HLB EL LOG [ADJ TO SLB EL LOG]
SNED   .OHMM       : SHORT NORMAL RESISTIVITY FROM SLB EL LOG
SPR1ED .MV         : SPONTANEOUS POTENTIAL FROM HLB EL LOG [ADJ TO SLB EL LOG]
SPRED  .MV         : SPONTANEOUS POTENTIAL FROM SLB EL LOG
SPWS   .MV         : SPONTANEOUS POTENTIAL [BASELINE 0MV, SPRED]
SRESWS .OHMM       : SHALLOW RESISTIVITY [SNED]
~Params ----------------------------------------------------
LMF .                     KB : LOG MEASURED FROM
DMF .                     KB : DRILLING MEASURED FROM
EKB .FT                 2813 : KELLY BUSHING
DATE.               05/07/56 : RUN DATE
RUN .                      1 : RUN NUMBER
DD  .FT                 8499 : DEPTH DRILLER
DL  .FT                 8499 : DEPTH LOGGER
BLI .FT                 8498 : BOTTOM LOG INTERVAL
TLI .FT                  610 : TOP LOG INTERVAL
CBL .FT                  610 : CASING BOTTOM LOGGER
BS  .IN                    9 : BIT SIZE
BSD .FT                 8499 : BIT SIZE AT DEPTH
DFT .              LIME BASE : DRILLING FLUID TYPE
DFD .                   11.1 : DRILLING FLUID DENSITY
DFV .                     98 : DRILLING FLUID VISCOSITY
DFPH.                     13 : DRILLING FLUID PH
DFL .                     48 : DRILLING FLUID LOSS
RMS .OHMM               0.72 : RESISTIVITY MUD SAMPLE
MST .DEGF                 85 : MUD SAMPLE TEMPERATURE
RMB .OHMM               0.39 : RESISTIVITY MUD AT BHT
TCS .HRS                 2.5 : TIME CIRCULATED STOPPED
LUN .                   2786 : LOGGING UNIT NUMBER
LUL .                    EDM : LOGGING UNIT LOCATION
ENGI.                 TAYLOR : RECORDING ENGINEER
WITN.              ARMSTRONG : WITNESSED BY
CLNT.                A2DTECH : CLIENT CODE
ORIG.            2" 5" PRINT : ORIGIN OF DATA
UWI .       100081504804W500 : UNIQUE WELL ID
DICO. A2D Technologies, Inc. : DIGITIZING COMPANY
~Other -----------------------------------------------------
EL-MLL-GR-NEU LOG RAN
~ASCII -----------------------------------------------------
# ...
 4650.00000    -999.25    -999.25   42.89420   23.31320    -999.25   77.54660   12.04630  125.28150   17.02650   23.31320   10.17140   17.88130    -999.25    -999.25    -999.25  297.16900  123.27920  123.27920   17.40190   16.99600  -49.83770  -43.47660   -6.64950   16.99600
 4700.00000    -999.25    -999.25   56.50000   17.69910    -999.25   72.99200   12.56700  130.69680    -999.25   17.69910    -999.25   13.35180    -999.25    -999.25    -999.25  212.71490   94.93930   94.93930    -999.25   13.39360  -39.79760  -42.60740   -5.83860   13.39360
 4750.00000    -999.25    -999.25   33.46230   29.88440    -999.25   67.18610   12.18200  126.69280   10.53670   29.88440    -999.25   43.91460    -999.25    -999.25    -999.25  249.81350  143.99170  143.99170    -999.25   20.27930  -47.27680  -45.12040   -8.40990   20.27930
 4800.00000    -999.25    -999.25   66.36280   15.06970    -999.25   63.10350   12.95840  134.76740    9.05470   15.06970    4.77270   18.84410    -999.25    -999.25    -999.25  170.18050   50.71640   50.71640    2.50130    9.68040  -49.54660  -42.59040   -5.93790    9.68040
 4850.00000    -999.25    -999.25   28.10960   35.57500    -999.25  104.05300   16.46150  171.19960   32.14030   35.57500   13.22750   26.05250    -999.25    -999.25    -999.25  298.10330  139.92520  139.92520   29.20520   23.49250  -44.43520  -47.02350  -10.42960   23.49250
 4900.00000    -999.25    -999.25   45.63400   21.91350    -999.25  114.30150   17.33510  180.28500   22.79900   21.91350   13.31350   24.38460    -999.25    -999.25    -999.25  273.21730  115.90370  115.90370   16.06080   15.62160  -39.94460  -46.72840  -10.19280   15.62160
 4950.00000    -999.25    -999.25   59.74890   16.73670    -999.25  105.96180   18.46590  192.04540   15.55700   16.73670   10.51600   17.57830    -999.25    -999.25    -999.25  177.39840  120.02780  120.02780   13.29990   12.67600  -43.20670  -44.22320   -7.74590   12.67600
 5000.00000    -999.25    -999.25  110.19410    9.07490    -999.25   87.17000   14.81290  154.05420    8.88530    9.07490    4.71160    9.10970    -999.25    -999.25    -999.25  167.84480  135.67420  135.67420    6.05030    7.42620  -44.46150  -41.46770   -5.04870    7.42620
 5050.00000    -999.25    -999.25  160.22010    6.24160    -999.25   43.88040   10.76450  111.95030    5.12870    6.24160    3.75780    6.24840    -999.25    -999.25    -999.25  171.94220  146.87090  146.87090    4.52030    5.46450  -50.21130  -39.97140   -3.61040    5.46450
 5100.00000    -999.25   13.90330  178.48540    5.60270    -999.25   48.73530   11.03990  114.81500    3.89750    5.60270    2.33270    4.59720   13.90330    -999.25    -999.25  107.34020  125.33980  125.33980    3.47250    4.88640  -40.08480  -38.22200   -1.90090    4.88640
 5150.00000    -999.25    8.94350   39.68820   25.19640    -999.25  112.37520    4.91210   51.08580   19.89080   25.19640    8.30340   12.80370    8.94350    -999.25    -999.25  666.62650  762.09550  762.09550   21.35120   19.06180  -52.76730  -55.52670  -19.20560   19.06180
 5200.00000    -999.25    9.28880   44.11820   22.66640    6.17160  142.50730    -999.25  101.83140   23.90310   22.66640   15.56700   25.08240    9.28880    -999.25  221.51510  662.19800    -999.25  221.51510   15.89600   15.06230  -47.81180  -48.43970  -12.11860   15.06230
 5250.00000    -999.25   12.34170  290.99370    3.43650    7.29520    -999.25    -999.25  120.37080    2.54980    3.43650    2.36740    4.78410   12.34170    -999.25  157.20270    -999.25    -999.25  157.20270    1.42290    2.85710  -45.52270  -43.62940   -7.30830    2.85710
 5300.00000    -999.25   10.38510   81.62750   12.25090    6.95750    -999.25    -999.25  114.79790   11.79960   12.25090    6.61810   10.11840   10.38510    -999.25  160.91270    -999.25    -999.25  160.91270    7.55880    8.33700  -48.22920  -42.09100   -5.98730    8.33700
 5350.00000    -999.25    9.18430   44.25440   22.59660    5.26370    -999.25    -999.25   86.85110   17.77600   22.59660    6.90250   11.99810    9.18430    -999.25  206.61340    -999.25    -999.25  206.61340   19.27600   17.93520  -49.08660  -48.09130  -12.36750   17.93520
 5400.00000    -999.25    9.47600   28.69560   34.84860    6.50930    -999.25    -999.25  107.40340   25.57080   34.84860   17.29060   28.36670    9.47600    -999.25  186.36830    -999.25    -999.25  186.36830   18.53100   14.67960  -45.91440  -46.69830  -11.35260   14.67960
 5450.00000    -999.25   10.94590   21.17700   47.22110    5.94520    -999.25    -999.25   98.09580   99.18030   47.22110  106.86220  153.57830   10.94590    -999.25  159.38600    -999.25    -999.25  159.38600   26.77120   21.86670  -52.72500  -46.07300  -11.10530   21.86670
 5500.00000    -999.25    9.90860   30.64500   32.63170    6.34420    -999.25    -999.25  104.67930   20.26820   32.63170   16.68700   25.74900    9.90860    -999.25  185.87870    -999.25    -999.25  185.87870   17.99780   14.51820  -49.73420  -43.30160   -8.71190   14.51820
 5550.00000    -999.25    9.81750   31.35750   31.89290    5.80650    -999.25    -999.25   95.80640   39.32920   31.89290   18.22240   35.98070    9.81750    -999.25  189.57830    -999.25    -999.25  189.57830   16.42670   15.02420  -52.80610  -46.43350  -12.22000   15.02420
 5600.00000    -999.25    9.77000   34.45480   29.02350    5.62700    -999.25    -999.25   92.84550   33.38190   29.02350   11.40470   24.05960    9.77000    -999.25  216.99370    -999.25    -999.25  216.99370   18.52840   16.93300  -53.25680  -51.18320  -17.34960   16.93300
 5650.00000    -999.25    9.88800   23.82050   41.98070    5.65700    -999.25    -999.25   93.34050   46.49190   41.98070   39.54690   71.69500    9.88800    -999.25  206.36420    -999.25    -999.25  206.36420   34.11020   26.66560  -49.51570  -48.86620  -15.41070   26.66560
 5700.00000    -999.25    9.52920   32.29800   30.96170    6.37890    -999.25    -999.25  105.25180   32.77330   30.96170   23.28310   41.91620    9.52920    -999.25  201.80690    -999.25    -999.25  201.80690   19.95150   18.53600  -40.08840  -45.10160  -12.02410   18.53600
 5750.00000    -999.25    9.55810   15.66350   63.84280    5.07290    -999.25    -999.25   83.70280   82.91670   63.84280   39.49860   77.40120    9.55810    -999.25  211.24040    -999.25    -999.25  211.24040   44.99960   35.27860  -37.94870  -44.41430  -11.71490   35.27860
 5800.00000    -999.25    9.63920   21.04090   47.52930    6.33570    -999.25    -999.25  104.53820   61.96950   47.52930   23.45630   42.48750    9.63920    -999.25  211.59750    -999.25    -999.25  211.59750   33.48010   27.22490  -36.97500  -44.79790  -12.47470   27.22490
 5850.00000    -999.25    9.46850   20.03420   49.91460    5.28920    -999.25    -999.25   87.27180   77.81920   49.91460   34.41860   59.69970    9.46850    -999.25  241.87280    -999.25    -999.25  241.87280   40.00280   31.61010  -41.95860  -46.89830  -14.95500   31.61010
 5900.00000    -999.25    9.31070   10.38470   96.29530    1.87890    -999.25    -999.25   31.00190   26.86590   96.29530   10.96960   10.77480    9.31070    -999.25  301.55680    -999.25    -999.25  301.55680   93.12280   60.32750  -48.96550  -56.00810  -24.44280   60.32750
 5950.00000    -999.25    9.35750    2.30140  434.51200    2.19770    -999.25    -999.25   36.26210  516.50190  434.51200  531.04850  658.43020    9.35750    -999.25  391.14110    -999.25    -999.25  391.14110  254.93140   98.03800  -63.22270  -64.39830  -33.21100   98.03800
 6000.00000    -999.25    9.23620    6.84850  146.01690    2.78320    -999.25    -999.25   45.92280  189.38720  146.01690  183.32230  351.33790    9.23620    -999.25  360.39920    -999.25    -999.25  360.39920   86.83620   48.85400  -53.65500  -57.89100  -27.08180   48.85400
 6050.00000    -999.25    9.10900   11.16500   89.57090    3.11020    -999.25    -999.25   51.31830  139.32220   89.57090   88.48100  173.18320    9.10900    -999.25  331.01600    -999.25    -999.25  331.01600   58.23790   36.99230  -56.43830  -55.76870  -25.33560   36.99230
