~Version ---------------------------------------------------
VERS.      2.0 : CWLS log ASCII Standard -VERSION 2.0
WRAP.       NO : One line per depth step
CREA. 01/05/18 : LAS Creation Date
~Well ------------------------------------------------------
STRT.FT                   300.0 : START DEPTH
STOP.FT                 11550.0 : STOP DEPTH
STEP.FT                50.00000 : STEP LENGTH
NULL.                   -999.25 : NULL VALUE
COMP.      MOBIL OIL CANADA LTD : COMPANY
WELL. MOBIL PINEDALE 6-29-54-16 : WELL
FLD .                           : FIELD
LOC .                           : LOCATION
CTRY.                    CANADA : COUNTRY
SRVC.    Schlumberger of Canada : SERVICE COMPANY
DATE.               02-Oct-1968 : LOGDATE
PROV.                   Alberta : PROVINCE
UWI .          100062905416W500 : UNIQUE WELL ID
SLAT.WGS84             53.69074 : SURFACE LATITUDE
SLON.WGS84            -116.3264 : SURFACE LONGITUDE
~Curve Information -----------------------------------------
DEPT    .FT    : Depth Curve
CALDED  .IN    : CALIPER FROM DENSITY LOG [ADJ. TO RESISTIVITY LOG]
CALNED  .IN    : CALIPER FROM NEUTRON LOG [ADJ. TO RESISTIVITY LOG]
CALSED  .IN    : CALIPER FROM SONIC LOG [ADJ. TO RESISTIVITY LOG]
CALWS   .IN    : CALIPER [CALSED]
CILDED  .MMHO  : DEEP INDUCTION CONDUCTIVITY FROM RESISTIVITY LOG
CONDWS  .MMHO  : CONDUCTIVITY [1000/DRESWS]
DCORED  .G/C3  : DENSITY CORRECTION FROM DENSITY LOG [ADJ. TO RESISTIVITY LOG]
DCORWS  .G/C3  : DENSITY CORRECTION [DCORED]
DENWS   .G/C3  : FORMATION BULK DENSITY [RHOBED]
DPHILSED.V/V   : DENSITY POROSITY LIMESTONE [M=2.71,F=1.0] FROM DENSITY LOG [ADJ. TO RESISTIVITY LOG]
DPOLSWS .V/V   : DENSITY POROSITY LIMESTONE [CALC. FROM DENWS M=2.71,F=1.0]
DRESWS  .OHMM  : DEEP RESISTIVITY [1000/CILDED IF ILDED <5, ILDED]
DTED    .US/F  : DELTA-T FROM SONIC LOG [ADJ. TO RESISTIVITY LOG]
DTWS    .US/F  : COMPRESSIONAL SONIC [DTED]
GRDED   .GAPI  : GAMMA RAY FROM DENSITY LOG [ADJ. TO RESISTIVITY LOG]
GRNED   .GAPI  : GAMMA RAY FROM NEUTRON LOG [ADJ. TO RESISTIVITY LOG]
GRSED   .GAPI  : GAMMA RAY FROM SONIC LOG [ADJ. TO RESISTIVITY LOG]
GRWS    .GAPI  : GAMMA RAY [GRSED SPL. TO GRDED @ 11555']
ILDED   .OHMM  : DEEP INDUCTION FROM RESISTIVITY LOG
NPOLSWS .V/V   : NEUTRON POROSITY LIMESTONE [SNPLSED]
RHOBED  .G/C3  : BULK DENSITY FROM DENSITY LOG [ADJ. TO RESISTIVITY LOG]
SNED    .OHMM  : SHORT NORMAL FROM RESISTIVITY LOG
SNPLSED .V/V   : SIDEWALL NEUTRON POROSITY LIMESTONE FROM NEUTRON LOG [ADJ. TO RESISTIVITY LOG]
SPRED   .MV    : SPONTANEOUS POTENTIAL FROM RESISTIVITY LOG
SPWS    .MV    : SPONTANEOUS POTENTIAL [BASELINE 0 MV, SPRED]
SRESWS  .OHMM  : SHALLOW RESISTIVITY [SNED]
~Params ----------------------------------------------------
DATE.               10/02/68 : RUN DATE
RUN .                      1 : RUN NUMBER
CLNT.                A2DTECH : CLIENT CODE
ORIG.               5" PRINT : ORIGIN OF DATA
UWI .       100062905416W500 : UNIQUE WELL ID
DICO. A2D Technologies, Inc. : DIGITIZING COMPANY
~Other -----------------------------------------------------
IEL & SNP & FDC & BHC SONIC LOG RAN
SPRED,SNED,ILDED & CILDED VERIFY FROM SMALL SECTION FROM TOP - 6470'
~ASCII -----------------------------------------------------
# ...
 9750.00000   10.33250   10.39120    9.35010    9.35010   10.91530    8.23740    0.22630    0.22630    2.54750    0.11070    0.09500  121.39710   71.53180   71.53180   27.19500   27.23520   27.47500   27.47500  121.39710    0.07060    2.54750   98.58220    0.07060 -116.36610  -99.53330   98.58220
 9800.00000   10.40290   10.61640    9.86020    9.86020   10.53370    7.81320    0.15540    0.15540    2.50980    0.14070    0.11700  127.98850   51.75990   51.75990   24.93620   28.25580   26.20920   26.20920  127.98850    0.02620    2.50980   74.99200    0.02620  -65.37000  -49.64540   74.99200
 9850.00000   11.22990   11.70080   10.25310   10.25310   51.69090   48.39590    0.21130    0.21130    2.36030    0.20500    0.20450   20.66290   61.45340   61.45340   54.06950   52.51220   54.42490   54.42490   20.66290    0.10160    2.36030   20.84920    0.10160  -25.13720  -10.52820   20.84920
 9900.00000    8.82950    9.63890    9.28550    9.28550   32.74460   30.18160    0.05220    0.05220    2.50620    0.12500    0.11920   33.13280   57.97060   57.97060   45.30460   43.70130   44.34500   44.34500   33.13280    0.04300    2.50620   31.49180    0.04300  -34.38590  -18.70710   31.49180
 9950.00000    9.08620    9.01320    9.76040    9.76040   25.91660   23.81440    0.05830    0.05830    2.50480    0.16410    0.12000   41.99420   60.72250   60.72250   50.36720   55.06370   53.97760   53.97760   41.99420    0.17240    2.50480   23.31670    0.17240  -82.33970  -63.44870   23.31670
 10000.00000    8.77870    8.72180    9.39740    9.39740   25.66190   24.15310    0.06590    0.06590    2.49880    0.06180    0.12350   41.40260   57.79310   57.79310   47.22800   45.91400   49.83930   49.83930   41.40260    0.18290    2.49880   27.21370    0.18290 -110.47440  -88.39220   27.21370
 10050.00000   14.85110   14.14010   13.55070   13.55070  142.88810  132.56270    0.15130    0.15130    1.98520    0.43150    0.42390    7.54360   79.07240   79.07240   73.05890   73.24330   72.18440   72.18440    7.54360    0.47470    1.98520    8.68740    0.47470 -102.56340  -77.29000    8.68740
 10100.00000   13.33260   13.32340   11.36790   11.36790   84.16610   76.18410    0.18950    0.18950    2.34380    0.22430    0.21420   13.12610   72.13660   72.13660   65.01380   65.88420   65.06240   65.06240   13.12610    0.20750    2.34380   13.35000    0.20750  -78.86450  -50.37890   13.35000
 10150.00000    9.68430    9.57210    9.53350    9.53350   22.10560   20.18600    0.00920    0.00920    2.67420    0.04890    0.02090   49.53930   68.91200   68.91200   75.96090   79.92570   79.19490   79.19490   49.53930    0.13820    2.67420   47.60050    0.13820 -101.29860  -69.62180   47.60050
 10200.00000    9.53600    9.45090    9.55630    9.55630   70.21420   63.74270    0.00930    0.00930    2.71080    0.00290   -0.00050   15.68910   67.88040   67.88040   79.83410   80.70320   79.94410   79.94410   15.68910    0.14310    2.71080   17.39920    0.14310  -60.11770  -25.22880   17.39920
 10250.00000   12.56480   11.77240   10.08980   10.08980   76.74010   69.08320    0.23520    0.23520    2.19820    0.30100    0.29930   14.47530   94.40420   94.40420   49.66760   52.84890   49.20900   49.20900   14.47530    0.35330    2.19820   16.71390    0.35330  -48.69670  -10.61660   16.71390
 10300.00000   14.78970   14.36570   14.12640   14.12640  135.34790  123.70270    0.18680    0.18680    1.90930    0.46390    0.46820    8.08390   85.67700   85.67700   79.77190   80.64320   83.01990   83.01990    8.08390    0.47470    1.90930   10.06460    0.47470  -69.64060  -32.43980   10.06460
 10350.00000   11.70500   11.58660   10.12900   10.12900   62.00200   55.42500    0.26550    0.26550    2.47190    0.13400    0.13920   18.04240   64.89440   64.89440   73.16710   75.02410   74.18920   74.18920   18.04240    0.23560    2.47190   18.50750    0.23560  -56.47340  -21.00310   18.50750
 10400.00000    9.52550    9.44870    9.55150    9.55150   38.05180   35.94100    0.01350    0.01350    2.71480   -0.01000   -0.00280   27.82340   60.58870   60.58870   61.73610   63.43080   60.77190   60.77190   27.82340    0.07400    2.71480   27.46920    0.07400  -39.94080   -6.18970   27.46920
 10450.00000   13.47080   13.23400   10.79040   10.79040   97.63060   90.71230    0.18130    0.18130    2.46680    0.15130    0.14220   11.02520   72.55140   72.55140   85.98550   88.49750   93.74390   93.74390   11.02520    0.25610    2.46680   12.53790    0.25610  -52.92220  -21.15000   12.53790
 10500.00000   12.30850   12.03740   10.16820   10.16820   81.15540   73.57160    0.17690    0.17690    2.47770    0.12440    0.13580   13.59220   71.19770   71.19770   88.86160   92.17320   95.62240   95.62240   13.59220    0.23250    2.47770   15.15280    0.23250  -68.26430  -38.72830   15.15280
 10550.00000   12.21330   12.23690   10.16890   10.16890   95.41510   86.91190    0.19230    0.19230    2.47760    0.15640    0.13590   11.50590   72.56120   72.56120   90.29490   88.85860   98.68220   98.68220   11.50590    0.22810    2.47760   13.73690    0.22810  -60.80690  -33.50710   13.73690
 10600.00000   10.33180    9.98340    9.88560    9.88560   78.57980   72.05550    0.26390    0.26390    2.57200    0.09070    0.08070   13.87820   69.38800   69.38800   71.37950   76.46750   76.25590   76.25590   13.87820    0.17300    2.57200   16.34620    0.17300  -56.39110  -31.34230   16.34620
 10650.00000   11.02480   10.71920    9.78140    9.78140   74.35990   67.52970    0.20510    0.20510    2.58060    0.06840    0.07570   14.80830   70.44210   70.44210   89.97960   86.72510   96.09440   96.09440   14.80830    0.20970    2.58060   17.01920    0.20970  -54.37360  -31.56100   17.01920
 10700.00000   10.88540   10.67400    9.90180    9.90180   78.82540   72.18930    0.19910    0.19910    2.65890    0.01610    0.02990   13.85290   71.34560   71.34560   96.13510   90.50600   93.84470   93.84470   13.85290    0.19320    2.65890   15.84060    0.19320  -69.96320  -49.40150   15.84060
 10750.00000    9.63220    9.43160    9.41740    9.41740   63.63430   57.26460    0.10780    0.10780    2.75510   -0.02180   -0.02640   17.46280   66.20790   66.20790   82.33290   81.80710   88.63940   88.63940   17.46280    0.15480    2.75510   19.95890    0.15480  -70.12320  -51.79770   19.95890
 10800.00000    9.76830    9.88920    9.57670    9.57670   80.97570   72.57530    0.16030    0.16030    2.69050    0.00070    0.01140   13.77880   68.10100   68.10100   83.16870   80.95260   83.16250   83.16250   13.77880    0.12050    2.69050   16.37290    0.12050  -73.52900  -57.43980   16.37290
 10850.00000    9.11370    9.10220    9.07870    9.07870    9.38220    6.67550   -0.01210   -0.01210    2.71960   -0.01090   -0.00560  149.80250   52.14710   52.14710   32.82970   31.20520   37.08220   37.08220  149.80250    0.01720    2.71960   98.57950    0.01720  -37.20090  -23.36260   98.57950
 10900.00000    9.03130    8.81900    9.79900    9.79900   23.66560   21.62600    0.12420    0.12420    2.41230    0.15340    0.17410   46.24060   61.87630   61.87630   89.65510   89.73320   92.65620   92.65620   46.24060    0.14490    2.41230   67.59470    0.14490  -66.66430  -52.37510   67.59470
 10950.00000   10.39820    9.94500    9.34250    9.34250    3.51270    1.80510    0.07990    0.07990    2.64710    0.07060    0.03680  553.97290   49.69220   49.69220   11.72280   12.86350    9.95670    9.95670  553.97290    0.04990    2.64710  268.32240    0.04990 -112.26780  -94.27120  268.32240
 11000.00000    9.31410    9.20010    9.09240    9.09240    3.37960    1.80250    0.12260    0.12260    2.65220    0.03470    0.03380  554.77870   49.25050   49.25050   13.57600   13.64040   12.23530   12.23530  554.77870    0.02440    2.65220  223.26980    0.02440 -121.98070 -100.30080  223.26980
 11050.00000   11.45060   11.08870    9.52310    9.52310    3.36690    1.80880    0.13740    0.13740    2.64620    0.01610    0.03730  552.84030   49.58950   49.58950   17.34290   18.93560   15.92390   15.92390  552.84030    0.01380    2.64620  217.44390    0.01380 -164.20080 -138.83770  217.44390
