~Version ---------------------------------------------------
VERS. 2.0 : CWLS log ASCII Standard -VERSION 2.0
WRAP.  NO : ONE LINE PER DEPTH STEP
~Well ------------------------------------------------------
STRT.M                             300.0 : START DEPTH
STOP.M                            1800.0 : STOP DEPTH
STEP.M                          50.00000 : STEP LENGTH
NULL.                            -999.25 : NULL VALUE
COMP. CANADIAN NATURAL RESOURCES LIMITED : COMPANY
WELL.             CNRL NIPISI 15-25-77-8 : WELL
FLD .                             NIPISI : FIELD
LOC .                                    : LOCATION
CTRY.                             CANADA : COUNTRY
SRVC.                         GREAT GUNS : SERVICE COMPANY
DATE.                        10-Jan-1991 : LOGDATE
PROV.                            Alberta : PROVINCE
UWI .                   100152507708W500 : UNIQUE WELL ID
SLAT.WGS84                 55.7062553063 : SURFACE LATITUDE
SLON.WGS84               -115.0961486425 : SURFACE LONGITUDE
~Curve Information -----------------------------------------
DEPT    .M                                          : DEPTH METERS
CALWS   .MM                                         : CALIPER [CALYED]
CALYED  .MM                                         : CALIPER Y FROM DENSITY LOG
CONDWS  .MMHO                                       : CONDUCTIVITY [1000/DRESWS]
DCORED  .KG/M3                                      : DENSITY CORRECTION FROM DENSITY LOG
DCORWS  .KG/M3                                      : DENSITY CORRECTION [DCORED]
DENWS   .KG/M3                                      : BULK DENSITY [M=2710 F=1000 IN SHALLOW ZONE, M=2650 F=1000 IN DEEP ZONE] [CALCULATED FROM DPOWS]
DPHILSED.V/V                                        : DENSITY POROSITY LIMESTONE FROM DENSITY LOG
DPHISSED.V/V                                        : DENSITY POROSITY SANDSTONE FROM DENSITY LOG
DPOLSWS .V/V :   DENSITY POROSITY LIMESTONE [SPLICE : 162 DPHILS2 572.7 DPHILSED. TEMP CURVE DPHILS2 CALCULATED FROM RHOBED [M=2710, F=1000]
DPOSSWS .V/V :   DENSITY POROSITY SANDSTONE [SPLICE : 162 DPHISS2 1600.4 DPHISSED 1753 DPHISS2 1758.9 DPHISSED 1783.7 DPHISS2 1791.3 DPHISSED. TEMP CURVE DPHISS2 CALCULATED FROM RHOBED. M=2650, F=1000]
DRESWS  .OHMM                                       : DEEP RESISTIVITY [ILDED]
DTED    .US/M                                       : INTERVAL TRANSIT TIME
DTWS    .US/M                                       : DELTA TIME [DTED]
GRRED   .GAPI                                       : GAMMA RAY FROM RESISTIVITY LOG
GRWS    .GAPI          :   GAMMA RAY [GRRED. CASING : 184]
ILDED   .OHMM                                       : INDUCTION LOG DEEP RESISTIVITY
ILMED   .OHMM                                       : INDUCTION LOG MEDIUM RESISTIVITY
MRESWS  .OHMM                                       : MEDIUM RESISTIVITY [ILMED]
NPHILSED.V/V                                        : NEUTRON POROSITY LIMESTONE FROM DENSITY LOG
NPHISSED.V/V                                        : NEUTRON POROSITY SANDSTONE FROM DENSITY LOG
NPOLSWS .V/V                                        : NEUTRON POROSITY LIMESTONE [NPHILSED]
NPOSSWS .V/V                                        : NEUTRON POROSITY SANDSTONE [NPHISSED]
RHOBED  .KG/M3                                      : BULK DENSITY FROM DENSITY LOG [DEPTH SHIFTED TO DPHILSED AND DPHISSED]
SGURDED .OHMM                                       : SHORT GUARD RESISTIVITY FROM RESISTIVITY LOG
SPRED   .MV                                         : SPONTANEOUS POTENTIAL FROM RESISTIVITY LOG
SPWS    .MV                                         : SPONTANEOUS POTENTIAL [BASELINE 0 MV] [SPED. SHOWS POSSIBLE SLIGHT REVERSAL BELOW MASSIVE CARBONATE SECTION]
SRESWS  .OHMM                                       : SHALLOW RESISTIVITY [SGURDED]
~Params ----------------------------------------------------
PD  .                         GL : PERMANENT DATUM
LMF .                         KB : LOG MEASURED FROM
DAPD.M                       4.2 : FEET ABOVE PERMANENT DATUM
DMF .                         KB : DRILLING MEASURED FROM
EKB .M                    686.94 : KELLY BUSHING
EGL .M                     682.7 : GROUND LEVEL
DATE.                   01/10/91 : RUN DATE
RUN .                          1 : RUN NUMBER
DD  .M                      1802 : DEPTH DRILLER
DL  .M                      1800 : DEPTH LOGGER
BLI .M                   1800.27 : BOTTOM LOG INTERVAL
TLI .M                     162.8 : TOP LOG INTERVAL
CS  .MM                      219 : CASING SIZE
CBD .M                       184 : CASING BOTTOM DRILLER
CBL .M                       184 : CASING BOTTOM LOGGER
BS  .MM                      200 : BIT SIZE
BSD .M                      1802 : BIT SIZE AT DEPTH
DFT .                   GEL CHEM : DRILLING FLUID TYPE
DFD .                       1145 : DRILLING FLUID DENSITY
DFV .                         77 : DRILLING FLUID VISCOSITY
DFPH.                         11 : DRILLING FLUID PH
DFL .                          9 : DRILLING FLUID LOSS
MSS .                       MEAS : MUD SAMPLE SOURCE
RMS .OHMM                    1.3 : RESISTIVITY MUD SAMPLE
MST .DEGC                     18 : MUD SAMPLE TEMPERATURE
RMF .OHMM                    1.0 : RESISTIVITY MUD FILTRATE SAMPLE
MFST.DEGC                     18 : MUD FILTRATE SAMPLE TEMPERATURE
RMC .OHMM                   1.55 : RESISTIVITY MUD CAKE
MCST.DEGC                     18 : MUD CAKE SAMPLE TEMPERATURE
MFSS.                       MEAS : MUD FILTRATE SAMPLE SOURCE
MCSS.                       MEAS : MUD CAKE SAMPLE SOURCE
RMB .OHMM                  0.663 : RESISTIVITY MUD AT BHT
TCS .HRS                     300 : TIME CIRCULATED STOPPED
LUN .                         98 : LOGGING UNIT NUMBER
LUL .                      LEDUC : LOGGING UNIT LOCATION
ENGI.                      CHICK : RECORDING ENGINEER
WITN.                   COULOMBE : WITNESSED BY
CLNT.                    A2DTECH : CLIENT CODE
ORIG. 6.5"/100M 16.5"/100M PRINT : ORIGIN OF DATA
UWI .           100152507708W500 : UNIQUE WELL ID
DICO.     A2D Technologies, Inc. : DIGITIZING COMPANY
~Other -----------------------------------------------------
1. TEMPORARY CURVE DPHILS2 CALCULATED FROM RHOBED (M=2710 F=1000 IN SHALLOW SECTION). TEMPORARY CURVE DPHISS2 CALCULATED FROM RHOBED IN DEEP SECTION (M=2650, F=1000 IN DEEP SECTION). NECESSARY FOR COVERAGE OF FULL DEPTH RANGE, AND ALSO FOR POROSITY VALUES LESS THAN -.15 V/V IN THE DPHISSED DEEP SECTION. DPHISSED DID NOT WRAP, SO ALL VALUES FROM -.15 V/V OR LESS WERE STRAIGHTLINED.
~ASCII -----------------------------------------------------
  300.00000  295.39960  295.39960  219.96390    -999.25    -999.25    -999.25    -999.25    -999.25    -999.25    -999.25    4.54620  572.94260  572.94260   77.88990   77.88990    4.54620    3.97080    3.97080    -999.25    -999.25    -999.25    -999.25    -999.25    4.26640  -74.03040   -2.93970    4.26640
  350.00000  357.98000  357.98000  361.10210    -999.25    -999.25    -999.25    -999.25    -999.25    -999.25    -999.25    2.76930  460.28520  460.28520   91.03650   91.03650    2.76930    2.97260    2.97260    -999.25    -999.25    -999.25    -999.25    -999.25    3.29860  -77.54080   -5.29990    3.29860
  400.00000  211.29430  211.29430  138.30880    -999.25    -999.25    -999.25    -999.25    -999.25    -999.25    -999.25    7.23020  403.29030  403.29030   37.26370   37.26370    7.23020    9.80820    9.80820    -999.25    -999.25    -999.25    -999.25    -999.25   10.06950  -78.48150   -7.71860   10.06950
  450.00000  215.94390  215.94390  140.63710    -999.25    -999.25    -999.25    -999.25    -999.25    -999.25    -999.25    7.11050  306.38450  306.38450   40.29450   40.29450    7.11050   11.32000   11.32000    -999.25    -999.25    -999.25    -999.25    -999.25  172.75020  -76.79590  -13.45190  172.75020
  500.00000  246.09710  246.09710  276.62520    -999.25    -999.25    -999.25    -999.25    -999.25    -999.25    -999.25    3.61500  398.75300  398.75300   73.99570   73.99570    3.61500    4.45870    4.45870    -999.25    -999.25    -999.25    -999.25    -999.25    5.53860  -63.69810   -2.12970    5.53860
  550.00000  310.93490  310.93490  303.84980    -999.25    -999.25    -999.25    -999.25    -999.25    -999.25    -999.25    3.29110  412.71990  412.71990   69.76610   69.76610    3.29110    3.38220    3.38220    -999.25    -999.25    -999.25    -999.25    -999.25    3.64130  -79.10860  -17.55040    3.64130
  600.00000  279.05460  279.05460  134.30750   64.50000   64.50000 2388.20000    0.18820    -999.25    0.18820    -999.25    7.44560  323.04640  323.04640   73.39950   73.39950    7.44560    9.20810    9.20810    0.26350    -999.25    0.26350    -999.25 2404.59990   10.52900  -74.60910  -14.53990   10.52900
  650.00000  285.58840  285.58840  143.72360    -999.25    -999.25    -999.25    -999.25    -999.25    -999.25    -999.25    6.95780  271.10500  271.10500   42.49770   42.49770    6.95780    7.35690    7.35690    -999.25    -999.25    -999.25    -999.25    -999.25   17.11730  -50.41310  -12.51830   17.11730
  700.00000  273.86740  273.86740  213.67520    -999.25    -999.25    -999.25    -999.25    -999.25    -999.25    -999.25    4.68000  262.01110  262.01110   45.48630   45.48630    4.68000    5.36640    5.36640    -999.25    -999.25    -999.25    -999.25    -999.25    8.25180  -67.49830  -26.11860    8.25180
  750.00000  239.33580  239.33580  107.87140    -999.25    -999.25    -999.25    -999.25    -999.25    -999.25    -999.25    9.27030  208.60030  208.60030   26.87230   26.87230    9.27030   12.00650   12.00650    -999.25    -999.25    -999.25    -999.25    -999.25   15.16260  -84.20790  -39.34330   15.16260
  800.00000  239.59570  239.59570  105.31750    -999.25    -999.25    -999.25    -999.25    -999.25    -999.25    -999.25    9.49510  212.68700  212.68700   23.43750   23.43750    9.49510   12.66990   12.66990    -999.25    -999.25    -999.25    -999.25    -999.25   18.13060  -64.95350  -16.60390   18.13060
  850.00000  331.98030  331.98030  369.49450    -999.25    -999.25    -999.25    -999.25    -999.25    -999.25    -999.25    2.70640  402.20140  402.20140   77.56810   77.56810    2.70640    2.61440    2.61440    -999.25    -999.25    -999.25    -999.25    -999.25    4.38570  -56.86680   -8.17840    4.38570
  900.00000  247.15990  247.15990   62.59580    -999.25    -999.25    -999.25    -999.25    -999.25    -999.25    -999.25   15.97550  205.17440  205.17440   15.66000   15.66000   15.97550   28.07210   28.07210    -999.25    -999.25    -999.25    -999.25    -999.25   80.57610 -110.73770  -60.35270   80.57610
  950.00000  272.71910  272.71910   84.68050    -999.25    -999.25    -999.25    -999.25    -999.25    -999.25    -999.25   11.80910  207.90380  207.90380   16.97320   16.97320   11.80910   18.96040   18.96040    -999.25    -999.25    -999.25    -999.25    -999.25   62.96950 -132.68860  -80.60700   62.96950
 1000.00000  254.98290  254.98290  129.43980    -999.25    -999.25    -999.25    -999.25    -999.25    -999.25    -999.25    7.72560  203.87210  203.87210   15.49370   15.49370    7.72560   13.05770   13.05770    -999.25    -999.25    -999.25    -999.25    -999.25   35.44140 -147.11000  -93.33190   35.44140
 1050.00000  237.47280  237.47280   52.68290    -999.25    -999.25    -999.25    -999.25    -999.25    -999.25    -999.25   18.98150  175.22810  175.22810   14.58620   14.58620   18.98150   31.09140   31.09140    -999.25    -999.25    -999.25    -999.25    -999.25   87.97700 -117.27310  -61.79840   87.97700
 1100.00000  249.21890  249.21890   51.31860    -999.25    -999.25    -999.25    -999.25    -999.25    -999.25    -999.25   19.48610  196.64280  196.64280   14.15310   14.15310   19.48610   26.96670   26.96670    -999.25    -999.25    -999.25    -999.25    -999.25   83.27700 -140.29530  -83.12410   83.27700
 1150.00000  223.03640  223.03640  121.14900    -999.25    -999.25    -999.25    -999.25    -999.25    -999.25    -999.25    8.25430  190.96280  190.96280   30.88720   30.88720    8.25430   12.52830   12.52830    -999.25    -999.25    -999.25    -999.25    -999.25   27.35050 -127.42060  -68.55280   27.35050
 1200.00000  231.10300  231.10300  153.22150    -999.25    -999.25    -999.25    -999.25    -999.25    -999.25    -999.25    6.52650  198.00750  198.00750   25.98530   25.98530    6.52650   10.36860   10.36860    -999.25    -999.25    -999.25    -999.25    -999.25   47.31650 -126.44420  -65.87980   47.31650
 1250.00000  222.56360  222.56360   63.64760    -999.25    -999.25    -999.25    -999.25    -999.25    -999.25    -999.25   15.71150  193.20550  193.20550   29.95080   29.95080   15.71150   23.79760   23.79760    -999.25    -999.25    -999.25    -999.25    -999.25   44.62560  -64.67220   -2.41130   44.62560
 1300.00000  320.59130  320.59130  310.80030    -999.25    -999.25    -999.25    -999.25    -999.25    -999.25    -999.25    3.21750  317.28850  317.28850   73.05410   73.05410    3.21750    3.20180    3.20180    -999.25    -999.25    -999.25    -999.25    -999.25    3.62500  -71.00110    4.68200    3.62500
 1350.00000  289.26600  289.26600  396.95140    -999.25    -999.25    -999.25    -999.25    -999.25    -999.25    -999.25    2.51920  325.56370  325.56370   74.24620   74.24620    2.51920    2.53490    2.53490    -999.25    -999.25    -999.25    -999.25    -999.25    3.07760  -67.54050    5.79240    3.07760
 1400.00000  251.71010  251.71010  178.61610    -999.25    -999.25    -999.25    -999.25    -999.25    -999.25    -999.25    5.59860  246.03260  246.03260   61.10120   61.10120    5.59860    6.89920    6.89920    -999.25    -999.25    -999.25    -999.25    -999.25    8.88280  -53.18810   -0.55390    8.88280
 1450.00000  221.53240  221.53240   73.17910    -999.25    -999.25    -999.25    -999.25    -999.25    -999.25    -999.25   13.66510  197.67840  197.67840   21.84060   21.84060   13.66510   16.65430   16.65430    -999.25    -999.25    -999.25    -999.25    -999.25   17.89430  -66.48430  -16.16740   17.89430
 1500.00000  228.62170  228.62170  173.42740    -999.25    -999.25    -999.25    -999.25    -999.25    -999.25    -999.25    5.76610  237.79190  237.79190   68.78170   68.78170    5.76610    7.31250    7.31250    -999.25    -999.25    -999.25    -999.25    -999.25    9.21620  -45.79890   11.02100    9.21620
 1550.00000  333.79050  333.79050  376.73300    -999.25    -999.25    -999.25    -999.25    -999.25    -999.25    -999.25    2.65440  311.86250  311.86250   85.35860   85.35860    2.65440    2.82380    2.82380    -999.25    -999.25    -999.25    -999.25    -999.25    3.49920  -56.30140    2.55240    3.49920
