~Version ---------------------------------------------------
VERS. 2.0 : CWLS log ASCII Standard -VERSION 2.0
WRAP.  NO : ONE LINE PER DEPTH STEP
~Well ------------------------------------------------------
STRT.F                        1500.0 : START DEPTH
STOP.F                       10000.0 : STOP DEPTH
STEP.F                      50.00000 : STEP LENGTH
NULL.                        -999.25 : NULL VALUE
COMP. PHILLIPS PETROLEUM CANADA LTD. : COMPANY
WELL.    PHILLIPS KAYBOB 10-17-64-19 : WELL
FLD .                         KAYBOB : FIELD
LOC .                                : LOCATION
CTRY.                         CANADA : COUNTRY
SRVC.                          Welex : SERVICE COMPANY
DATE.                    17-Sep-1958 : LOGDATE
PROV.                        Alberta : PROVINCE
UWI .               100101706419W500 : UNIQUE WELL ID
SLAT.WGS84                  54.54004 : SURFACE LATITUDE
SLON.WGS84                 -116.8321 : SURFACE LONGITUDE
~Curve Information -----------------------------------------
DEPT .F    0   1   0  0 : 1 MEASURED DEPTH
GRN  .CPS  35 310 30 00 : GAMMA RAY FROM GRN LOG
NEUT .CPS  35 330 30 00 : NEUTRON
SPR  .MV   07 010 01 00 : SPONTANEOUS POTENTIAL FROM RESISTIVITY LOG
COND .MMHO 07 110 46 00 : INDUCTION CONDUCTIVITY
GUARD.OHMM 07 120 05 00 : GUARD LOG RESISITIVITY
MCAL .IN   15 280 01 00 : MLT (MICROLOG) CALIPER
~Params ----------------------------------------------------
LMF .                              KB : LOG MEASURED FROM
DAPD.FT                            14 : FEET ABOVE PERMANENT DATUM
DMF .                              KB : DRILLING MEASURED FROM
EKB .FT                          2588 : KELLY BUSHING
EDF .FT                          2586 : DRILLING FLOOR
EGL .FT                          2575 : GROUND LEVEL
DATE.                        09/17/58 : RUN DATE
RUN .                               1 : RUN NUMBER
DD  .FT                         10049 : DEPTH DRILLER
DL  .FT                         10047 : DEPTH LOGGER
BLI .FT                         10042 : BOTTOM LOG INTERVAL
TLI .FT                          1498 : TOP LOG INTERVAL
CS  .IN                         9.625 : CASING SIZE
CBD .FT                          1504 : CASING BOTTOM DRILLER
CBL .FT                          1498 : CASING BOTTOM LOGGER
BS  .IN                         7.875 : BIT SIZE
BSD .FT                         10049 : BIT SIZE AT DEPTH
DFT . OIL EMULSION GEL CAUSTIC TANNEX : DRILLING FLUID TYPE
DFD .                            10.9 : DRILLING FLUID DENSITY
DFV .                             114 : DRILLING FLUID VISCOSITY
DFPH.                             8.5 : DRILLING FLUID PH
DFL .                             4.1 : DRILLING FLUID LOSS
MSS .                      CIRCULATED : MUD SAMPLE SOURCE
RMS .OHMM                        3.84 : RESISTIVITY MUD SAMPLE
MST .DEGF                          54 : MUD SAMPLE TEMPERATURE
RMF .OHMM                           2 : RESISTIVITY MUD FILTRATE SAMPLE
MFST.DEGF                          72 : MUD FILTRATE SAMPLE TEMPERATURE
RMC .OHMM                        2.62 : RESISTIVITY MUD CAKE
MCST.DEGF                          69 : MUD CAKE SAMPLE TEMPERATURE
RMB .OHMM                        1.15 : RESISTIVITY MUD AT BHT
ENGI.                          FOWLER : RECORDING ENGINEER
WITN.                    HANKINS MOTE : WITNESSED BY
CLNT.                         A2DTECH : CLIENT CODE
ORIG.                     2" 5" PRINT : ORIGIN OF DATA
UWI .                100101706419W500 : UNIQUE WELL ID
DICO.          A2D Technologies, Inc. : DIGITIZING COMPANY
~Other -----------------------------------------------------
~ASCII -----------------------------------------------------
 1500.00000   70.50230  295.91600 -115.06740    0.12160    2.39390   10.62090
 1550.00000   88.35020  340.40960  -90.02020    0.19410    4.46690    9.57310
 1600.00000   81.30820  375.59370  -88.42950    0.23450    4.29780    9.00730
 1650.00000   92.35160  305.46430  -88.30690    0.34140    2.53170    9.97070
 1700.00000   74.13720  304.75630  -90.56010    0.22230    3.61560    9.94000
 1750.00000   84.19820  336.84660  -87.81380    0.34100    2.55200    9.79860
 1800.00000   85.89840  372.88960  -81.39900    0.19900    4.23260    9.56590
 1850.00000   69.54830  295.35820  -83.97410    0.35250    2.79870   10.68150
 1900.00000   67.01760  458.15370  -80.49610    0.07950   10.83650    9.84700
 1950.00000   64.50550  364.42910  -81.98720    0.09400   10.22570    9.30170
 2000.00000   59.86720  354.60930  -96.59860    0.08000   11.78680    8.24880
 2050.00000   77.80710  313.33570  -79.63320    0.34030    2.95110    9.59130
 2100.00000   68.53510  330.75010  -79.00600    0.30180    3.07370    9.65770
 2150.00000   75.85470  300.84150  -89.70200    0.28090    3.08150    9.95320
 2200.00000   54.13530  299.91440  -78.57930    0.16640    6.59810    9.16100
 2250.00000   56.57300  301.66190  -88.39590    0.08950   11.47740    8.79710
 2300.00000   77.13180  298.76120  -77.83440    0.31830    2.75000    9.75040
 2350.00000   53.56990  313.14840  -79.67060    0.22730    3.24100    9.23710
 2400.00000   68.81400  323.03590  -78.87650    0.27220    3.14590   10.20500
 2450.00000   65.52510  407.03590  -83.08230    0.06560   22.63800    9.21840
 2500.00000   73.83910  323.64250  -77.78370    0.26360    3.47950   11.15420
 2550.00000   77.37120  308.30210  -78.12490    0.30710    2.75660   10.42520
 2600.00000   73.75700  300.45890  -77.20560    0.31840    2.85430   10.02860
 2650.00000   57.56410  340.25630  -77.63510    0.17460    5.34710   10.14350
 2700.00000   66.34020  373.63280  -81.49180    0.09960   12.81000    9.81300
 2750.00000   73.13280  302.57270  -77.43690    0.32800    2.97310   10.79990
 2800.00000   75.96530  279.41900  -75.54600    0.28050    3.22880   11.05480
 2850.00000   72.54630  295.34810  -74.32000    0.24860    4.01060   10.84820
 2900.00000   99.39490  300.29140  -76.95160    0.19050    4.88270   10.96490
 2950.00000   98.88030  285.87290  -77.05870    0.19030    5.08180   10.38880
 3000.00000  110.02340  278.70230  -74.36260    0.17760    5.16080   10.84760
 3050.00000  110.42510  349.77570  -75.45360    0.08110   10.97840   11.13860
 3100.00000  109.89340  286.21050  -76.57900    0.17670    5.75780   10.92450
 3150.00000  102.89300  276.09480  -76.99310    0.18070    5.08500   10.67560
 3200.00000   94.74150  271.11040  -77.36320    0.21190    4.29510   10.71290
 3250.00000  100.44620  292.55510  -77.34030    0.16430    6.07230   11.28490
 3300.00000   79.07980  272.31320  -78.61320    0.13050    6.99850   10.96190
 3350.00000  108.84870  285.32560  -76.11300    0.17350    5.37330   11.39910
 3400.00000  104.48580  268.09270  -79.43330    0.22820    4.57620    9.75740
 3450.00000  109.78450  288.55350  -79.31680    0.19510    5.11100   11.42350
 3500.00000  109.04980  310.18330  -77.66160    0.19560    5.30630   11.36180
 3550.00000  107.30040  310.74460  -80.03270    0.16330    5.99940   10.79330
 3600.00000  108.90380  301.99570  -76.66880    0.15840    6.20060    9.82810
 3650.00000  103.89580  286.89470  -76.47540    0.17340    5.92650   10.63140
 3700.00000  105.00600  319.54930  -76.26240    0.17270    6.22940   10.14870
 3750.00000  109.57400  286.74270  -74.98650    0.19250    5.07230   10.19170
 3800.00000  118.55220  293.96060  -77.22120    0.18300    5.20740   10.73090
 3850.00000  115.59170  279.34050  -75.05660    0.19760    5.21400   10.74810
 3900.00000  109.53360  276.93420  -77.17710    0.16060    6.12680   10.61570
 3950.00000  118.95430  280.57350  -77.48470    0.16930    6.00710   10.28740
 4000.00000  124.94800  300.03200  -74.00990    0.11300    8.43700   10.36210
 4050.00000  114.53630  290.56800  -73.44190    0.13600    7.61980    9.75340
 4100.00000  128.10380  295.99630  -71.87900    0.14440    7.53130    9.55510
 4150.00000  122.52600  296.30320  -71.31680    0.13580    7.31930    9.33180
 4200.00000  106.63140  295.70670  -72.88630    0.22850    4.11150    9.72360
 4250.00000   98.16690  345.29470  -78.89930    0.14320    8.57740    9.11840
 4300.00000  109.22900  316.11850  -73.19730    0.17250    6.10500    9.91470
 4350.00000  106.35960  306.01750  -73.67340    0.19990    5.30130   10.44870
 4400.00000  101.26200  330.25660  -78.47720    0.17530    5.98360   10.79710
 4450.00000  112.08490  301.41110  -77.46320    0.25610    3.93200   10.77210
 4500.00000  107.69960  290.35930  -75.90750    0.21050    4.18560   10.07170
 4550.00000  104.10460  287.42390  -73.35990    0.24250    4.31670    9.60050
 4600.00000  125.39090  287.11860  -75.93790    0.32360    2.99200   10.06940
 4650.00000  110.70240  289.18000  -75.35840    0.42260    2.51050    9.43520
 4700.00000  102.56610  303.15500  -75.51880    0.35520    2.87780    9.89470
 4750.00000  110.31420  354.24950  -77.12780    0.18110    5.71560    9.64140
 4800.00000  104.27530  374.53670  -77.75770    0.11780    8.63750    8.71060
 4850.00000   98.80050  287.70610  -75.13570    0.35240    3.21650    9.88550
 4900.00000   66.51580  285.54030  -74.48310    0.38430    2.78740    9.62650
 4950.00000   73.05370  325.30270  -92.10800    0.10900    8.07500    8.33350
 5000.00000   78.35630  464.01320  -81.32190    0.06830   15.88950    8.65170
 5050.00000   85.88960  349.99330  -72.61510    0.07930   13.62850    8.75230
 5100.00000   91.64800  396.21310  -73.15130    0.09990   10.41570    8.70770
 5150.00000   84.32190  395.49660  -81.56750    0.09890    9.43240    8.30470
 5200.00000   87.03170  328.27670  -73.48940    0.08840   11.85090    8.27710
 5250.00000   95.64500  264.83610  -69.86880    0.00750  346.35960    8.60510
 5300.00000   89.69810  399.05570  -76.76360    0.05610   19.37930    8.58300
 5350.00000   79.95880  438.61260  -71.42630    0.10490    9.68060    8.75840
 5400.00000   72.73330  354.37110  -76.52710    0.16010    8.94240    8.89200
 5450.00000   85.22070  402.24490  -61.83820    0.11540    9.48100    8.64280
 5500.00000   76.00610  416.51170  -67.73850    0.11050    9.03460    8.66390
 5550.00000  106.56770  414.25210  -55.58070    0.08260   11.45560    8.56380
 5600.00000   93.31240  345.70060  -52.50080    0.17680    5.26950   10.21830
 5650.00000  101.48640  413.42840  -85.48500    0.07320   11.92440    8.64490
 5700.00000   65.45070  446.60440  -98.20930    0.05050   23.27740    8.09460
 5750.00000  112.27710  345.32670  -46.56590    0.08000   14.10250    8.45570
 5800.00000   89.59110  339.61700  -40.26450    0.13130    9.77390    8.64380
 5850.00000   93.56110  279.77670  -38.86600    0.34630    3.36090   10.14650
 5900.00000   98.78940  285.66490  -72.32180    0.26420    3.94410   10.32080
 5950.00000  101.68110  275.36650  -67.46690    0.21730    4.24980   10.48430
 6000.00000  136.14540  310.04680  -61.73410    0.01590   75.74410    8.20140
 6050.00000    -999.25  567.74710  -38.35480    0.00360 1947.20320    8.15700
 6100.00000   89.28170  417.25310  -86.36380    0.11690    8.98990    8.38140
 6150.00000   90.50520  470.77300  -85.16740    0.07050   14.15040    8.14860
 6200.00000   97.58170  475.38670  -83.87180    0.04320   23.59910    8.10120
 6250.00000   97.39870  482.40190  -86.40190    0.05330   19.75220    8.46540
 6300.00000   40.66670  599.75780 -189.62080    0.01540   66.94710    7.95190
 6350.00000   40.81890  505.82960 -106.83070    0.00600  328.59680    8.50640
 6400.00000   37.94160  515.40190 -202.88060    0.07140   34.40620    7.79100
 6450.00000   51.88770  774.37600  -95.69940    0.00550  482.93400    8.51290
 6500.00000   95.89040  589.05700  -59.32620    0.00810  900.97110    8.49430
 6550.00000   40.50160  489.97410 -204.45330    0.03160   52.19670    7.90640
 6600.00000   52.97350  575.17020 -105.63790    0.01760   41.61100    8.28240
