~Version ---------------------------------------------------
VERS.      2.0 : CWLS log ASCII Standard -VERSION 2.0
WRAP.       NO : One line per depth step
CREA. 08/26/14 : LAS Creation Date
~Well ------------------------------------------------------
STRT.FT                    1300.0 : START DEPTH
STOP.FT                   12250.0 : STOP DEPTH
STEP.FT                  50.00000 : STEP LENGTH
NULL.                     -999.25 : NULL VALUE
COMP.  TEXACO EXPLORATION COMPANY : COMPANY
WELL. TEXACO MARLBORO 10-12-54-18 : WELL
FLD .                             : FIELD
LOC .                             : LOCATION
CTRY.                      CANADA : COUNTRY
SRVC.      Schlumberger of Canada : SERVICE COMPANY
DATE.                 04-Oct-1969 : LOGDATE
PROV.                     Alberta : PROVINCE
UWI .            100101205418W500 : UNIQUE WELL ID
SLAT.WGS84                53.6526 : SURFACE LATITUDE
SLON.WGS84               -116.514 : SURFACE LONGITUDE
~Curve Information -----------------------------------------
DEPT.FT    : Depth Curve
CALD.IN    : CALIPER FROM DENSITY LOG
CALS.IN    : CALIPER FROM SONIC LOG
CILD.MMHO  : INDUCTION DEEP CONDUCTIVITY
DRHO.G/C3  : BULK DENSITY CORRECTION
DT  .US/F  : DELTA-T (INTERVAL TRANSIT TIME)
GRD .GAPI  : GAMMA RAY FROM DENSITY LOG
GRS .GAPI  : GAMMA RAY FROM SONIC LOG
ILD .OHMM  : INDUCTION DEEP RESISTIVITY
RHOB.G/C3  : BULK DENSITY
SN  .OHMM  : SHORT NORMAL RESISTIVITY
SPR .MV    : SPONTANEOUS POTENTIAL FROM RESISTIVITY LOG
~Params ----------------------------------------------------
PD  .                     GL : PERMANENT DATUM
EPD .FT               3162.6 : ELEVATION PERMANENT DATUM
LMF .                     KB : LOG MEASURED FROM
DAPD.FT                 13.7 : FEET ABOVE PERMANENT DATUM
EKB .FT               3179.3 : KELLY BUSHING
EGL .FT               3165.6 : GROUND LEVEL
DATE.               11/18/69 : RUN DATE
RUN .                      1 : RUN NUMBER
DD  .FT                12259 : DEPTH DRILLER
DL  .FT                12263 : DEPTH LOGGER
BLI .FT                12262 : BOTTOM LOG INTERVAL
TLI .FT                 8816 : TOP LOG INTERVAL
CBD .FT                 1266 : CASING BOTTOM DRILLER
CBL .FT                 1264 : CASING BOTTOM LOGGER
BSD .FT                12259 : BIT SIZE AT DEPTH
DFT .               GEL CHEM : DRILLING FLUID TYPE
DFD .                   10.5 : DRILLING FLUID DENSITY
DFV .                     60 : DRILLING FLUID VISCOSITY
DFPH.                      9 : DRILLING FLUID PH
DFL .                    6.8 : DRILLING FLUID LOSS
RMS .OHMM               1.58 : RESISTIVITY MUD SAMPLE
MST .DEGF                 68 : MUD SAMPLE TEMPERATURE
RMF .OHMM               1.05 : RESISTIVITY MUD FILTRATE SAMPLE
MFST.DEGF                 66 : MUD FILTRATE SAMPLE TEMPERATURE
RMC .OHMM               1.92 : RESISTIVITY MUD CAKE
MCST.DEGF                 68 : MUD CAKE SAMPLE TEMPERATURE
RMB .OHMM               0.47 : RESISTIVITY MUD AT BHT
TCS .HRS                 2.5 : TIME CIRCULATED STOPPED
LUN .                   7502 : LOGGING UNIT NUMBER
LUL .                    EDM : LOGGING UNIT LOCATION
ENGI.                 SLADEN : RECORDING ENGINEER
WITN.               BRYNLUND : WITNESSED BY
CLNT.                A2DTECH : CLIENT CODE
ORIG.            2" 5" PRINT : ORIGIN OF DATA
UWI .       100101205418W500 : UNIQUE WELL ID
DICO. A2D Technologies, Inc. : DIGITIZING COMPANY
~Other -----------------------------------------------------
~ASCII -----------------------------------------------------
# ...
 10450.00000    8.55790   10.32720   12.36700    0.09510   52.82740   31.43750   26.94310   81.80470    2.41660   82.08900 -121.80860
 10500.00000   12.00310    9.93910   17.96320    0.12060   52.18380   24.64210   24.73240   52.94970    2.06390    -999.25 -118.36740
 10550.00000   11.55560    9.45170    9.45610    0.22530   50.43260   33.99820   30.55440  115.95180    2.42380  104.68630  -77.99380
 10600.00000   10.76090    9.23370   21.50670    0.17010   54.55040   41.41520   37.94830   48.76600    2.57910    -999.25  -44.59800
 10650.00000   12.33550    9.77800   73.37820    0.18590   62.08640   62.52970   64.22800   13.85240    2.54980   16.68410  -40.24250
 10700.00000    9.38740    9.17360   73.39660    0.01370   61.93500   63.61730   59.70600   13.73460    2.68210   16.94570  -34.08850
 10750.00000    9.08710    8.98210   63.36890    0.02420   59.45150   69.88320   68.77800   15.94880    2.65610   19.84940  -20.45100
 10800.00000   11.58640    9.81720  140.76680    0.16730   68.53350   88.57650   80.46760    7.01270    2.35320    9.08240  -12.70830
 10850.00000    9.37450    9.19740   65.41980    0.02140   60.16440   65.85730   65.02690   15.58010    2.67810   18.84700  -12.59430
 10900.00000   14.33010   11.23350  129.01780    0.09890   69.89240   79.84460   73.66940    7.62250    2.09130    8.50370  -20.66470
 10950.00000    9.18600    9.07050   65.56770    0.03480   60.98730   67.32720   64.82700   15.43990    2.66610   19.04510   -6.53310
 11000.00000   13.00970   11.73410  167.58690    0.09880   76.94920   91.60830   96.50880    5.99520    2.05050    9.05710  -33.24680
 11050.00000   13.24610   10.06400   64.13470    0.14090   61.74800   55.27920   56.53840   15.59270    2.21630   16.74720  -47.66370
 11100.00000   12.03310   11.14650   98.12100    0.12560   79.89340   97.06590   94.59860   10.34580    2.06850   13.62240  -28.62790
 11150.00000    9.13920    9.28250   58.24620    0.01620   64.39890   86.48660   81.61720   17.40230    2.64710   20.26310  -37.97960
 11200.00000    9.14010    9.02370   64.91520    0.06070   62.85520   88.24800   78.99850   15.42140    2.70710   19.45330  -33.81990
 11250.00000    8.68900    8.96820   57.54870    0.02620   61.14390   84.81540   87.47880   17.77650    2.69770   22.32330  -13.03960
 11300.00000   12.65640   10.01820  113.89470    0.14260   71.45660  111.82890  121.14260    8.89190    2.24290   11.33620  -11.75800
 11350.00000   10.89520    9.26530   81.78710    0.15480   69.22360  109.16590  112.72750   12.41830    2.61090   15.65640  -10.90420
 11400.00000   11.73370    9.54910   96.66420    0.21020   70.77190  118.11880  116.86980   10.42960    2.55800   13.19880   -8.97470
 11450.00000   12.26370   11.04430  107.59800    0.19840   70.78480  111.85830  103.38240    9.51660    2.45300   10.79820  -26.23870
 11500.00000   12.09260    9.56610  100.09040    0.20510   71.58910  101.17680  110.83460   10.15740    2.66050   12.18220  -17.80490
 11550.00000   12.47820   12.32410   96.28250    0.11300   83.68210  119.40170  125.09430   10.65430    2.00620   14.05180  -39.12130
 11600.00000   10.14100    9.44770   11.37370    0.15630   54.16010  144.52600   56.82230   87.15690    2.36330  192.92550  -30.56440
 11650.00000   10.70840    9.07350    4.69730    0.14130   52.22100   26.48530   32.87580  269.55580    2.49370  243.85440  -78.60090
 11700.00000    8.56980    7.98690   18.29200    0.03140   47.90020   18.64840   17.32380   54.06840    2.82460  127.10060 -130.04240
 11750.00000    7.51820    8.18840   65.02340    0.15410   60.96720   20.75880   21.70450   16.01090    2.46780   35.43320 -130.57190
 11800.00000    7.56690    7.95440   20.44060    0.14580   49.24070   16.58770   18.07010   49.90600    2.72650   90.19000 -151.57560
 11850.00000    8.39880    8.39830    7.20640    0.18170   50.53960   23.32830   17.68410  165.06820    2.55430  210.50870 -142.85030
 11900.00000    7.47680    7.72720   10.06830    0.20430   46.11560   22.59730   20.45590  109.37700    2.63260  140.02510 -136.25540
 11950.00000    9.79150    9.10650    5.14570    0.11340   48.77680   20.10820   21.18760  227.79300    2.58480  352.07560 -130.50000
 12000.00000    8.97010    8.85220    7.45460    0.11030   48.95030   23.74110   25.69600  149.70290    2.62650  274.90190 -113.69340
 12050.00000   10.85540    9.04310   11.77600    0.19080   48.69510   19.90340   17.43660   84.82070    2.52270  312.12600  -83.11110
 12100.00000    8.95980    9.04680   10.05770    0.14800   50.90010   18.76220   18.85630  104.44270    2.46310  315.37810  -73.94130
 12150.00000    9.02610    8.90600    8.11100    0.17900   47.86080   29.66050   18.20330  138.28680    2.64480  182.00970  -50.60500
 12200.00000    9.88230    8.91660   10.35450    0.10480   52.13610  102.62140   71.07800   99.55390    2.59520  121.93640  -76.25320
 12250.00000   11.87590    9.97050    9.94480    0.13900   49.16650    0.41860    0.74380  109.79830    2.32500  202.70800 -130.71510
