~Version ---------------------------------------------------
VERS.      2.0 : CWLS log ASCII Standard -VERSION 2.0
WRAP.       NO : One line per depth step
CREA. 10/25/17 : LAS Creation Date
~Well ------------------------------------------------------
STRT.FT                         1100.0 : START DEPTH
STOP.FT                        10800.0 : STOP DEPTH
STEP.FT                       50.00000 : STEP LENGTH
NULL.                          -999.25 : NULL VALUE
COMP. AMOCO CANADA PETROLEUM CO., LTD. : COMPANY
WELL.       AMOCO N-2 ANTE 11-25-65-23 : WELL
FLD .                                  : FIELD
LOC .                                  : LOCATION
CTRY.                           CANADA : COUNTRY
SRVC.           Schlumberger of Canada : SERVICE COMPANY
DATE.                      30-Oct-1976 : LOGDATE
PROV.                          Alberta : PROVINCE
UWI .                 100112506523W500 : UNIQUE WELL ID
SLAT.WGS84                    54.65705 : SURFACE LATITUDE
SLON.WGS84                   -117.3447 : SURFACE LONGITUDE
~Curve Information -----------------------------------------
DEPT    .FT    : Depth Curve
CALDED  .IN    : CALIPER FROM DENSITY LOG [DEP. ADJ. TO RESIST. LOG]
CALSED  .IN    : CALIPER FROM SONIC LOG [DEP. ADJ. TO RESIST. LOG]
CALWS   .IN    : CALIPER [1152' CALDED 10764' CALSED]
CONDWS  .MMHO  : CONDUCTIVITY [1000/DRESWS]
DCORWS  .G/C3  : DENSITY CORRECTION [DRHOED]
DENWS   .G/C3  : BULK DENSITY [M=2.71, F=1.00] [RHOBED]
DPHILSED.V/V   : DENSITY POROSITY [M=2.71, F=1.00] FROM DENSITY LOG [DEP. ADJ. TO RESIST. LOG]
DPHISSED.V/V   : DENSITY POROSITY [M=2.65, F=1.00] FROM DENSITY LOG [DEP. ADJ. TO RESIST. LOG]
DPOLSWS .V/V   : DENSITY POROSITY [M=2.71, F=1.00] [CAL. FROM DENWS]
DRESWS  .OHMM  : DEEP RESISTIVITY [ILDED]
DRHOED  .G/C3  : DENSITY CORRECTION FROM DENSITY LOG [DEP. ADJ. TO RESIST. LOG]
DTED    .US/F  : DELTA TIME FROM SONIC LOG [DEP. ADJ. TO RESIST. LOG]
DTWS    .US/F  : DELTA TIME [DTED]
GRDED   .GAPI  : GAMMA RAY FROM DENSITY LOG [DEP. ADJ. TO RESIST. LOG]
GRSED   .GAPI  : GAMMA RAY FROM SONIC LOG [DEP. ADJ. TO RESIST. LOG]
GRWS    .GAPI  : GAMMA RAY [1096' GRSED 1142' GRDED]
ILDED   .OHMM  : INDUCTION LOG DEEP RESISTIVITY
ILMED   .OHMM  : INDUCTION LOG MEDIUM RESISTIVITY
LL8ED   .OHMM  : 8 INCH LATEROLOG RESISTIVITY
MRESWS  .OHMM  : MEDIUM RESISTIVITY [ILMED]
NPHILSED.V/V   : NEUTRON POROSITY LIMESTONE FROM DENSITY LOG [DEP. ADJ. TO RESIST. LOG]
NPHISSED.V/V   : NEUTRON POROSITY SANDSTONE FROM DENSITY LOG [DEP. ADJ. TO RESIST. LOG]
NPOLSWS .V/V   : NEUTRON POROSITY LIMESTONE [NPHISSED CONVERTED FOR LIMESTONE, SPL. TO NPHILSED @ 6253']
RHOBED  .G/C3  : BULK DENSITY FROM DENSITY LOG [DEP. ADJ. TO RESIST. LOG]
SPRED   .MV    : SPONTANEOUS POTENTIAL FROM RESISTIVITY LOG
SPWS    .MV    : SPONTANEOUS POTENTIAL [BASELINE 0 MV] [SPRED]
SRESWS  .OHMM  : SHALLOW RESISTIVITY [LL8ED]
~Params ----------------------------------------------------
PD  .                     GL : PERMANENT DATUM
EPD .FT                 2441 : ELEVATION PERMANENT DATUM
LMF .                     KB : LOG MEASURED FROM
DAPD.FT                 13.6 : FEET ABOVE PERMANENT DATUM
EKB .FT               2454.6 : KELLY BUSHING
EGL .FT                 2441 : GROUND LEVEL
DATE.               10/30/76 : RUN DATE
RUN .                      1 : RUN NUMBER
DD  .FT                10805 : DEPTH DRILLER
DL  .FT                10818 : DEPTH LOGGER
BLI .FT                10812 : BOTTOM LOG INTERVAL
TLI .FT                 1155 : TOP LOG INTERVAL
CBD .FT                 1153 : CASING BOTTOM DRILLER
CBL .FT                 1155 : CASING BOTTOM LOGGER
BS  .IN                 8.75 : BIT SIZE
BSD .FT                10805 : BIT SIZE AT DEPTH
DFT .                    GEL : DRILLING FLUID TYPE
DFD .                      9 : DRILLING FLUID DENSITY
DFV .                    115 : DRILLING FLUID VISCOSITY
DFPH.                    9.5 : DRILLING FLUID PH
DFL .                    8.6 : DRILLING FLUID LOSS
MSS .             CIRCULATED : MUD SAMPLE SOURCE
RMS .OHMM               3.02 : RESISTIVITY MUD SAMPLE
MST .DEGF                 62 : MUD SAMPLE TEMPERATURE
RMF .OHMM               2.62 : RESISTIVITY MUD FILTRATE SAMPLE
MFST.DEGF                 52 : MUD FILTRATE SAMPLE TEMPERATURE
MFSS.             CALCULATED : MUD FILTRATE SAMPLE SOURCE
MCSS.             CALCULATED : MUD CAKE SAMPLE SOURCE
TCS .HRS                   3 : TIME CIRCULATED STOPPED
LUN .                   7809 : LOGGING UNIT NUMBER
LUL .                    EDM : LOGGING UNIT LOCATION
ENGI.               SEDGWICK : RECORDING ENGINEER
WITN.              SCHWIEDER : WITNESSED BY
CLNT.                A2DTECH : CLIENT CODE
ORIG.            2" 5" PRINT : ORIGIN OF DATA
UWI .       100112506523W500 : UNIQUE WELL ID
DICO. A2D Technologies, Inc. : DIGITIZING COMPANY
~Other -----------------------------------------------------
~ASCII -----------------------------------------------------
# ...
 8900.00000    9.53730    9.09900    9.53730   17.42530    0.06290    2.70500    0.00760    -999.25    0.00290   57.38790    0.06290   51.12000   51.12000   14.89500   18.16980   14.89500   57.38790   65.54440  183.29020   65.54440    0.03020    -999.25    0.03020    2.70500 -130.93660  -54.98340  183.29020
 8950.00000   10.65340    9.14900   10.65340  204.78330    0.25090    2.52190    0.12310    -999.25    0.11000    4.92150    0.25090   52.49310   52.49310   21.54000   26.21710   21.54000    4.92150    9.15970   24.64200    9.15970    0.14680    -999.25    0.14680    2.52190 -132.60960  -50.43520   24.64200
 9000.00000    9.48170    9.09900    9.48170   12.30740    0.01620    2.74660   -0.02980    -999.25   -0.02140   81.25200    0.01620   50.68780   50.68780   35.84250   39.67700   35.84250   81.25200  125.17610  243.83680  125.17610    0.03180    -999.25    0.03180    2.74660 -172.36030  -87.54480  243.83680
 9050.00000   10.30910    9.75000   10.30910    2.92880    0.24810    2.62930    0.05390    -999.25    0.04720  341.43520    0.24810   49.79200   49.79200   25.69500   33.20340   25.69500  341.43520  467.87060 1007.65450  467.87060    0.02220    -999.25    0.02220    2.62930 -133.31220  -47.80580 1007.65450
 9100.00000    9.55850    8.99900    9.55850    7.66410    0.01890    2.72120   -0.00920    -999.25   -0.00650  130.47880    0.01890   51.91650   51.91650   35.58750   38.95230   35.58750  130.47880  139.62840  127.64540  139.62840    0.02580    -999.25    0.02580    2.72120 -125.37630  -39.17450  127.64540
 9150.00000    9.97040    9.44900    9.97040    6.26790    0.01580    2.71690   -0.00360    -999.25   -0.00400  159.54310    0.01580   50.60020   50.60020   26.79000   38.92120   26.79000  159.54310  153.20350  144.91500  153.20350    0.01860    -999.25    0.01860    2.71690 -131.18430  -44.29170  144.91500
 9200.00000    9.65840    9.39900    9.65840    9.30050    0.04610    2.72620   -0.00790    -999.25   -0.00950  107.58430    0.04610   53.25650   53.25650   32.44120   41.20980   32.44120  107.58430  118.60140  130.04000  118.60140    0.03710    -999.25    0.03710    2.72620 -124.59630  -37.00830  130.04000
 9250.00000    9.17990    9.09900    9.17990    7.84100    0.00310    2.69020    0.01100    -999.25    0.01160  127.53440    0.00310   52.32180   52.32180   34.78500   52.01450   34.78500  127.53440  144.84460  177.84990  144.84460    0.01780    -999.25    0.01780    2.69020 -154.07800  -65.79910  177.84990
 9300.00000    9.21690    9.14900    9.21690    8.25410    0.01170    2.72220   -0.00680    -999.25   -0.00710  121.15250    0.01170   51.63210   51.63210   33.69000   49.38100   33.69000  121.15250  127.79610  136.15700  127.79610    0.02440    -999.25    0.02440    2.72220 -137.81530  -48.84560  136.15700
 9350.00000    9.18850    9.14900    9.18850   20.17520    0.01140    2.70870   -0.00090    -999.25    0.00080   49.56840    0.01140   53.13900   53.13900   41.19000   53.90780   41.19000   49.56840   55.80270   62.92010   55.80270    0.03430    -999.25    0.03430    2.70870 -134.85550  -45.19040   62.92010
 9400.00000    9.25890    9.14900    9.25890   32.47610    0.01680    2.67550    0.01830    -999.25    0.02020   30.79190    0.01680   55.82600   55.82600   46.69500   58.29580   46.69500   30.79190   33.43620   39.25250   33.43620    0.05060    -999.25    0.05060    2.67550 -122.56160  -32.20560   39.25250
 9450.00000    9.23810    9.07400    9.23810   25.37400    0.00910    2.68020    0.01760    -999.25    0.01750   39.41110    0.00910   55.39290   55.39290   46.59000   53.81900   46.59000   39.41110   44.94460   55.52660   44.94460    0.04170    -999.25    0.04170    2.68020 -113.29510  -22.24370   55.52660
 9500.00000    9.22690    8.84900    9.22690   46.84150    0.00990    2.66790    0.02600    -999.25    0.02460   21.34860    0.00990   57.71980   57.71980   45.79500   51.95560   45.79500   21.34860   23.11120   34.44100   23.11120    0.05150    -999.25    0.05150    2.66790 -110.15530  -18.41310   34.44100
 9550.00000    9.26070    8.69900    9.26070   66.52470    0.04090    2.74810   -0.02610    -999.25   -0.02230   15.03200    0.04090   59.10670   59.10670   39.58500   48.47220   39.58500   15.03200   16.77950   21.71360   16.77950    0.07260    -999.25    0.07260    2.74810 -116.21030  -23.77720   21.71360
 9600.00000    9.34420    9.25000    9.34420  134.98190    0.02960    2.66770    0.02580    -999.25    0.02470    7.40840    0.02960   64.97430   64.97430   55.83750   65.91510   55.83750    7.40840    8.33760   11.61030    8.33760    0.12920    -999.25    0.12920    2.66770 -118.73950  -25.61100   11.61030
 9650.00000    9.62260    9.19900    9.62260   64.14620    0.00670    2.64710    0.04130    -999.25    0.03680   15.58940    0.00670   70.53220   70.53220   84.39000   93.75470   84.39000   15.58940   19.59430   29.33330   19.59430    0.18820    -999.25    0.18820    2.64710 -118.37020  -24.55090   29.33330
 9700.00000   14.22730   12.42400   14.22730  210.78230    0.20740    2.36050    0.20700    -999.25    0.20440    4.74430    0.20740   72.83000   72.83000   66.04500   73.78890   66.04500    4.74430    5.26680    6.22040    5.26680    0.26940    -999.25    0.26940    2.36050 -131.03280  -36.51810    6.22040
 9750.00000   14.28900   12.19900   14.28900  287.19130    0.19630    2.34600    0.21820    -999.25    0.21290    3.48200    0.19630   78.06490   78.06490   82.09500   89.47830   82.09500    3.48200    3.78410    4.80360    3.78410    0.30790    -999.25    0.30790    2.34600 -147.91080  -52.70520    4.80360
 9800.00000   14.06170   12.39900   14.06170  338.19200    0.15710    2.45730    0.15840    -999.25    0.14770    2.95690    0.15710   82.21640   82.21640   93.49500  100.11780   93.49500    2.95690    3.38130    4.68770    3.38130    0.33460    -999.25    0.33460    2.45730 -129.16540  -33.26900    4.68770
 9850.00000   10.01880    9.64900   10.01880  157.50210    0.18160    2.69940    0.01500    -999.25    0.00620    6.34990    0.18160   67.16280   67.16280   67.38750   73.39390   67.38750    6.34990    7.14190    8.17680    7.14190    0.17410    -999.25    0.17410    2.69940 -110.09780  -13.28600    8.17680
 9900.00000    9.61650    9.50000    9.61650  130.79930    0.02060    2.71130    0.00010    -999.25   -0.00080    7.64530    0.02060   65.22430   65.22430   68.79000   76.06100   68.79000    7.64530    8.38320    9.82230    8.38320    0.16560    -999.25    0.16560    2.71130 -106.14780   -8.26960    9.82230
 9950.00000   10.10220    9.67400   10.10220  172.00040    0.05450    2.71790   -0.00950    -999.25   -0.00460    5.81420    0.05450   69.97990   69.97990   90.03750  100.69060   90.03750    5.81420    6.51850    8.10040    6.51850    0.22740    -999.25    0.22740    2.71790 -108.37040   -9.41870    8.10040
 10000.00000   10.00600    9.64900   10.00600  188.00880    0.20800    2.67210    0.01960    -999.25    0.02220    5.31890    0.20800   71.49280   71.49280   77.29500   90.40780   77.29500    5.31890    6.07830    7.52310    6.07830    0.22290    -999.25    0.22290    2.67210 -113.55740  -13.53930    7.52310
 10050.00000   10.69660   10.39900   10.69660  181.46510    0.04170    2.63630    0.04380    -999.25    0.04310    5.51070    0.04170   68.13090   68.13090   74.59500   78.60140   74.59500    5.51070    6.22880    8.18800    6.22880    0.19810    -999.25    0.19810    2.63630 -113.32810  -12.24350    8.18800
 10100.00000    9.86000    8.97450    9.86000  154.35710    0.06880    2.69170    0.01000    -999.25    0.01070    6.47850    0.06880   69.65860   69.65860   80.13750   89.34430   80.13750    6.47850    7.06190    9.00040    7.06190    0.20370    -999.25    0.20370    2.69170 -104.27860   -2.12060    9.00040
 10150.00000   11.36540    9.94900   11.36540  151.65070    0.20510    2.62110    0.05860    -999.25    0.05200    6.59410    0.20510   73.17730   73.17730   86.49000   96.68390   86.49000    6.59410    7.44780    8.13320    7.44780    0.24220    -999.25    0.24220    2.62110 -121.66320  -18.43870    8.13320
