~Version ---------------------------------------------------
VERS.      2.0 : CWLS log ASCII Standard -VERSION 2.0
WRAP.       NO : One line per depth step
CREA. 11/17/17 : LAS Creation Date
~Well ------------------------------------------------------
STRT.FT                       700.0 : START DEPTH
STOP.FT                      6300.0 : STOP DEPTH
STEP.FT                    50.00000 : STEP LENGTH
NULL.                       -999.25 : NULL VALUE
COMP.      CHEVRON STANDARD LIMITED : COMPANY
WELL. CHEVRON GIFT LAKE 15-36-78-12 : WELL
FLD .                               : FIELD
LOC .                               : LOCATION
CTRY.                        CANADA : COUNTRY
SRVC.                       Unknown : SERVICE COMPANY
DATE.                   14-Feb-1976 : LOGDATE
PROV.                       Alberta : PROVINCE
UWI .              100153607812W500 : UNIQUE WELL ID
SLAT.WGS84                 55.80826 : SURFACE LATITUDE
SLON.WGS84                -115.7168 : SURFACE LONGITUDE
~Curve Information -----------------------------------------
DEPT    .FT    : Depth Curve
CALDED  .IN    : CALIPER FROM DENSITY LOG [ADJ TO RESISTIVITY LOG]
CALSED  .IN    : CALIPER FROM SONIC LOG
CALWS   .IN    : CALIPER [CALDED]
CONDWS  .MMHO  : CONDUCTIVITY [1000/DRESWS]
DCORWS  .G/C3  : DENSITY CORRECTION [DRHOED]
DENWS   .G/C3  : FORMATION BULK DENSITY [RHOBED]
DPHILSED.V/V   : DENSITY POROSITY LIMESTONE [M=2.71, F=1.00(ASSUMED)] FROM DENSITY LOG
DPHISSED.V/V   : DENSITY POROSITY SANDSTONE [M=2.65, F=1.00(ASSUMED)] FROM DENSITY LOG
DPOLSWS .V/V   : DENSITY POROSITY LIMESTONE [CALC FROM DENWS,M=2.71, F=1.00]
DRESWS  .OHMM  : DEEP RESISTIVITY [ILDED]
DRHOED  .G/C3  : DENSITY CORRECTION FROM DENSITY LOG [ADJ TO DPHISSED]
DTED    .US/F  : DELTA TIME FROM SONIC LOG
DTWS    .US/F  : COMPRESSIONAL SONIC [DTED]
GRDED   .GAPI  : GAMMA RAY FROM DENSITY LOG [ADJ TO RESISTIVITY LOG]
GRSED   .GAPI  : GAMMA RAY FROM SONIC LOG
GRWS    .GAPI  : GAMMA RAY [GRSED SPL @700' TO GRDED]
ILDED   .OHMM  : INDUCTION LOG DEEP RESISTIVITY FROM RESISTIVITY LOG
ILMED   .OHMM  : INDUCTION LOG MEDIUM RESISTIVITY FROM RESISTIVITY LOG
LL8ED   .OHMM  : 8 INCH LATEROLOG RESISTIVITY FROM RESISTIVITY LOG
MRESWS  .OHMM  : MEDIUM RESISTIVITY [ILMED]
NPHILSED.V/V   : NEUTRON POROSITY LIMESTONE FROM DENSITY LOG
NPHISSED.V/V   : NEUTRON POROSITY SANDSTONE FROM DENSITY LOG
NPOLSWS .V/V   : NEUTRON POROSITY LIMESTONE [NPHISSED MATRIX CONVERTED TO LIMESTONE(SLB CNL) SPL @2670' TO NPHILSED]
RHOBED  .G/C3  : BULK DENSITY FROM DENSITY LOG [ADJ TO DPHISSED]
SPRED   .MV    : SPONTANEOUS POTENTIAL FROM RESISTIVITY LOG
SPWS    .MV    : SPONTANEOUS POTENTIAL [BASELINE 0MV, SPRED]
SRESWS  .OHMM  : SHALLOW RESISTIVITY [LL8ED]
~Params ----------------------------------------------------
PD  .                     GL : PERMANENT DATUM
EPD .FT               2288.9 : ELEVATION PERMANENT DATUM
LMF .                     KB : LOG MEASURED FROM
DAPD.FT                 12.1 : FEET ABOVE PERMANENT DATUM
EKB .FT                 2301 : KELLY BUSHING
EGL .FT               2288.9 : GROUND LEVEL
DATE.               02/14/76 : RUN DATE
RUN .                      1 : RUN NUMBER
DD  .FT                 6318 : DEPTH DRILLER
DL  .FT                 6318 : DEPTH LOGGER
BLI .FT                 6312 : BOTTOM LOG INTERVAL
TLI .FT                  727 : TOP LOG INTERVAL
CBD .FT                  727 : CASING BOTTOM DRILLER
CBL .FT                  727 : CASING BOTTOM LOGGER
BS  .IN                7.875 : BIT SIZE
BSD .FT                 6318 : BIT SIZE AT DEPTH
DFT .                    GEL : DRILLING FLUID TYPE
DFD .                    9.6 : DRILLING FLUID DENSITY
DFV .                     68 : DRILLING FLUID VISCOSITY
DFPH.                    9.5 : DRILLING FLUID PH
DFL .                    8.5 : DRILLING FLUID LOSS
RMS .OHMM               1.06 : RESISTIVITY MUD SAMPLE
MST .DEGF                 64 : MUD SAMPLE TEMPERATURE
RMF .OHMM               0.79 : RESISTIVITY MUD FILTRATE SAMPLE
MFST.DEGF                 62 : MUD FILTRATE SAMPLE TEMPERATURE
RMB .OHMM               0.44 : RESISTIVITY MUD AT BHT
TCS .HRS                 2.5 : TIME CIRCULATED STOPPED
LUN .                   7636 : LOGGING UNIT NUMBER
LUL .                    EDM : LOGGING UNIT LOCATION
ENGI.             SLUSARCHUK : RECORDING ENGINEER
WITN.               SHEPPARD : WITNESSED BY
CLNT.                A2DTECH : CLIENT CODE
ORIG.            2" 5" PRINT : ORIGIN OF DATA
UWI .       100153607812W500 : UNIQUE WELL ID
DICO. A2D Technologies, Inc. : DIGITIZING COMPANY
~Other -----------------------------------------------------
DIL-FDC-CNL-GR-SLC TOOL RUN
~ASCII -----------------------------------------------------
  700.00000    -999.25    -999.25    -999.25    -999.25    -999.25    -999.25    -999.25    -999.25    -999.25    -999.25    -999.25    -999.25    -999.25   69.55830   71.79850   71.79850    -999.25    -999.25    -999.25    -999.25    -999.25    0.55010    0.51290    -999.25    -999.25    -999.25    -999.25
  750.00000   10.34300    9.96120   10.34300  164.89950    0.10540    1.86850    -999.25    0.48500    0.49210    6.06430    0.10540  176.34450  176.34450   91.85220   91.96760   91.85220    6.06430    6.50030    5.54270    6.50030    -999.25    0.57760    0.54210    1.86850  -32.25160   -3.47030    5.54270
  800.00000   12.29040   12.72950   12.29040  189.11390    0.07820    1.51970    -999.25    0.60000    0.69610    5.28970    0.07820  183.64650  183.64650   71.92770   68.11830   71.92770    5.28970    5.96780    4.92890    5.96780    -999.25    0.60350    0.56970    1.51970  -32.97830   -3.65690    4.92890
  850.00000   13.04500   11.99840   13.04500  242.93660    0.11430    1.69200    -999.25    0.56550    0.59530    4.11630    0.11430  140.89130  140.89130   76.12140   86.21440   76.12140    4.11630    4.79430    4.32310    4.79430    -999.25    0.58270    0.54760    1.69200  -31.55900   -1.69230    4.32310
  900.00000   14.07840   12.51820   14.07840  263.24800    0.17620    1.90000    -999.25    0.44320    0.47370    3.79870    0.17620  139.75140  139.75140   90.25780   94.72300   90.25780    3.79870    4.04350    4.31430    4.04350    -999.25    0.55650    0.51970    1.90000  -33.08620   -2.67680    4.31430
  950.00000   13.33730   11.08710   13.33730  247.32880    0.15740    1.84630    -999.25    0.48000    0.50510    4.04320    0.15740  131.53290  131.53290   93.43300   93.97820   93.43300    4.04320    3.83960    4.36240    3.83960    -999.25    0.54580    0.50840    1.84630  -33.81560   -2.86350    4.36240
 1000.00000   13.18670   10.90620   13.18670  241.12650    0.17620    1.91680    -999.25    0.45310    0.46390    4.14720    0.17620  134.44650  134.44650   88.68470  110.02170   88.68470    4.14720    3.90160    4.47610    3.90160    -999.25    0.56710    0.53100    1.91680  -35.03050   -3.53580    4.47610
 1050.00000   14.58350   11.53210   14.58350  183.89470    0.04950    1.75730    -999.25    0.53020    0.55720    5.43800    0.04950  186.32540  186.32540   69.96060   80.85250   69.96060    5.43800    4.48490    5.03100    4.48490    -999.25    0.61290    0.57980    1.75730  -34.44520   -2.84980    5.03100
 1100.00000   12.46820   12.15890   12.46820  288.71690    0.12510    1.66910    -999.25    0.57640    0.60870    3.46360    0.12510  161.77410  161.77410   93.04490  112.48120   93.04490    3.46360    3.11230    4.00710    3.11230    -999.25    0.65810    0.62820    1.66910  -33.63660   -1.96800    4.00710
 1150.00000   11.98250   11.46980   11.98250  397.72500    0.12340    1.89610    -999.25    0.45840    0.47600    2.51430    0.12340  143.13220  143.13220   85.06490   96.43880   85.06490    2.51430    2.37040    2.84260    2.37040    -999.25    0.58910    0.55440    1.89610  -34.04630   -2.30480    2.84260
 1200.00000   11.41460   10.39650   11.41460  359.00200    0.18940    1.92080    -999.25    0.43630    0.46150    2.78550    0.18940  139.85320  139.85320   90.74570  106.29480   90.74570    2.78550    2.63560    3.23430    2.63560    -999.25    0.63350    0.60180    1.92080  -33.20160   -1.38720    3.23430
 1250.00000   12.03380   10.99630   12.03380  304.71080    0.15900    1.99990    -999.25    0.37860    0.41530    3.28180    0.15900  129.23890  129.23890   94.93050  105.13890   94.93050    3.28180    3.09580    3.67610    3.09580    -999.25    0.53920    0.50140    1.99990  -35.57200   -3.68480    3.67610
 1300.00000   10.76780   11.00190   10.76780  323.92870    0.16430    2.02280    -999.25    0.38200    0.40190    3.08730    0.16430  131.91260  131.91260  101.09320  103.79900  101.09320    3.08730    2.87980    3.34850    2.87980    -999.25    0.56120    0.52470    2.02280  -35.11660   -3.15690    3.34850
 1350.00000   10.23740   10.46580   10.23740  250.73970   -0.00340    1.79780    -999.25    0.52340    0.53350    3.98820   -0.00340  154.96370  154.96370   51.78840   55.01040   51.78840    3.98820    2.90370    4.25370    2.90370    -999.25    0.50120    0.46150    1.79780  -50.30820  -18.27530    4.25370
 1400.00000    7.79030    7.79380    7.79030  215.21580    0.01870    2.16330    -999.25    0.29720    0.31970    4.64650    0.01870  110.19700  110.19700   47.01930   53.52780   47.01930    4.64650    6.10280    8.38280    6.10280    -999.25    0.39140    0.34840    2.16330  -65.08440  -32.97860    8.38280
 1450.00000    7.60480    7.81070    7.60480  335.90860    0.03840    2.09330    -999.25    0.34030    0.36060    2.97700    0.03840  121.93600  121.93600   56.68310   63.18370   56.68310    2.97700    3.60700    5.60620    3.60700    -999.25    0.47660    0.43580    2.09330  -56.76900  -24.59040    5.60620
 1500.00000    7.73470    7.76430    7.73470  265.37170    0.02690    2.08810    -999.25    0.33750    0.36370    3.76830    0.02690  121.46930  121.46930   53.16930   57.36900   53.16930    3.76830    4.66270    6.61710    4.66270    -999.25    0.47120    0.43020    2.08810  -59.88320  -27.63170    6.61710
 1550.00000    7.77120    8.04650    7.77120  251.73110    0.02180    2.06950    -999.25    0.33180    0.37460    3.97280    0.02180  116.22690  116.22690   78.82620   76.54130   78.82620    3.97280    4.93750    5.53850    4.93750    -999.25    0.49170    0.45160    2.06950  -51.05080  -18.72680    5.53850
 1600.00000    8.15620    8.32150    8.15620  269.17900    0.07060    2.23270    -999.25    0.25920    0.27910    3.71500    0.07060  119.81380  119.81380   84.81970   92.12760   84.81970    3.71500    3.83230    4.03480    3.83230    -999.25    0.50060    0.46080    2.23270  -42.93630  -10.53910    4.03480
 1650.00000    9.77670    9.59540    9.77670  975.80020    0.15660    2.30160    -999.25    0.21370    0.23880    1.02480    0.15660  123.42860  123.42860   87.93380   93.43140   87.93380    1.02480    1.32940    2.41580    1.32940    -999.25    0.48920    0.44890    2.30160  -43.07130  -10.60120    2.41580
 1700.00000    8.45890    8.48090    8.45890  240.87680    0.04780    2.21430    -999.25    0.27040    0.28990    4.15150    0.04780  111.09150  111.09150   82.66690   84.52020   82.66690    4.15150    4.29780    4.62010    4.29780    -999.25    0.49280    0.45270    2.21430  -46.90910  -14.29040    4.62010
 1750.00000    8.94640    9.09450    8.94640  215.85680    0.03690    2.27940    -999.25    0.23120    0.25180    4.63270    0.03690  103.68580  103.68580   62.05770   56.61060   62.05770    4.63270    4.77530    4.49470    4.77530    -999.25    0.40210    0.35930    2.27940  -41.78280   -8.99410    4.49470
 1800.00000    9.19350    8.94520    9.19350  149.81730    0.01040    2.39060    -999.25    0.17090    0.18680    6.67810    0.01040   79.03070   79.03070   68.65790   78.76560   68.65790    6.67810    7.45290    9.66300    7.45290    -999.25    0.37140    0.32800    2.39060  -54.52330  -21.56550    9.66300
 1850.00000    8.82330    8.71600    8.82330  203.80710    0.03860    2.26440    -999.25    0.23820    0.26060    4.90660    0.03860  108.70950  108.70950   70.56120   75.57010   70.56120    4.90660    5.59210    7.18960    5.59210    -999.25    0.43320    0.39110    2.26440  -52.96520  -19.83650    7.18960
 1900.00000    9.53370    9.79260    9.53370  324.06510    0.20610    2.16520    -999.25    0.29780    0.31860    3.08580    0.20610  114.20520  114.20520   82.07810   79.98550   82.07810    3.08580    3.26040    3.74870    3.26040    -999.25    0.50050    0.46070    2.16520  -44.94280  -11.64410    3.74870
 1950.00000    9.75910    9.78810    9.75910  277.67750    0.03600    2.24450    -999.25    0.25190    0.27220    3.60130    0.03600  117.58530  117.58530   79.09110   89.51570   79.09110    3.60130    3.71350    3.86620    3.71350    -999.25    0.45090    0.40920    2.24450  -49.47810  -16.00950    3.86620
