~Version ---------------------------------------------------
VERS.      2.0 : CWLS log ASCII Standard -VERSION 2.0
WRAP.       NO : One line per depth step
CREA. 08/30/13 : LAS Creation Date
~Well ------------------------------------------------------
STRT.M                          300.0 : START DEPTH
STOP.M                         2950.0 : STOP DEPTH
STEP.M                       50.00000 : STEP LENGTH
NULL.                         -999.25 : NULL VALUE
COMP. QUINTANA EXPLORATION CANADA LTD : COMPANY
WELL.  CHAUVCO GEOG VIRGHILLS 11-14-6 : WELL
FLD .                                 : FIELD
LOC .                                 : LOCATION
CTRY.                          CANADA : COUNTRY
SRVC.                    Schlumberger : SERVICE COMPANY
DATE.                     01-Nov-1984 : LOGDATE
PROV.                         Alberta : PROVINCE
UWI .                100111406613W500 : UNIQUE WELL ID
SLAT.WGS84                   54.71471 : SURFACE LATITUDE
SLON.WGS84                  -115.8579 : SURFACE LONGITUDE
~Curve Information -----------------------------------------
DEPT    .M      : DEPTH METER
C11ED   .MM     : CALIPER FROM CALIPER LOG [ADJ. TO RESISTIVITY LOG]
C1ED    .MM     : CALIPER FROM DENSITY LOG [ADJ. TO RESISTIVITY LOG]
C21ED   .MM     : CALIPER FROM CALIPER LOG [ADJ. TO RESISTIVITY LOG]
C2ED    .MM     : CALIPER FROM DENSITY LOG [ADJ. TO RESISTIVITY LOG]
CALMED  .MM     : CALIPER FROM MLL LOG [ADJ. TO RESISTIVITY LOG]
CALSED  .MM     : CALIPER FROM SONIC LOG
CALWS   .MM     : CALIPER [CALSED]
CONDWS  .MMHO   : CONDUCTIVITY [1000/DRESWS]
DCORWS  .KG/M3  : DENSITY CORRECTION [DRHOED]
DENWS   .KG/M3  : FORMATION BULK DENSITY [CALC FROM DPOLSWS,M=2710,F=1000]
DPHILSED.V/V    : DENSITY POROSITY LIMESTONE [M=2710,F=1000] FROM DENSITY LOG [ADJ. TO RESISTIVITY LOG]
DPHISSED.V/V    : DENSITY POROSITY SANDSTONE [M=2650,F=1000] FROM DENSITY LOG [ADJ. TO RESISTIVITY LOG]
DPOLSWS .V/V    : DENSITY POROSITY LIMESTONE [DPHISSED CONVERTED TO LIMESTONE(M=2710,F=1000), SPL. TO DPHILSED @ 1739.7M]
DRESWS  .OHMM   : DEEP RESISTIVITY [ILDED]
DRHOED  .KG/M3  : DENSITY CORRECTION FROM DENSITY LOG [ADJ. TO RESISTIVITY LOG]
DTED    .US/M   : SONIC INTERVAL FROM SONIC LOG
DTWS    .US/M   : COMPRESSIONAL SONIC [DTED]
GRSED   .GAPI   : GAMMA RAY FROM SONIC LOG
GRWS    .GAPI   : GAMMA RAY [GRSED SPL TO SGRDDED @2937.5M]
ILDED   .OHMM   : MEDIUM INDUCTION FROM RESISTIVITY LOG
ILMED   .OHMM   : MEDIUM INDUCTION FROM RESISTIVITY LOG
MLLED   .OHMM   : MICRO-LATEROLOG FROM MLL LOG
MRESWS  .OHMM   : MEDIUM RESISTIVITY [ILMED]
NPHILSED.V/V    : NEUTRON POROSITY LIMESTONE FROM DENSITY LOG [ADJ. TO RESISTIVITY LOG]
NPHISSED.V/V    : NEUTRON POROSITY SANDSTONE FROM DENSITY LOG [ADJ. TO RESISTIVITY LOG]
NPOLSWS .V/V    : NEUTRON POROSITY LIMESTONE [NPHISSED MATRIX CONVERSION FOR LIMESTONE, SPL. TO NPHILSED @ 1739.7 M]
PEFED   .B/E    : PHOTOELECTRIC FACTOR FROM DENSITY LOG [ADJ. TO RESISTIVITY LOG]
PEFWS   .B/E    : PHOTOELECTRIC FACTOR [PEFED]
RHOBED  .KG/M3  : BULK DENSITY FROM DENSITY LOG [ADJ. TO RESISTIVITY LOG]
SFLUED  .OHMM   : SHALLOW FOCUS LOG FROM RESISTIVITY LOG
SGRDDED .GAPI   : GAMMA RAY FROM DENSITY LOG [ADJ. TO RESISTIVITY LOG]
SPRED   .MV     : SPONTANEOUS POTENTIAL FROM RESISTIVITY LOG
SPWS    .MV     : SPONTANEOUS POTENTIAL [BASELINE 0 MV, SPRED]
SRESWS  .OHMM   : SHALLOW RESISTIVITY [SFLUED]
TENDED  .N      : TENSION FROM DENSITY LOG [ADJ. TO RESISTIVITY LOG]
TENSED  .N      : TENSION FROM SONIC LOG
~Params ----------------------------------------------------
PD  .                         GL : PERMANENT DATUM
EPD .M                    1188.9 : ELEVATION PERMANENT DATUM
LMF .                         KB : LOG MEASURED FROM
DAPD.M                       5.6 : FEET ABOVE PERMANENT DATUM
DMF .                         KB : DRILLING MEASURED FROM
EKB .M                    1194.5 : KELLY BUSHING
EDF .M                    1194.2 : DRILLING FLOOR
EGL .M                    1188.9 : GROUND LEVEL
DATE.                   11/01/84 : RUN DATE
RUN .                          1 : RUN NUMBER
DD  .M                      2957 : DEPTH DRILLER
DL  .M                      2957 : DEPTH LOGGER
BLI .M                      2956 : BOTTOM LOG INTERVAL
TLI .M                        30 : TOP LOG INTERVAL
CS  .MM                    244.5 : CASING SIZE
CBD .M                       428 : CASING BOTTOM DRILLER
CBL .M                       428 : CASING BOTTOM LOGGER
BS  .MM                    222.2 : BIT SIZE
BSD .M                      2957 : BIT SIZE AT DEPTH
DFT .                   GEL CHEM : DRILLING FLUID TYPE
DFD .                       1110 : DRILLING FLUID DENSITY
DFV .                         83 : DRILLING FLUID VISCOSITY
DFPH.                       10.5 : DRILLING FLUID PH
DFL .                          9 : DRILLING FLUID LOSS
MSS .                   FLOWLINE : MUD SAMPLE SOURCE
RMS .OHMM                   1.84 : RESISTIVITY MUD SAMPLE
MST .DEGC                   16.1 : MUD SAMPLE TEMPERATURE
RMF .OHMM                   1.98 : RESISTIVITY MUD FILTRATE SAMPLE
MFST.DEGC                   16.6 : MUD FILTRATE SAMPLE TEMPERATURE
RMC .OHMM                  0.746 : RESISTIVITY MUD CAKE
MCST.DEGC                     80 : MUD CAKE SAMPLE TEMPERATURE
MFSS.                       MEAS : MUD FILTRATE SAMPLE SOURCE
MCSS.                       MEAS : MUD CAKE SAMPLE SOURCE
RMB .OHMM                  0.683 : RESISTIVITY MUD AT BHT
TCS .HRS                     200 : TIME CIRCULATED STOPPED
TLAB.HRS                     800 : TIME LOGGER AT BOTTOM
LUN .                       8156 : LOGGING UNIT NUMBER
LUL .                        EDM : LOGGING UNIT LOCATION
ENGI.                    GAGGINO : RECORDING ENGINEER
WITN.                      YOPIK : WITNESSED BY
CLNT.                    A2DTECH : CLIENT CODE
ORIG. 6.5"/100M 16.5"/100M PRINT : ORIGIN OF DATA
UWI .           100111406613W500 : UNIQUE WELL ID
DICO.     A2D Technologies, Inc. : DIGITIZING COMPANY
~Other -----------------------------------------------------
DILSFL-CNDL- BHC-MLL -CALIPER LOG RUN
ALL CURVES IN MLL LOG, VERIFY FROM SMALL SCALE SECTION FROM LR TO FR
~ASCII -----------------------------------------------------
# ...
 1300.00000  245.65030    -999.25  326.11300    -999.25    -999.25  233.23710  233.23710  181.35650    -999.25    -999.25    -999.25    -999.25    -999.25    5.51400    -999.25  327.33320  327.33320   77.51130   77.51130    5.51400    5.36730    -999.25    5.36730    -999.25    -999.25    -999.25    -999.25    -999.25    -999.25    5.07300    -999.25 -130.85240  -15.16140    5.07300    -999.25 2045.32140
 1350.00000  265.84880    -999.25  252.64980    -999.25    -999.25  231.02420  231.02420  228.39920    -999.25    -999.25    -999.25    -999.25    -999.25    4.37830    -999.25  316.36940  316.36940  109.10130  109.10130    4.37830    4.27130    -999.25    4.27130    -999.25    -999.25    -999.25    -999.25    -999.25    -999.25    4.49910    -999.25 -123.82420   -9.85290    4.49910    -999.25 2163.69510
 1400.00000  253.48270    -999.25  305.76830    -999.25    -999.25  232.46080  232.46080  238.44720    -999.25    -999.25    -999.25    -999.25    -999.25    4.19380    -999.25  316.29080  316.29080  121.35240  121.35240    4.19380    4.09110    -999.25    4.09110    -999.25    -999.25    -999.25    -999.25    -999.25    -999.25    4.62980    -999.25 -119.84630   -7.59470    4.62980    -999.25 2171.12940
 1450.00000  244.02950  242.90950  299.84890  296.33460  297.92780  232.41380  232.41380  244.06910   66.44620 2268.52000    -999.25    0.23120    0.25820    4.09720   66.44620  294.71050  294.71050   95.84370   95.84370    4.09720    4.21520    4.33050    4.21520    -999.25    0.40300    0.36020    2.33190    2.33190 2266.78460    4.33380   86.79660 -119.25450   -7.74010    4.33380 2366.28980 2238.30790
 1500.00000  221.88830  220.40270  215.57380  215.60050  211.41690  224.42480  224.42480  388.89320   -8.23550 2294.59000    -999.25    0.21540    0.24290    2.57140   -8.23550  260.51820  260.51820   35.39890   35.39890    2.57140    2.78550    6.58760    2.78550    -999.25    0.24530    0.20140    1.88770    1.88770 2295.07080    5.02740   24.52270 -185.40200  -74.50340    5.02740 2373.09960 2209.24980
 1550.00000  299.72730  246.15870  349.53100  265.73580  337.80740  236.55690  236.55690  277.46950   14.93070 1661.65000    -999.25    0.59900    0.61310    3.60400   14.93070  363.23050  363.23050   54.82670   54.82670    3.60400    2.91650    1.31750    2.91650    -999.25    0.54510    0.50770    1.55210    1.55210 1908.50050    2.17490   48.94960 -134.13910  -23.85630    2.17490 2478.71340 2353.71970
 1600.00000  256.59440  260.01010  267.70620  259.03320  275.65230  230.92950  230.92950  225.28610   54.17950 2324.29000    -999.25    0.19740    0.22560    4.43880   54.17950  303.30730  303.30730   73.76780   73.76780    4.43880    5.16400    5.20830    5.16400    -999.25    0.40930    0.36660    2.53240    2.53240 2392.43840    7.32940   69.71540 -128.21080  -19.43860    7.32940 2564.42210 2406.72340
 1650.00000  276.69270  277.26340  303.78270  301.97950  281.78060  235.29300  235.29300  266.06360    4.16860 2433.68500    -999.25    0.13110    0.16160    3.75850    4.16860  311.03410  311.03410   85.13930   85.13930    3.75850    4.03980    4.24530    4.03980    -999.25    0.41440    0.37180    2.72770    2.72770 2430.90060    4.15540   72.13530 -114.91250   -7.90920    4.15540 2513.99410 2395.20090
 1700.00000  308.42550  305.80310  305.04170  310.75930  319.37670  237.49250  237.49250  235.59900  133.52180 2398.21000    -999.25    0.15260    0.18230    4.24450  133.52180  280.26860  280.26860   74.39190   74.39190    4.24450    4.44390    3.67660    4.44390    -999.25    0.41600    0.37350    2.63350    2.63350 2401.99030    4.16400   67.36550 -114.94880   -9.71440    4.16400 2621.26230 2488.68550
 1750.00000  246.42960  245.72660  244.89760  243.66890  250.03990  228.86650  228.86650   19.60620  -10.33310 2512.49500    0.11550    -999.25    0.11550   51.00430  -10.33310  244.79650  244.79650   67.95130   67.95130   51.00430   63.16120  455.50240   63.16120    0.21620    -999.25    0.21620    4.00190    4.00190 2507.70580  221.07520   48.18380 -136.75010  -33.28460  221.07520 2667.76640 2506.04470
 1800.00000  265.49340  263.36080  293.21400  283.66850  299.80560  232.33910  232.33910   64.27110  179.73270 2664.17200    0.02680    -999.25    0.02680   15.55910  179.73270  179.06390  179.06390   28.91670   28.91670   15.55910   22.08100   16.21640   22.08100    0.09590    -999.25    0.09590    3.64740    3.64740 2685.63570  108.10430   27.19810 -157.92730  -49.11980  108.10430 2715.23780 2571.40450
 1850.00000  263.10860  262.89280  244.79040  271.66610  251.01400  231.24670  231.24670   81.22880  117.25540 2586.88000    0.07200    -999.25    0.07200   12.31090  117.25540  177.37730  177.37730   15.89310   15.89310   12.31090   22.74640   66.94360   22.74640    0.09270    -999.25    0.09270    4.02330    4.02330 2584.59520  124.56750   20.35220 -225.89270 -116.08410  124.56750 2681.07620 2590.62520
 1900.00000  275.43240    -999.25  272.66540    -999.25    -999.25  234.87220  234.87220  546.14960    -999.25    -999.25    -999.25    -999.25    -999.25    1.83100    -999.25  236.52390  236.52390   66.13270   66.13270    1.83100    2.17090    -999.25    2.17090    -999.25    -999.25    -999.25    -999.25    -999.25    -999.25    4.15250    -999.25 -144.29300  -41.34230    4.15250    -999.25 2650.32980
 1950.00000  248.40090    -999.25  246.24470    -999.25    -999.25  229.56400  229.56400   29.69510    -999.25    -999.25    -999.25    -999.25    -999.25   33.67560    -999.25  180.20890  180.20890   32.60270   32.60270   33.67560   41.31740    -999.25   41.31740    -999.25    -999.25    -999.25    -999.25    -999.25    -999.25   53.34320    -999.25 -109.42610  -10.17150   53.34320    -999.25 2773.98460
 2000.00000  236.16390    -999.25  234.61760    -999.25    -999.25  226.11350  226.11350   57.05260    -999.25    -999.25    -999.25    -999.25    -999.25   17.52770    -999.25  185.46770  185.46770   26.50540   26.50540   17.52770   18.34350    -999.25   18.34350    -999.25    -999.25    -999.25    -999.25    -999.25    -999.25   20.50890    -999.25 -137.35120  -41.81630   20.50890    -999.25 2812.19950
 2050.00000  294.18800    -999.25  290.85720    -999.25    -999.25  237.90010  237.90010  189.42980    -999.25    -999.25    -999.25    -999.25    -999.25    5.27900    -999.25  294.80500  294.80500  181.81820  181.81820    5.27900    5.76510    -999.25    5.76510    -999.25    -999.25    -999.25    -999.25    -999.25    -999.25    5.73380    -999.25 -116.41930  -23.09780    5.73380    -999.25 2806.04420
 2100.00000  251.88930    -999.25  246.51530    -999.25    -999.25  228.84130  228.84130    5.73930    -999.25    -999.25    -999.25    -999.25    -999.25  174.23780    -999.25  165.21170  165.21170   13.87890   13.87890  174.23780  161.43870    -999.25  161.43870    -999.25    -999.25    -999.25    -999.25    -999.25    -999.25  138.80340    -999.25 -178.55020  -86.18970  138.80340    -999.25 2878.05810
 2150.00000  229.13130    -999.25  246.09630    -999.25    -999.25  225.86200  225.86200   23.79690    -999.25    -999.25    -999.25    -999.25    -999.25   42.02230    -999.25  164.82220  164.82220   12.05100   12.05100   42.02230   54.00150    -999.25   54.00150    -999.25    -999.25    -999.25    -999.25    -999.25    -999.25  235.38500    -999.25 -228.00790 -136.60840  235.38500    -999.25 2955.40800
 2200.00000  243.16650    -999.25  240.33530    -999.25    -999.25  227.16600  227.16600   24.90800    -999.25    -999.25    -999.25    -999.25    -999.25   40.14770    -999.25  170.58180  170.58180   11.73150   11.73150   40.14770   62.27280    -999.25   62.27280    -999.25    -999.25    -999.25    -999.25    -999.25    -999.25  215.02930    -999.25 -238.96100 -148.52250  215.02930    -999.25 2946.55180
 2250.00000  230.41990    -999.25  258.78020    -999.25    -999.25  226.38860  226.38860    3.35380    -999.25    -999.25    -999.25    -999.25    -999.25  298.17130    -999.25  162.18620  162.18620   11.90800   11.90800  298.17130  282.34520    -999.25  282.34520    -999.25    -999.25    -999.25    -999.25    -999.25    -999.25  281.09860    -999.25 -187.41800  -97.94050  281.09860    -999.25 3055.74240
