~Version ---------------------------------------------------
VERS.      2.0 : CWLS log ASCII Standard -VERSION 2.0
WRAP.       NO : One line per depth step
CREA. 11/17/17 : LAS Creation Date
~Well ------------------------------------------------------
STRT.FT                              950.0 : START DEPTH
STOP.FT                             9900.0 : STOP DEPTH
STEP.FT                           50.00000 : STEP LENGTH
NULL.                              -999.25 : NULL VALUE
COMP.        HUDSON'S BAY OIL & GAS CO LTD : COMPANY
WELL. HB QUINTANA UNION GIROUX 10-25-66-20 : WELL
FLD .                                      : FIELD
LOC .                                      : LOCATION
CTRY.                               CANADA : COUNTRY
SRVC.                         Schlumberger : SERVICE COMPANY
DATE.                          21-Feb-1973 : LOGDATE
PROV.                              Alberta : PROVINCE
UWI .                     100102506620W500 : UNIQUE WELL ID
SLAT.WGS84                        54.74426 : SURFACE LATITUDE
SLON.WGS84                       -116.8814 : SURFACE LONGITUDE
~Curve Information -----------------------------------------
DEPT  .FT    : Depth Curve
CALSED.IN    : CALIPER FROM SONIC LOG [ADJ. TO RESISTIVITY LOG]
CALWS .IN    : CALIPER [CALSED]
CILDED.MMHO  : DEEP INDUCTION CONDUCTIVITY FROM RESISTIVITY LOG
CONDWS.MMHO  : CONDUCTIVITY [1000/DRESWS]
DRESWS.OHMM  : DEEP RESISTIVITY [ILDED]
DTED  .US/F  : DELTA-T FROM SONIC LOG [ADJ. TO RESISTIVITY LOG]
DTWS  .US/F  : COMPRESSIONAL SONIC [DTED]
GRSED .GAPI  : GAMMA RAY FROM SONIC LOG [ADJ. TO RESISTIVITY LOG]
GRWS  .GAPI  : GAMMA RAY [GRSED]
ILDED .OHMM  : DEEP INDUCTION RESISTIVITY FROM RESISTIVITY LOG
ILMED .OHMM  : MEDIUM INDUCTION RESISTIVITY FROM RESISTIVITY LOG
LL8ED .OHMM  : LATEROLOG 8 FROM RESISTIVITY LOG
MRESWS.OHMM  : MEDIUM RESISTIVITY [ILMED]
SPRED .MV    : SPONTANEOUS POTENTIAL FROM RESISTIVITY LOG
SPWS  .MV    : SPONTANEOUS POTENTIAL [BASELINE 0 MV,SPRED]
SRESWS.OHMM  : SHALLOW RESISTIVITY [LL8ED]
~Params ----------------------------------------------------
PD  .                     GL : PERMANENT DATUM
EPD .FT                 2603 : ELEVATION PERMANENT DATUM
LMF .                     KB : LOG MEASURED FROM
DAPD.FT                   15 : FEET ABOVE PERMANENT DATUM
EKB .FT                 2618 : KELLY BUSHING
EGL .FT                 2603 : GROUND LEVEL
DATE.               02/21/73 : RUN DATE
RUN .                      1 : RUN NUMBER
DD  .FT                 9904 : DEPTH DRILLER
DL  .FT                 9905 : DEPTH LOGGER
BLI .FT                 9902 : BOTTOM LOG INTERVAL
TLI .FT                  994 : TOP LOG INTERVAL
CBD .FT                  993 : CASING BOTTOM DRILLER
CBL .FT                  994 : CASING BOTTOM LOGGER
BS  .IN                 8.75 : BIT SIZE
BSD .FT                 9904 : BIT SIZE AT DEPTH
DFT .                    GEL : DRILLING FLUID TYPE
DFD .                    9.4 : DRILLING FLUID DENSITY
DFV .                    310 : DRILLING FLUID VISCOSITY
DFPH.                   10.5 : DRILLING FLUID PH
DFL .                    7.2 : DRILLING FLUID LOSS
MSS .             CIRCULATED : MUD SAMPLE SOURCE
RMS .OHMM               1.85 : RESISTIVITY MUD SAMPLE
MST .DEGF                 58 : MUD SAMPLE TEMPERATURE
RMF .OHMM               1.56 : RESISTIVITY MUD FILTRATE SAMPLE
MFST.DEGF                 68 : MUD FILTRATE SAMPLE TEMPERATURE
RMC .OHMM                1.5 : RESISTIVITY MUD CAKE
MCST.DEGF                 58 : MUD CAKE SAMPLE TEMPERATURE
RMB .OHMM               0.56 : RESISTIVITY MUD AT BHT
TCS .HRS                   3 : TIME CIRCULATED STOPPED
LUN .                   7667 : LOGGING UNIT NUMBER
LUL .                  LLOYD : LOGGING UNIT LOCATION
ENGI.                  LEWIS : RECORDING ENGINEER
WITN.                 HARRIS : WITNESSED BY
CLNT.                A2DTECH : CLIENT CODE
ORIG.            2" 5" PRINT : ORIGIN OF DATA
UWI .       100102506620W500 : UNIQUE WELL ID
DICO. A2D Technologies, Inc. : DIGITIZING COMPANY
~Other -----------------------------------------------------
DILL-BCS LOG RUN
ALL DATA FROM TOP TO 4000' FROM  2" SECTION
~ASCII -----------------------------------------------------
# ...
 5250.00000    9.24640    9.24640    -999.25   89.58490   11.16260   74.55280   74.55280   45.56340   45.56340   11.16260   16.14620   25.24000   16.14620 -379.80370  -64.00030   25.24000
 5300.00000    9.45740    9.45740    -999.25   51.86930   19.28020   63.91650   63.91650   74.38650   74.38650   19.28020   23.94070   35.28790   23.94070 -322.50570   -8.18140   35.28790
 5350.00000    9.22090    9.22090    -999.25  130.49550    7.66310   67.95390   67.95390  106.50730  106.50730    7.66310    8.75990   11.99090    8.75990 -336.61140  -23.78110   11.99090
 5400.00000    9.67070    9.67070    -999.25  243.46300    4.10740   72.96350   72.96350  107.06190  107.06190    4.10740    4.62190    5.56080    4.62190 -321.12920   -9.78550    5.56080
 5450.00000   10.64990   10.64990    -999.25  289.88870    3.44960   79.13490   79.13490  104.83970  104.83970    3.44960    3.57790    4.54890    3.57790 -313.85850   -4.00130    4.54890
 5500.00000   11.37590   11.37590    -999.25  386.53320    2.58710   49.52420   49.52420   96.93780   96.93780    2.58710    2.63940    3.87900    2.63940 -312.21840   -3.84780    3.87900
 5550.00000    9.47610    9.47610    -999.25   65.43300   15.33740   69.49710   69.49710  194.06740  194.06740   15.33740   17.52940   40.80120   17.52940 -309.57530   -2.68390   40.80120
 5600.00000    8.86610    8.86610    -999.25   13.13180   76.15090   66.82970   66.82970  300.00000  300.00000   76.15090   88.43510 1459.26930   88.43510 -311.54360   -6.88210 1459.26930
 5650.00000    9.22250    9.22250    -999.25  139.85230    7.15040   61.67960   61.67960  112.13420  112.13420    7.15040    9.26720   11.67820    9.26720 -340.17790  -42.94210   11.67820
 5700.00000    8.87600    8.87600    -999.25  207.49900    4.81930   62.86960   62.86960   65.64950   65.64950    4.81930    6.62710   20.09550    6.62710 -383.21900  -94.99750   20.09550
 5750.00000    9.16610    9.16610    -999.25  222.59320    4.49250   58.55280   58.55280   67.13470   67.13470    4.49250    6.09450   19.18180    6.09450 -374.56200  -95.35490   19.18180
 5800.00000    9.18730    9.18730    -999.25  199.11590    5.02290   60.27940   60.27940   64.34620   64.34620    5.02290    6.99590   24.60630    6.99590 -357.85180  -87.61390   24.60630
 5850.00000    9.36560    9.36560    -999.25  178.75020    5.59440   59.84240   59.84240   76.27800   76.27800    5.59440    6.06580   18.78220    6.06580 -297.48720  -36.30870   18.78220
 5900.00000    9.13700    9.13700    -999.25   67.73460   14.76350   42.33650   42.33650   26.92840   26.92840   14.76350   22.42040  140.31770   22.42040 -328.33870 -129.04370  140.31770
 5950.00000    9.25880    9.25880    -999.25   80.09930   12.48450   46.12720   46.12720   65.99890   65.99890   12.48450   14.49010   22.30310   14.49010 -133.28500   -2.86120   22.30310
 6000.00000    9.04090    9.04090    -999.25   28.69890   34.84460   43.41690   43.41690   31.58250   31.58250   34.84460   42.54100  136.11620   42.54100 -204.38580  -79.44260  136.11620
 6050.00000    9.17560    9.17560    -999.25  136.48570    7.36510   46.49280   46.49280   14.39170   14.39170    7.36510    8.66980  170.62730    8.66980 -315.47280 -195.98270  170.62730
 6100.00000    9.29480    9.29480    -999.25   96.05040   10.41120   46.12450   46.12450   25.67650   25.67650   10.41120    9.51780   59.32020    9.51780 -284.73820 -170.75610   59.32020
 6150.00000    9.15430    9.15430    -999.25   26.30130   38.02100   48.58680   48.58680   45.78210   45.78210   38.02100   44.07770  130.32970   44.07770 -144.37520  -35.87370  130.32970
 6200.00000    9.14840    9.14840    -999.25   23.65050   42.28240   44.85830   44.85830   50.36730   50.36730   42.28240   35.38890  132.87160   35.38890 -132.48980  -29.07710  132.87160
 6250.00000    9.28170    9.28170    -999.25  309.42510    3.23180   51.26670   51.26670   35.62470   35.62470    3.23180    4.17030   15.21580    4.17030 -236.34550 -137.74590   15.21580
 6300.00000    9.19780    9.19780    -999.25  485.54710    2.07040   58.76180   58.76180   38.53490   38.53490    2.07040    2.86360   10.00160    2.86360 -286.90990 -193.09920   10.00160
 6350.00000    9.14330    9.14330    -999.25  270.40910    3.69810   52.09410   52.09410   35.09970   35.09970    3.69810    9.43550   18.11320    9.43550 -270.61300 -181.63940   18.11320
 6400.00000    9.17090    9.17090    -999.25   35.40060   28.24810   45.54740   45.54740   18.01320   18.01320   28.24810   36.66910  163.91460   36.66910 -272.79400 -188.63350  163.91460
 6450.00000    9.14290    9.14290    -999.25   63.78080   15.67870   44.15870   44.15870   16.52490   16.52490   15.67870   23.03030  152.94840   23.03030 -243.98160 -164.63410  152.94840
 6500.00000    9.20520    9.20520    -999.25   24.90380   40.15450   42.90260   42.90260   17.65250   17.65250   40.15450   41.51960  121.00800   41.51960 -222.15430 -147.61980  121.00800
 6550.00000    9.29420    9.29420    -999.25  132.77750    7.66410   47.59280   47.59280   51.73940   51.73940    7.66410   10.72200   27.25710   10.72200 -196.66390 -126.91840   27.25710
 6600.00000    9.51010    9.51010    -999.25  433.50100    2.30680   59.43620   59.43620   58.35360   58.35360    2.30680    2.21690    3.54710    2.21690 -102.07130  -37.16290    3.54710
 6650.00000    9.25130    9.25130    -999.25  398.39050    2.51010   59.10600   59.10600   62.63570   62.63570    2.51010    2.95630    6.37000    2.95630 -103.67150  -41.78810    6.37000
 6700.00000    9.17320    9.17320    -999.25   76.87700   13.00780   47.15620   47.15620   41.94070   41.94070   13.00780   14.41920   40.21180   14.41920  -70.32010   -5.44500   40.21180
 6750.00000    9.14320    9.14320    -999.25   77.59940   12.88670   44.75400   44.75400   28.81710   28.81710   12.88670   14.63470   93.69510   14.63470 -107.19360  -42.18740   93.69510
 6800.00000    9.03280    9.03280    -999.25   32.30460   30.96150   45.31160   45.31160   24.49170   24.49170   30.96150   43.44160   88.35870   43.44160 -201.66720 -136.53040   88.35870
 6850.00000    8.90280    8.90280    -999.25   24.24940   41.23820   44.95850   44.95850   32.72260   32.72260   41.23820   48.51990  104.50980   48.51990 -272.21230 -206.94370  104.50980
 6900.00000    8.90840    8.90840    -999.25   28.04440   35.65780   47.04180   47.04180   42.66860   42.66860   35.65780   43.35140   82.00570   43.35140 -297.89400 -232.49420   82.00570
 6950.00000    8.93980    8.93980    -999.25   31.84200   31.40510   47.62940   47.62940   49.47930   49.47930   31.40510   37.46390   66.24910   37.46390 -319.99730 -254.46630   66.24910
 7000.00000    9.02870    9.02870    -999.25   39.04110   25.61400   53.18870   53.18870   54.37700   54.37700   25.61400   30.82170   53.22650   30.82170 -332.20830 -266.54610   53.22650
 7050.00000    8.92970    8.92970    -999.25   31.67290   31.57270   50.32660   50.32660   46.62820   46.62820   31.57270   38.61060   74.59950   38.61060 -322.50900 -256.71620   74.59950
 7100.00000    8.94460    8.94460    -999.25   31.94110   31.30760   51.58620   51.58620   44.51660   44.51660   31.30760   36.40220   68.36710   36.40220 -286.57020 -220.64560   68.36710
 7150.00000    8.96340    8.96340    -999.25   27.14570   36.83830   51.24940   51.24940   45.86550   45.86550   36.83830   45.86250   93.79720   45.86250 -228.97340 -162.91760   93.79720
 7200.00000    9.04650    9.04650    -999.25   19.02660   52.55800   45.97870   45.97870   22.16550   22.16550   52.55800   68.51760  238.04350   68.51760 -227.97610 -161.78910  238.04350
 7250.00000    9.00030    9.00030    -999.25   18.95220   52.76440   48.91760   48.91760  276.53380  276.53380   52.76440   71.07570  464.85080   71.07570 -215.56680 -149.24860  464.85080
 7300.00000    9.27990    9.27990    -999.25   20.75960   48.17400   47.78780   47.78780   14.05660   14.05660   48.17400   56.54800  282.87970   56.54800 -278.57130 -212.12260  282.87970
 7350.00000    9.30280    9.30280    -999.25   13.17500   75.90160   45.78310   45.78310   18.58380   18.58380   75.90160   94.73220  627.34480   94.73220 -277.28320 -210.70260  627.34480
