~Version ---------------------------------------------------
VERS.      2.0 : CWLS log ASCII Standard -VERSION 2.0
WRAP.       NO : One line per depth step
CREA. 08/29/14 : LAS Creation Date
~Well ------------------------------------------------------
STRT.FT                             850.0 : START DEPTH
STOP.FT                            9900.0 : STOP DEPTH
STEP.FT                          50.00000 : STEP LENGTH
NULL.                             -999.25 : NULL VALUE
COMP.         BLUEMOUNT RESOURCES LIMITED : COMPANY
WELL. BLUEMOUNT ET AL GOODWIN 11-31-58-13 : WELL
FLD .                                     : FIELD
LOC .                                     : LOCATION
CTRY.                              CANADA : COUNTRY
SRVC.              Schlumberger of Canada : SERVICE COMPANY
DATE.                         07-Apr-1973 : LOGDATE
PROV.                             Alberta : PROVINCE
UWI .                    100113105813W500 : UNIQUE WELL ID
SLAT.WGS84                       54.06009 : SURFACE LATITUDE
SLON.WGS84                      -115.9256 : SURFACE LONGITUDE
~Curve Information -----------------------------------------
DEPT   .FT                : Depth Curve
CALD   .IN   45 280 60 00 : CALIPER FROM DENSITY LOG
CALS   .IN   60 280 50 00 : CALIPER FROM SONIC LOG
CILD   .MMHO 07 110 46 00 : INDUCTION DEEP CONDUCTIVITY
DPHI_LS.DEC  45 890 10 00 : DENSITY POROSITY LIMESTONE
DRHO   .G/C3 45 356 01 00 : BULK DENSITY CORRECTION
DT     .US/F 60 500 00 00 : DELTA-T (INTERVAL TRANSIT TIME)
GRD    .GAPI 45 310 01 00 : GAMMA RAY FROM DENSITY LOG
GRS    .GAPI 60 310 01 00 : GAMMA RAY FROM SONIC LOG
ILD    .OHMM 07 120 46 00 : INDUCTION DEEP RESISTIVITY
ILM    .OHMM 07 120 44 00 : INDUCTION MEDIUM RESISTIVITY
LL8    .OHMM 07 220 08 00 : LATEROLOG 8
NPHI_LS.DEC  42 890 01 00 : NEUTRON POROSITY LIMESTONE
RHOB   .G/C3 45 350 01 00 : BULK DENSITY
SPR    .MV   07 010 01 00 : SPONTANEOUS POTENTIAL FROM RESISTIVITY LOG
~Params ----------------------------------------------------
PD  .                     GL : PERMANENT DATUM
EPD .FT                 3069 : ELEVATION PERMANENT DATUM
LMF .                     KB : LOG MEASURED FROM
DAPD.FT                   17 : FEET ABOVE PERMANENT DATUM
EKB .FT                 3087 : KELLY BUSHING
EGL .FT                 3069 : GROUND LEVEL
DATE.               04/07/73 : RUN DATE
RUN .                      1 : RUN NUMBER
DD  .FT                 9938 : DEPTH DRILLER
DL  .FT                 9940 : DEPTH LOGGER
BLI .FT                 9935 : BOTTOM LOG INTERVAL
TLI .FT                 1025 : TOP LOG INTERVAL
CBD .FT                 1025 : CASING BOTTOM DRILLER
CBL .FT                 1030 : CASING BOTTOM LOGGER
BS  .IN                 8.75 : BIT SIZE
BSD .FT                 9938 : BIT SIZE AT DEPTH
DFT .               GEL CHEM : DRILLING FLUID TYPE
DFD .                    9.5 : DRILLING FLUID DENSITY
DFV .                     92 : DRILLING FLUID VISCOSITY
DFPH.                      9 : DRILLING FLUID PH
DFL .                     10 : DRILLING FLUID LOSS
MSS .             CALCULATED : MUD SAMPLE SOURCE
TCS .HRS                   5 : TIME CIRCULATED STOPPED
LUN .                   7667 : LOGGING UNIT NUMBER
LUL .                    EDM : LOGGING UNIT LOCATION
ENGI.                  LEWIS : RECORDING ENGINEER
WITN.              TUDDENHAM : WITNESSED BY
CLNT.                A2DTECH : CLIENT CODE
ORIG.            2" 5" PRINT : ORIGIN OF DATA
UWI .       100113105813W500 : UNIQUE WELL ID
DICO. A2D Technologies, Inc. : DIGITIZING COMPANY
~Other -----------------------------------------------------
~ASCII -----------------------------------------------------
# ...
 3300.00000   13.44410   10.51310    -999.25    0.23580    0.28610  105.12550   58.29010   60.23780    4.94270    4.87620    4.60850    0.30110    2.27050  -96.41430
 3350.00000    9.59950    9.49110    -999.25   -0.01110    0.09590   83.05530   44.63060   50.16650    7.09310    8.02950    8.66940    0.19360    2.68220 -101.13920
 3400.00000   10.35020    9.87170    -999.25    0.02280    0.14340   91.40980   46.01520   45.42810   18.86170   18.94910   18.05450    0.24750    2.68450 -106.45550
 3450.00000   10.93210   10.62720    -999.25    0.08960    0.20430  116.40990   60.72740   64.90130    4.95480    5.16010    5.27100    0.32210    2.51930  -99.82100
 3500.00000   11.09690   10.26810    -999.25    0.07300    0.15590  110.26230   56.57100   58.99260   11.87900   13.77520   13.94880    0.33300    2.57860 -108.71840
 3550.00000   11.89070   11.32840    -999.25    0.07360    0.12750  114.16110   64.82710   69.21840    4.57520    4.76960    5.01180    0.38940    2.55920  -97.65780
 3600.00000    9.34850    9.26920    -999.25    0.10670    0.14450   89.22430   51.47220   60.97390    6.40840    6.58280    7.69310    0.26890    2.55190  -98.61640
 3650.00000   11.26330    9.75920    -999.25    0.27420    0.30330  114.34710   69.73500   73.04030    5.67820    5.87480    7.07960    0.36880    2.30040 -100.20820
 3700.00000   12.01180   10.86230    -999.25    0.29060    0.29820  110.56920   85.50400   95.83590    5.96670    6.17540    6.57230    0.37860    2.21940  -98.19950
 3750.00000   12.13610   10.49850    -999.25    0.30920    0.29200  107.98410   84.49200   86.31930    7.47170    7.99990    8.47130    0.32850    2.13730  -98.83500
 3800.00000   12.79810   10.88370    -999.25    0.22750    0.28570  109.86420   86.80680   97.60950    6.82360    7.06430    7.25810    0.35410    2.31960  -99.21660
 3850.00000   13.39700   11.09580    -999.25    0.27380    0.31400  109.87650   88.98170   99.33910    6.21380    6.43050    6.75580    0.32930    2.21730  -98.34870
 3900.00000   12.99080   10.99290    -999.25    0.27110    0.31870  112.84520   89.58810  108.35080    6.51410    6.74140    7.72220    0.40980    2.27020  -97.34620
 3950.00000   12.94780   10.48830    -999.25    0.11600    0.27420  109.90190  100.86000  120.67250    8.90890    9.30210   10.04660    0.32240    2.49190  -96.43190
 4000.00000   13.55010   10.67880    -999.25    0.25880    0.32590  115.73530   95.05600  103.06950    6.79570    7.03660    8.20360    0.38850    2.27220  -98.11820
 4050.00000   13.36590   10.71800    -999.25    0.23460    0.31600  114.35400   96.07950   98.84740    7.53150    7.79560    8.24800    0.33750    2.30940  -98.74810
 4100.00000   13.11020   10.41540    -999.25    0.32040    0.29140  105.76400   86.62800   96.97580    6.54050    6.87740    7.14430    0.38260    2.15310  -97.38020
 4150.00000   13.12940   10.87130    -999.25    0.32160    0.28620  111.66230   87.66550  104.34010    6.26470    6.49670    6.84430    0.39570    2.17020  -98.61930
 4200.00000   12.55570   10.27310    -999.25    0.30570    0.29450  105.24230   91.92930   99.37100    6.79830    7.36290    8.10930    0.27930    2.25670  -99.57380
 4250.00000   13.80560   10.67180    -999.25    0.31200    0.30820  109.23150   92.24130  111.15890    7.15200    7.81620    8.29290    0.39270    2.24300 -100.60320
 4300.00000   12.76260   10.62850    -999.25    0.17880    0.26580  106.09480   90.49170   99.64000    6.07810    6.29040    6.52820    0.40560    2.41170  -99.44680
 4350.00000   12.61830   11.06800    -999.25    0.23540    0.27940  106.13530   83.70560   96.25770    6.65690    6.90270    7.10720    0.38060    2.23050 -100.06150
 4400.00000   14.14200   11.27110    -999.25    0.32840    0.29640  105.73350   95.13120  106.76000    6.37420    6.60050    6.76150    0.40370    2.13870 -105.33610
 4450.00000   11.14190    9.87100    -999.25    0.09050    0.18160   96.43740   85.34570   83.13410   10.50600   10.88500   11.79970    0.19840    2.53770 -103.12040
 4500.00000   12.18400   10.64800    -999.25    0.24460    0.29720  104.28050  100.01500   97.30110    7.48310    7.79570    8.13050    0.31350    2.31390 -104.97230
 4550.00000   12.54970   10.03690    -999.25    0.23500    0.30390  105.11370   87.66480  103.35390    7.16610    7.44660    7.81490    0.29390    2.28210  -99.77410
 4600.00000   11.86260   10.30970    -999.25    0.26090    0.29840  106.95330   97.31800  104.45640    7.23170    7.48600    8.27570    0.30060    2.24550  -97.34670
 4650.00000   12.01200   10.34620    -999.25    0.27530    0.29750  111.59820  107.13060  111.18830    6.07720    6.28990    7.07830    0.30750    2.21780  -96.11020
 4700.00000   12.58890   10.76710    -999.25    0.37800    0.26000  115.34350   92.48790   98.95540    5.79540    5.99920    7.02600    0.40080    2.06810  -97.43610
 4750.00000   11.31080   10.51930    -999.25    0.15010    0.32750  130.83930  118.72720  110.78500    9.60340   10.44810   11.06530    0.31140    2.46790  -93.77660
 4800.00000   12.69580   10.15410    -999.25    0.18430    0.31690  111.77340  105.88120  112.44640    7.20390    7.72040    8.76470    0.34580    2.37150  -93.34090
 4850.00000   11.90920   10.12410    -999.25    0.20310    0.31790  113.96110  108.72140  114.18140    7.73980    8.85190    9.83110    0.37510    2.36700  -94.97940
 4900.00000    9.98720    9.55520    -999.25    0.05030    0.09120  112.29240  124.85980  135.30240   10.75470   12.18370   17.17000    0.35010    2.64540  -98.31420
 4950.00000   12.96390   10.38250    -999.25    0.19380    0.32150  109.70460  107.90620   97.46440    6.93850    7.25120    9.51560    0.34340    2.37340  -96.70700
 5000.00000   12.60860   10.38880    -999.25    0.15880    0.31790  104.32820   92.15520  101.95490    6.54050    6.95590    8.01300    0.28300    2.41640  -96.88750
 5050.00000   13.09730   11.29900    -999.25    0.31190    0.27600  107.86580  102.05200   98.55440    5.27790    5.46300    6.09860    0.39410    2.18220  -99.60810
 5100.00000   10.14510    9.79580    -999.25    0.02560    0.30040   92.01990   96.73010  100.30210    6.11250    6.35010    7.37870    0.23340    2.64280  -94.90900
 5150.00000   13.33940   11.41220    -999.25    0.21900    0.31060   93.50820   88.15650  109.16190    4.77540    4.53380    5.70150    0.42300    2.35200  -95.99740
 5200.00000   12.99230   11.68950    -999.25    0.20790    0.31630   91.67750   91.03680  109.67300    5.71920    5.42620    6.86610    0.36590    2.38020  -96.19030
 5250.00000   15.03010   13.06090    -999.25    0.21970    0.28020   93.09970   91.67300   96.62000    5.13370    4.51030    5.94220    0.51570    2.32750  -93.79510
 5300.00000   12.81720   10.29470    -999.25    0.26930    0.29570  108.11040  144.77210  208.09750    3.74840    3.41830    5.13240    0.47640    2.18410  -95.11650
 5350.00000   13.76000   11.35790    -999.25    0.25030    0.29780   97.77020   99.63750  102.67050    2.73890    2.50620    3.51770    0.49840    2.25460  -99.23150
 5400.00000   13.06740   11.87290    -999.25    0.22990    0.24840   88.40080   91.60320   93.19100    4.03490    3.84860    4.58200    0.43250    2.29570  -95.77320
 5450.00000    9.16790   10.57430    -999.25    0.07190    0.11070   83.37370   38.03430   69.26460    7.88390    8.71780   12.28460    0.21120    2.59080 -109.23490
 5500.00000    9.31230    8.67360    -999.25    0.06240    0.15350   78.50990   32.18350   32.50300   14.32290   20.21320   22.59640    0.12080    2.61390 -124.97110
 5550.00000   12.47230   11.64720    -999.25    0.16780    0.15150  129.33620   86.04970   83.49690    1.77820    1.50050    2.28830    0.56480    2.45610  -94.76520
 5600.00000   10.33070    9.76440    -999.25   -0.06660    0.10020   61.09340   37.51030   30.43290   19.35090   20.98610   29.44250    0.12670    2.80190 -101.31360
 5650.00000   11.04660   10.56380    -999.25   -0.00110    0.20180   73.70840   59.12740   66.77980   14.30990   15.29950   16.78180    0.20460    2.83460  -94.76590
 5700.00000   11.55810   10.95730    -999.25    0.16760    0.29900   75.53200   85.80420   93.03500    8.08640    5.37230    7.90190    0.33860    2.24360  -89.40230
