~Version ---------------------------------------------------
VERS.      2.0 : CWLS log ASCII Standard -VERSION 2.0
WRAP.       NO : One line per depth step
CREA. 07/27/17 : LAS Creation Date
~Well ------------------------------------------------------
STRT.FT                            750.0 : START DEPTH
STOP.FT                           8550.0 : STOP DEPTH
STEP.FT                         50.00000 : STEP LENGTH
NULL.                            -999.25 : NULL VALUE
COMP.                 ENCANA CORPORATION : COMPANY
WELL. CENTRAL-DEL RIO HILDON 16-16-37-25 : WELL
FLD .                                    : FIELD
LOC .                                    : LOCATION
CTRY.                             CANADA : COUNTRY
SRVC.                       Schlumberger : SERVICE COMPANY
DATE.                        07-Feb-1960 : LOGDATE
PROV.                            Alberta : PROVINCE
UWI .                   100161603725W400 : UNIQUE WELL ID
SLAT.WGS84                       52.1845 : SURFACE LATITUDE
SLON.WGS84                     -113.5068 : SURFACE LONGITUDE
~Curve Information -----------------------------------------
DEPT  .FT         : Depth Curve
CALWS .IN         : CALIPER [MCALED]
CILDED.MMHO       : CONDUCTIVITY FROM IEL LOG
CONDWS.MMHO       : CONDUCTIVITY [1000/DRESWS]
DRESWS.OHMM       : DEEP RESISTIVITY [1000/CILDED, IF ILDED<1, ILDED]
DTED  .US/F       : DELTA TIME FROM SL LOG
DTWS  .US/F       : COMPRESSIONAL  SONIC [DTED]
GRSED .UgRa-Eq/T  : GAMMA RAY FROM SL LOG
GRWS  .GAPI       : GAMMA RAY [GRSED*16.50]
ILDED .OHMM       : DEEP INDUCTION FROM IEL LOG
MCALED.IN         : CALIPER FROM ML LOG
SNED  .OHMM       : 16 INCH SHORT NORMAL RESISTIVITY FROM IEL
SPRED .MV         : SPONTANEOUS POTENTIAL FROM IEL LOG
SPWS  .MV         : SPONTANEOUS POTENTIAL [BASELINE 0 MV, SPRED]
SRESWS.OHMM       : SHALLOW RESISTIVITY [SNED]
~Params ----------------------------------------------------
LMF .                     KB : LOG MEASURED FROM
DMF .                     KB : DRILLING MEASURED FROM
EKB .FT                 3118 : KELLY BUSHING
EGL .FT                 3105 : GROUND LEVEL
DATE.               02/07/60 : RUN DATE
RUN .                      2 : RUN NUMBER
DD  .FT                 6874 : DEPTH DRILLER
DL  .FT                 6871 : DEPTH LOGGER
BLI .FT                 6866 : BOTTOM LOG INTERVAL
TLI .FT                 5952 : TOP LOG INTERVAL
CBD .FT                  729 : CASING BOTTOM DRILLER
BS  .IN                6.125 : BIT SIZE
BSD .FT                 6874 : BIT SIZE AT DEPTH
DFT .               GYP BASE : DRILLING FLUID TYPE
DFD .                   10.1 : DRILLING FLUID DENSITY
DFV .                    102 : DRILLING FLUID VISCOSITY
DFL .                    6.6 : DRILLING FLUID LOSS
RMS .OHMM                1.6 : RESISTIVITY MUD SAMPLE
MST .DEGF                 52 : MUD SAMPLE TEMPERATURE
RMF .OHMM                1.2 : RESISTIVITY MUD FILTRATE SAMPLE
MFST.DEGF                 50 : MUD FILTRATE SAMPLE TEMPERATURE
RMC .OHMM                2.0 : RESISTIVITY MUD CAKE
MCST.DEGF                 50 : MUD CAKE SAMPLE TEMPERATURE
TCS .HRS                 2.5 : TIME CIRCULATED STOPPED
LUN .                   1575 : LOGGING UNIT NUMBER
LUL .                     RO : LOGGING UNIT LOCATION
ENGI.                 YUNKER : RECORDING ENGINEER
WITN.                 PAARUP : WITNESSED BY
CLNT.                A2DTECH : CLIENT CODE
ORIG.            2" 5" PRINT : ORIGIN OF DATA
UWI .       100161603725W400 : UNIQUE WELL ID
DICO. A2D Technologies, Inc. : DIGITIZING COMPANY
~Other -----------------------------------------------------
~ASCII -----------------------------------------------------
# ...
 5650.00000    8.95290   29.81170   26.24940   38.09610   56.60690   56.60690    2.66660   43.99890   38.09610    8.95290   44.09330  -60.50550   -4.21500   44.09330
 5700.00000    9.01320   28.91240   25.89490   38.61770   58.31290   58.31290    2.85670   47.13560   38.61770    9.01320   44.29410  -55.73050   -2.44760   44.29410
 5750.00000    9.06760   35.64610   30.83040   32.43550   56.41620   56.41620    2.97190   49.03640   32.43550    9.06760   38.51270  -53.53250   -3.23760   38.51270
 5800.00000    9.06840   72.99030   77.30010   12.93660   72.21440   72.21440    3.82180   63.05970   12.93660    9.06840   18.98740  -51.07680   -3.76990   18.98740
 5850.00000    9.08120   93.91250   96.03930   10.41240   59.49950   59.49950    3.82870   63.17350   10.41240    9.08120   15.67480  -48.78510   -4.48580   15.67480
 5900.00000    8.83890  115.91790  114.07450    8.76620   65.52550   65.52550    4.75360   78.43440    8.76620    8.83890   13.68310  -44.74940   -3.43800   13.68310
 5950.00000    8.89680  154.77420  154.28050    6.48170   90.55650   90.55650    5.06090   83.50490    6.48170    8.89680    9.30520  -48.73980  -12.80660    9.30520
 6000.00000    -999.25  146.96910  137.05010    7.29660   84.23620   84.23620    5.35250   88.31620    7.29660    -999.25    8.71650  -48.39900  -17.97340    8.71650
 6050.00000    -999.25   15.01370   14.25650   70.14350   52.08190   52.08190    1.75390   28.93940   70.14350    -999.25   66.73530  -41.34040  -16.42250   66.73530
 6100.00000    -999.25    4.82960    6.79040  147.26700   47.92360   47.92360    1.37890   22.75190  147.26700    -999.25  100.34120  -50.55420  -31.18020  100.34120
 6150.00000    -999.25   11.01930   11.90260   84.01550   49.27610   49.27610    1.13970   18.80500   84.01550    -999.25  106.65700  -25.71690  -11.85060  106.65700
 6200.00000    -999.25   19.05270   19.32240   51.75330   55.27450   55.27450    1.43430   23.66590   51.75330    -999.25   72.83350   -8.92050   -0.59810   72.83350
 6250.00000    -999.25   15.73740   15.23890   65.62140   54.78510   54.78510    0.92600   15.27900   65.62140    -999.25   81.53820  -13.11810   -7.47710   81.53820
 6300.00000    -999.25   18.60850   15.49530   64.53580   50.94570   50.94570    1.00260   16.54290   64.53580    -999.25   78.15280  -13.45620   -7.81520   78.15280
 6350.00000    -999.25   10.76850   11.87880   84.18330   48.02040   48.02040    1.37840   22.74360   84.18330    -999.25   91.06580  -18.52060  -12.87960   91.06580
 6400.00000    -999.25   22.53800   23.30390   42.91130   50.37020   50.37020    1.30250   21.49130   42.91130    -999.25   53.29180  -30.53260  -24.89160   53.29180
 6450.00000    -999.25   18.70780   18.28030   54.70360   52.75930   52.75930    1.71280   28.26120   54.70360    -999.25   87.33230  -28.04130  -22.40030   87.33230
 6500.00000    -999.25    7.15050    5.98160  167.18040   49.67990   49.67990    1.26290   20.83790  167.18040    -999.25  126.58660  -31.85570  -26.21470  126.58660
 6550.00000    -999.25   19.58330   20.82630   48.01610   46.32410   46.32410    1.14770   18.93700   48.01610    -999.25   82.71250  -32.57370  -26.93270   82.71250
 6600.00000    -999.25    9.35080    8.98780  111.26170   49.55530   49.55530    1.15860   19.11690  111.26170    -999.25  122.12190  -31.34000  -25.69900  122.12190
 6650.00000    -999.25   13.55930   13.44580   74.37250   53.87220   53.87220    1.53110   25.26320   74.37250    -999.25  106.22490  -19.45810  -13.81710  106.22490
 6700.00000    -999.25    5.43280    8.10990  123.30580   44.78410   44.78410    1.19060   19.64490  123.30580    -999.25  159.16840  -22.39390  -16.75290  159.16840
 6750.00000    -999.25    7.11360    6.92570  144.38880   40.70790   40.70790    1.37080   22.61820  144.38880    -999.25   69.12110  -18.18160  -12.54060   69.12110
 6800.00000    -999.25   33.03390   32.68320   30.59680   47.96040   47.96040    1.87350   30.91270   30.59680    -999.25   31.11400  -60.40680  -54.76580   31.11400
 6850.00000    -999.25    8.58250    8.30810  120.36460   51.36970   51.36970    1.26570   20.88410  120.36460    -999.25  113.86260  -10.58700   -4.94600  113.86260
 6900.00000    -999.25    -999.25    -999.25    -999.25   49.03170   49.03170    1.07380   17.71770    -999.25    -999.25    -999.25    -999.25    -999.25    -999.25
 6950.00000    -999.25    -999.25    -999.25    -999.25   49.94350   49.94350    1.05150   17.34980    -999.25    -999.25    -999.25    -999.25    -999.25    -999.25
 7000.00000    -999.25    -999.25    -999.25    -999.25   50.34980   50.34980    0.88740   14.64210    -999.25    -999.25    -999.25    -999.25    -999.25    -999.25
 7050.00000    -999.25    -999.25    -999.25    -999.25   48.40180   48.40180    1.13600   18.74400    -999.25    -999.25    -999.25    -999.25    -999.25    -999.25
 7100.00000    -999.25    -999.25    -999.25    -999.25   48.08600   48.08600    1.13390   18.70930    -999.25    -999.25    -999.25    -999.25    -999.25    -999.25
 7150.00000    -999.25    -999.25    -999.25    -999.25   55.46100   55.46100    0.85990   14.18840    -999.25    -999.25    -999.25    -999.25    -999.25    -999.25
 7200.00000    -999.25    -999.25    -999.25    -999.25   51.20270   51.20270    0.78950   13.02680    -999.25    -999.25    -999.25    -999.25    -999.25    -999.25
 7250.00000    -999.25    -999.25    -999.25    -999.25   51.17500   51.17500    0.91850   15.15530    -999.25    -999.25    -999.25    -999.25    -999.25    -999.25
 7300.00000    -999.25    -999.25    -999.25    -999.25   49.32870   49.32870    1.12090   18.49490    -999.25    -999.25    -999.25    -999.25    -999.25    -999.25
 7350.00000    -999.25    -999.25    -999.25    -999.25   56.10520   56.10520    1.05470   17.40250    -999.25    -999.25    -999.25    -999.25    -999.25    -999.25
 7400.00000    -999.25    -999.25    -999.25    -999.25   55.67260   55.67260    0.90870   14.99350    -999.25    -999.25    -999.25    -999.25    -999.25    -999.25
 7450.00000    -999.25    -999.25    -999.25    -999.25   47.37120   47.37120    1.00010   16.50170    -999.25    -999.25    -999.25    -999.25    -999.25    -999.25
 7500.00000    -999.25    -999.25    -999.25    -999.25   53.73920   53.73920    1.13480   18.72420    -999.25    -999.25    -999.25    -999.25    -999.25    -999.25
 7550.00000    -999.25    -999.25    -999.25    -999.25   50.66260   50.66260    1.74970   28.87000    -999.25    -999.25    -999.25    -999.25    -999.25    -999.25
 7600.00000    -999.25    -999.25    -999.25    -999.25   51.41250   51.41250    2.88380   47.58270    -999.25    -999.25    -999.25    -999.25    -999.25    -999.25
 7650.00000    -999.25    -999.25    -999.25    -999.25   47.68730   47.68730    0.76490   12.62090    -999.25    -999.25    -999.25    -999.25    -999.25    -999.25
 7700.00000    -999.25    -999.25    -999.25    -999.25   54.89140   54.89140    3.55280   58.62120    -999.25    -999.25    -999.25    -999.25    -999.25    -999.25
 7750.00000    -999.25    -999.25    -999.25    -999.25   51.79580   51.79580    2.25690   37.23880    -999.25    -999.25    -999.25    -999.25    -999.25    -999.25
 7800.00000    -999.25    -999.25    -999.25    -999.25   49.89530   49.89530    0.80950   13.35680    -999.25    -999.25    -999.25    -999.25    -999.25    -999.25
 7850.00000    -999.25    -999.25    -999.25    -999.25   45.88980   45.88980    1.02350   16.88780    -999.25    -999.25    -999.25    -999.25    -999.25    -999.25
 7900.00000    -999.25    -999.25    -999.25    -999.25   48.77920   48.77920    1.03800   17.12700    -999.25    -999.25    -999.25    -999.25    -999.25    -999.25
 7950.00000    -999.25    -999.25    -999.25    -999.25   52.72120   52.72120    2.10060   34.65990    -999.25    -999.25    -999.25    -999.25    -999.25    -999.25
 8000.00000    -999.25    -999.25    -999.25    -999.25   55.99310   55.99310    3.20150   52.82470    -999.25    -999.25    -999.25    -999.25    -999.25    -999.25
 8050.00000    -999.25    -999.25    -999.25    -999.25   60.64880   60.64880    1.01570   16.75910    -999.25    -999.25    -999.25    -999.25    -999.25    -999.25
