~Version ---------------------------------------------------
VERS. 2.0 : CWLS log ASCII Standard -VERSION 2.0
WRAP.  NO : ONE LINE PER DEPTH STEP
~Well ------------------------------------------------------
STRT.M                               380.5 : START DEPTH
STOP.M                              2549.3 : STOP DEPTH
STEP.M                             0.20000 : STEP LENGTH
NULL.                              -999.25 : NULL VALUE
COMP.                DEVON ARL CORPORATION : COMPANY
WELL. DEVON ARL ETAL 7D GVILLEE 7-25-76-23 : WELL
FLD .                                      : FIELD
LOC .                                      : LOCATION
CTRY.                               CANADA : COUNTRY
SRVC.                         Schlumberger : SERVICE COMPANY
DATE.                          06-Mar-2003 : LOGDATE
PROV.                              Alberta : PROVINCE
UWI .                     100072507623W500 : UNIQUE WELL ID
SLAT.WGS84                        55.61368 : SURFACE LATITUDE
SLON.WGS84                       -117.4224 : SURFACE LONGITUDE
~Curve Information -----------------------------------------
DEPT    .M    0   1   0  0 : 1 MEASURED DEPTH
GRS     .GAPI 60 310 01 00 : GAMMA RAY FROM SONIC LOG
HDS     .MM   60 280 00 00 : HOLE DIAMETER FROM SONIC
DT      .US/M 60 500 00 00 : DELTA-T (INTERVAL TRANSIT TIME)
HCALS   .MM   60 280 50 00 : HRCC CALIPER CALIBRATED FROM SONIC LOG
TENS    .N    60 635 00 00 : TENSION FROM SONIC LOG
GRR     .GAPI 06 310 01 00 : GAMMA RAY FROM RESISTIVITY LOG
RXOZ    .OHMM 06 270 04 00 : INVADED FORMATION RESISTIVITY FILTERED AT 18 INCHES
TENR    .N    06 635 00 00 : TENSION FROM RESISTIVITY LOG
SPR     .MV   06 010 01 00 : SPONTANEOUS POTENTIAL FROM RESISTIVITY LOG
AHF30   .OHMM 06 120 30 00 : ARRAY INDUCTION FOUR FOOT RESISTIVITY A30
AHF20   .OHMM 06 120 20 00 : ARRAY INDUCTION FOUR FOOT RESISTIVITY A20
AHF60   .OHMM 06 120 60 00 : ARRAY INDUCTION FOUR FOOT RESISTIVITY A60
GRD     .GAPI 45 310 01 00 : GAMMA RAY FROM DENSITY LOG
NPOR_SAN.DEC  42 890 03 00 : ENHANCED THERMAL NEUTRON POROSITY (SANDSTONE)
HDD     .MM   45 280 60 00 : HOLE DIAMETER
HCALD   .MM   45 280 60 00 : HRCC CALIPER CALIBRATED FROM DENSITY LOG
DPHI_SAN.DEC  45 890 12 00 : DENSITY POROSITY (MATRIX SANDSTONE)
HDRA    .K/M3 45 356 01 00 : HRDD SPINE AND RIBS DENSITY CORRECTION
PEFZ    .B/E  45 358 01 00 : HRDD STANDARD RESOLUTION FORMATION PHOTOELECTRIC FACTOR
TEND    .N    45 635 00 00 : TENSION FROM DENSITY LOG
NPOR_LS .DEC  42 890 01 00 : NEUTRON POROSITY LIMESTONE
DPHI_LS .DEC  45 890 10 00 : DENSITY POROSITY LIMESTONE
RHOZ    .K/M3 45 350 01 00 : HRDD STANDARD RESOLUTION FORMATION DENSITY
~Params ----------------------------------------------------
PD  .                                  GL : PERMANENT DATUM
EPD .M                              551.9 : ELEVATION PERMANENT DATUM
LMF .                                  KB : LOG MEASURED FROM
DAPD.M                                4.7 : FEET ABOVE PERMANENT DATUM
DMF .                                  KB : DRILLING MEASURED FROM
EKB .M                              556.6 : KELLY BUSHING
EDF .M                              556.3 : DRILLING FLOOR
EGL .M                              551.9 : GROUND LEVEL
DATE.                            03/06/03 : RUN DATE
RUN .                                   1 : RUN NUMBER
DD  .M                               2545 : DEPTH DRILLER
DL  .M                               2544 : DEPTH LOGGER
BLI .M                             2538.3 : BOTTOM LOG INTERVAL
TLI .M                                421 : TOP LOG INTERVAL
CS  .MM                             219.1 : CASING SIZE
CBD .M                                421 : CASING BOTTOM DRILLER
CBL .M                              420.5 : CASING BOTTOM LOGGER
BS  .MM                               200 : BIT SIZE
BSD .M                               2545 : BIT SIZE AT DEPTH
DFT .                            GEL CHEM : DRILLING FLUID TYPE
DFD .                                1050 : DRILLING FLUID DENSITY
DFV .                                  83 : DRILLING FLUID VISCOSITY
DFPH.                                10.5 : DRILLING FLUID PH
DFL .                                   7 : DRILLING FLUID LOSS
MSS .                            FLOWLINE : MUD SAMPLE SOURCE
RMS .OHMM                            1.27 : RESISTIVITY MUD SAMPLE
MST .DEGC                              17 : MUD SAMPLE TEMPERATURE
RMF .OHMM                            0.98 : RESISTIVITY MUD FILTRATE SAMPLE
MFST.DEGC                              18 : MUD FILTRATE SAMPLE TEMPERATURE
RMC .OHMM                            1.55 : RESISTIVITY MUD CAKE
MCST.DEGC                              18 : MUD CAKE SAMPLE TEMPERATURE
MFSS.                            MEASURED : MUD FILTRATE SAMPLE SOURCE
MCSS.                             MEAURED : MUD CAKE SAMPLE SOURCE
RMB .OHMM                           0.566 : RESISTIVITY MUD AT BHT
TCS .HRS                              640 : TIME CIRCULATED STOPPED
TLAB.HRS                             1645 : TIME LOGGER AT BOTTOM
LUN .                                2133 : LOGGING UNIT NUMBER
LUL .                      GRANDE PRAIRIE : LOGGING UNIT LOCATION
ENGI.                            STIRLING : RECORDING ENGINEER
WITN.                              MCLEAY : WITNESSED BY
CLNT.                             A2DTECH : CLIENT CODE
ORIG. 6.5"/100M 16.5"/100M 33"/100M PRINT : ORIGIN OF DATA
UWI .                    100072507623W500 : UNIQUE WELL ID
DICO.              A2D Technologies, Inc. : DIGITIZING COMPANY
~Other -----------------------------------------------------
~ASCII -----------------------------------------------------
# ...
  842.50000   82.32390  245.88310  319.77550  237.96310 11579.03120   82.69440    6.36300 11710.00590  -36.05750    5.45000    5.19860    5.72380   82.78140    0.37700  246.12780  238.15480    0.12570   -3.51590    2.99050 11611.59670    -999.25    -999.25 2431.86300
  842.70000   81.60730  245.41850  312.58980  236.49080 11725.89260   79.55380    6.84310 11678.44920  -36.39930    5.49240    5.26810    5.83200   81.58230    0.37090  245.78440  236.25260    0.11700   -3.13890    3.00180 11744.03220    -999.25    -999.25 2449.70170
  842.90000   77.44130  246.03760  307.42340  235.90310 11773.67680   76.27560    7.47130 11776.96970  -36.71180    5.65870    5.35870    6.00900   76.93670    0.35310  246.48010  235.57590    0.11480   -1.12070    3.00920 11805.19040    -999.25    -999.25 2467.94340
  843.10000   75.14340  247.22400  307.58840  235.52030 12007.19820   77.70360    7.29430 11877.09470  -36.78920    5.83010    5.45080    6.19150   75.36190    0.34840  247.53990  234.87020    0.12340   -1.68600    3.00890 11906.88870    -999.25    -999.25 2459.18550
  843.30000   78.37970  248.41050  309.57950  235.48110 12135.96780   81.47070    7.01810 11961.70020  -36.60110    5.90850    5.51560    6.36700   79.07850    0.35210  248.98080  235.26790    0.13550   -0.51140    2.96570 12012.14840    -999.25    -999.25 2419.76460
  843.50000   83.02040  249.73680  308.74580  235.53190 11943.55080   84.81740    7.25270 12007.32230  -36.52920    5.89460    5.45040    6.20300   83.77410    0.35110  250.42180  235.48060    0.13660   -0.75100    2.91920 11948.22170    -999.25    -999.25 2422.24440
  843.70000   85.81950  250.34850  305.77280  235.87290 11983.20510   85.99560    7.37110 12009.10060  -36.04850    5.64330    5.33210    5.98260   85.84580    0.35580  251.46350  235.63660    0.13280    0.22400    2.85650 11964.87210    -999.25    -999.25 2432.33330
  843.90000   85.76240  251.24710  303.77740  236.51310 12052.14060   85.05200    7.42140 12040.58690  -35.60750    5.40270    5.16460    5.73640   85.73360    0.38990  252.38330  237.08560    0.13620    4.45100    2.81650 11997.48730    -999.25    -999.25 2431.24760
  844.10000   84.74170  252.91700  306.55410  237.94590 11879.92480   83.51350    6.54170 12047.44820  -35.69720    5.18260    4.94680    5.47350   84.54150    0.41110  253.97580  238.82680    0.14830   -1.93150    2.79910 11876.01560    -999.25    -999.25 2396.21700
  844.30000   83.00620  254.50010  310.57060  237.81320 11767.34570   80.87820    5.18140 11909.92680  -36.18860    5.21160    4.95450    5.45440   82.78160    0.40750  254.79930  239.49440    0.15520    8.29080    2.84390 11822.64160    -999.25    -999.25 2391.34400
  844.50000   80.05730  255.14810  312.28450  237.02680 11833.57130   78.22620    6.02270 11903.96290  -36.68000    5.38790    5.18980    5.69880   79.35600    0.37930  255.31950  236.68370    0.15150    7.89660    2.95390 11884.40530    -999.25    -999.25 2401.69970
  844.70000   77.75910  255.79600  310.33620  235.48080 11915.08690   76.55190    7.22070 11949.79690  -36.99880    5.57030    5.44120    5.99180   77.12220    0.35310  256.56900  234.93270    0.14370    5.45380    2.99110 11850.80660    -999.25    -999.25 2415.61230
  844.90000   76.27020  256.44390  309.54730  235.41630 11911.55660   76.43210    7.32300 11874.55570  -37.11710    5.89050    5.72120    6.29990   76.00750    0.35990  257.56360  234.70530    0.13800    6.53150    2.94340 11804.30470    -999.25    -999.25 2424.57400
  845.10000   75.81250  256.48050  311.03020  235.43300 11896.24020   77.61050    6.95790 11866.52250  -37.42500    6.28700    6.03080    6.62920   75.99710    0.36570  256.98600  235.08490    0.13660    7.60910    2.89510 11824.39940    -999.25    -999.25 2426.95020
  845.30000   77.70150  255.44910  305.87960  234.65410 11782.20210   79.07580    6.80170 11895.69920  -38.07880    6.71030    6.39950    7.08190   77.96730    0.37640  255.46120  235.90620    0.13720    7.88090    2.86290 11764.41210    -999.25    -999.25 2422.22710
  845.50000   79.19730  251.64040  298.18240  233.55730 11682.54590   75.59980    8.27490 11706.57810  -38.46160    8.14960    7.08380    8.37360   79.28620    0.37150  251.29800  233.31450    0.13630    3.96760    2.83770 11751.67480    -999.25    -999.25 2418.31400
  845.70000   74.79920  244.96590  284.10570  231.43470 11816.41410   69.12620   10.26800 11811.73630  -38.62240    9.99730    8.56450   10.23630   74.72600    0.34280  241.34450  232.48250    0.12500    5.53890    3.01390 11843.41800    -999.25    -999.25 2430.83420
  845.90000   65.07200  236.35960  264.50090  227.60820 11712.59960   60.33300   13.22480 11853.92970  -38.55510   11.96130   10.31550   12.44670   65.82190    0.31920  234.66680  228.77110    0.09460    5.34060    3.32470 11676.86820    -999.25    -999.25 2467.36160
  846.10000   57.01800  233.50500  249.15460  223.93830 11597.83980   55.98940   34.16670 11697.83010  -38.46220   13.20200   12.00350   14.63890   55.97490    0.27430  233.43480  225.33820    0.06150    1.86750    3.64200 11675.26760    -999.25    -999.25 2559.20730
  846.30000   57.01740  236.65710  252.41870  223.60240 11745.87990   60.12500   20.54120 11664.16890  -38.29140   12.83170   11.67650   13.87840   56.33010    0.24550  235.31710  223.78880    0.05020   -2.10190    3.59140 11714.30470    -999.25    -999.25 2579.84840
  846.50000   61.92370  240.10570  263.98600  224.22950 11665.60250   64.98850   11.58580 11720.36230  -37.99300   10.71930   10.14310   11.77020   62.14090    0.26640  239.21790  223.60750    0.06390   -3.90840    3.34450 11631.74610    -999.25    -999.25 2545.39840
  846.70000   66.50780  243.28860  275.63960  226.74340 11679.91890   68.11830   10.78510 11718.08400  -37.73600    8.92780    8.62930    9.81890   66.41260    0.29590  243.11870  227.59590    0.08230   -6.00750    3.23090 11691.56840    -999.25    -999.25 2523.35840
  846.90000   68.55320  246.94200  287.00150  229.88410 11846.12790   69.57780   10.02640 11780.00590  -37.49930    7.71010    7.42700    8.37370   68.59900    0.30400  247.04910  230.00190    0.10390   -6.77860    3.13890 11833.92480    -999.25    -999.25 2493.62700
  847.10000   70.39620  250.59540  299.65780  233.06800 11884.29000   72.31110    7.29650 11913.66310  -37.29650    6.68760    6.54200    7.08650   70.30420    0.33890  251.06820  232.30620    0.12390   -5.23680    3.01530 11915.76860    -999.25    -999.25 2448.91410
  847.30000   72.54820  253.81260  311.30760  235.31420 11849.74510   78.06050    6.37290 11935.57420  -37.11620    6.06370    5.97970    6.18900   75.59430    0.38230  254.24740  237.08400    0.13870    1.35280    2.98290 11911.59860    -999.25    -999.25 2423.40620
  847.50000   77.14970  256.04420  318.99570  237.03120 11671.96190   78.69080    5.52730 11763.36520  -36.68320    5.81160    5.75800    5.99510   78.33020    0.37680  255.28920  236.30830    0.14300   15.21320    2.98310 11524.75780    -999.25    -999.25 2410.69920
  847.70000   77.97380  256.17240  320.15090  237.97310 11615.41890   77.85440    6.01060 11626.61230  -36.50200    5.85910    5.60490    6.05660   78.28050    0.36960  254.18140  238.05890    0.13840   18.35800    2.91250 11744.68850    -999.25    -999.25 2416.30690
  847.90000   77.30710  255.34770  316.36550  237.70550 11682.15720   78.45260    6.37380 11682.81740  -36.96680    6.01550    5.64890    6.26650   77.96570    0.35530  254.66930  237.50050    0.13250    0.52870    2.86170 11679.40430    -999.25    -999.25 2430.67070
  848.10000   77.76010  255.35270  310.85650  236.89280 11696.68070   77.63860    7.82210 11764.90620  -37.59710    6.18230    5.93680    6.48360   78.28740    0.34670  254.95250  236.69120    0.12610   -8.91950    2.88740 11705.49020    -999.25    -999.25 2436.24680
  848.30000   76.40630  254.67790  304.44460  236.38460 11642.71580   74.24270    8.35230 11798.74900  -38.57280    6.35460    6.21610    6.74850   75.77230    0.34190  254.74970  236.06650    0.11720  -12.48230    2.92740 11677.98630    -999.25    -999.25 2454.60570
