~Version ---------------------------------------------------
VERS.      2.0 : CWLS log ASCII Standard -VERSION 2.0
WRAP.       NO : One line per depth step
CREA. 01/09/18 : LAS Creation Date
~Well ------------------------------------------------------
STRT.FT                          1150.0 : START DEPTH
STOP.FT                         12100.0 : STOP DEPTH
STEP.FT                        50.00000 : STEP LENGTH
NULL.                           -999.25 : NULL VALUE
COMP. HUDSONS BAY OIL & GAS COMPANY LTD : COMPANY
WELL. HB ET AL EAST MARLBORO 7-15-55-18 : WELL
FLD .                                   : FIELD
LOC .                                   : LOCATION
CTRY.                            CANADA : COUNTRY
SRVC.            Schlumberger of Canada : SERVICE COMPANY
DATE.                       14-Sep-1968 : LOGDATE
PROV.                           Alberta : PROVINCE
UWI .                  100071505518W500 : UNIQUE WELL ID
SLAT.WGS84                     53.74917 : SURFACE LATITUDE
SLON.WGS84                    -116.5848 : SURFACE LONGITUDE
~Curve Information -----------------------------------------
DEPT    .FT    : Depth Curve
CALDED  .IN    : CALIPER FROM DENSITY LOG, DEPTH ADJUSTED WITH [SPRED]
CALSED  .IN    : CALIPER FROM SONIC LOG, DEPTH ADJUSTED WITH [SPRED]
CALWS   .IN    : CALIPER [CALSED]
CONDWS  .MMHO  : CONDUCTIVITY [1000/DRESWS]
DCORED  .G/C3  : DENSITY CORRECTION FROM DENSITY LOG, DEPTH ADJUSTED WITH [SPRED]
DCORWS  .G/C3  : DENSITY CORRECTION [DCORED]
DENWS   .G/C3  : BULK DENSITY [RHOBED]
DPOLSWS .V/V   : DENITY POROSITY LIMESTONE [CALCULATED FROM DENWS]
DRESWS  .OHMM  : DEEP RESISTIVITY [ILDED]
DTED    .US/F  : DELTA TIME FROM SONIC LOG, DEPTH ADJUSTED WITH [SPRED]
DTWS    .US/F  : DELTA TIME [DTED]
GRNED   .GAPI  : GAMMA RAY FROM NEUTRON LOG, DEPTH ADJUSTED WITH [SPRED]
GRSED   .GAPI  : GAMMA RAY FROM SONIC LOG, DEPTH ADJUSTED WITH [SPRED]
GRWS    .GAPI  : GAMMA RAY [GRSED], SPLICED WITH [GRNED] FROM 8632'-8667'
ILDED   .OHMM  : INDUCTION LOG DEEP RESISTIVITY
ILMED   .OHMM  : INDUCTION LOG MEDIUM RESISTIVITY
LL8ED   .OHMM  : 8 INCH LATEROLOG RESISTIVITY
MRESWS  .OHMM  : MEDIUM RESISTIVITY [ILMED]
NEUTED  .NAPI  : NEUTRON FROM NEUTRON LOG, DEPTH ADJUSTED WITH [SPRED]
NEUTWS  .NAPI  : NEUTRON [NEUTED]
NPOLSWS .V/V   : NEITRON POROSITY LIMESTONE [SNPLSED]
PORLSED .V/V   : DENITY POROSITY LIMESTONE FROM DENSITY LOG, DEPTH ADJUSTED WITH [SPRED]
PORSDMED.V/V   : DENITY POROSITY DOLOMITE FROM DENSITY LOG, DEPTH ADJUSTED WITH [SPRED]
RHOBED  .G/C3  : BULK DENSITY FROM DENSITY LOG, DEPTH ADJUSTED WITH [SPRED]
SNPLSED .V/V   : SIDEWALL NEUTRON POROSITY LIMESTONE FROM DENSITY LOG, DEPTH ADJUSTED WITH [SPRED]
SPRED   .MV    : SPONTANEOUS POTENTIAL FROM RESISTIVITY LOG
SPWS    .MV    : SPONTANEOUS POTENTIAL [BASELINE 0 MV] [SPRED]
SRESWS  .OHMM  : SHALLOW RESISTIVITY [LL8ED]
~Params ----------------------------------------------------
PD  .                     GL : PERMANENT DATUM
EPD .FT                 3167 : ELEVATION PERMANENT DATUM
LMF .                     KB : LOG MEASURED FROM
DAPD.FT                   15 : FEET ABOVE PERMANENT DATUM
EKB .FT                 3182 : KELLY BUSHING
EGL .FT                 3167 : GROUND LEVEL
DATE.               09/14/68 : RUN DATE
RUN .                      3 : RUN NUMBER
DD  .FT                12110 : DEPTH DRILLER
DL  .FT                12109 : DEPTH LOGGER
BLI .FT                12105 : BOTTOM LOG INTERVAL
TLI .FT                11350 : TOP LOG INTERVAL
CBD .FT                 1265 : CASING BOTTOM DRILLER
BS  .IN                 8.75 : BIT SIZE
BSD .FT                12110 : BIT SIZE AT DEPTH
DFT .                    GEL : DRILLING FLUID TYPE
DFD .                   11.1 : DRILLING FLUID DENSITY
DFV .                    300 : DRILLING FLUID VISCOSITY
DFPH.                   11.5 : DRILLING FLUID PH
DFL .                    4.2 : DRILLING FLUID LOSS
MSS .             CIRCULATED : MUD SAMPLE SOURCE
RMS .OHMM               1.59 : RESISTIVITY MUD SAMPLE
MST .DEGF                 52 : MUD SAMPLE TEMPERATURE
RMF .OHMM               0.86 : RESISTIVITY MUD FILTRATE SAMPLE
MFST.DEGF                 58 : MUD FILTRATE SAMPLE TEMPERATURE
RMC .OHMM               1.69 : RESISTIVITY MUD CAKE
MCST.DEGF                 56 : MUD CAKE SAMPLE TEMPERATURE
RMB .OHMM               0.25 : RESISTIVITY MUD AT BHT
TCS .HRS                   4 : TIME CIRCULATED STOPPED
LUN .                   7501 : LOGGING UNIT NUMBER
LUL .                    EDM : LOGGING UNIT LOCATION
ENGI.               STUEHMER : RECORDING ENGINEER
WITN.                 WALKER : WITNESSED BY
CLNT.                A2DTECH : CLIENT CODE
ORIG.            2" 5" PRINT : ORIGIN OF DATA
UWI .       100071505518W500 : UNIQUE WELL ID
DICO. A2D Technologies, Inc. : DIGITIZING COMPANY
~Other -----------------------------------------------------
~ASCII -----------------------------------------------------
# ...
 4900.00000    -999.25    9.11440    9.11440   91.84840    -999.25    -999.25    -999.25    -999.25   10.88750   82.81930   82.81930    -999.25   59.54640   59.54640   10.88750    9.50930   11.92670    9.50930    -999.25    -999.25    -999.25    -999.25    -999.25    -999.25    -999.25  -60.09520   -2.52090   11.92670
 4950.00000    -999.25    9.35310    9.35310   66.90810    -999.25    -999.25    -999.25    -999.25   14.94710   78.00590   78.00590    -999.25   70.05520   70.05520   14.94710   13.87190   17.30230   13.87190    -999.25    -999.25    -999.25    -999.25    -999.25    -999.25    -999.25  -61.47430   -3.63960   17.30230
 5000.00000    -999.25    9.83380    9.83380   79.67560    -999.25    -999.25    -999.25    -999.25   12.55090   78.86800   78.86800    -999.25   74.71620   74.71620   12.55090   11.30050   13.63490   11.30050    -999.25    -999.25    -999.25    -999.25    -999.25    -999.25    -999.25  -61.41670   -3.32420   13.63490
 5050.00000    -999.25    9.78010    9.78010   83.62950    -999.25    -999.25    -999.25    -999.25   11.95750   80.20720   80.20720    -999.25   81.83630   81.83630   11.95750   11.00130   13.00480   11.00130    -999.25    -999.25    -999.25    -999.25    -999.25    -999.25    -999.25  -61.79730   -3.44570   13.00480
 5100.00000    -999.25    9.66130    9.66130   70.80550    -999.25    -999.25    -999.25    -999.25   14.12320   72.93980   72.93980    -999.25   80.55990   80.55990   14.12320   13.07860   15.68460   13.07860    -999.25    -999.25    -999.25    -999.25    -999.25    -999.25    -999.25  -63.07620   -4.46540   15.68460
 5150.00000    -999.25    9.70820    9.70820   73.96890    -999.25    -999.25    -999.25    -999.25   13.51920   83.65170   83.65170    -999.25   83.41910   83.41910   13.51920   12.66990   15.55770   12.66990    -999.25    -999.25    -999.25    -999.25    -999.25    -999.25    -999.25  -61.93330   -3.06340   15.55770
 5200.00000    -999.25    9.79930    9.79930   83.40410    -999.25    -999.25    -999.25    -999.25   11.99000   86.41200   86.41200    -999.25   92.69980   92.69980   11.99000   10.68590   14.07910   10.68590    -999.25    -999.25    -999.25    -999.25    -999.25    -999.25    -999.25  -63.01370   -3.88340   14.07910
 5250.00000    -999.25    9.78980    9.78980   82.56550    -999.25    -999.25    -999.25    -999.25   12.11160   90.97050   90.97050    -999.25  113.47620  113.47620   12.11160   10.97560   16.15460   10.97560    -999.25    -999.25    -999.25    -999.25    -999.25    -999.25    -999.25  -62.95350   -3.91160   16.15460
 5300.00000    -999.25    9.78030    9.78030   74.19660    -999.25    -999.25    -999.25    -999.25   13.47770   86.32380   86.32380    -999.25   83.24140   83.24140   13.47770   12.42760   15.93280   12.42760    -999.25    -999.25    -999.25    -999.25    -999.25    -999.25    -999.25  -63.12980   -4.18200   15.93280
 5350.00000    -999.25   10.23900   10.23900   95.09410    -999.25    -999.25    -999.25    -999.25   10.51590   86.38290   86.38290    -999.25   89.55850   89.55850   10.51590    9.72390   13.23930    9.72390    -999.25    -999.25    -999.25    -999.25    -999.25    -999.25    -999.25  -63.67390   -4.82030   13.23930
 5400.00000    -999.25   10.36110   10.36110  102.30390    -999.25    -999.25    -999.25    -999.25    9.77480   83.80660   83.80660    -999.25   85.43650   85.43650    9.77480    8.92300   11.67660    8.92300    -999.25    -999.25    -999.25    -999.25    -999.25    -999.25    -999.25  -64.43980   -5.68040   11.67660
 5450.00000    -999.25   10.81410   10.81410  124.54150    -999.25    -999.25    -999.25    -999.25    8.02950   83.27190   83.27190    -999.25   83.51590   83.51590    8.02950    7.40880    9.14680    7.40880    -999.25    -999.25    -999.25    -999.25    -999.25    -999.25    -999.25  -64.84280   -6.17790    9.14680
 5500.00000    -999.25   10.33290   10.33290  120.88100    -999.25    -999.25    -999.25    -999.25    8.27260   82.48210   82.48210    -999.25   74.45870   74.45870    8.27260    7.59090    9.31060    7.59090    -999.25    -999.25    -999.25    -999.25    -999.25    -999.25    -999.25  -64.53090   -5.95980    9.31060
 5550.00000    -999.25   10.45220   10.45220  115.07740    -999.25    -999.25    -999.25    -999.25    8.68980   81.35560   81.35560    -999.25   81.00510   81.00510    8.68980    7.71580    9.04290    7.71580    -999.25    -999.25    -999.25    -999.25    -999.25    -999.25    -999.25  -65.17470   -6.69770    9.04290
 5600.00000    -999.25   10.37660   10.37660   72.67390    -999.25    -999.25    -999.25    -999.25   13.76010   73.58290   73.58290    -999.25   75.53890   75.53890   13.76010   12.58870   15.11340   12.58870    -999.25    -999.25    -999.25    -999.25    -999.25    -999.25    -999.25  -67.03950   -8.65670   15.11340
 5650.00000    -999.25   10.60390   10.60390  146.99830    -999.25    -999.25    -999.25    -999.25    6.80280   82.32500   82.32500    -999.25   89.13200   89.13200    6.80280    6.39820    7.79010    6.39820    -999.25    -999.25    -999.25    -999.25    -999.25    -999.25    -999.25  -65.23070   -6.94210    7.79010
 5700.00000    -999.25   10.43520   10.43520  118.53450    -999.25    -999.25    -999.25    -999.25    8.43690   84.51450   84.51450    -999.25   80.83510   80.83510    8.43690    7.92710    9.72550    7.92710    -999.25    -999.25    -999.25    -999.25    -999.25    -999.25    -999.25  -66.00140   -7.80730    9.72550
 5750.00000    -999.25   10.04900   10.04900  114.77630    -999.25    -999.25    -999.25    -999.25    8.71260   80.11530   80.11530    -999.25   75.70020   75.70020    8.71260    8.26240    9.89730    8.26240    -999.25    -999.25    -999.25    -999.25    -999.25    -999.25    -999.25  -65.05310   -6.95280    9.89730
 5800.00000    -999.25   10.09490   10.09490  102.88070    -999.25    -999.25    -999.25    -999.25    9.72000   71.55490   71.55490    -999.25   79.69140   79.69140    9.72000    9.26530   11.32620    9.26530    -999.25    -999.25    -999.25    -999.25    -999.25    -999.25    -999.25  -63.49130   -5.48510   11.32620
 5850.00000    -999.25   10.18830   10.18830   86.13640    -999.25    -999.25    -999.25    -999.25   11.60950   78.74110   78.74110    -999.25   82.40780   82.40780   11.60950   10.99320   13.11800   10.99320    -999.25    -999.25    -999.25    -999.25    -999.25    -999.25    -999.25  -62.99220   -5.08020   13.11800
 5900.00000    -999.25    9.55280    9.55280   30.54270    -999.25    -999.25    -999.25    -999.25   32.74110   74.49540   74.49540    -999.25   49.79980   49.79980   32.74110   32.52730   50.01280   32.52730    -999.25    -999.25    -999.25    -999.25    -999.25    -999.25    -999.25  -63.41620   -5.59840   50.01280
 5950.00000    -999.25   10.30800   10.30800   82.61660    -999.25    -999.25    -999.25    -999.25   12.10410   78.16300   78.16300    -999.25   77.51260   77.51260   12.10410   11.57810   12.70480   11.57810    -999.25    -999.25    -999.25    -999.25    -999.25    -999.25    -999.25  -59.68800   -1.96470   12.70480
 6000.00000    -999.25   10.03250   10.03250   57.49600    -999.25    -999.25    -999.25    -999.25   17.39250   93.03540   93.03540    -999.25   71.80840   71.80840   17.39250   16.10510   18.52350   16.10510    -999.25    -999.25    -999.25    -999.25    -999.25    -999.25    -999.25  -62.00360   -4.37410   18.52350
 6050.00000    -999.25    9.93890    9.93890   87.07690    -999.25    -999.25    -999.25    -999.25   11.48410   77.33200   77.33200    -999.25   81.66540   81.66540   11.48410   10.80750   12.91250   10.80750    -999.25    -999.25    -999.25    -999.25    -999.25    -999.25    -999.25  -60.19070   -2.65530   12.91250
 6100.00000    -999.25    9.76110    9.76110   90.41510    -999.25    -999.25    -999.25    -999.25   11.06010   77.40440   77.40440    -999.25   81.37240   81.37240   11.06010   10.39430   12.37020   10.39430    -999.25    -999.25    -999.25    -999.25    -999.25    -999.25    -999.25  -59.33560   -1.89440   12.37020
