~Version ---------------------------------------------------
VERS. 2.0 : CWLS log ASCII Standard -VERSION 2.0
WRAP.  NO : ONE LINE PER DEPTH STEP
~Well ------------------------------------------------------
STRT.M                             300.0 : START DEPTH
STOP.M                            1800.0 : STOP DEPTH
STEP.M                          50.00000 : STEP LENGTH
NULL.                            -999.25 : NULL VALUE
COMP. CANADIAN NATURAL RESOURCES LIMITED : COMPANY
WELL.             CNRL NIPISI 15-25-77-8 : WELL
FLD .                             NIPISI : FIELD
LOC .                                    : LOCATION
CTRY.                             CANADA : COUNTRY
SRVC.                         GREAT GUNS : SERVICE COMPANY
DATE.                        10-Jan-1991 : LOGDATE
PROV.                            Alberta : PROVINCE
UWI .                   100152507708W500 : UNIQUE WELL ID
SLAT.WGS84                 55.7062553063 : SURFACE LATITUDE
SLON.WGS84               -115.0961486425 : SURFACE LONGITUDE
~Curve Information -----------------------------------------
DEPT  .M     : DEPTH METERS
DT    .US/M  : INTERVAL TRANSIT TIME
GRR   .GAPI  : GAMMA RAY FROM RESISTIVITY LOG
ILD   .OHMM  : INDUCTION LOG DEEP RESISTIVITY
ILM   .OHMM  : INDUCTION LOG MEDIUM RESISTIVITY
SGURD .OHMM  : SHALLOW GUARD RESISTIVITY
SPR   .MV    : SPONTANEOUS POTENTIAL FROM RESISTIVITY LOG
CALY  .MM    : CALIPER Y
NPHILS.V/V   : NEUTRON POROSITY LIMESTONE
DPHILS.V/V   : DENSITY POROSITY LIMESTONE
DCOR  .G/C3  : DENSITY CORRECTION FROM DENSITY LOG
NPHISS.V/V   : NEUTRON POROSITY SANDSTONE
DPHISS.V/V   : DENSITY POROSITY SANDSTONE
RHOB  .G/C3  : BULK DENSITY FROM DENSITY LOG
~Params ----------------------------------------------------
PD  .                         GL : PERMANENT DATUM
LMF .                         KB : LOG MEASURED FROM
DAPD.M                       4.2 : FEET ABOVE PERMANENT DATUM
DMF .                         KB : DRILLING MEASURED FROM
EKB .M                    686.94 : KELLY BUSHING
EGL .M                     682.7 : GROUND LEVEL
DATE.                   01/10/91 : RUN DATE
RUN .                          1 : RUN NUMBER
DD  .M                      1802 : DEPTH DRILLER
DL  .M                      1800 : DEPTH LOGGER
BLI .M                   1800.27 : BOTTOM LOG INTERVAL
TLI .M                     162.8 : TOP LOG INTERVAL
CS  .MM                      219 : CASING SIZE
CBD .M                       184 : CASING BOTTOM DRILLER
CBL .M                       184 : CASING BOTTOM LOGGER
BS  .MM                      200 : BIT SIZE
BSD .M                      1802 : BIT SIZE AT DEPTH
DFT .                   GEL CHEM : DRILLING FLUID TYPE
DFD .                       1145 : DRILLING FLUID DENSITY
DFV .                         77 : DRILLING FLUID VISCOSITY
DFPH.                         11 : DRILLING FLUID PH
DFL .                          9 : DRILLING FLUID LOSS
MSS .                       MEAS : MUD SAMPLE SOURCE
RMS .OHMM                    1.3 : RESISTIVITY MUD SAMPLE
MST .DEGC                     18 : MUD SAMPLE TEMPERATURE
RMF .OHMM                    1.0 : RESISTIVITY MUD FILTRATE SAMPLE
MFST.DEGC                     18 : MUD FILTRATE SAMPLE TEMPERATURE
RMC .OHMM                   1.55 : RESISTIVITY MUD CAKE
MCST.DEGC                     18 : MUD CAKE SAMPLE TEMPERATURE
MFSS.                       MEAS : MUD FILTRATE SAMPLE SOURCE
MCSS.                       MEAS : MUD CAKE SAMPLE SOURCE
RMB .OHMM                  0.663 : RESISTIVITY MUD AT BHT
TCS .HRS                     300 : TIME CIRCULATED STOPPED
LUN .                         98 : LOGGING UNIT NUMBER
LUL .                      LEDUC : LOGGING UNIT LOCATION
ENGI.                      CHICK : RECORDING ENGINEER
WITN.                   COULOMBE : WITNESSED BY
CLNT.                    A2DTECH : CLIENT CODE
ORIG. 6.5"/100M 16.5"/100M PRINT : ORIGIN OF DATA
UWI .           100152507708W500 : UNIQUE WELL ID
DICO.     A2D Technologies, Inc. : DIGITIZING COMPANY
~Other -----------------------------------------------------
~ASCII -----------------------------------------------------
  300.00000  572.94260   77.88990    4.54620    3.97080    4.26640  -74.03040  295.39960    -999.25    -999.25    -999.25    -999.25    -999.25    -999.25
  350.00000  460.28520   91.03650    2.76930    2.97260    3.29860  -77.54080  357.98000    -999.25    -999.25    -999.25    -999.25    -999.25    -999.25
  400.00000  403.29030   37.26370    7.23020    9.80820   10.06950  -78.48150  211.29430    -999.25    -999.25    -999.25    -999.25    -999.25    -999.25
  450.00000  306.38450   40.29450    7.11050   11.32000  172.75020  -76.79590  215.94390    -999.25    -999.25    -999.25    -999.25    -999.25    -999.25
  500.00000  398.75300   73.99570    3.61500    4.45870    5.53860  -63.69810  246.09710    -999.25    -999.25    -999.25    -999.25    -999.25    -999.25
  550.00000  412.71990   69.76610    3.29110    3.38220    3.64130  -79.10860  310.93490    -999.25    -999.25    -999.25    -999.25    -999.25    -999.25
  600.00000  323.04640   73.39950    7.44560    9.20810   10.52900  -74.60910  279.05460    0.26350    0.18820    0.06450    -999.25    -999.25    2.40460
  650.00000  271.10500   42.49770    6.95780    7.35690   17.11730  -50.41310  285.58840    -999.25    -999.25    -999.25    -999.25    -999.25    -999.25
  700.00000  262.01110   45.48630    4.68000    5.36640    8.25180  -67.49830  273.86740    -999.25    -999.25    -999.25    -999.25    -999.25    -999.25
  750.00000  208.60030   26.87230    9.27030   12.00650   15.16260  -84.20790  239.33580    -999.25    -999.25    -999.25    -999.25    -999.25    -999.25
  800.00000  212.68700   23.43750    9.49510   12.66990   18.13060  -64.95350  239.59570    -999.25    -999.25    -999.25    -999.25    -999.25    -999.25
  850.00000  402.20140   77.56810    2.70640    2.61440    4.38570  -56.86680  331.98030    -999.25    -999.25    -999.25    -999.25    -999.25    -999.25
  900.00000  205.17440   15.66000   15.97550   28.07210   80.57610 -110.73770  247.15990    -999.25    -999.25    -999.25    -999.25    -999.25    -999.25
  950.00000  207.90380   16.97320   11.80910   18.96040   62.96950 -132.68860  272.71910    -999.25    -999.25    -999.25    -999.25    -999.25    -999.25
 1000.00000  203.87210   15.49370    7.72560   13.05770   35.44140 -147.11000  254.98290    -999.25    -999.25    -999.25    -999.25    -999.25    -999.25
 1050.00000  175.22810   14.58620   18.98150   31.09140   87.97700 -117.27310  237.47280    -999.25    -999.25    -999.25    -999.25    -999.25    -999.25
 1100.00000  196.64280   14.15310   19.48610   26.96670   83.27700 -140.29530  249.21890    -999.25    -999.25    -999.25    -999.25    -999.25    -999.25
 1150.00000  190.96280   30.88720    8.25430   12.52830   27.35050 -127.42060  223.03640    -999.25    -999.25    -999.25    -999.25    -999.25    -999.25
 1200.00000  198.00750   25.98530    6.52650   10.36860   47.31650 -126.44420  231.10300    -999.25    -999.25    -999.25    -999.25    -999.25    -999.25
 1250.00000  193.20550   29.95080   15.71150   23.79760   44.62560  -64.67220  222.56360    -999.25    -999.25    -999.25    -999.25    -999.25    -999.25
 1300.00000  317.28850   73.05410    3.21750    3.20180    3.62500  -71.00110  320.59130    -999.25    -999.25    -999.25    -999.25    -999.25    -999.25
 1350.00000  325.56370   74.24620    2.51920    2.53490    3.07760  -67.54050  289.26600    -999.25    -999.25    -999.25    -999.25    -999.25    -999.25
 1400.00000  246.03260   61.10120    5.59860    6.89920    8.88280  -53.18810  251.71010    -999.25    -999.25    -999.25    -999.25    -999.25    -999.25
 1450.00000  197.67840   21.84060   13.66510   16.65430   17.89430  -66.48430  221.53240    -999.25    -999.25    -999.25    -999.25    -999.25    -999.25
 1500.00000  237.79190   68.78170    5.76610    7.31250    9.21620  -45.79890  228.62170    -999.25    -999.25    -999.25    -999.25    -999.25    -999.25
 1550.00000  311.86250   85.35860    2.65440    2.82380    3.49920  -56.30140  333.79050    -999.25    -999.25    -999.25    -999.25    -999.25    -999.25
 1600.00000  267.48110   63.41200    3.99240    4.48700    9.26150  -51.74540  244.17720    -999.25    -999.25    0.10610    -999.25    -999.25    2.41340
 1650.00000  184.04520   26.73980   14.48340   24.84050   40.07400  -46.40650  227.37480    -999.25    -999.25    0.01860    0.06290   -0.01900    2.68180
 1700.00000  241.57240   80.14090    5.30840    6.71770    8.88590  -35.55680  247.23490    -999.25    -999.25    0.05780    0.18720   -0.02890    2.70010
 1750.00000  190.52790   12.04580    6.20380    8.13640   19.34120  -76.48990  216.11530    -999.25    -999.25    0.03590    0.08810    0.00790    2.62760
 1800.00000    -999.25    -999.25    5.56510    4.53170   17.37320  -33.16990    -999.25    -999.25    -999.25    -999.25    -999.25    -999.25    -999.25
