~Version ---------------------------------------------------
VERS.      2.0 : CWLS log ASCII Standard -VERSION 2.0
WRAP.       NO : One line per depth step
CREA. 08/30/13 : LAS Creation Date
~Well ------------------------------------------------------
STRT.M                    300.0 : START DEPTH
STOP.M                   2700.0 : STOP DEPTH
STEP.M                 50.00000 : STEP LENGTH
NULL.                   -999.25 : NULL VALUE
COMP.      ENRON OIL CANADA LTD : COMPANY
WELL. ENRON ET AL GUY 8-9-73-21 : WELL
FLD .                           : FIELD
LOC .                           : LOCATION
CTRY.                    CANADA : COUNTRY
SRVC.                   Unknown : SERVICE COMPANY
DATE.               07-Apr-1987 : LOGDATE
PROV.                   Alberta : PROVINCE
UWI .          100080907321W500 : UNIQUE WELL ID
SLAT.WGS84               55.309 : SURFACE LATITUDE
SLON.WGS84            -117.1568 : SURFACE LONGITUDE
~Curve Information -----------------------------------------
DEPT    .M      : DEPTH METER
ACED    .US/M   : ACOUSTIC  FROM SONIC LOG
C13DED  .MM     : CALIPER FROM DENSITY LOG [ADJ. TO RESISTIVITY LOG]
C24DED  .MM     : CALIPER FROM DENSITY LOG [ADJ. TO RESISTIVITY LOG]
CALSED  .MM     : CALIPER FROM SONIC LOG
CALWS   .MM     : CALIPER [CALSED SPL. WITH C13DED @ 2722.6M]
CNCLSED .V/V    : NEUTRON PORISITY LIMESTONE FROM DENSITY LOG [ADJ. TO RESISTIVITY LOG]
CNCSSED .V/V    : NEUTRON POROSITY SANDSTONE FROM DENSITY LOG [ADJ. TO RESISTIVITY LOG]
CONDWS  .OHMM   : CONDUCTIVITY [1000/DRESWS]
CORRED  .KG/M3  : DENSITY CORRECTION FROM DENSITY LOG [ADJ. TO RESISTIVITY LOG]
DCORWS  .KG/M3  : DENSITY CORRECTION [CORRED]
DENED   .KG/M3  : COMPENSATED BULK DENSITY FROM DENSITY LOG [ADJ. TO RESISTIVITY LOG]
DENWS   .KG/M3  : FORMATION BULK DENSITY [DENED]
DPOLSWS .V/V    : DENSITY POROSITY LIMESTONE [ PORDSSED CONVERTED TO LIMESTONE MATRIX, M= 2710, F= 1000, SPL. TO PORDLSED 1309M]
DRESWS  .OHMM   : DEEP RESISTIVITY [RILDED]
DTWS    .US/M   : COMPRESSIONAL SONIC [DTED]
GRDED   .GAPI   : GAMMA RAY FROM DENSITY LOG [ADJ. TO RESISTIVITY LOG]
GRED    .GAPI   : GAMMA RAY FROM CBL LOG
GRRED   .GAPI   : GAMMA RAY FROM RESISTIVITY LOG
GRWS    .GAPI   : GAMMA RAY [GRED SPL. TO GRRED @ 361.6M, SPL. TO GRDED @  2726.3M]
MRESWS  .OHMM   : MEDIUM RESISTIVITY [RILMED]
NPOLSWS .V/V    : NEUTRON PORISITY LIMESTONE [CNCSSED MATRIX CONVERSION FOR LIMESTONE, SPL. TO CNCLSED @ 1309M]
PORDLSED.V/V    : DENSITY POROSITY LIMESTONE [M= 2710,F= 1000] FROM DENSITY LOG [ADJ. TO RESISTIVITY LOG]
PORDSSED.V/V    : DENSITY POROSITY SANDSTONE [M= 2650,F= 1000] FROM DENSITY LOG [ADJ. TO RESISTIVITY LOG]
RFOCED  .OHMM   : SHALLOW FOCUSED RESISTIVITY FROM RESISTIVITY LOG
RILDED  .OHMM   : DEEP INDUCTION RESISTIVITY FROM RESISTIVITY LOG
RILMED  .OHMM   : MEDIUM INDUCTION RESISTIVITY FROM RESISTIVITY LOG
SPRED   .MV     : SPONTANEOUS POTENTIAL FROM RESISTIVITY LOG
SPWS    .MV     : SPONTANEOUS POTENTIAL [BASELINE 0 MV, SPRED]
SRESWS  .OHMM   : SHALLOW RESISTIVITY [RFOCED]
TENDED  .N      : TENSION FROM DENSITY LOG [ADJ. TO RESISTIVITY LOG]
TENRED  .N      : TOTAL TENSION FROM RESISTIVITY LOG
TENSED  .N      : TENSION FROM SONIC LOG
~Params ----------------------------------------------------
PD  .                         GL : PERMANENT DATUM
EPD .M                    656.39 : ELEVATION PERMANENT DATUM
LMF .                         KB : LOG MEASURED FROM
DAPD.M                      5.65 : FEET ABOVE PERMANENT DATUM
DMF .                         KB : DRILLING MEASURED FROM
EKB .M                    662.04 : KELLY BUSHING
EGL .M                    656.39 : GROUND LEVEL
DATE.                   04/07/87 : RUN DATE
RUN .                          1 : RUN NUMBER
DD  .M                      2750 : DEPTH DRILLER
DL  .M                      2740 : DEPTH LOGGER
BLI .M                    2739.4 : BOTTOM LOG INTERVAL
TLI .M                     409.8 : TOP LOG INTERVAL
CS  .MM                    244.5 : CASING SIZE
CBD .M                       410 : CASING BOTTOM DRILLER
CBL .M                     409.8 : CASING BOTTOM LOGGER
BS  .MM                    222.2 : BIT SIZE
BSD .M                      2750 : BIT SIZE AT DEPTH
DFT .                   GEL CHEM : DRILLING FLUID TYPE
DFD .                       1130 : DRILLING FLUID DENSITY
DFV .                         67 : DRILLING FLUID VISCOSITY
DFPH.                       10.5 : DRILLING FLUID PH
DFL .                        7.8 : DRILLING FLUID LOSS
MSS .                   FLOWLINE : MUD SAMPLE SOURCE
RMS .OHMM                    2.4 : RESISTIVITY MUD SAMPLE
MST .DEGC                    3.3 : MUD SAMPLE TEMPERATURE
RMF .OHMM                    1.8 : RESISTIVITY MUD FILTRATE SAMPLE
MFST.DEGC                   11.1 : MUD FILTRATE SAMPLE TEMPERATURE
RMC .OHMM                    1.9 : RESISTIVITY MUD CAKE
MCST.DEGC                   14.4 : MUD CAKE SAMPLE TEMPERATURE
MFSS.                   MEASURED : MUD FILTRATE SAMPLE SOURCE
MCSS.                   MEASURED : MUD CAKE SAMPLE SOURCE
RMB .OHMM                    0.6 : RESISTIVITY MUD AT BHT
TCS .HRS                       6 : TIME CIRCULATED STOPPED
LUN .                    HL 6439 : LOGGING UNIT NUMBER
LUL .                    PRAIRIE : LOGGING UNIT LOCATION
ENGI.                      BARSS : RECORDING ENGINEER
WITN.                      BROCK : WITNESSED BY
CLNT.                    A2DTECH : CLIENT CODE
ORIG. 6.5"/100M 16.5"/100M PRINT : ORIGIN OF DATA
UWI .           100080907321W500 : UNIQUE WELL ID
DICO.     A2D Technologies, Inc. : DIGITIZING COMPANY
~Other -----------------------------------------------------
DIL-CNL-LDT-BHC & CBL LOG RAN
NEUTRON MATRIX CONVERSION USING BAKER CHART
~ASCII -----------------------------------------------------
# ...
 1400.00000  200.71940  247.60050  249.93030  263.06640  263.06640    0.19900    -999.25  237.56350  127.50000  127.50000 2606.90000 2606.90000    0.05840    4.20940  200.71940   18.19730    -999.25   20.44180   20.44180    4.78840    0.19900    0.05840    -999.25   16.50990    4.20940    4.78840 -132.37720  -60.88670   16.50990 -1970.25910 -1682.22220 -2456.63400
 1450.00000  218.30500  266.06010  282.97360  292.01060  292.01060    0.11760    -999.25  323.25840  212.10000  212.10000 2660.80000 2660.80000    0.02770    3.09350  218.30500   56.19120   21.70100   57.71770   57.71770    4.02880    0.11760    0.02770    -999.25    6.26380    3.09350    4.02880 -121.04700  -53.97200    6.26380 -1180.71500 -1476.30460 -2080.45190
 1500.00000  196.84840  259.76100  261.25310  275.67680  275.67680    0.13600    -999.25  107.21330  171.10000  171.10000 2571.60000 2571.60000    0.08120    9.32720  196.84840   13.45490    -999.25   15.48100   15.48100   13.44970    0.13600    0.08120    -999.25   45.78940    9.32720   13.44970 -127.73610  -65.07640   45.78940 -2371.52420 -2610.89490 -2912.09740
 1550.00000  191.41160  249.12560  259.18780  266.77290  266.77290    0.08160    -999.25   90.23320   69.30000   69.30000 2641.00000 2641.00000    0.03940   11.08240  191.41160   37.65200    -999.25   42.68860   42.68860   11.92350    0.08160    0.03940    -999.25   19.70900   11.08240   11.92350  -65.46610   -7.07700   19.70900 -1589.70340 -2314.49700 -2617.42380
 1600.00000  191.67230  248.68370  250.68670  257.38080  257.38080    0.11020    -999.25  142.09390  124.70000  124.70000 2624.50000 2624.50000    0.04850    7.03760  191.67230   14.27420    -999.25   18.52130   18.52130    7.41760    0.11020    0.04850    -999.25    8.13830    7.03760    7.41760 -114.41500  -55.61490    8.13830 -3273.97330 -1936.15950 -2127.84280
 1650.00000  188.87300  258.05000  274.21660  285.31710  285.31710    0.07250    -999.25  140.69640  106.40000  106.40000 2664.60000 2664.60000    0.02470    7.10750  188.87300   16.07190    -999.25   18.46600   18.46600    9.32500    0.07250    0.02470    -999.25   14.50390    7.10750    9.32500 -145.75920  -86.54800   14.50390 -2671.00240 -1934.94710 -3005.26280
 1700.00000  243.13640  267.93770  317.80940  294.63570  294.63570    0.24890    -999.25  584.76110  150.50000  150.50000 2551.10000 2551.10000    0.09120    1.71010  243.13640   52.55160    -999.25   51.31880   51.31880    1.80910    0.24890    0.09120    -999.25    3.57740    1.71010    1.80910  -95.70360  -36.08140    3.57740 -2196.84130 -1982.73330 -2244.03470
 1750.00000  215.43340  256.84740  246.04740  273.93500  273.93500    0.11920    -999.25   92.91780  158.90000  158.90000 2565.80000 2565.80000    0.08230   10.76220  215.43340   43.42310    -999.25   46.02770   46.02770    9.97810    0.11920    0.08230    -999.25   14.29320   10.76220    9.97810  -68.96930   -8.93600   14.29320 -1974.07590 -1370.71890 -2238.82590
 1800.00000  196.03350  246.03970  243.64380  248.89230  248.89230    0.07390    -999.25   49.98980  104.80000  104.80000 2671.10000 2671.10000    0.02260   20.00410  196.03350   31.77130    -999.25   38.85040   38.85040   20.89030    0.07390    0.02260    -999.25   24.02590   20.00410   20.89030  -70.77440  -10.33000   24.02590 -1244.68420 -1157.98490 -1599.28580
 1850.00000  190.63510  237.86900  240.94890  243.49840  243.49840    0.07670    -999.25   34.24490  122.10000  122.10000 2694.40000 2694.40000    0.00840   29.20140  190.63510   34.99300    -999.25   37.09780   37.09780   30.15690    0.07670    0.00840    -999.25   30.73000   29.20140   30.15690  -74.56890  -14.93440   30.73000 -1516.58290 -2730.83160 -2869.83440
 1900.00000  273.94560  316.54800  396.74180  365.76760  365.76760    0.33030    -999.25  211.65810  331.90000  331.90000 2485.80000 2485.80000    0.12960    4.72460  273.94560   86.44590   29.20130   88.30860   88.30860    4.38220    0.33030    0.12960    -999.25    4.96030    4.72460    4.38220  -81.26080  -20.36320    4.96030 -2135.97030 -1502.04320 -2199.29300
 1950.00000  160.68090  246.15440  258.47650  268.03730  268.03730    0.00960    -999.25    0.49140  120.10000  120.10000 2743.10000 2743.10000   -0.02100 2034.83470  160.68090   12.38410    -999.25   14.85710   14.85710 1964.02970    0.00960   -0.02100    -999.25 2017.53140 2034.83470 1964.02970 -140.98750  -90.24230 2017.53140 -1075.72200 -1936.71630 -2304.01650
 2000.00000  160.54880  232.13820  297.51150  266.65820  266.65820    0.01000    -999.25    0.49850   76.40000   76.40000 2693.20000 2693.20000    0.00740 2005.91870  160.54880   14.63760    -999.25   17.32740   17.32740 1034.48060    0.01000    0.00740    -999.25 2011.94250 2005.91870 1034.48060 -153.36080 -102.12350 2011.94250 -1743.22790 -1442.50140 -1837.69550
 2050.00000  164.60230  236.33570  252.53150  248.93340  248.93340    0.03600    -999.25    6.20130   65.90000   65.90000 2695.50000 2695.50000    0.00800  161.25770  164.60230   10.38880    -999.25   15.97180   15.97180  128.43890    0.03600    0.00800    -999.25  241.48810  161.25770  128.43890 -158.46140 -106.73190  241.48810 -2116.37450 -1470.53000 -1888.69670
 2100.00000  160.28300  244.79170  253.09570  253.53280  253.53280    0.01480    -999.25    0.49930   82.50000   82.50000 2681.60000 2681.60000    0.01480 2002.69030  160.28300   13.00420    -999.25   14.50300   14.50300 1967.70230    0.01480    0.01480    -999.25 2001.58130 2002.69030 1967.70230 -157.02550 -104.80380 2001.58130 -1267.45920 -1796.94130 -2182.30160
 2150.00000  167.88380  252.28490  299.22120  291.09300  291.09300    0.02340    -999.25   18.58270  217.80000  217.80000 2668.90000 2668.90000    0.02280   53.81350  167.88380   14.02550    -999.25   17.51860   17.51860   63.38420    0.02340    0.02280    -999.25   98.58760   53.81350   63.38420 -166.40980 -113.69590   98.58760 -1087.57650 -1548.02420 -2029.20820
 2200.00000  166.03710  231.90320  255.16950  251.99530  251.99530    0.11050    -999.25   43.64330  149.80000  149.80000 2736.30000 2736.30000   -0.01540   22.91300  166.03710   22.18300   11.09650   24.50440   24.50440   24.81780    0.11050   -0.01540    -999.25   43.94350   22.91300   24.81780 -152.11140  -98.90530   43.94350 -1886.46950 -1782.23990 -2034.99170
 2250.00000  163.75390  234.47570  243.30410  244.09560  244.09560    0.03980    -999.25    5.75920  129.50000  129.50000 2787.50000 2787.50000   -0.04370  173.63380  163.75390   11.21240    -999.25   14.19370   14.19370  186.48690    0.03980   -0.04370    -999.25  122.26580  173.63380  186.48690 -123.86290  -70.16450  122.26580 -714.59150 -2750.02330 -3298.05040
 2300.00000  249.05080  307.07870  398.42790  357.26000  357.26000    0.25890    -999.25  121.27090  254.10000  254.10000 2376.80000 2376.80000    0.19780    8.24600  249.05080   77.02080    -999.25   77.97830   77.97830    7.10020    0.25890    0.19780    -999.25    9.64710    8.24600    7.10020  -79.15480   -8.00050    9.64710 1103.49020 -1978.88950 -2543.75540
 2350.00000  247.37730  367.14900  397.52790  379.55820  379.55820    0.25130    -999.25  135.23200  201.30000  201.30000 2520.80000 2520.80000    0.10960    7.39470  247.37730   68.09250    -999.25   75.95490   75.95490    6.15830    0.25130    0.10960    -999.25    7.06530    7.39470    6.15830  -89.19430  -14.42160    7.06530 -1805.05980 -1817.64170 -1949.76520
 2400.00000  244.62390  359.45670  402.05260  383.11550  383.11550    0.23890    -999.25  118.48900  182.20000  182.20000 2586.30000 2586.30000    0.07550    8.43960  244.62390   63.59570    -999.25   63.15550   63.15550    7.11910    0.23890    0.07550    -999.25    8.08400    8.43960    7.11910  -86.70570  -12.81920    8.08400 -3381.48080 -2888.41540 -3408.43180
 2450.00000  208.33410  251.94550  309.17360  273.11100  273.11100    0.14490    -999.25   69.26550  240.10000  240.10000 2666.80000 2666.80000    0.02320   14.43720  208.33410   56.70270    -999.25   68.02580   68.02580   15.37170    0.14490    0.02320    -999.25   17.23520   14.43720   15.37170  -67.96320   -4.23550   17.23520 -1987.43010 -315.11360 -572.13120
