~Version ---------------------------------------------------
VERS.      2.0 : CWLS log ASCII Standard -VERSION 2.0
WRAP.       NO : One line per depth step
CREA. 11/03/17 : LAS Creation Date
~Well ------------------------------------------------------
STRT.FT                            1050.0 : START DEPTH
STOP.FT                            9900.0 : STOP DEPTH
STEP.FT                          50.00000 : STEP LENGTH
NULL.                             -999.25 : NULL VALUE
COMP.       HUDSON'S BAY OIL & GAS CO LTD : COMPANY
WELL. HB QUINTANA GULF EAGLET 16-13-64-17 : WELL
FLD .                                     : FIELD
LOC .                                     : LOCATION
CTRY.                              CANADA : COUNTRY
SRVC.                        Schlumberger : SERVICE COMPANY
DATE.                         24-Mar-1972 : LOGDATE
PROV.                             Alberta : PROVINCE
UWI .                    100161306417W500 : UNIQUE WELL ID
SLAT.WGS84                       54.54267 : SURFACE LATITUDE
SLON.WGS84                      -116.4235 : SURFACE LONGITUDE
~Curve Information -----------------------------------------
DEPT  .FT    : Depth Curve
CALSED.IN    : CALIPER FROM SONIC LOG
CALWS .IN    : CALIPER [CALRED]
CONDWS.MMHO  : CONDUCTIVITY [1000/DRESWS]
DRESWS.OHMM  : DEEP RESISTIVITY [ILDED]
DTED  .US/F  : DELTA-T FROM SONIC LOG
DTWS  .US/F  : COMPRESSIONAL SONIC [DTED]
GRSED .GAPI  : GAMMA RAY FROM SONIC LOG
GRWS  .GAPI  : GAMMA RAY [GRSED]
ILDED .OHMM  : DEEP INDUCTION RESISTIVITY FROM RESISTIVITY LOG
ILMED .OHMM  : MEDIUM INDUCTION RESISTIVITY FROM RESISTIVITY LOG
LL8ED .OHMM  : LATEROLOG 8 FROM RESISTIVITY LOG
MRESWS.OHMM  : MEDIUM RESISTIVITY [ILMED]
SPRED .MV    : SPONTANEOUS POTENTIAL FROM RESISTIVITY LOG
SPWS  .MV    : SPONTANEOUS POTENTIAL [BASELINE 0 MV,SPRED]
SRESWS.OHMM  : SHALLOW RESISTIVITY [LL8ED]
~Params ----------------------------------------------------
PD  .                     GL : PERMANENT DATUM
EPD .FT                 3075 : ELEVATION PERMANENT DATUM
LMF .                     KB : LOG MEASURED FROM
DAPD.FT                 13.5 : FEET ABOVE PERMANENT DATUM
DMF .                     KB : DRILLING MEASURED FROM
EKB .FT               3088.5 : KELLY BUSHING
EGL .FT                 3075 : GROUND LEVEL
DATE.               03/24/72 : RUN DATE
RUN .                      1 : RUN NUMBER
DD  .FT                 9942 : DEPTH DRILLER
DL  .FT                 9942 : DEPTH LOGGER
BLI .FT                 9936 : BOTTOM LOG INTERVAL
TLI .FT                 1030 : TOP LOG INTERVAL
CBD .FT                 1030 : CASING BOTTOM DRILLER
CBL .FT                 1030 : CASING BOTTOM LOGGER
BS  .IN                7.875 : BIT SIZE
BSD .FT                 9942 : BIT SIZE AT DEPTH
DFT .               CHEM GEL : DRILLING FLUID TYPE
DFD .                    9.4 : DRILLING FLUID DENSITY
DFV .                    147 : DRILLING FLUID VISCOSITY
DFPH.                    9.5 : DRILLING FLUID PH
DFL .                    9.4 : DRILLING FLUID LOSS
MSS .             CIRCULATED : MUD SAMPLE SOURCE
RMS .OHMM                2.4 : RESISTIVITY MUD SAMPLE
MST .DEGF                 84 : MUD SAMPLE TEMPERATURE
TCS .HRS                   3 : TIME CIRCULATED STOPPED
LUN .                   5670 : LOGGING UNIT NUMBER
LUL .                    EDM : LOGGING UNIT LOCATION
ENGI.        IBSEN SUNDQUIST : RECORDING ENGINEER
WITN.      POCHE FITZSIMMONS : WITNESSED BY
CLNT.                A2DTECH : CLIENT CODE
ORIG.            2" 5" PRINT : ORIGIN OF DATA
UWI .       100161306417W500 : UNIQUE WELL ID
DICO. A2D Technologies, Inc. : DIGITIZING COMPANY
~Other -----------------------------------------------------
~ASCII -----------------------------------------------------
# ...
 7950.00000    8.22590    8.22590    5.82890  171.56350   48.58410   48.58410   10.20220   10.20220  171.56350  225.12600  272.01660  225.12600 -152.69210 -212.78360  272.01660
 8000.00000    7.35470    7.35470   26.42250   37.84650   50.73820   50.73820   10.93560   10.93560   37.84650   54.54240  116.62230   54.54240 -135.16710 -195.32560  116.62230
 8050.00000    7.80250    7.80250   46.44380   21.53140   52.45130   52.45130   33.32750   33.32750   21.53140   25.61520   99.09020   25.61520 -135.00000 -195.22580   99.09020
 8100.00000    8.14660    8.14660   12.65760   79.24580   49.53590   49.53590   30.97790   30.97790   79.24580   86.02280   92.92940   86.02280 -100.28510 -160.57850   92.92940
 8150.00000    8.22680    8.22680   67.07360   14.90900   50.56790   50.56790   38.65020   38.65020   14.90900   17.97860   21.09680   17.97860  -50.65130 -111.01170   21.09680
 8200.00000    8.09950    8.09950   27.01990   37.01430   48.87360   48.87360   27.08700   27.08700   37.01430   38.91950   43.26600   38.91950  -20.90570  -81.33370   43.26600
 8250.00000    8.09760    8.09760   24.78450   40.34780   49.74030   49.74030   16.26820   16.26820   40.34780   49.06960  131.10820   49.06960  -24.93740  -85.43240  131.10820
 8300.00000    8.12800    8.12800   12.43340   80.42820   49.03100   49.03100   16.72170   16.72170   80.42820  113.23600  187.43910  113.23600    1.94700  -59.88800  187.43910
 8350.00000    8.93690    8.93690   54.16800   18.46110   57.52760   57.52760   42.24460   42.24460   18.46110   19.57660   25.51710   19.57660   22.24640  -42.49860   25.51710
 8400.00000    8.13680    8.13680   68.32610   14.63570  120.00000  120.00000   57.30270   57.30270   14.63570   15.97830   19.22800   15.97830   59.65320   -7.97290   19.22800
 8450.00000    8.13970    8.13970    7.73930  129.21060   53.29810   53.29810   34.17040   34.17040  129.21060  173.44070  214.29780  173.44070   37.26700  -29.18240  214.29780
 8500.00000    8.30770    8.30770  125.99060    7.93710   69.27460   69.27460   68.40880   68.40880    7.93710    8.55440   13.20240    8.55440   14.60190  -46.16790   13.20240
 8550.00000    8.15710    8.15710   21.83650   45.79480   61.91720   61.91720   52.84310   52.84310   45.79480   64.36210  121.71190   64.36210  -40.87370  -95.93540  121.71190
 8600.00000    8.33790    8.33790   53.25770   18.82130   60.20920   60.20920   47.80060   47.80060   18.82130   23.76280   36.71100   23.76280  -32.26130  -81.58640   36.71100
 8650.00000    8.55330    8.55330  128.12300    7.80500   66.90040   66.90040   72.95930   72.95930    7.80500    8.65830   12.22180    8.65830  -15.63200  -59.27750   12.22180
 8700.00000    9.93810    9.93810  184.33880    5.42480   73.82840   73.82840   73.62200   73.62200    5.42480    5.89360    7.59770    5.89360  -15.91970  -53.82850    7.59770
 8750.00000   10.05560   10.05560  182.61500    5.47600   77.21130   77.21130   83.26410   83.26410    5.47600    5.82490    7.99890    5.82490  -13.91470  -46.14400    7.99890
 8800.00000    8.94190    8.94190  117.33920    8.52230   71.82460   71.82460   67.67810   67.67810    8.52230    9.57870   15.03850    9.57870   -6.33200  -32.85320   15.03850
 8850.00000   11.51220   11.51220  204.18740    4.89770   78.59810   78.59810   80.63770   80.63770    4.89770    5.45350    6.38950    5.45350  -17.39220  -38.17670    6.38950
 8900.00000    8.27010    8.27010   43.44350   23.01840   64.57500   64.57500   68.77390   68.77390   23.01840   30.04760   93.98750   30.04760   11.64850   -6.99570   93.98750
 8950.00000    8.43270    8.43270   87.27760   11.45800   65.60940   65.60940   78.50370   78.50370   11.45800   12.57250   15.68510   12.57250    7.55160  -14.24830   15.68510
 9000.00000    8.35150    8.35150  109.14770    9.16190   68.45550   68.45550   83.99260   83.99260    9.16190   10.26400   13.18460   10.26400   18.91310   -5.01630   13.18460
 9050.00000    8.22820    8.22820   92.13620   10.85350   65.74170   65.74170   76.87470   76.87470   10.85350   11.63080   15.81000   11.63080    3.40740  -14.61930   15.81000
 9100.00000    8.42460    8.42460  132.20260    7.56410   72.14530   72.14530   97.50280   97.50280    7.56410    8.37260   11.56030    8.37260  -23.93400  -36.02840   11.56030
 9150.00000    9.01950    9.01950  141.59690    7.06230   75.88410   75.88410   98.47250   98.47250    7.06230    7.63880   11.14280    7.63880  -56.08030  -62.30150   11.14280
 9200.00000    9.19980    9.19980  167.17260    5.98260   78.11120   78.11120   94.37560   94.37560    5.98260    6.38130    8.51410    6.38130  -43.67210  -43.96100    8.51410
 9250.00000    8.38990    8.38990  147.45570    6.78170   72.03990   72.03990   87.61320   87.61320    6.78170    7.45390    9.59460    7.45390  -12.89190   -7.30760    9.59460
 9300.00000    7.97920    7.97920    1.41410  707.14780   74.55680   74.55680  127.93140  127.93140  707.14780 1556.35570 1459.96800 1556.35570  -40.85920  -43.09740 1459.96800
 9350.00000    8.04460    8.04460    3.23400  310.05650   76.21170   76.21170  157.06730  157.06730  310.05650  508.33510 1176.91550  508.33510  -11.05310  -25.75100 1176.91550
 9400.00000    8.06820    8.06820   59.73390   16.74090   91.43180   91.43180  153.40030  153.40030   16.74090   19.66590   47.33850   19.66590  -13.99750  -41.03100   47.33850
 9450.00000    7.93890    7.93890   25.33970   39.46710   63.03720   63.03720   43.72480   43.72480   39.46710   42.72110   56.16310   42.72110  -14.92380  -54.41690   56.16310
 9500.00000    8.02120    8.02120   32.73240   30.55080   55.72360   55.72360   43.11990   43.11990   30.55080   34.35370   48.10910   34.35370   16.92070  -34.90810   48.10910
 9550.00000    7.99940    7.99940   29.25350   34.18390   51.30590   51.30590   27.67150   27.67150   34.18390   41.61580  134.66810   41.61580   37.62160  -26.60490  134.66810
 9600.00000    7.92200    7.92200    4.09140  244.72170   51.96570   51.96570   23.18390   23.18390  244.72170  474.98840  894.40910  474.98840    4.74210  -62.59010  894.40910
 9650.00000    7.91910    7.91910   22.17420   45.09740   54.76450   54.76450   39.02820   39.02820   45.09740   49.42410   60.24240   49.42410    4.47890  -50.37030   60.24240
 9700.00000    7.96810    7.96810    8.24060  121.58990   51.66910   51.66910   25.63280   25.63280  121.58990  150.85530  218.21550  150.85530  -19.52230  -61.76290  218.21550
 9750.00000    8.03470    8.03470    8.89210  112.45930   52.37660   52.37660   29.04370   29.04370  112.45930  125.76670  755.03920  125.76670    0.33730  -29.42020  755.03920
 9800.00000    7.92070    7.92070    0.62810 1592.10880   49.25160   49.25160   13.56010   13.56010 1592.10880 1686.14200 1441.50090 1686.14200 -175.14130 -192.35290 1441.50090
 9850.00000    7.97810    7.97810    8.32200  120.41240   49.59630   49.59630   14.78210   14.78210  120.41240  143.95780  233.33480  143.95780 -153.99620 -158.59920  233.33480
 9900.00000    7.36870    7.36870  738.77070    1.35360   63.84060   63.84060   53.05630   53.05630    1.35360    1.55830   11.75740    1.55830 -200.00000 -169.54840   11.75740
