~Version ---------------------------------------------------
VERS. 2.0 : CWLS log ASCII Standard -VERSION 2.0
WRAP.  NO : ONE LINE PER DEPTH STEP
~Well ------------------------------------------------------
STRT.M                       350.0 : START DEPTH
STOP.M                      3600.0 : STOP DEPTH
STEP.M                    50.00000 : STEP LENGTH
NULL.                      -999.25 : NULL VALUE
COMP. HUDSONS BAY OIL & GAS CO LTD : COMPANY
WELL.   HB ET AL KAYBOBS 7-5-58-18 : WELL
FLD .                           WC : FIELD
LOC .                              : LOCATION
CTRY.                       CANADA : COUNTRY
SRVC.                 Schlumberger : SERVICE COMPANY
DATE.                  15-May-1980 : LOGDATE
PROV.                      Alberta : PROVINCE
UWI .             100070505818W500 : UNIQUE WELL ID
SLAT.WGS84                 53.9828 : SURFACE LATITUDE
SLON.WGS84               -116.6361 : SURFACE LONGITUDE
~Curve Information -----------------------------------------
DEPT    .M                                                        : DEPTH METERS
CALDED  .MM                                                       : CALIPER FROM CNFD LOG, DEPTH ADJUSTED WITH [SPRED]
CALSED  .MM                                                       : CALIPER FROM SONIC LOG, DEPTH ADJUSTED WITH [SPRED]
CALWS   .MM                                                       : CALIPER [CALDED], SPLICED WITH [CALSED] FROM 344-1550
CILDED  .MMHO                                                     : CONDUCTIVITY FROM RESISTIVITY LOG
CONDWS  .MMHO                                                     : CONDUCTIVITY [1000/DRESWS]
DCORED  .KG/M3                                                    : DENSITY CORRECTION FROM CNFD LOG, DEPTH ADJUSTED WITH [SPRED]
DCORWS  .KG/M3                                                    : DENISTY CORRECTION [DCORED]
DENWS   .KG/M3                                                    : BULK DENSITY [RHOBED]
DPHILSED.V/V                                                      : DENSITY POROSITY [M=2710 F=1000] FROM CNFC LOG, DEPTH ADJUSTED WITH [SPRED]
DPHISSED.V/V                                                      : DENSITY POROSITY [M=2650 F=1000] FROM CNFD LOG, DEPTH ADJUSTED WITH [SPRED]
DPOLSWS .V/V l DENSITY POROSITY LIMESTONE [CLACULATED FROM DENWS] : DENSITY POROSITY LIMESTONE [CLACULATED FROM DENWS]
DRESWS  .OHMM                                                     : DEEP RESISTIVITY [ILDED] IF DRESWS<1;1000/CONDWS<1550>[ILDED]
DTED    .US/M                                                     : DELTA TIME FROM SONIC LOG, DEPTH ADJUSTED WITH [SPRED]
DTWS    .US/M                                                     : DELTA TIME [DTED]
GRDED   .GAPI                                                     : GAMMA RAY FROM CNFD LOG, DEPTH ADJUSTED WITH [SPRED]
GRSED   .GAPI                                                     : GAMMA RAY FROM SONIC LOG, DEPTH ADJUSTED WITH [SPRED]
GRWS    .GAPI                                                     : GAMMA RAY [GRDED]
ILDED   .OHMM                                                     : INDUCTION LOG DEEP RESISTIVITY
ILMED   .OHMM                                                     : INDUCTION LOG MEDIUM RESISTIVITY
MRESWS  .OHMM                                                     : MEDIUM RESISTIVITY [ILMED]
NPHILSED.V/V                                                      : NEUTRON POROSITY LIMESTONE FROM CNFD LOG, DEPTH ADJUSTED WITH [SPRED]
NPHISSED.V/V                                                      : NEUTRON POROSITY SANDSTONE FROM CNFD LOG, DEPTH ADJUSTED WITH [SPRED]
NPOLSWS .V/V                                                      : NEUTRON POROSITY LIMESTONE [NPHILSED], SPLICED WITH CONVERTED FROM NPHISSED (1550-2456)]
RHOBED  .KG/M3                                                    : BULK DENSITY FROM CNFD LOG, DEPTH ADJUSTED WITH [SPRED]
SFLED   .OHMM                                                     : SPHERICALLY FOCUSED LOG RESISTIVITY
SPRED   .MV                                                       : SPONTANEOUS POTENTIAL FROM RESISTIVITY LOG
SPWS    .MV                                                       : SPONTANEOUS POTENTIAL [BASELINE 0 MV] [SPRED]
SRESWS  .OHMM                                                     : SHALLOW RESISTIVITY [SFLED]
~Params ----------------------------------------------------
PD  .                         GL : PERMANENT DATUM
EPD .M                      1036 : ELEVATION PERMANENT DATUM
LMF .                         KB : LOG MEASURED FROM
DAPD.M                         5 : FEET ABOVE PERMANENT DATUM
DMF .                         KB : DRILLING MEASURED FROM
EKB .M                      1041 : KELLY BUSHING
EGL .M                      1036 : GROUND LEVEL
DATE.                   05/15/80 : RUN DATE
RUN .                          1 : RUN NUMBER
DD  .M                      3627 : DEPTH DRILLER
DL  .M                    3626.9 : DEPTH LOGGER
BLI .M                      3626 : BOTTOM LOG INTERVAL
TLI .M                       377 : TOP LOG INTERVAL
CS  .MM                      244 : CASING SIZE
CBD .M                       378 : CASING BOTTOM DRILLER
CBL .M                       377 : CASING BOTTOM LOGGER
BS  .MM                      222 : BIT SIZE
BSD .M                      3627 : BIT SIZE AT DEPTH
DFT .                   GEL CHEM : DRILLING FLUID TYPE
DFD .                       1120 : DRILLING FLUID DENSITY
DFV .                        112 : DRILLING FLUID VISCOSITY
DFPH.                       10.5 : DRILLING FLUID PH
DFL .                         11 : DRILLING FLUID LOSS
MSS .                   MUD TANK : MUD SAMPLE SOURCE
RMS .OHMM                   2.35 : RESISTIVITY MUD SAMPLE
MST .DEGC                   23.3 : MUD SAMPLE TEMPERATURE
RMF .OHMM                   1.87 : RESISTIVITY MUD FILTRATE SAMPLE
MFST.DEGC                   21.7 : MUD FILTRATE SAMPLE TEMPERATURE
MFSS.                   MT PRESS : MUD FILTRATE SAMPLE SOURCE
RMB .OHMM                   0.86 : RESISTIVITY MUD AT BHT
TCS .HRS                    2300 : TIME CIRCULATED STOPPED
TLAB.HRS                     730 : TIME LOGGER AT BOTTOM
LUN .                       8156 : LOGGING UNIT NUMBER
LUL .                      EDSON : LOGGING UNIT LOCATION
ENGI.            DOWNEY MISSIUNA : RECORDING ENGINEER
WITN.                      GOUGH : WITNESSED BY
CLNT.                    A2DTECH : CLIENT CODE
ORIG. 6.5"/100M 16.5"/100M PRINT : ORIGIN OF DATA
UWI .           100070505818W500 : UNIQUE WELL ID
DICO.     A2D Technologies, Inc. : DIGITIZING COMPANY
~Other -----------------------------------------------------
~ASCII -----------------------------------------------------
# ...
 2850.00000  286.58370  234.80790  286.58370    -999.25    0.50070  245.28660  245.28660 2619.53320    0.06140    -999.25    0.05290 1997.14030  160.37520  160.37520   11.84420   15.57720   15.57720 1997.14030  778.55910  778.55910   -0.00120    -999.25   -0.00120 2619.53320 1163.45130  -98.59820 -129.54170 1163.45130
 2900.00000  315.64750  235.69080  315.64750    -999.25    0.50080  169.18060  169.18060 2519.41110    0.11300    -999.25    0.11150 1996.91050  161.72940  161.72940    9.36800   10.74400   10.74400 1996.91050 1797.35310 1797.35310    0.00150    -999.25    0.00150 2519.41110 1435.05240 -111.85650 -143.20310 1435.05240
 2950.00000  327.67780  239.84590  327.67780    -999.25    0.49630  192.61130  192.61130 2494.23930    0.12540    -999.25    0.12620 2015.05410  163.56530  163.56530   14.00240   14.98880   14.98880 2015.05410  510.85450  510.85450    0.00560    -999.25    0.00560 2494.23930 1116.48280 -112.05570 -143.80550 1116.48280
 3000.00000  304.89420  242.15390  304.89420    -999.25    0.49840  203.26460  203.26460 2151.29440    0.31720    -999.25    0.32670 2006.50780  163.06070  163.06070   12.33920   13.32160   13.32160 2006.50780  743.65780  743.65780    0.00750    -999.25    0.00750 2151.29440 1660.18120 -105.05390 -137.20680 1660.18120
 3050.00000  240.16110  229.54210  240.16110    -999.25    0.49520   22.50880   22.50880 2895.35110   -0.12090    -999.25   -0.10840 2019.28770  157.76880  157.76880   17.13950   18.06230   18.06230 2019.28770 1646.92050 1646.92050    0.00840    -999.25    0.00840 2895.35110 1864.86150  -66.02720  -98.58320 1864.86150
 3100.00000  250.50770  236.61820  250.50770    -999.25    1.12520   17.17220   17.17220 2715.92330   -0.00540    -999.25   -0.00350  888.73580  170.19090  170.19090   29.95920   33.52500   33.52500  888.73580  246.53580  246.53580    0.03000    -999.25    0.03000 2715.92330  310.76010   15.14420  -17.81490  310.76010
 3150.00000  240.60630  236.14960  240.60630    -999.25   16.81070   -4.16780   -4.16780 2665.00240    0.02480    -999.25    0.02630   59.48580  174.34980  174.34980   29.88700   31.60750   31.60750   59.48580   56.16460   56.16460    0.04630    -999.25    0.04630 2665.00240   61.82040   24.84590   -8.51630   61.82040
 3200.00000  242.45130  235.56020  242.45130    -999.25   51.26890    9.02860    9.02860 2707.20530   -0.00370    -999.25    0.00160   19.50500  190.36250  190.36250   43.90990   49.82520   49.82520   19.50500   20.74680   20.74680    0.06680    -999.25    0.06680 2707.20530   23.88860   33.54240   -0.22290   23.88860
 3250.00000  243.44560  238.05750  243.44560    -999.25    4.56610    5.55630    5.55630 2665.57370    0.02270    -999.25    0.02600  219.00400  167.51490  167.51490   22.58810   23.49360   23.49360  219.00400  215.34140  215.34140    0.03990    -999.25    0.03990 2665.57370  681.36380   35.02430    0.85590  681.36380
 3300.00000  298.64950  244.61120  298.64950    -999.25  100.12220  153.88300  153.88300 2057.41360    0.36630    -999.25    0.38160    9.98780  239.10290  239.10290   79.59500   88.89820   88.89820    9.98780   10.32890   10.32890    0.23920    -999.25    0.23920 2057.41360   15.94420   32.57300   -1.99850   15.94420
 3350.00000  242.54130  237.22180  242.54130    -999.25   82.13890   62.93420   62.93420 2693.74100    0.00610    -999.25    0.00950   12.17450  211.68440  211.68440   77.66490   80.54940   80.54940   12.17450   13.28990   13.28990    0.16390    -999.25    0.16390 2693.74100   16.39320   38.37920    3.40450   16.39320
 3400.00000  236.30460  224.02470  236.30460    -999.25   22.97510   67.49230   67.49230 2575.81790    0.08010    -999.25    0.07850   43.52540  245.35830  245.35830  113.79130  116.57060  116.57060   43.52540   40.06560   40.06560    0.14770    -999.25    0.14770 2575.81790   59.32850   32.05560   -3.32220   59.32850
 3450.00000  287.11510  229.15200  287.11510    -999.25    0.49380  248.72560  248.72560 2615.95120    0.05250    -999.25    0.05500 2025.15490  159.72810  159.72810   11.51250   13.03860   13.03860 2025.15490 2011.22050 2011.22050    0.00860    -999.25    0.00860 2615.95120 1960.28430 -138.59260 -165.52940 1960.28430
 3500.00000  199.24730  190.54090  199.24730    -999.25    1.05910  248.64250  248.64250 2667.88570    0.02590    -999.25    0.02460  944.20580  165.82560  165.82560   11.02750   10.72290   10.72290  944.20580  388.00230  388.00230    0.07320    -999.25    0.07320 2667.88570  673.85290 -112.99330 -139.37830  673.85290
 3550.00000  245.24190  219.46070  245.24190    -999.25    0.49560  196.52620  196.52620 2709.15450   -0.01100    -999.25    0.00050 2017.57690  159.62530  159.62530   10.37390   10.73020   10.73020 2017.57690  595.14680  595.14680    0.06820    -999.25    0.06820 2709.15450  798.18390  -92.23980 -118.07300  798.18390
 3600.00000  240.16880  218.09080  240.16880    -999.25   23.04330  207.17070  207.17070 2643.90600    0.03170    -999.25    0.03870   43.39650  159.43910  159.43910   19.11510   15.72860   15.72860   43.39650   36.02970   36.02970    0.04850    -999.25    0.04850 2643.90600   96.95050  -71.45680  -96.73830   96.95050
