~Version ---------------------------------------------------
VERS.      2.0 : CWLS log ASCII Standard -VERSION 2.0
WRAP.       NO : One line per depth step
CREA. 01/03/18 : LAS Creation Date
~Well ------------------------------------------------------
STRT.FT                   650.0 : START DEPTH
STOP.FT                  8800.0 : STOP DEPTH
STEP.FT                50.00000 : STEP LENGTH
NULL.                   -999.25 : NULL VALUE
COMP.        IPEX OIL & GAS LTD : COMPANY
WELL. IPEX IMP JUDY 11-36-64-12 : WELL
FLD .                           : FIELD
LOC .                           : LOCATION
CTRY.                    CANADA : COUNTRY
SRVC.              Schlumberger : SERVICE COMPANY
DATE.               13-Aug-1974 : LOGDATE
PROV.                   Alberta : PROVINCE
UWI .          100113606412W500 : UNIQUE WELL ID
SLAT.WGS84             54.58384 : SURFACE LATITUDE
SLON.WGS84            -115.6802 : SURFACE LONGITUDE
~Curve Information -----------------------------------------
DEPT  .FT    : Depth Curve
CALSED.IN    : CALIPER FROM SONIC LOG
CALWS .IN    : CALIPER [CALSED]
CILDED.MMHO  : CONDUCTIVITY FROM RESISTIVITY LOG
CONDWS.MMHO  : CONDUCTIVITY [1000/DRESWS]
DRESWS.OHMM  : DEEP RESISTIVITY [ILDED] IF ILDED<2;1000/CILDED;ELSE ILDED
DTED  .US/F  : DELTA TIME FROM SONIC LOG
DTWS  .US/F  : DELTA TIME [DTED]
GRSED .GAPI  : GAMMA RAY FROM SONIC LOG
GRWS  .GAPI  : GAMMA RAY [GRSED]
ILDED .OHMM  : INDUCTION LOG DEEP RESISTIVITY
LL8ED .OHMM  : 8 INCH LATEROLOG RESISTIVITY
SPRED .MV    : SPONTANEOUS POTENTIAL FROM RESISTIVITY LOG
SPWS  .MV    : SPONTANEOUS POTENTIAL [BASELINE 0 MV] [SPRED]
SRESWS.OHMM  : SHALLOW RESISTIVITY [LL8ED]
~Params ----------------------------------------------------
PD  .                     GL : PERMANENT DATUM
EPD .FT               3172.7 : ELEVATION PERMANENT DATUM
LMF .                     KB : LOG MEASURED FROM
DAPD.FT                 14.3 : FEET ABOVE PERMANENT DATUM
DMF .                        : DRILLING MEASURED FROM
EKB .FT                 3187 : KELLY BUSHING
EDF .FT                    0 : DRILLING FLOOR
EGL .FT               3172.7 : GROUND LEVEL
DATE.               08/13/74 : RUN DATE
RUN .                      1 : RUN NUMBER
DD  .FT                 8835 : DEPTH DRILLER
DL  .FT                 8843 : DEPTH LOGGER
BLI .FT                 8837 : BOTTOM LOG INTERVAL
TLI .FT                  610 : TOP LOG INTERVAL
CS  .IN                    0 : CASING SIZE
CBD .FT                  612 : CASING BOTTOM DRILLER
CBL .FT                  610 : CASING BOTTOM LOGGER
BS  .IN                7.875 : BIT SIZE
BSD .FT                 8835 : BIT SIZE AT DEPTH
DFT .                    GEL : DRILLING FLUID TYPE
DFD .                    9.5 : DRILLING FLUID DENSITY
DFV .                    8.2 : DRILLING FLUID VISCOSITY
DFPH.                        : DRILLING FLUID PH
DFL .                        : DRILLING FLUID LOSS
MSS .                        : MUD SAMPLE SOURCE
RMS .OHMM               2.63 : RESISTIVITY MUD SAMPLE
MST .DEGF                 61 : MUD SAMPLE TEMPERATURE
RMF .OHMM               2.31 : RESISTIVITY MUD FILTRATE SAMPLE
MFST.DEGF                 60 : MUD FILTRATE SAMPLE TEMPERATURE
RMC .OHMM                  0 : RESISTIVITY MUD CAKE
MCST.DEGF                  0 : MUD CAKE SAMPLE TEMPERATURE
MFSS.                        : MUD FILTRATE SAMPLE SOURCE
MCSS.                        : MUD CAKE SAMPLE SOURCE
RMB .OHMM                0.8 : RESISTIVITY MUD AT BHT
TCS .HRS                   4 : TIME CIRCULATED STOPPED
TLAB.HRS                   0 : TIME LOGGER AT BOTTOM
LUN .                   7690 : LOGGING UNIT NUMBER
LUL .                    EDM : LOGGING UNIT LOCATION
ENGI.                SIMPSON : RECORDING ENGINEER
WITN.                COULSON : WITNESSED BY
CLNT.                A2DTECH : CLIENT CODE
ORIG.            2" 5" PRINT : ORIGIN OF DATA
UWI .       100113606412W500 : UNIQUE WELL ID
DICO. A2D Technologies, Inc. : DIGITIZING COMPANY
OS  .                        : OTHER SERVICES
PWI .                        : PRIMARY WELL IDENTIFIER
R1  .                        : REMARKS 1
R2  .                        : REMARKS 2
LSRV.                        : LOG MNEMONIC
~Other -----------------------------------------------------
DIL-SONIC LOGS RUN
SPRED, ILDED, CILDED, LL8ED CURVES TOP-1354' DATA FROM 2" SCALE
DIL LOG DATA ALL CURVES 5885'-5915' NULL DUR TO TOLL STUCK
SONIC LOG DATA ALL CURVES 5030'-8330' NULL DUR TO TOLL STUCK
~ASCII -----------------------------------------------------
# ...
 5550.00000    8.50710    8.50710   29.90720   31.20120   32.05000   56.52300   56.52300   37.75590   37.75590   32.05000   47.52630  -98.98390  -21.98980   47.52630
 5600.00000    8.34230    8.34230   11.05800   14.08110   71.01710   51.26850   51.26850   12.21190   12.21190   71.01710   74.84580 -151.05720  -76.58730   74.84580
 5650.00000    8.41880    8.41880   32.89230   32.12520   31.12820   56.44560   56.44560   38.56860   38.56860   31.12820   49.94730 -108.01910  -36.07330   49.94730
 5700.00000    9.26160    9.26160  199.26560  211.91640    4.72390   57.88610   57.88610   17.77170   17.77170    4.72390   16.05710 -171.44310 -102.03410   16.05710
 5750.00000    7.95330    7.95330   51.92110   52.31440   19.11520   56.04200   56.04200   17.33270   17.33270   19.11520   36.42600 -142.80600  -75.90840   36.42600
 5800.00000    8.23920    8.23920   45.02500   45.49110   21.98230   56.27320   56.27320   27.14020   27.14020   21.98230   29.64450 -121.42080  -57.04740   29.64450
 5850.00000    8.10930    8.10930   51.21610   53.09350   18.83470   59.05250   59.05250   48.87630   48.87630   18.83470   32.48580  -98.17630  -36.32700   32.48580
 5900.00000    8.19500    8.19500    -999.25    -999.25    -999.25   57.72660   57.72660   42.83690   42.83690    -999.25    -999.25    -999.25    -999.25    -999.25
 5950.00000    8.74170    8.74170  129.86650  135.26980    7.39270   75.30040   75.30040  128.02690  128.02690    7.39270   10.44460  -60.20970   -3.42130   10.44460
 6000.00000    8.73380    8.73380  166.21840  173.04030    5.77900   63.87280   63.87280   83.12220   83.12220    5.77900    7.24220  -97.64670  -41.31240    7.24220
 6050.00000    8.08780    8.08780    6.24090    3.26100  306.65450   50.50840   50.50840   19.32160   19.32160  306.65450  244.90010  -93.13680  -37.01500  244.90010
 6100.00000    8.02280    8.02280    3.79560    2.24480  445.46730   50.84880   50.84880   12.40390   12.40390  445.46730  225.07650 -145.03320  -89.12400  225.07650
 6150.00000    7.94170    7.94170   29.33300   30.22870   33.08110   52.47680   52.47680   23.55670   23.55670   33.08110   49.12520 -106.32000  -50.62330   49.12520
 6200.00000    7.96970    7.96970    4.17720    1.67050  598.62450   48.31550   48.31550   12.94870   12.94870  598.62450  599.24870 -141.90300  -86.41980  599.24870
 6250.00000    7.98210    7.98210   43.81380   45.66840   21.89700   50.81470   50.81470    8.36210    8.36210   21.89700  140.36720 -168.11640 -112.84470  140.36720
 6300.00000    8.01330    8.01330   43.65200   45.76780   21.84940   55.17210   55.17210   15.58840   15.58840   21.84940  138.17800 -200.66310 -145.60390  138.17800
 6350.00000    8.20610    8.20610   30.93010   32.06660   31.18510   52.66810   52.66810   13.73510   13.73510   31.18510  263.11360 -197.57620 -142.72950  263.11360
 6400.00000    8.18080    8.18080   40.28660   42.16220   23.71790   54.83280   54.83280   11.17640   11.17640   23.71790  131.31360 -186.30370 -131.66950  131.31360
 6450.00000    8.15830    8.15830   50.60150   50.68210   19.75030   51.69320   51.69320   11.48670   11.48670   19.75030  159.52530 -210.56240 -156.14180  159.52530
 6500.00000    8.14420    8.14420    3.24950    5.26070  190.08840   48.48050   48.48050   14.60380   14.60380  190.08840  235.10940 -156.09690 -101.88770  235.10940
 6550.00000    8.10990    8.10990    4.66600    2.65360  376.84810   48.68040   48.68040   12.22410   12.22410  376.84810  280.97890 -157.88930 -103.89270  280.97890
 6600.00000    8.12320    8.12320    8.35110    8.63730  115.77750   49.23690   49.23690   10.10640   10.10640  115.77750  145.33410 -162.51860 -108.73450  145.33410
 6650.00000    8.21330    8.21330   11.95220   13.77610   72.58970   50.59580   50.59580   13.61920   13.61920   72.58970  238.70520 -209.99750 -156.42590  238.70520
 6700.00000    7.89020    7.89020   21.64880   21.98450   45.51720   48.59330   48.59330   12.21250   12.21250   45.51720  191.08870 -213.13150 -159.77340  191.08870
 6750.00000    8.06670    8.06670   32.19250   33.23580   30.08800   51.69400   51.69400   14.86440   14.86440   30.08800  135.90770 -223.04150 -169.89490  135.90770
 6800.00000    8.36170    8.36170  110.30410  117.92450    8.48000   55.81260   55.81260   40.03430   40.03430    8.48000   28.61710 -154.86410 -101.93000   28.61710
 6850.00000    7.88950    7.88950   73.50820   80.35030   12.44550   56.41750   56.41750   47.46940   47.46940   12.44550   20.06890 -143.08190  -90.36030   20.06890
 6900.00000    7.91220    7.91220   16.92830   17.48500   57.19200   49.37560   49.37560   20.35940   20.35940   57.19200  183.64590 -187.11880 -134.60970  183.64590
 6950.00000    7.95590    7.95590   27.03510   27.87220   35.88060   48.74710   48.74710   21.52300   21.52300   35.88060  150.71050 -196.17680 -143.88140  150.71050
 7000.00000    8.20470    8.20470   67.19260   73.76810   13.55600   52.84080   52.84080   30.74830   30.74830   13.55600   17.17910 -137.29990  -85.21580   17.17910
 7050.00000    8.26850    8.26850   14.96690   14.29100   69.97410   51.74000   51.74000   28.81040   28.81040   69.97410   79.99810  -93.51250  -41.64100   79.99810
 7100.00000    8.33080    8.33080   49.80270   50.25580   19.89820   56.67470   56.67470   48.65440   48.65440   19.89820   26.32630  -88.79510  -37.13610   26.32630
 7150.00000    8.54270    8.54270   86.48410   89.17030   11.21450   60.87380   60.87380   53.65200   53.65200   11.21450   13.78310 -101.40000  -49.95350   13.78310
 7200.00000   14.18220   14.18220  266.82200  288.03890    3.47200   83.42780   83.42780   81.51570   81.51570    3.47200    4.24670 -102.02460  -50.79160    4.24670
 7250.00000   11.16670   11.16670  206.60950  220.23520    4.54060   76.69410   76.69410   77.55360   77.55360    4.54060    5.21980  -90.18260  -39.16110    5.21980
 7300.00000    9.82720    9.82720  120.37810  127.20060    7.86160   74.69430   74.69430   75.01190   75.01190    7.86160    9.41390  -92.82650  -42.01750    9.41390
 7350.00000    8.47070    8.47070  128.00770  131.68980    7.59360   69.17230   69.17230   77.09270   77.09270    7.59360    8.36410  -78.90770  -28.31120    8.36410
 7400.00000    8.26570    8.26570   99.33880  101.89420    9.81410   65.23330   65.23330   74.52390   74.52390    9.81410   11.45020  -86.56240  -36.17840   11.45020
 7450.00000    8.60650    8.60650  178.60010  195.01000    5.12980   73.15010   73.15010   77.47860   77.47860    5.12980    7.15170  -83.22520  -33.05490    7.15170
 7500.00000    9.59720    9.59720  250.62750  276.66340    3.61450   67.96270   67.96270   66.85750   66.85750    3.61450    4.53920  -92.34220  -42.38330    4.53920
 7550.00000   10.48080   10.48080  333.50810  372.73100    2.68290   84.72200   84.72200   88.51930   88.51930    2.68290    3.50880 -101.09700  -51.35060    3.50880
 7600.00000   13.11860   13.11860  270.50930  295.41220    3.38510   82.89020   82.89020   78.10990   78.10990    3.38510    4.25360  -86.79520  -37.26130    4.25360
 7650.00000   11.25810   11.25810  252.29960  278.97120    3.58460   83.71690   83.71690   81.29790   81.29790    3.58460    4.67730  -95.87970  -46.55830    4.67730
 7700.00000    8.41220    8.41220  116.46520  121.58280    8.22510   63.28640   63.28640   59.71090   59.71090    8.22510   10.88570  -66.64700  -17.53920   10.88570
 7750.00000    8.38480    8.38480  143.59090  151.82340    6.58660   70.03710   70.03710   94.20780   94.20780    6.58660    8.78770  -70.44130  -21.54490    8.78770
 7800.00000    8.41510    8.41510  143.40100  151.42570    6.60390   70.07030   70.07030   84.73340   84.73340    6.60390    8.64180  -67.27870  -18.59480    8.64180
 7850.00000    9.61410    9.61410  191.64440  210.13260    4.75890   78.90380   78.90380   93.40190   93.40190    4.75890    6.03900  -83.85920  -35.38780    6.03900
 7900.00000   10.81120   10.81120  259.48480  286.73840    3.48750   79.26740   79.26740  104.57000  104.57000    3.48750    4.66120  -85.91750  -37.65860    4.66120
 7950.00000    8.59550    8.59550  180.91190  192.66220    5.19160   74.43290   74.43290   90.72650   90.72650    5.19160    7.46660  -66.47810  -18.43280    7.46660
