~Version ---------------------------------------------------
VERS.      2.0 : CWLS log ASCII Standard -VERSION 2.0
WRAP.       NO : One line per depth step
CREA. 01/03/18 : LAS Creation Date
~Well ------------------------------------------------------
STRT.FT                               650.0 : START DEPTH
STOP.FT                              8300.0 : STOP DEPTH
STEP.FT                            50.00000 : STEP LENGTH
NULL.                               -999.25 : NULL VALUE
COMP.              HOME OIL COMPANY LIMITED : COMPANY
WELL. HOME FPC ET AL MORSE RIVER 10-15-66-9 : WELL
FLD .                                       : FIELD
LOC .                                       : LOCATION
CTRY.                                CANADA : COUNTRY
SRVC.                          Schlumberger : SERVICE COMPANY
DATE.                           24-Mar-1959 : LOGDATE
PROV.                               Alberta : PROVINCE
UWI .                      100101506609W500 : UNIQUE WELL ID
SLAT.WGS84                         54.71376 : SURFACE LATITUDE
SLON.WGS84                        -115.2703 : SURFACE LONGITUDE
~Curve Information -----------------------------------------
DEPT  .FT     : Depth Curve
CALWS .IN     : CALIPER [MCALED
CILDED.MMHO   : INDUCTION DEEP CONDUCTIVITY FROM IEL
CONDWS.MMHO   : CONDUCTIVITY [1000/DRESWS]
DRESWS.OHMM   : DEEP RESISTIVITY [IF ILDED < 2, THEN 1000/CILDED, ELSE ILDED]
GRED  .GAPI   : GAMMA RAY [DEPTH SHIFTED TO GNED]
GRNED .UR/HR  : GAMMA RAY FROM GRN LOG [DEPTH SHIFTED TO SNED]
GRWS  .GAPI   : GAMMA RAY [GRNED*10.4]
ILDED .OHMM   : INDUCTION DEEP RESISTIVITY FROM IEL
MCALED.IN     : CALIPER FROM MICROLOG [DEPTH SHIFTED TO SPRED]
NEUTED.CU     : NEUTRON FROM GRN LOG [DEPTH SHFITED TO SNED]
NEUTWS.CU     : NEUTRON [NEUTED]
SNED  .OHMM   : SHORT NORMAL RESISTIVITY FROM IEL
SPRED .MV     : SPONTANEOUS POTENTIAL FROM IEL
SPWS  .MV     : SPONTANEOUS POTENTIAL [SPRED BASELINE 0 MV. PARTIALLY REVERSED IN PORTION OF DEEPER SECTION]
SRESWS.OHMM   : SHALLOW RESISTIVITY [SNED]
~Params ----------------------------------------------------
LMF .                     KB : LOG MEASURED FROM
DMF .                     KB : DRILLING MEASURED FROM
EKB .FT                 3425 : KELLY BUSHING
EGL .FT                 3413 : GROUND LEVEL
DATE.               03/24/59 : RUN DATE
RUN .                      2 : RUN NUMBER
DD  .FT                 8331 : DEPTH DRILLER
DL  .FT                 8338 : DEPTH LOGGER
BLI .FT                 8332 : BOTTOM LOG INTERVAL
TLI .FT                 5499 : TOP LOG INTERVAL
BS  .IN                    9 : BIT SIZE
BSD .FT                 8331 : BIT SIZE AT DEPTH
DFT .                    GEL : DRILLING FLUID TYPE
DFD .                   10.5 : DRILLING FLUID DENSITY
DFV .                    135 : DRILLING FLUID VISCOSITY
DFPH.                     10 : DRILLING FLUID PH
DFL .                    4.6 : DRILLING FLUID LOSS
RMS .OHMM                2.8 : RESISTIVITY MUD SAMPLE
MST .DEGF                 66 : MUD SAMPLE TEMPERATURE
RMF .OHMM                1.6 : RESISTIVITY MUD FILTRATE SAMPLE
MFST.DEGF                 82 : MUD FILTRATE SAMPLE TEMPERATURE
RMC .OHMM                2.5 : RESISTIVITY MUD CAKE
MCST.DEGF                 82 : MUD CAKE SAMPLE TEMPERATURE
RMB .OHMM                1.2 : RESISTIVITY MUD AT BHT
TCS .HRS                   3 : TIME CIRCULATED STOPPED
LUN .                   2742 : LOGGING UNIT NUMBER
LUL .                     SH : LOGGING UNIT LOCATION
ENGI.                  GOETZ : RECORDING ENGINEER
WITN.                  BEARD : WITNESSED BY
CLNT.                A2DTECH : CLIENT CODE
ORIG.            1" 5" PRINT : ORIGIN OF DATA
UWI .       100101506609W500 : UNIQUE WELL ID
DICO. A2D Technologies, Inc. : DIGITIZING COMPANY
~Other -----------------------------------------------------
~ASCII -----------------------------------------------------
# ...
 2950.00000   11.63560  175.72370  180.93000    5.52700    -999.25    -999.25    -999.25    5.52700   11.63560    -999.25    -999.25    6.67490  -75.99170   -6.62900    6.67500
 3000.00000   11.70680  187.30280  186.81460    5.35290    -999.25    -999.25    -999.25    5.35290   11.70680    -999.25    -999.25    6.02650  -75.73970   -7.43730    6.02650
 3050.00000    9.72900  170.52930  174.60230    5.72730    -999.25    -999.25    -999.25    5.72730    9.72900    -999.25    -999.25    6.52120  -75.75100   -8.51440    6.52120
 3100.00000   10.09860  193.59760  199.01690    5.02470    -999.25    -999.25    -999.25    5.02470   10.09860    -999.25    -999.25    5.42890  -74.38450   -8.21360    5.42890
 3150.00000    9.97380  187.09100  187.95580    5.32040    -999.25    -999.25    -999.25    5.32040    9.97380    -999.25    -999.25    6.06620  -74.58790   -9.48270    6.06620
 3200.00000   10.02430  184.93420  186.75360    5.35460    -999.25    -999.25    -999.25    5.35460   10.02430    -999.25    -999.25    6.13700  -72.51610   -8.48200    6.13700
 3250.00000   10.33960  211.63680  222.09390    4.50260    -999.25    -999.25    -999.25    4.50260   10.33960    -999.25    -999.25    5.61020  -71.69350   -8.71980    5.61020
 3300.00000   10.51970  196.58300  200.99690    4.97520    -999.25    -999.25    -999.25    4.97520   10.51970    -999.25    -999.25    6.17030  -68.72480   -6.81680    6.17030
 3350.00000   10.13800  200.22960  212.41800    4.70770    -999.25    -999.25    -999.25    4.70770   10.13800    -999.25    -999.25    6.24230  -67.01870   -6.17640    6.24230
 3400.00000    9.45980  196.88180  206.18130    4.85010    -999.25    -999.25    -999.25    4.85010    9.45980    -999.25    -999.25    6.52280  -62.84680   -3.07030    6.52280
 3450.00000   10.04900  164.51920  181.05120    5.52330    -999.25    -999.25    -999.25    5.52330   10.04900    -999.25    -999.25    7.02910  -72.90980  -14.06970    7.02910
 3500.00000   10.57620  233.47240  262.42590    3.81060    -999.25    -999.25    -999.25    3.81060   10.57620    -999.25    -999.25    5.17990  -65.88340   -7.77280    5.17990
 3550.00000   10.99960  240.02830  276.74000    3.61350    -999.25    -999.25    -999.25    3.61350   10.99960    -999.25    -999.25    4.94500  -65.68310   -8.30570    4.94500
 3600.00000   11.42920  168.52870  175.81490    5.68780    -999.25    -999.25    -999.25    5.68780   11.42920    -999.25    -999.25    7.25840  -66.56190   -9.91780    7.25840
 3650.00000   11.71610  253.98590  288.54200    3.46570    -999.25    -999.25    -999.25    3.46570   11.71610    -999.25    -999.25    4.73370  -65.04200   -9.13110    4.73370
 3700.00000   12.30080  269.21570  291.40500    3.43170    -999.25    -999.25    -999.25    3.43170   12.30080    -999.25    -999.25    4.63000  -65.96260  -10.78860    4.63000
 3750.00000   10.92520  247.24990  281.37310    3.55400    -999.25    -999.25    -999.25    3.55400   10.92520    -999.25    -999.25    5.17950  -60.97570   -6.53120    5.17950
 3800.00000   10.79220  453.70740  453.55590    2.20480    -999.25    -999.25    -999.25    2.20480   10.79220    -999.25    -999.25    2.57790  -57.27340   -3.56220    2.57790
 3850.00000   10.85110  449.54070  448.02870    2.23200    -999.25    -999.25    -999.25    2.23200   10.85110    -999.25    -999.25    2.66070  -56.97340   -3.99540    2.66070
 3900.00000   10.43070  329.61630  365.20340    2.73820    -999.25    -999.25    -999.25    2.73820   10.43070    -999.25    -999.25    3.72040  -57.91420   -5.66940    3.72040
 3950.00000   11.27090  324.18490  348.09250    2.87280    -999.25    -999.25    -999.25    2.87280   11.27090    -999.25    -999.25    3.68780  -56.57150   -5.06360    3.68780
 4000.00000   11.03610  262.81920  291.63020    3.42900    -999.25    -999.25    -999.25    3.42900   11.03610    -999.25    -999.25    4.58720  -57.24680   -6.46850    4.58720
 4050.00000   10.08820  461.65490  461.51010    2.16680    -999.25    -999.25    -999.25    2.16680   10.08820    -999.25    -999.25    2.58990  -54.73890   -4.29020    2.58990
 4100.00000    8.66070  305.75340  335.82970    2.97770    -999.25    -999.25    -999.25    2.97770    8.66070    -999.25    -999.25    7.63810 -115.61710  -64.89280    7.63810
 4150.00000    8.72210  233.91320  255.47350    3.91430    -999.25    -999.25    -999.25    3.91430    8.72210    -999.25    -999.25    9.81660 -106.46900  -55.46910    9.81660
 4200.00000    8.66480  272.00490  292.36350    3.42040    -999.25    -999.25    -999.25    3.42040    8.66480    -999.25    -999.25    6.97470 -113.53240  -62.25540    6.97460
 4250.00000    9.43110  166.63750  169.13610    5.91240    -999.25    -999.25    -999.25    5.91240    9.43110    -999.25    -999.25    9.64120  -60.46870   -9.29890    9.64120
 4300.00000    8.85380  210.81350  226.70600    4.41100    -999.25    -999.25    -999.25    4.41100    8.85380    -999.25    -999.25    8.95570  -79.94190  -29.42680    8.95570
 4350.00000    8.58900  435.60330  433.61370    2.30620    -999.25    -999.25    -999.25    2.30620    8.58900    -999.25    -999.25   10.70670 -144.54300  -94.68250   10.70670
 4400.00000    9.15260  206.44090  211.88690    4.71950    -999.25    -999.25    -999.25    4.71950    9.15260    -999.25    -999.25    8.36160  -84.37930  -35.17350    8.36160
 4450.00000    9.05950  183.70830  177.95810    5.61930    -999.25    -999.25    -999.25    5.61930    9.05950    -999.25    -999.25   11.11850  -71.66980  -23.12190   11.11860
 4500.00000    8.59590  215.34800  203.66600    4.91000    -999.25    -999.25    -999.25    4.91000    8.59590    -999.25    -999.25   27.50950 -127.16690  -79.27040   27.50950
 4550.00000    9.11420  206.48030  232.29340    4.30490    -999.25    -999.25    -999.25    4.30490    9.11420    -999.25    -999.25    7.98280  -78.74720  -31.50540    7.98280
 4600.00000    9.22910  161.52750  172.22970    5.80620    -999.25    -999.25    -999.25    5.80620    9.22910    -999.25    -999.25    7.65230  -55.64580   -9.57120    7.65230
 4650.00000    9.37090  199.51720  226.51080    4.41480    -999.25    -999.25    -999.25    4.41480    9.37090    -999.25    -999.25    5.99000  -51.86490   -7.18780    5.99000
 4700.00000    8.52610  315.92720  345.33370    2.89580    -999.25    -999.25    -999.25    2.89570    8.52610    -999.25    -999.25   15.11340 -136.65200  -93.37930   15.11340
 4750.00000    9.05640   48.61230   46.21140   21.63970    -999.25    -999.25    -999.25   21.63970    9.05640    -999.25    -999.25   40.40640  -70.47260  -28.59050   40.40640
 4800.00000    9.11540  144.06980  149.32060    6.69700    -999.25    -999.25    -999.25    6.69700    9.11540    -999.25    -999.25    9.74500  -72.93220  -32.44760    9.74500
 4850.00000    8.63380  200.89790  213.60220    4.68160    -999.25   41.62600   41.62600    4.68160    8.63380  200.98070  200.98070   13.54980 -101.66320  -62.57610   13.54980
 4900.00000    8.84550  142.63290  148.87600    6.71700    -999.25   51.07440   51.07440    6.71700    8.84550  154.36160  154.36160   10.16520  -81.62340  -43.93380   10.16520
 4950.00000    8.83520  183.65310  192.89940    5.18400    -999.25   50.25590   50.25590    5.18410    8.83520  150.68650  150.68650   10.51260  -86.81840  -50.53320   10.51260
 5000.00000    8.70180  195.30110  204.39870    4.89240    -999.25   31.38200   31.38200    4.89240    8.70180  286.62340  286.62340   10.25200  -86.45970  -50.61640   10.25200
 5050.00000    9.16250  133.87320  133.07960    7.51430    -999.25   48.98400   48.98400    7.51430    9.16250  237.85070  237.85070    9.88680  -42.11980   -6.51720    9.88680
 5100.00000    9.21840  150.00210  151.03690    6.62090    -999.25   51.52990   51.52990    6.62090    9.21840  265.48220  265.48220    8.58590  -41.02420   -5.66230    8.58590
 5150.00000    9.25880  142.68940  148.49790    6.73410    -999.25   56.52920   56.52920    6.73410    9.25880  241.38300  241.38300    8.84700  -38.56580   -3.44450    8.84700
 5200.00000    9.09460  104.11680  106.63990    9.37730    -999.25   45.64770   45.64720    9.37740    9.09460  333.80530  333.80520   12.49620  -45.02650  -10.63560   12.49620
