~Version ---------------------------------------------------
VERS.      2.0 : CWLS log ASCII Standard -VERSION 2.0
WRAP.       NO : One line per depth step
CREA. 01/02/18 : LAS Creation Date
~Well ------------------------------------------------------
STRT.FT                          1500.0 : START DEPTH
STOP.FT                         13000.0 : STOP DEPTH
STEP.FT                        50.00000 : STEP LENGTH
NULL.                           -999.25 : NULL VALUE
COMP.  AMOCO CANADA PETROLEUM CO., LTD. : COMPANY
WELL. AMOCO ET AL BERLAND D-1 6-7-60-22 : WELL
FLD .                                   : FIELD
LOC .                                   : LOCATION
CTRY.                            CANADA : COUNTRY
SRVC.                      Schlumberger : SERVICE COMPANY
DATE.                       10-Dec-1976 : LOGDATE
PROV.                           Alberta : PROVINCE
UWI .                  100060706022W500 : UNIQUE WELL ID
SLAT.WGS84                     54.17117 : SURFACE LATITUDE
SLON.WGS84                    -117.2921 : SURFACE LONGITUDE
~Curve Information -----------------------------------------
DEPT    .FT    : Depth Curve
CALDED  .IN    : CALIPER FROM DENSITY LOG
CALSED  .IN    : CALIPER FROM SONIC LOG
CALWS   .IN    : CALIPER [CALDED]
CONDWS  .MMHO  : CONDUCTIVITY [1000/DRESWS]
DCORED  .G/C3  : DENSITY CORRECTION FROM DENSITY LOG
DCORWS  .G/C3  : DENSITY CORRECTION [DCORED]
DENWS   .G/C3  : BULK DENSITY [M=2.71 F=1.00] [TOP RHOBED 2287.5 M CALC. DPHISSED 7505' DPHILSED]
DPHILSED.V/V   : DENSITY POROSITY [M=2.71 F=1.00] FROM DENSITY LOG
DPHISSED.V/V   : DENSITY POROSITY [M=2.65 F=1.00] FROM DENSITY LOG
DPOLSWS .V/V   : DENSITY POROSITY [M=2.71 F=1.00] [CALC. FROM DENWS]
DRESWS  .OHMM  : DEEP RESISTIVITY [ILDED]
DTED    .US/F  : DELTA TIME FROM SONIC LOG [DEPTH ADJ TO LL8]
DTWS    .US/F  : DELTA TIME [DTED]
GRDED   .GAPI  : GAMMA RAY FROM DENSITY LOG
GRSED   .GAPI  : GAMMA RAY FROM SONIC LOG
GRWS    .GAPI  : GAMMA RAY [GRSED]
ILDED   .OHMM  : INDUCTION LOG DEEP RESISTIVITY
ILMED   .OHMM  : INDUCTION LOG MEDIUM RESISTIVITY
LL8ED   .OHMM  : 8 INCH LATEROLOG RESISTIVITY
MRESWS  .OHMM  : MEDIUM RESISTIVITY [ILMED]
NPHILSED.V/V   : NEUTRON POROSITY LIMESTONE FROM DENSITY LOG
NPHISSED.V/V   : NEUTRON POROSITY SANDSTONE FROM DENSITY LOG
NPOLSWS .V/V   : NEUTRON POROSITY LIMESTONE [TOP NPHISSED CONVERTED TO LIME FROM POWER LOG, 8750' NPHILSED]
RHOBED  .G/C3  : BULK DENSITY FROM DENSITY LOG [DEPTH ADJ TO LL8]
SPRED   .MV    : SPONTANEOUS POTENTIAL FROM RESISTIVITY LOG
SPWS    .MV    : SPONTANEOUS POTENTIAL [BASELINE 0 MV] [SPRED]
SRESWS  .OHMM  : SHALLOW RESISTIVITY [LL8ED]
~Params ----------------------------------------------------
PD  .                     GL : PERMANENT DATUM
EPD .M                  3639 : ELEVATION PERMANENT DATUM
LMF .                     KB : LOG MEASURED FROM
DAPD.M                    16 : FEET ABOVE PERMANENT DATUM
EKB .M                  3655 : KELLY BUSHING
EGL .M                  3639 : GROUND LEVEL
DATE.             12/10/1976 : RUN DATE
RUN .                      2 : RUN NUMBER
DD  .M                 12990 : DEPTH DRILLER
DL  .M                 13000 : DEPTH LOGGER
BLI .M                 12994 : BOTTOM LOG INTERVAL
TLI .M                  7504 : TOP LOG INTERVAL
CBD .M                  7499 : CASING BOTTOM DRILLER
CBL .M                  7504 : CASING BOTTOM LOGGER
BS  .MM                  8.5 : BIT SIZE
BSD .M                 13000 : BIT SIZE AT DEPTH
DFT .             GEL BARITE : DRILLING FLUID TYPE
DFD .                    9.1 : DRILLING FLUID DENSITY
DFV .                     73 : DRILLING FLUID VISCOSITY
DFPH.                    9.5 : DRILLING FLUID PH
DFL .                    8.9 : DRILLING FLUID LOSS
MSS .               FLOWLINE : MUD SAMPLE SOURCE
RMS .OHMM               1.44 : RESISTIVITY MUD SAMPLE
MST .DEGC                 60 : MUD SAMPLE TEMPERATURE
RMF .OHMM               1.12 : RESISTIVITY MUD FILTRATE SAMPLE
MFST.DEGC                 55 : MUD FILTRATE SAMPLE TEMPERATURE
RMB .OHMM               0.26 : RESISTIVITY MUD AT BHT
TCS .HRS                 6.5 : TIME CIRCULATED STOPPED
LUN .                   7635 : LOGGING UNIT NUMBER
LUL .                    EDM : LOGGING UNIT LOCATION
ENGI.                 MACKAY : RECORDING ENGINEER
WITN.                SHIRLEY : WITNESSED BY
CLNT.                A2DTECH : CLIENT CODE
ORIG.            2" 5" PRINT : ORIGIN OF DATA
UWI .       100060706022W500 : UNIQUE WELL ID
DICO. A2D Technologies, Inc. : DIGITIZING COMPANY
~Other -----------------------------------------------------
SPRED INTERFERENCE CAUSING RANDOM DRIFTING OF THE BASE LINE ABOVE 7218'
~ASCII -----------------------------------------------------
# ...
 9300.00000    9.82220    9.55700    9.82220   47.87690    0.25000    0.25000    2.70370    0.00370    -999.25    0.00370   20.88690   54.51450   54.51450   29.84450   34.00520   34.00520   20.88690   27.95110   32.00050   27.95110    0.07150    -999.25    0.07150    2.71370  -40.60160  -74.09730   32.00050
 9350.00000   12.68720    9.89600   12.68720   40.93510    0.23670    0.23670    2.28680    0.24750    -999.25    0.24750   24.42890   54.81520   54.81520   26.46100   25.52090   25.52090   24.42890   37.78590   45.11440   37.78590    0.02420    -999.25    0.02420    2.29660   -2.25880  -37.06720   45.11440
 9400.00000    8.47310    9.45400    8.47310   13.66710    0.00350    0.00350    2.67370    0.02120    -999.25    0.02120   73.16820   56.75100   56.75100   83.80180   85.02410   85.02410   73.16820   92.23540  147.29410   92.23540    0.06270    -999.25    0.06270    2.67550   32.69320   -3.42800  147.29410
 9450.00000   14.67760   14.58900   14.67760   87.81790    0.10760    0.10760    1.94050    0.45000    -999.25    0.45000   11.38720   50.90710   50.90710   16.13060   19.59640   19.59640   11.38720   36.33380  144.38550   36.33380    0.17480    -999.25    0.17480    1.99930   -9.41980  -46.22220  144.38550
 9500.00000   13.64840   10.63000   13.64840   52.16240    0.17200    0.17200    2.41540    0.17230    -999.25    0.17230   19.17090   59.50640   59.50640   31.02850   33.76180   33.76180   19.17090   35.53610   36.93550   35.53610    0.02570    -999.25    0.02570    2.42070  -17.50110  -54.52750   36.93550
 9550.00000    8.72700    9.09500    8.72700   30.14810    0.14350    0.14350    2.69000    0.01170    -999.25    0.01170   33.16960   54.23630   54.23630   56.60310   65.97810   65.97810   33.16960   36.50480   54.61550   36.50480    0.07830    -999.25    0.07830    2.69080    5.67070  -31.57970   54.61550
 9600.00000    7.85240    9.20300    7.85240   25.75660   -0.00710   -0.00710    2.70860    0.00080    -999.25    0.00080   38.82500   53.20230   53.20230   43.00590   48.18800   48.18800   38.82500   45.04700   52.02140   45.04700    0.04000    -999.25    0.04000    2.71900    8.05160  -29.42270   52.02140
 9650.00000    8.10950    9.47900    8.10950    1.10270    0.01040    0.01040    2.91730   -0.12120    -999.25   -0.12120  906.86050   51.58790   51.58790   11.84790   10.16070   10.16070  906.86050 1048.71460 1398.91330 1048.71460   -0.00330    -999.25   -0.00330    2.91750   34.86210   -2.83620 1398.91330
 9700.00000    7.42190    8.37000    7.42190  122.33610    0.06350    0.06350    2.66790    0.02460    -999.25    0.02460    8.17420   50.58910   50.58910   15.30320   12.95140   12.95140    8.17420   16.09920   95.64620   16.09920    0.09360    -999.25    0.09360    2.66810  -81.25020 -115.89290   95.64620
 9750.00000   11.06840    9.76100   11.06840    9.43240    0.21280    0.21280    2.46620    0.14260    -999.25    0.14260  106.01800   50.98360   50.98360   18.08560   18.90880   18.90880  106.01800  146.59350 1335.39760  146.59350   -0.00580    -999.25   -0.00580    2.47530   17.25420  -14.33300 1335.39760
 9800.00000    7.92670    9.11600    7.92670  106.59390    0.01470    0.01470    2.71500   -0.00290    -999.25   -0.00290    9.38140   58.97790   58.97790   72.77010   76.91350   76.91350    9.38140   10.20460   14.65090   10.20460    0.11840    -999.25    0.11840    2.71420   13.14790  -22.24860   14.65090
 9850.00000    8.20470    9.11000    8.20470   60.78770    0.00780    0.00780    2.71940   -0.00550    -999.25   -0.00550   16.45070   59.74650   59.74650   86.70570   83.66060   83.66060   16.45070   18.80220   26.44470   18.80220    0.10010    -999.25    0.10010    2.71750   34.89460   -8.00780   26.44470
 9900.00000    9.20610    9.71000    9.20610   23.11130    0.16280    0.16280    2.59610    0.06660    -999.25    0.06660   43.26890   53.95690   53.95690   70.56260   60.02590   60.02590   43.26890   51.36410  128.86250   51.36410    0.05370    -999.25    0.05370    2.59810   44.42600   -3.73440  128.86250
 9950.00000    8.26550    9.29900    8.26550   28.89300    0.01280    0.01280    2.71390   -0.00230    -999.25   -0.00230   34.61040   55.09620   55.09620   20.30530   19.16600   19.16600   34.61040   40.60220   80.71280   40.60220    0.01960    -999.25    0.01960    2.71000   44.50890   -7.41090   80.71280
 10000.00000    7.94350    9.00800    7.94350   45.28700    0.01580    0.01580    2.69790    0.00710    -999.25    0.00710   22.08140   57.10580   57.10580   53.07230   50.56140   50.56140   22.08140   24.19960   30.83920   24.19960    0.05150    -999.25    0.05150    2.70890   43.27910   -9.98570   30.83920
 10050.00000    7.93640    8.89400    7.93640   29.01690   -0.01180   -0.01180    2.69560    0.00840    -999.25    0.00840   34.46270   56.51270   56.51270   55.90940   55.78580   55.78580   34.46270   38.88810   58.85920   38.88810    0.04560    -999.25    0.04560    2.69560   38.02260  -15.50250   58.85920
 10100.00000    7.95880    8.96700    7.95880   46.65420    0.02100    0.02100    2.67070    0.02300    -999.25    0.02300   21.43430   58.56860   58.56860   67.07940   69.81120   69.81120   21.43430   24.44110   33.75740   24.44110    0.06600    -999.25    0.06600    2.67150   36.56950  -17.21580   33.75740
 10150.00000    7.78470    8.78000    7.78470   36.30210    0.00280    0.00280    2.64250    0.03950    -999.25    0.03950   27.54660   57.46250   57.46250   66.75380   58.78150   58.78150   27.54660   31.42190   44.35140   31.42190    0.06070    -999.25    0.06070    2.64020   33.80790  -20.23770   44.35140
 10200.00000    7.92330    8.82800    7.92330   13.50410   -0.01250   -0.01250    2.67270    0.02180    -999.25    0.02180   74.05140   53.41210   53.41210   38.18660   36.28220   36.28220   74.05140   84.12580  146.53810   84.12580    0.01780    -999.25    0.01780    2.67390   33.60910  -20.69680  146.53810
 10250.00000    7.95020    8.91200    7.95020   16.22240    0.01080    0.01080    2.69990    0.00590    -999.25    0.00590   61.64330   54.97930   54.97930   43.63460   45.65950   45.65950   61.64330   68.94760  105.18140   68.94760    0.02710    -999.25    0.02710    2.69440   33.54330  -21.02290  105.18140
 10300.00000    8.08570    8.77800    8.08570   17.87930    0.01830    0.01830    2.67270    0.02180    -999.25    0.02180   55.93070   56.88190   56.88190   77.82570   77.97070   77.97070   55.93070   62.75560  110.50400   62.75560    0.05090    -999.25    0.05090    2.67460   42.22120  -12.60520  110.50400
 10350.00000    8.38340    8.95900    8.38340   75.95900    0.08220    0.08220    2.41090    0.17490    -999.25    0.17490   13.16500   80.96740   80.96740  300.00000  300.00000  300.00000   13.16500   14.12350   15.44760   14.12350    0.18240    -999.25    0.18240    2.41140   32.80930  -22.27740   15.44760
 10400.00000    8.73870    9.00500    8.73870    2.45300    0.04730    0.04730    2.69610    0.00810    -999.25    0.00810  407.66050   50.21950   50.21950   18.65660   18.83150   18.83150  407.66050  429.24070 1378.36120  429.24070    0.00140    -999.25    0.00140    2.69540   44.64420  -10.70280 1378.36120
 10450.00000    9.56640    9.39700    9.56640    1.94260    0.19030    0.19030    2.70250    0.00440    -999.25    0.00440  514.77450   49.44420   49.44420   21.20670   20.44780   20.44780  514.77450  409.66930 1372.27950  409.66930   -0.00060    -999.25   -0.00060    2.70630   44.81730  -10.78990 1372.27950
 10500.00000   10.14650    9.50200   10.14650    1.73370    0.24480    0.24480    2.58360    0.07390    -999.25    0.07390  576.79550   49.23580   49.23580   15.88980   14.04650   14.04650  576.79550  392.48060 1391.69310  392.48060   -0.00240    -999.25   -0.00240    2.59410   18.69510  -37.17240 1391.69310
 10550.00000   10.19040    9.59800   10.19040    2.09290    0.20030    0.20030    2.47520    0.13730    -999.25    0.13730  477.80480   49.13950   49.13950   11.51940   13.28300   13.28300  477.80480  266.07800 1378.01860  266.07800   -0.00210    -999.25   -0.00210    2.48600   11.46050  -44.66730 1378.01860
