~Version ---------------------------------------------------
VERS.      2.0 : CWLS log ASCII Standard -VERSION 2.0
WRAP.       NO : One line per depth step
CREA. 11/14/17 : LAS Creation Date
~Well ------------------------------------------------------
STRT.FT                       1050.0 : START DEPTH
STOP.FT                      10150.0 : STOP DEPTH
STEP.FT                     50.00000 : STEP LENGTH
NULL.                        -999.25 : NULL VALUE
COMP.           CHEVRON STANDARD LTD : COMPANY
WELL. CHEVRON GULF FOXCK 12-35-61-18 : WELL
FLD .                      FOX CREEK : FIELD
LOC .                                : LOCATION
CTRY.                         CANADA : COUNTRY
SRVC.                   Schlumberger : SERVICE COMPANY
DATE.                    30-Mar-1976 : LOGDATE
PROV.                        Alberta : PROVINCE
UWI .               100123506118W500 : UNIQUE WELL ID
SLAT.WGS84                  54.32239 : SURFACE LATITUDE
SLON.WGS84                 -116.5968 : SURFACE LONGITUDE
~Curve Information -----------------------------------------
DEPT    .FT    : Depth Curve
CALDED  .IN    : CALIPER FROM DENSITY LOG [ADJ. TO SONIC LOG]
CALSED  .IN    : CALIPER FROM SONIC LOG
CALWS   .IN    : CALIPER [CALSED]
CONDWS  .OHMM  : CONDUCTIVITY [1000/DRESWS]
DCORED  .G/C3  : DENSITY CORRECTION FROM DENSITY LOG [ADJ. TO SONIC LOG]
DCORWS  .G/C3  : DENSITY CORRECTION [DCORED]
DENWS   .G/C3  : FORMATION BULK DENSITY [RHOBED]
DPHILSED.V/V   : DENSITY POROSITY LIME FROM DENSITY LOG [ADJ. TO RHOBED]
DPHISSED.V/V   : DENSITY POROSITY SAND FROM DENSITY LOG [ADJ. TO RHOBED]
DPOWS   .V/V   : DENSITY POROSITY LIME [CALC. FROM DENWS M=2710, F=1000]
DRESWS  .OHMM  : DEEP RESISTIVITY [ILDED]
DTED    .US/F  : DELTA-T FROM SONIC LOG
DTWS    .US/F  : COMPRESSIONAL SONIC [DTED]
GRDED   .GAPI  : GAMMA RAY FROM DENSITY LOG [ADJ. TO SONIC LOG]
GRSED   .GAPI  : GAMMA RAY FROM SONIC LOG
GRWS    .GAPI  : GAMMA RAY [GRSED]
ILDED   .OHMM  : DEEP INDUCTION FROM RESISTIVITY LOG
ILMED   .OHMM  : MEDIUM INDUCTION FROM RESISTIVITY LOG
LL8ED   .OHMM  : LATEROLOG 8 FROM RESISTIVITY LOG
MRESWS  .OHMM  : MEDIUM RESISTIVITY [ILMED]
NPHILSED.V/V   : NEUTRON POROSITY LIME FROM DENSITY LOG [ADJ. TO RHOBED]
NPHISSED.V/V   : NEUTRON POROSITY SAND FROM DENSITY LOG [ADJ. TO RHOBED]
NPOWS   .V/V   : NEUTRON POROSITY LIME [SS MATRIX CONVERTED FOR LS, SPL. TO NPHISSED @ 6719']
RHOBED  .G/C3  : BULK DENSITY FROM DENSITY LOG [ADJ. TO SONIC LOG]
SPRED   .MV    : SPONTANEOUS POTENTIAL FROM RESISTIVITY LOG
SPWS    .MV    : SPONTANEOUS POTENTIAL [BASELINE 0 MV, SPRED]
SRESWS  .OHMM  : SHALLOW RESISTIVITY [LL8ED]
TENDED  .LBF   : TENSION FROM DENSITY LOG [ADJ. TO GRSED]
TENSED  .LBF   : TENSION FROM SONIC LOG
~Params ----------------------------------------------------
PD  .                     GL : PERMANENT DATUM
EPD .FT               2712.6 : ELEVATION PERMANENT DATUM
LMF .                     KB : LOG MEASURED FROM
DAPD.FT                 16.4 : FEET ABOVE PERMANENT DATUM
DMF .                     KB : DRILLING MEASURED FROM
EKB .FT                 2729 : KELLY BUSHING
EDF .FT               2712.6 : DRILLING FLOOR
DATE.               03/30/76 : RUN DATE
RUN .                      1 : RUN NUMBER
DD  .FT                10180 : DEPTH DRILLER
DL  .FT                10178 : DEPTH LOGGER
BLI .FT                10176 : BOTTOM LOG INTERVAL
TLI .FT                 1117 : TOP LOG INTERVAL
CBD .FT                 1117 : CASING BOTTOM DRILLER
CBL .FT              1116.91 : CASING BOTTOM LOGGER
BS  .IN                 8.75 : BIT SIZE
BSD .FT                10180 : BIT SIZE AT DEPTH
DFT .               GEL CHEM : DRILLING FLUID TYPE
DFD .                    9.6 : DRILLING FLUID DENSITY
DFV .                    110 : DRILLING FLUID VISCOSITY
DFPH.                   10.5 : DRILLING FLUID PH
DFL .                      9 : DRILLING FLUID LOSS
RMF .OHMM               1.22 : RESISTIVITY MUD FILTRATE SAMPLE
MFST.DEGF                 68 : MUD FILTRATE SAMPLE TEMPERATURE
TCS .HRS                   3 : TIME CIRCULATED STOPPED
LUN .                   7691 : LOGGING UNIT NUMBER
LUL .                    WCT : LOGGING UNIT LOCATION
ENGI.                 KOVACS : RECORDING ENGINEER
WITN.            WONG MCLEOD : WITNESSED BY
CLNT.                A2DTECH : CLIENT CODE
ORIG.            2" 5" PRINT : ORIGIN OF DATA
UWI .       100123506118W500 : UNIQUE WELL ID
DICO. A2D Technologies, Inc. : DIGITIZING COMPANY
~Other -----------------------------------------------------
~ASCII -----------------------------------------------------
# ...
 6050.00000   10.69740   10.33010   10.33010   46.59270    0.01120    0.01120    2.60960    -999.25    0.02840    0.05870   21.46460   66.37170   66.37170   66.36080   65.79050   65.79050   21.46460   22.61950   29.41500   22.61950    -999.25    0.16370    0.12090    2.60960  -70.70980  -10.91320   29.41500 3976.03570  400.10870
 6100.00000   10.84210   10.58890   10.58890   95.60050    0.00920    0.00920    2.55700    -999.25    0.06380    0.08950   10.46020   63.67480   63.67480   59.54140   57.76450   57.76450   10.46020   12.91380   16.53980   12.91380    -999.25    0.23350    0.18970    2.55700  -84.48760  -25.01400   16.53980 5030.83480 1541.06520
 6150.00000   12.00720   10.14020   10.14020  185.82220    0.17880    0.17880    2.34450    -999.25    0.19710    0.21370    5.38510   78.64930   78.64930   42.17050   42.48870   42.48870    5.38510    7.10890   14.37420    7.10890    -999.25    0.17610    0.13300    2.34450 -154.38130  -95.22740   14.37420 3005.20980 1470.43200
 6200.00000   12.20390   10.41100   10.41100   57.99450    0.23530    0.23530    2.38000    -999.25    0.17940    0.19300   17.24300   75.99340   75.99340   77.46750   75.90900   75.90900   17.24300   18.57050   27.75340   18.57050    -999.25    0.22220    0.17850    2.38000  -79.84390  -21.01300   27.75340 3424.24550 2143.72660
 6250.00000   13.53520   12.35150   12.35150  281.65840    0.15040    0.15040    2.13910    -999.25    0.31880    0.33390    3.55040   90.60470   90.60470   94.33920   84.10400   84.10400    3.55040    3.78950    4.74500    3.78950    -999.25    0.48400    0.44240    2.13910  -75.54790  -17.03840    4.74500 3698.56390 2952.44800
 6300.00000   14.92260   12.89860   12.89860  214.90340    0.20280    0.20280    2.16990    -999.25    0.29560    0.31580    4.65340   85.67010   85.67010   86.37110   81.73940   81.73940    4.65340    5.18710    5.43960    5.18710    -999.25    0.42360    0.38130    2.16990  -68.60060  -10.41080    5.43960 4461.10610 2380.71680
 6350.00000   12.39290   11.48360   11.48360  289.85510    0.11170    0.11170    2.12520    -999.25    0.48700    0.34200    3.45000  135.80830  135.80830   99.62070   92.94690   92.94690    3.45000    4.99030    7.05770    4.99030    -999.25    0.58940    0.54770    2.12520  -66.14990   -8.28320    7.05770 4333.39560 3013.25230
 6400.00000   12.20750   11.50130   11.50130   52.15310    0.08490    0.08490    2.34690    -999.25    0.42350    0.21230   19.27250   93.48490   93.48490   81.56390   80.02820   80.02820   19.27250   23.93150   31.16790   23.93150    -999.25    0.46130    0.41970    2.34690  -62.69170   -5.14480   31.16790 4158.19690   16.51270
 6450.00000    9.65520    9.29330    9.29330    4.30170    0.01870    0.01870    2.65360    -999.25    0.20070    0.03300  232.46550   60.00810   60.00810   76.08740   72.50830   72.50830  232.46550  218.32630  435.25510  218.32630    -999.25    0.23250    0.18870    2.65360  -75.92330  -19.28630  435.25510 4218.06120 1469.99700
 6500.00000   10.85630   10.42340   10.42340   44.36730    0.00810    0.00810    2.58580    -999.25    0.20790    0.07260   22.53910   64.52680   64.52680   84.60750   79.34390   79.34390   22.53910   23.46750   29.89340   23.46750    -999.25    0.23090    0.18710    2.58580  -73.73220  -18.41140   29.89340 3793.70440 2179.34830
 6550.00000   10.65230   10.30860   10.30860   43.41420    0.01130    0.01130    2.62270    -999.25    0.21950    0.05100   23.04120   64.77770   64.77770   81.48740   79.05330   79.05330   23.04120   24.15100   29.69020   24.15100    -999.25    0.22800    0.18430    2.62270  -79.71040  -25.69920   29.69020 4016.63440  681.34390
 6600.00000   10.68240   10.70470   10.70470   52.31030    0.00040    0.00040    2.63170    -999.25    0.17020    0.04580   19.11670   61.57630   61.57630   75.47890   69.68870   69.68870   19.11670   19.80620   24.10050   19.80620    -999.25    0.23650    0.19270    2.63170  -85.86080  -33.17240   24.10050 4731.35810 2158.24690
 6650.00000   13.06310   10.61910   10.61910   56.15830    0.18860    0.18860    2.26610    -999.25    0.36920    0.25960   17.85540   54.51760   54.51760   43.57220   39.39220   39.39220   17.85540   18.00410   33.17000   18.00410    -999.25    0.23360    0.18980    2.26610 -110.95520  -59.57640   33.17000 4621.11070 1114.42110
 6700.00000   10.85340   10.29100   10.29100   11.82220    0.20730    0.20730    2.33330    -999.25    0.37810    0.22030   84.58670   53.86760   53.86760   49.00270   42.18320   42.18320   84.58670  361.19590  300.61110  361.19590    -999.25    0.22120    0.17750    2.33330  -84.91410  -34.85810  300.61110 5673.40620 2214.56290
 6750.00000   10.26200    9.24540    9.24540   97.23460   -0.00260   -0.00260    2.64830    0.03680    -999.25    0.03610   10.28440   57.87970   57.87970   41.05200   39.72560   39.72560   10.28440    8.34710   47.79440    8.34710    0.07210    -999.25    0.07210    2.64830 -129.51960  -80.77980   47.79440 2756.69790  915.33160
 6800.00000   10.25920    9.98850    9.98850  118.29560   -0.01110   -0.01110    2.72180   -0.00780    -999.25   -0.00690    8.49270   55.73020   55.73020   55.18800   57.14970   57.14970    8.49270    7.69670   28.05970    7.69670    0.05990    -999.25    0.05990    2.72180 -123.69770  -76.26750   28.05970 3162.64480 3406.39780
 6850.00000   10.62060   10.24890   10.24890  188.84310    0.01680    0.01680    2.69020    0.00830    -999.25    0.01160    5.29540   61.12300   61.12300   63.12590   59.23960   59.23960    5.29540    4.90960   10.43420    4.90960    0.05930    -999.25    0.05930    2.69020 -123.50720  -77.39980   10.43420 3307.25280  665.26750
 6900.00000   11.53940   10.29670   10.29670    4.08700    0.00510    0.00510    2.88190   -0.09870    -999.25   -0.10060  245.58450   50.40110   50.40110   12.92290   11.96260   11.96260  245.58450  228.45740  587.98580  228.45740   -0.00040    -999.25   -0.00040    2.88190 -138.17790  -93.38010  587.98580 4428.79240 2367.04890
 6950.00000    9.16030    9.13350    9.13350   65.60780    0.19390    0.19390    2.42820    0.16640    -999.25    0.16480   15.24210   59.29180   59.29180   19.73700   19.81970   19.81970   15.24210   27.20960   49.48510   27.20960    0.13900    -999.25    0.13900    2.42820 -165.21580 -121.74080   49.48510 2291.25380   35.45940
 7000.00000    9.88790    9.89700    9.89700   25.57940    0.02030    0.02030    2.61990    0.05560    -999.25    0.05270   39.09400   50.07000   50.07000   12.60930   11.28140   11.28140   39.09400   47.58660  161.82410   47.58660    0.01430    -999.25    0.01430    2.61990 -144.29380 -102.13500  161.82410 3888.23270 1548.59790
 7050.00000   10.28560   10.32430   10.32430  241.42230    0.00950    0.00950    2.65720    0.02990    -999.25    0.03090    4.14600   63.40540   63.40540   60.41950   58.14920   58.14920    4.14600    4.51280    5.81980    4.51280    0.13910    -999.25    0.13910    2.65720  -81.61120  -40.76200    5.81980 4320.21570 3955.00220
 7100.00000   10.08730    9.85080    9.85080   87.06480    0.00770    0.00770    2.66170    0.03020    -999.25    0.02820   11.48570   57.08950   57.08950   71.13010   62.18540   62.18540   11.48570   12.58030   16.64320   12.58030    0.05350    -999.25    0.05350    2.66170  -45.33360   -5.80720   16.64320 4359.11150  -41.31870
 7150.00000   11.05450   10.88400   10.88400  147.85670    0.00890    0.00890    2.67760    0.01210    -999.25    0.01890    6.76650   64.19080   64.19080   63.40960   56.61230   56.61230    6.76650    7.05400    7.83780    7.05400    0.12180    -999.25    0.12180    2.67760  -54.99330  -16.38090    7.83780  718.46200  221.56660
 7200.00000   11.20680   10.50740   10.50740   76.87640   -0.00470   -0.00470    2.61350    0.05960    -999.25    0.05640   13.00790   65.98680   65.98680   61.83770   60.19130   60.19130   13.00790   14.68470   18.37690   14.68470    0.10180    -999.25    0.10180    2.61350  -51.49670  -13.67320   18.37690 1947.78270    0.00000
 7250.00000   10.10760   10.43240   10.43240    9.68120    0.00200    0.00200    2.69920    0.00380    -999.25    0.00630  103.29300   51.75160   51.75160   15.74850   17.04280   17.04280  103.29300  140.52630  213.39300  140.52630    0.00630    -999.25    0.00630    2.69920  -66.08960  -29.05110  213.39300 1857.74070    0.00000
