~Version ---------------------------------------------------
VERS. 2.0 : CWLS log ASCII Standard -VERSION 2.0
WRAP.  NO : One line per depth step
~Well ------------------------------------------------------
STRT.M                           300.0 : START DEPTH
STOP.M                          1750.0 : STOP DEPTH
STEP.M                        50.00000 : STEP LENGTH
NULL.                          -999.25 : NULL VALUE
COMP.           ALPETRO RESOURCES LTD. : COMPANY
WELL. WESTCOAST ET AL NIPISI 6-30-80-9 : WELL
FLD .                           NIPISI : FIELD
LOC .                                  : LOCATION
CTRY.                           CANADA : COUNTRY
SRVC.                     Schlumberger : SERVICE COMPANY
DATE.                      23-Mar-1985 : LOGDATE
PROV.                          Alberta : PROVINCE
UWI .                 100063008009W500 : UNIQUE WELL ID
SLAT.WGS84               55.9627799988 : SURFACE LATITUDE
SLON.WGS84             -115.4012908936 : SURFACE LONGITUDE
~Curve Information -----------------------------------------
DEPT    .M      : 
CALSED  .MM     : CALIPER FROM SONIC LOG (ADJ TO RES.)
CALWS   .MM     : CALIPER [CALSED]
CONDWS  .MMHO   : CONDUCTIVITY [1000/DRESWS]
DCORWS  .KG/M3  : DENSITY CORRECTION [DRHOED]
DENWS   .KG/M3  : BULK DENSITY [M=2710 F=1000] [RHOBED]
DPHILSED.V/V    : DENSITY POROSITY [M=2710 F=1000] FROM DENSITY LOG
DPOLSWS .V/V    : DENSITY POROSITY LIMESTONE [M=2710 F=1000] [CALCULATED FROM DENWS]
DRESWS  .OHMM   : DEEP RESISTIVITY [ILDED]
DRHOED  .KG/M3  : DENSITY CORRECTION FROM DENSITY LOG
DTED    .US/M   : DELTA TIME FROM SONIC LOG [ADJ TO RES.]
DTWS    .US/M   : DELTA TIME [DTED]
GRSED   .GAPI   : GAMMA RAY FROM SONIC LOG [ADJ TO RES.]
GRWS    .GAPI   : GAMMA RAY [GRSED] CSG @ 300M
ILDED   .OHMM   : INDUCTION LOG DEEP RESISTIVITY
ILMED   .OHMM   : INDUCTION LOG MEDIUM RESISTIVITY
MRESWS  .OHMM   : MEDIUM RESISTIVITY [ILMED]
NPHILSED.V/V    : NEUTRON POROSITY LIMESTONE FROM DENSITY LOG
NPOLSWS .V/V    : NEUTRON POROSITY LIMESTONE [NPHILSED]
PEFED   .B/E    : PHOTOELECTRIC FACTOR FROM DENSITY LOG
PEFWS   .B/E    : PHOTOELECTRIC FACTOR [PEFED]
RHOBED  .KG/M3  : BULK DENSITY FROM DENSITY LOG (ADJ TO RES.)
SFLUED  .OHMM   : SPHERICALLY FOCUSED LOG RESISTIVITY
SPRED   .MV     : SPONTANEOUS POTENTIAL FROM RESISTIVITY LOG
SPWS    .MV     : SPONTANEOUS POTENTIAL [BASELINE 0 MV] [SPRED]
SRESWS  .OHMM   : SHALLOW RESISTIVITY [SFLUED]
~Params ----------------------------------------------------
PD  .                         GL : PERMANENT DATUM
EPD .M                    649.45 : ELEVATION PERMANENT DATUM
LMF .                         KB : LOG MEASURED FROM
DAPD.M                      5.17 : FEET ABOVE PERMANENT DATUM
DMF .                         KB : DRILLING MEASURED FROM
EKB .M                    654.62 : KELLY BUSHING
EDF .M                     654.3 : DRILLING FLOOR
EGL .M                    649.45 : GROUND LEVEL
DATE.                    3/23/85 : RUN DATE
RUN .                          1 : RUN NUMBER
DD  .M                      1751 : DEPTH DRILLER
DL  .M                      1751 : DEPTH LOGGER
BLI .M                      1760 : BOTTOM LOG INTERVAL
TLI .M                       300 : TOP LOG INTERVAL
CS  .MM                      244 : CASING SIZE
CBD .M                       311 : CASING BOTTOM DRILLER
CBL .M                       300 : CASING BOTTOM LOGGER
BS  .MM                      222 : BIT SIZE
BSD .M                      1751 : BIT SIZE AT DEPTH
DFT .                   GEL CHEM : DRILLING FLUID TYPE
DFD .                       1150 : DRILLING FLUID DENSITY
DFV .                         60 : DRILLING FLUID VISCOSITY
DFPH.                         11 : DRILLING FLUID PH
DFL .                          9 : DRILLING FLUID LOSS
MSS .                   FLOWLINE : MUD SAMPLE SOURCE
RMS .OHMM                   0.71 : RESISTIVITY MUD SAMPLE
MST .DEGC                     29 : MUD SAMPLE TEMPERATURE
RMF .OHMM                   0.68 : RESISTIVITY MUD FILTRATE SAMPLE
MFST.DEGC                     16 : MUD FILTRATE SAMPLE TEMPERATURE
RMC .OHMM                  0.402 : RESISTIVITY MUD CAKE
MCST.DEGC                     42 : MUD CAKE SAMPLE TEMPERATURE
MFSS.                       MEAS : MUD FILTRATE SAMPLE SOURCE
MCSS.                       MEAS : MUD CAKE SAMPLE SOURCE
RMB .OHMM                  0.565 : RESISTIVITY MUD AT BHT
TCS .HRS                     110 : TIME CIRCULATED STOPPED
TLAB.HRS                     530 : TIME LOGGER AT BOTTOM
LUN .                       8125 : LOGGING UNIT NUMBER
LUL .                        EDM : LOGGING UNIT LOCATION
ENGI.                      THEIN : RECORDING ENGINEER
WITN.                     THOMAS : WITNESSED BY
CLNT.                    A2DTECH : CLIENT CODE
ORIG. 6.5"/100M 16.5"/100M PRINT : ORIGIN OF DATA
UWI .           100063008009W500 : UNIQUE WELL ID
DICO.     A2D Technologies, Inc. : DIGITIZING COMPANY
~Other -----------------------------------------------------
~ASCII -----------------------------------------------------
  300.00000  235.73720  235.73720    -999.25    -999.25    -999.25    -999.25    -999.25    -999.25    -999.25    -999.25    -999.25   46.93340   46.93340    -999.25    -999.25    -999.25    -999.25    -999.25    -999.25    -999.25    -999.25    -999.25    -999.25    -999.25    -999.25
  350.00000  232.24250  232.24250  188.61520    -999.25    -999.25    -999.25    -999.25    5.30180    -999.25  418.96930  418.96930   45.38890   45.38890    5.30180    6.60120    6.60120    -999.25    -999.25    -999.25    -999.25    -999.25    7.72900  -61.89310  -28.75710    7.72900
  400.00000  354.36800  354.36800  332.69010    -999.25    -999.25    -999.25    -999.25    3.00580    -999.25  500.62050  500.62050   54.17390   54.17390    3.00580    2.74870    2.74870    -999.25    -999.25    -999.25    -999.25    -999.25    3.83760  -32.87520    0.01990    3.83760
  450.00000  276.89220  276.89220  212.33230   -3.94420 2208.69020    0.28850    0.29320    4.70960   -3.94420  385.55660  385.55660   67.50320   67.50320    4.70960    4.94310    4.94310    0.40500    0.40500    2.40650    2.40650 2208.69020    4.07670  -48.87110  -16.21700    4.07670
  500.00000  313.62610  313.62610  203.52090   38.47570 2162.83130    0.31870    0.32000    4.91350   38.47570  384.50420  384.50420   67.07940   67.07940    4.91350    4.38280    4.38280    0.42420    0.42420    2.34050    2.34050 2162.83130    3.85450  -39.85720   -7.44400    3.85450
  550.00000  303.89600  303.89600  163.75720   13.44070 2126.72190    0.33500    0.34110    6.10660   13.44070  372.03390  372.03390   76.68630   76.68630    6.10660    5.74620    5.74620    0.38860    0.38860    2.18080    2.18080 2126.72190    5.31720  -42.35170  -10.17950    5.31720
  600.00000  247.16730  247.16730    7.34270   -6.05480 2507.24220    0.11560    0.11860  136.19010   -6.05480  206.00370  206.00370   10.91640   10.91640  136.19010   81.43980   81.43980    0.09710    0.09710    3.75420    3.75420 2507.24220  140.68850  -57.78080  -25.84950  140.68850
  650.00000  293.51110  293.51110  156.53370   -3.95520 2408.63960    0.16890    0.17620    6.38840   -3.95520  247.14610  247.14610   59.09220   59.09220    6.38840    5.72410    5.72410    0.26830    0.26830    2.87730    2.87730 2408.63960   14.10580  -50.37790  -20.16520   14.10580
  700.00000  296.42000  296.42000   75.43870    -999.25    -999.25    -999.25    -999.25   13.25580    -999.25  210.42960  210.42960   38.65830   38.65830   13.25580   11.83920   11.83920    -999.25    -999.25    -999.25    -999.25    -999.25   20.61770  -43.66770  -15.45090   20.61770
  750.00000  313.94450  313.94450  254.05860    -999.25    -999.25    -999.25    -999.25    3.93610    -999.25  318.90960  318.90960   29.49030   29.49030    3.93610    3.07460    3.07460    -999.25    -999.25    -999.25    -999.25    -999.25    4.12740  -30.41350   -4.19250    4.12740
  800.00000  288.22410  288.22410  164.45750    -999.25    -999.25    -999.25    -999.25    6.08060    -999.25  258.64260  258.64260   29.14810   29.14810    6.08060    5.71600    5.71600    -999.25    -999.25    -999.25    -999.25    -999.25    5.08470  -26.26490   -2.03980    5.08470
  850.00000  313.99280  313.99280  191.43890    -999.25    -999.25    -999.25    -999.25    5.22360    -999.25  274.50670  274.50670   51.22760   51.22760    5.22360    4.86630    4.86630    -999.25    -999.25    -999.25    -999.25    -999.25    6.75010  -26.45920   -3.19010    6.75010
  900.00000  267.37910  267.37910   41.90430    -999.25    -999.25    -999.25    -999.25   23.86390    -999.25  200.03440  200.03440   16.30570   16.30570   23.86390   30.90290   30.90290    -999.25    -999.25    -999.25    -999.25    -999.25   55.80360  -97.24940  -73.73520   55.80360
  950.00000  250.31370  250.31370   23.18940    -999.25    -999.25    -999.25    -999.25   43.12320    -999.25  179.58120  179.58120   12.27280   12.27280   43.12320   52.73560   52.73560    -999.25    -999.25    -999.25    -999.25    -999.25  109.90120  -88.93240  -65.17310  109.90120
 1000.00000  240.17550  240.17550   33.09930    -999.25    -999.25    -999.25    -999.25   30.21210    -999.25  182.84680  182.84680   11.28760   11.28760   30.21210   38.07070   38.07070    -999.25    -999.25    -999.25    -999.25    -999.25   94.28270  -87.94360  -63.93920   94.28270
 1050.00000  241.11920  241.11920   24.03090    -999.25    -999.25    -999.25    -999.25   41.61310    -999.25  177.53510  177.53510   14.54190   14.54190   41.61310   38.89850   38.89850    -999.25    -999.25    -999.25    -999.25    -999.25   75.85200  -73.01280  -48.76330   75.85200
 1100.00000  246.66940  246.66940   20.08000    -999.25    -999.25    -999.25    -999.25   49.80090    -999.25  174.94370  174.94370    5.50280    5.50280   49.80090   45.53450   45.53450    -999.25    -999.25    -999.25    -999.25    -999.25  109.38030  -78.98650  -54.49190  109.38030
 1150.00000  241.58990  241.58990   71.41890    -999.25    -999.25    -999.25    -999.25   14.00190    -999.25  178.38930  178.38930   33.07870   33.07870   14.00190   16.99040   16.99040    -999.25    -999.25    -999.25    -999.25    -999.25   23.73070  -59.84810  -35.10830   23.73070
 1200.00000  213.19160  213.19160   86.10960    -999.25    -999.25    -999.25    -999.25   11.61310    -999.25  181.89940  181.89940   27.50340   27.50340   11.61310   13.71770   13.71770    -999.25    -999.25    -999.25    -999.25    -999.25   25.17030  -63.70160  -38.71670   25.17030
 1250.00000  223.11440  223.11440   46.06280    -999.25    -999.25    -999.25    -999.25   21.70950    -999.25  193.66350  193.66350   20.59040   20.59040   21.70950   20.03650   20.03650    -999.25    -999.25    -999.25    -999.25    -999.25   23.37480  -50.70860  -25.47860   23.37480
 1300.00000  253.82510  253.82510  283.01350    -999.25    -999.25    -999.25    -999.25    3.53340    -999.25  289.70260  289.70260   73.24290   73.24290    3.53340    3.42770    3.42770    -999.25    -999.25    -999.25    -999.25    -999.25    3.66270  -37.39940  -13.27630    3.66270
 1350.00000  248.77160  248.77160  295.30760    -999.25    -999.25    -999.25    -999.25    3.38630    -999.25  299.20970  299.20970   80.98010   80.98010    3.38630    3.50060    3.50060    -999.25    -999.25    -999.25    -999.25    -999.25    3.73700  -36.35590  -14.43700    3.73700
 1400.00000  284.79660  284.79660  338.84520    -999.25    -999.25    -999.25    -999.25    2.95120    -999.25  309.69520  309.69520   88.18280   88.18280    2.95120    2.73840    2.73840    -999.25    -999.25    -999.25    -999.25    -999.25    3.21070  -38.17950  -18.46470    3.21070
 1450.00000  230.53030  230.53030  218.20240    -999.25    -999.25    -999.25    -999.25    4.58290    -999.25  265.90570  265.90570   94.09420   94.09420    4.58290    4.79040    4.79040    -999.25    -999.25    -999.25    -999.25    -999.25    6.13910  -19.31400   -1.80340    6.13910
 1500.00000  225.86530  225.86530  122.93170    -999.25    -999.25    -999.25    -999.25    8.13460    -999.25  230.66330  230.66330   51.81470   51.81470    8.13460    8.37640    8.37640    -999.25    -999.25    -999.25    -999.25    -999.25    9.45280  -12.47690    2.82950    9.45280
 1550.00000  222.87200  222.87200  116.25070    -999.25    -999.25    -999.25    -999.25    8.60210    -999.25  236.29270  236.29270   60.05510   60.05510    8.60210    8.86080    8.86080    -999.25    -999.25    -999.25    -999.25    -999.25   10.34810  -15.76860   -2.66640   10.34810
 1600.00000  225.25380  225.25380  216.36120    -999.25    -999.25    -999.25    -999.25    4.62190    -999.25  265.46550  265.46550   72.64310   72.64310    4.62190    4.84930    4.84930    -999.25    -999.25    -999.25    -999.25    -999.25    5.48480  -16.98780   -8.42160    5.48480
 1650.00000  223.39780  223.39780  147.00050   18.67430 2596.51220    0.06760    0.06640    6.80270   18.67430  250.43970  250.43970   77.62120   77.62120    6.80270    7.17940    7.17940    0.19360    0.19360    3.54430    3.54430 2596.51220    8.23160  -11.05030   -7.17950    8.23160
