~Version ---------------------------------------------------
VERS.      2.0 : CWLS log ASCII Standard -VERSION 2.0
WRAP.       NO : One line per depth step
CREA. 01/03/18 : LAS Creation Date
~Well ------------------------------------------------------
STRT.FT                     650.0 : START DEPTH
STOP.FT                    7900.0 : STOP DEPTH
STEP.FT                  50.00000 : STEP LENGTH
NULL.                     -999.25 : NULL VALUE
COMP.       CALGARY CRUDE OIL LTD : COMPANY
WELL. CCOL ET AL SWAN H 4-2-70-11 : WELL
FLD .                             : FIELD
LOC .                             : LOCATION
CTRY.                      CANADA : COUNTRY
SRVC.      Schlumberger of Canada : SERVICE COMPANY
DATE.                 24-Jan-1969 : LOGDATE
PROV.                     Alberta : PROVINCE
UWI .            100040207011W500 : UNIQUE WELL ID
SLAT.WGS84               55.02638 : SURFACE LATITUDE
SLON.WGS84              -115.5739 : SURFACE LONGITUDE
~Curve Information -----------------------------------------
DEPT  .FT    : Depth Curve
CALSED.IN    : CALIPER FROM SONIC LOG [DEPTH ADJ. TO ILDED]
CALWS .IN    : CALIPER [CALSED]
CILDED.MMHO  : CONDUCTIVITY FROM IEL
CONDWS.MMHO  : CONDUCTIVITY [1000/DRESWS]
DRESWS.OHMM  : DEEP RESISTIVITY [IF ILDED<1;THEN 1000/CILDED;ELSE ILDED]
DTED  .US/F  : DELTA TIME FROM SONIC LOG [DEPTH ADJ. TO ILDED]
DTWS  .US/F  : DELTA TIME [DTED]
GRSED .GAPI  : GAMMA RAY FROM SONIC LOG [DEPTH ADJ. TO ILDED]
GRWS  .GAPI  : GAMMA RAY [GRSED]
ILDED .OHMM  : INDUCTION LOG DEEP RESISTIVITY FROM IEL
SNED  .OHMM  : 16 INCH SHORT NORMAL RESISTIVITY FROM IEL
SPRED .MV    : SPONTANEOUS POTENTIAL FROM IEL
SPWS  .MV    : SPONTANEOUS POTENTIAL [BASELINE 0 MV] [SPRED]
SRESWS.OHMM  : SHALLOW RESISTIVITY [SNED]
~Params ----------------------------------------------------
PD  .                     GL : PERMANENT DATUM
EPD .FT                 3088 : ELEVATION PERMANENT DATUM
LMF .                     KB : LOG MEASURED FROM
DAPD.FT                   15 : FEET ABOVE PERMANENT DATUM
EKB .FT                 3103 : KELLY BUSHING
EGL .FT                 3088 : GROUND LEVEL
DATE.               01/24/69 : RUN DATE
RUN .                      1 : RUN NUMBER
DD  .FT                 7915 : DEPTH DRILLER
DL  .FT                 7916 : DEPTH LOGGER
BLI .FT                 7915 : BOTTOM LOG INTERVAL
TLI .FT                  622 : TOP LOG INTERVAL
CBD .FT                  622 : CASING BOTTOM DRILLER
CBL .FT                  622 : CASING BOTTOM LOGGER
BS  .IN                7.875 : BIT SIZE
BSD .FT                 7915 : BIT SIZE AT DEPTH
DFT .                    GEL : DRILLING FLUID TYPE
DFD .                    9.9 : DRILLING FLUID DENSITY
DFV .                     92 : DRILLING FLUID VISCOSITY
DFPH.                    8.5 : DRILLING FLUID PH
DFL .                    9.6 : DRILLING FLUID LOSS
RMS .OHMM               2.35 : RESISTIVITY MUD SAMPLE
MST .DEGF                 40 : MUD SAMPLE TEMPERATURE
RMF .OHMM               1.61 : RESISTIVITY MUD FILTRATE SAMPLE
MFST.DEGF                 56 : MUD FILTRATE SAMPLE TEMPERATURE
RMC .OHMM               2.12 : RESISTIVITY MUD CAKE
MCST.DEGF                 58 : MUD CAKE SAMPLE TEMPERATURE
TCS .HRS                 2.5 : TIME CIRCULATED STOPPED
LUN .                   4508 : LOGGING UNIT NUMBER
LUL .                    EDM : LOGGING UNIT LOCATION
ENGI.               CHADDOCK : RECORDING ENGINEER
WITN.                   SABO : WITNESSED BY
CLNT.                A2DTECH : CLIENT CODE
ORIG.            2" 5" PRINT : ORIGIN OF DATA
UWI .       100040207011W500 : UNIQUE WELL ID
DICO. A2D Technologies, Inc. : DIGITIZING COMPANY
~Other -----------------------------------------------------
~ASCII -----------------------------------------------------
# ...
 5550.00000    -999.25    -999.25   28.01960   25.54080   39.15310    -999.25    -999.25    -999.25    -999.25   39.15310  110.40800 -139.88710  -80.88780  110.40800
 5600.00000    -999.25    -999.25   34.90760   30.53850   32.74560    -999.25    -999.25    -999.25    -999.25   32.74560   82.15420 -128.48780  -68.77150   82.15420
 5650.00000    -999.25    -999.25   39.81130   35.86710   27.88070    -999.25    -999.25    -999.25    -999.25   27.88070  109.54180 -178.82090 -118.38750  109.54180
 5700.00000    -999.25    -999.25   50.30910   45.47520   21.99000    -999.25    -999.25    -999.25    -999.25   21.99000  119.34140 -213.33770 -152.18730  119.34140
 5750.00000    -999.25    -999.25   70.37740   64.56780   15.48760    -999.25    -999.25    -999.25    -999.25   15.48760   95.28610 -192.49570 -130.62820   95.28610
 5800.00000    -999.25    -999.25  119.81300  120.28920    8.31330    -999.25    -999.25    -999.25    -999.25    8.31330   91.25580 -233.46850 -170.88400   91.25580
 5850.00000    -999.25    -999.25   94.54370   95.69470   10.44990    -999.25    -999.25    -999.25    -999.25   10.44990   63.98560 -202.31810 -139.01650   63.98560
 5900.00000    -999.25    -999.25  193.84940  188.07600    5.31700    -999.25    -999.25    -999.25    -999.25    5.31700   18.92470 -140.43170  -76.41310   18.92470
 5950.00000    -999.25    -999.25  339.52400  259.02710    3.86060    -999.25    -999.25    -999.25    -999.25    3.86060   27.00510 -207.91390 -143.17820   27.00510
 6000.00000    -999.25    -999.25  120.20340  109.36490    9.14370    -999.25    -999.25    -999.25    -999.25    9.14370   37.33580 -172.69250 -107.23970   37.33580
 6050.00000    -999.25    -999.25  146.82550  136.54110    7.32380    -999.25    -999.25    -999.25    -999.25    7.32380   28.80380 -193.23760 -127.06780   28.80380
 6100.00000    -999.25    -999.25  139.31650  130.23550    7.67840    -999.25    -999.25    -999.25    -999.25    7.67840   11.26060 -121.54100  -54.65410   11.26060
 6150.00000    -999.25    -999.25   45.88350   40.21720   24.86500    -999.25    -999.25    -999.25    -999.25   24.86500   36.83730 -134.35900  -66.75510   36.83730
 6200.00000    -999.25    -999.25   55.17940   45.87700   21.79740    -999.25    -999.25    -999.25    -999.25   21.79740   28.42870  -96.88060  -28.55960   28.42870
 6250.00000    -999.25    -999.25   81.02430   64.14200   15.59040    -999.25    -999.25    -999.25    -999.25   15.59040   19.52070  -96.55320  -27.51520   19.52070
 6300.00000    -999.25    -999.25  280.19600  233.87980    4.27570    -999.25    -999.25    -999.25    -999.25    4.27570    6.40450 -101.37870  -30.51850    6.40450
 6350.00000    -999.25    -999.25  416.94510  313.48950    3.18990    -999.25    -999.25    -999.25    -999.25    3.18990    4.38600 -100.75300  -26.72010    4.38600
 6400.00000    -999.25    -999.25  290.07640  249.45120    4.00880    -999.25    -999.25    -999.25    -999.25    4.00880    5.13640 -117.61970  -40.41400    5.13640
 6450.00000    -999.25    -999.25  434.01740  355.25240    2.81490    -999.25    -999.25    -999.25    -999.25    2.81490    4.07700 -108.03080  -27.65230    4.07700
 6500.00000    -999.25    -999.25  321.25780  272.40530    3.67100    -999.25    -999.25    -999.25    -999.25    3.67100    4.76320 -125.82880  -42.27750    4.76320
 6550.00000    -999.25    -999.25  408.22500  330.69880    3.02390    -999.25    -999.25    -999.25    -999.25    3.02390    4.12990 -105.78760  -19.06350    4.12990
 6600.00000    -999.25    -999.25  341.62620  292.15850    3.42280    -999.25    -999.25    -999.25    -999.25    3.42280    4.82710 -100.30400  -12.18340    4.82710
 6650.00000    -999.25    -999.25  347.14760  292.26950    3.42150    -999.25    -999.25    -999.25    -999.25    3.42150    4.67920 -113.78460  -26.11610    4.67920
 6700.00000    -999.25    -999.25  373.67250  311.42950    3.21100    -999.25    -999.25    -999.25    -999.25    3.21100    4.66110 -106.54210  -19.32580    4.66110
 6750.00000    -999.25    -999.25  417.96740  340.92460    2.93320    -999.25    -999.25    -999.25    -999.25    2.93320    4.27470 -104.63160  -17.86750    4.27470
 6800.00000    -999.25    -999.25  314.90930  270.19720    3.70100    -999.25    -999.25    -999.25    -999.25    3.70100    5.23970  -99.59470  -13.28280    5.23970
 6850.00000    -999.25    -999.25  367.63680  308.74680    3.23890    -999.25    -999.25    -999.25    -999.25    3.23890    4.65780 -120.41900  -34.55920    4.65780
 6900.00000    -999.25    -999.25  177.40070  161.06430    6.20870    -999.25    -999.25    -999.25    -999.25    6.20870    9.03830  -89.40400   -3.99640    9.03830
 6950.00000    -999.25    -999.25  283.84590  253.34410    3.94720    -999.25    -999.25    -999.25    -999.25    3.94720    6.35670 -117.11920  -32.16380    6.35670
 7000.00000    -999.25    -999.25  268.36210  236.23350    4.23310    -999.25    -999.25    -999.25    -999.25    4.23310    6.30250 -112.22140  -27.71820    6.30250
 7050.00000    -999.25    -999.25  193.08970  176.24870    5.67380    -999.25    -999.25    -999.25    -999.25    5.67380    8.81010 -102.23780  -18.18670    8.81010
 7100.00000    -999.25    -999.25  343.85110  287.49680    3.47830    -999.25    -999.25    -999.25    -999.25    3.47830    5.25050 -115.39560  -31.79670    5.25050
 7150.00000    -999.25    -999.25  416.08770  321.34710    3.11190    -999.25    -999.25    -999.25    -999.25    3.11190    4.71640 -103.89330  -20.74660    4.71640
 7200.00000    -999.25    -999.25  352.83110  294.14360    3.39970    -999.25    -999.25    -999.25    -999.25    3.39970    5.26770 -110.30730  -27.61270    5.26770
 7250.00000    -999.25    -999.25   77.06450   72.31080   13.82920    -999.25    -999.25    -999.25    -999.25   13.82920   20.97450  -88.03910   -5.79670   20.97450
 7300.00000    -999.25    -999.25  396.34190  317.66200    3.14800    -999.25    -999.25    -999.25    -999.25    3.14800    4.57630 -128.02100  -46.57640    4.57630
 7350.00000    -999.25    -999.25  335.80940  277.93220    3.59800    -999.25    -999.25    -999.25    -999.25    3.59800    5.11380 -112.31180  -31.94780    5.11380
 7400.00000    -999.25    -999.25  213.14890  186.26830    5.36860    -999.25    -999.25    -999.25    -999.25    5.36860    9.40400  -92.28080  -12.99730    9.40400
 7450.00000    -999.25    -999.25  178.17840  156.52640    6.38870    -999.25    -999.25    -999.25    -999.25    6.38870    9.26400  -91.69180  -13.48890    9.26400
 7500.00000    -999.25    -999.25   55.52980   50.31570   19.87450    -999.25    -999.25    -999.25    -999.25   19.87450   26.21400  -85.20790   -8.08550   26.21400
 7550.00000    8.37670    8.37670   51.66780   48.33160   20.69040   57.60120   57.60120   26.13340   26.13340   20.69040   30.16990  -85.73570   -9.69390   30.16990
 7600.00000    8.33660    8.33660   62.01680   57.72140   17.32460   55.83480   55.83480   31.94270   31.94270   17.32460   32.70230  -87.92660  -12.96540   32.70230
 7650.00000    8.95550    8.95550  165.31550  152.16530    6.57180   69.30550   69.30550   75.74890   75.74890    6.57180   10.32810  -88.75470  -14.87400   10.32810
 7700.00000    8.67790    8.67790  187.52840  166.19030    6.01720   71.93700   71.93700   84.34430   84.34430    6.01720    9.31120  -93.20640  -20.40630    9.31120
 7750.00000    8.24240    8.24240  144.63720  138.33750    7.22870   67.27010   67.27010   65.99130   65.99130    7.22870   12.10860  -72.50470   -0.78510   12.10860
 7800.00000    7.97300    7.97300    6.97130    3.72550  268.42200   52.82220   52.82220   19.07440   19.07440  268.42200  208.61100 -135.70050  -64.46720  208.61100
 7850.00000    7.76840    7.76840    5.03430    1.86690  535.63650   53.39410   53.39410   26.60400   26.60400  535.63650  281.89600 -114.86240  -43.62910  281.89600
 7900.00000    7.74130    7.74130    9.17070    6.41090  155.98360   54.26650   54.26650    -999.25    -999.25  155.98360  137.98690  -87.46340  -16.23010  137.98690
