~Version ---------------------------------------------------
VERS. 2.0 : CWLS log ASCII Standard -VERSION 2.0
WRAP.  NO : ONE LINE PER DEPTH STEP
~Well ------------------------------------------------------
STRT.M                               380.5 : START DEPTH
STOP.M                              2549.3 : STOP DEPTH
STEP.M                             0.20000 : STEP LENGTH
NULL.                              -999.25 : NULL VALUE
COMP.                DEVON ARL CORPORATION : COMPANY
WELL. DEVON ARL ETAL 7D GVILLEE 7-25-76-23 : WELL
FLD .                                      : FIELD
LOC .                                      : LOCATION
CTRY.                               CANADA : COUNTRY
SRVC.                         Schlumberger : SERVICE COMPANY
DATE.                          06-Mar-2003 : LOGDATE
PROV.                              Alberta : PROVINCE
UWI .                     100072507623W500 : UNIQUE WELL ID
SLAT.WGS84                        55.61368 : SURFACE LATITUDE
SLON.WGS84                       -117.4224 : SURFACE LONGITUDE
~Curve Information -----------------------------------------
DEPT    .M    0   1   0  0 : 1 MEASURED DEPTH
GRS     .GAPI 60 310 01 00 : GAMMA RAY FROM SONIC LOG
HDS     .MM   60 280 00 00 : HOLE DIAMETER FROM SONIC
DT      .US/M 60 500 00 00 : DELTA-T (INTERVAL TRANSIT TIME)
HCALS   .MM   60 280 50 00 : HRCC CALIPER CALIBRATED FROM SONIC LOG
TENS    .N    60 635 00 00 : TENSION FROM SONIC LOG
GRR     .GAPI 06 310 01 00 : GAMMA RAY FROM RESISTIVITY LOG
RXOZ    .OHMM 06 270 04 00 : INVADED FORMATION RESISTIVITY FILTERED AT 18 INCHES
TENR    .N    06 635 00 00 : TENSION FROM RESISTIVITY LOG
SPR     .MV   06 010 01 00 : SPONTANEOUS POTENTIAL FROM RESISTIVITY LOG
AHF30   .OHMM 06 120 30 00 : ARRAY INDUCTION FOUR FOOT RESISTIVITY A30
AHF20   .OHMM 06 120 20 00 : ARRAY INDUCTION FOUR FOOT RESISTIVITY A20
AHF60   .OHMM 06 120 60 00 : ARRAY INDUCTION FOUR FOOT RESISTIVITY A60
GRD     .GAPI 45 310 01 00 : GAMMA RAY FROM DENSITY LOG
NPOR_SAN.DEC  42 890 03 00 : ENHANCED THERMAL NEUTRON POROSITY (SANDSTONE)
HDD     .MM   45 280 60 00 : HOLE DIAMETER
HCALD   .MM   45 280 60 00 : HRCC CALIPER CALIBRATED FROM DENSITY LOG
DPHI_SAN.DEC  45 890 12 00 : DENSITY POROSITY (MATRIX SANDSTONE)
HDRA    .K/M3 45 356 01 00 : HRDD SPINE AND RIBS DENSITY CORRECTION
PEFZ    .B/E  45 358 01 00 : HRDD STANDARD RESOLUTION FORMATION PHOTOELECTRIC FACTOR
TEND    .N    45 635 00 00 : TENSION FROM DENSITY LOG
NPOR_LS .DEC  42 890 01 00 : NEUTRON POROSITY LIMESTONE
DPHI_LS .DEC  45 890 10 00 : DENSITY POROSITY LIMESTONE
RHOZ    .K/M3 45 350 01 00 : HRDD STANDARD RESOLUTION FORMATION DENSITY
~Params ----------------------------------------------------
PD  .                                  GL : PERMANENT DATUM
EPD .M                              551.9 : ELEVATION PERMANENT DATUM
LMF .                                  KB : LOG MEASURED FROM
DAPD.M                                4.7 : FEET ABOVE PERMANENT DATUM
DMF .                                  KB : DRILLING MEASURED FROM
EKB .M                              556.6 : KELLY BUSHING
EDF .M                              556.3 : DRILLING FLOOR
EGL .M                              551.9 : GROUND LEVEL
DATE.                            03/06/03 : RUN DATE
RUN .                                   1 : RUN NUMBER
DD  .M                               2545 : DEPTH DRILLER
DL  .M                               2544 : DEPTH LOGGER
BLI .M                             2538.3 : BOTTOM LOG INTERVAL
TLI .M                                421 : TOP LOG INTERVAL
CS  .MM                             219.1 : CASING SIZE
CBD .M                                421 : CASING BOTTOM DRILLER
CBL .M                              420.5 : CASING BOTTOM LOGGER
BS  .MM                               200 : BIT SIZE
BSD .M                               2545 : BIT SIZE AT DEPTH
DFT .                            GEL CHEM : DRILLING FLUID TYPE
DFD .                                1050 : DRILLING FLUID DENSITY
DFV .                                  83 : DRILLING FLUID VISCOSITY
DFPH.                                10.5 : DRILLING FLUID PH
DFL .                                   7 : DRILLING FLUID LOSS
MSS .                            FLOWLINE : MUD SAMPLE SOURCE
RMS .OHMM                            1.27 : RESISTIVITY MUD SAMPLE
MST .DEGC                              17 : MUD SAMPLE TEMPERATURE
RMF .OHMM                            0.98 : RESISTIVITY MUD FILTRATE SAMPLE
MFST.DEGC                              18 : MUD FILTRATE SAMPLE TEMPERATURE
RMC .OHMM                            1.55 : RESISTIVITY MUD CAKE
MCST.DEGC                              18 : MUD CAKE SAMPLE TEMPERATURE
MFSS.                            MEASURED : MUD FILTRATE SAMPLE SOURCE
MCSS.                             MEAURED : MUD CAKE SAMPLE SOURCE
RMB .OHMM                           0.566 : RESISTIVITY MUD AT BHT
TCS .HRS                              640 : TIME CIRCULATED STOPPED
TLAB.HRS                             1645 : TIME LOGGER AT BOTTOM
LUN .                                2133 : LOGGING UNIT NUMBER
LUL .                      GRANDE PRAIRIE : LOGGING UNIT LOCATION
ENGI.                            STIRLING : RECORDING ENGINEER
WITN.                              MCLEAY : WITNESSED BY
CLNT.                             A2DTECH : CLIENT CODE
ORIG. 6.5"/100M 16.5"/100M 33"/100M PRINT : ORIGIN OF DATA
UWI .                    100072507623W500 : UNIQUE WELL ID
DICO.              A2D Technologies, Inc. : DIGITIZING COMPANY
~Other -----------------------------------------------------
~ASCII -----------------------------------------------------
# ...
 2252.50000  106.33030  315.59560  250.31660  244.64520 19680.30270  106.70710    4.34950 19888.42770  -17.63250    6.62630    6.09930    7.09480  106.71160    -999.25  316.75090  244.50870    -999.25   76.91810    3.65570 19616.67380    0.31300    0.04790 2629.25510
 2252.70000  106.48300  314.08140  250.21330  245.74660 19693.70120  106.33610    4.35860 19888.42770  -17.31560    6.62840    6.10960    7.04120  106.83220    -999.25  315.23710  245.65880    -999.25   70.15180    3.63580 19612.54300    0.29960    0.04930 2626.71610
 2252.90000  105.84090  313.18650  250.18060  246.02530 19669.41020  105.13420    4.34420 19888.42770  -16.94380    6.63050    6.11990    6.98800  106.05090    -999.25  313.44310  247.55560    -999.25   64.97020    3.60270 19587.06450    0.28000    0.05090 2625.20920
 2253.10000  103.64230  313.42690  250.54840  246.31550 19731.81450  102.93090    4.83060 19888.42770  -16.86320    6.63250    6.13020    6.93520  103.66480    -999.25  313.47330  245.68480    -999.25   60.42240    3.57060 19580.58790    0.28700    0.05160 2623.30000
 2253.30000  102.87260  314.37230  250.85300  247.95330 19775.26370  103.74500    4.70960 19888.42770  -16.87180    6.63460    6.14050    6.93700  103.09470    -999.25  314.25970  248.34660    -999.25   59.32930    3.55450 19630.64840    0.28700    0.05190 2621.06710
 2253.50000  106.62830  313.52730  250.18850  249.23840 19771.23240  108.10470    4.47280 19888.42770  -16.31040    6.63670    6.15080    6.94400  106.19880    -999.25  315.00380  249.25160    -999.25   63.56730    3.55460 19663.31050    0.28280    0.05100 2618.82470
 2253.70000  111.07440  312.94630  250.17360  249.17820 19767.19920  111.87340    4.42570 19888.42770  -15.63960    6.63880    6.16120    6.95110  110.85590    -999.25  313.16440  248.42430    -999.25   64.73700    3.56570 19664.30470    0.28640    0.04750 2619.81370
 2253.90000  111.77950  312.43330  250.88890  248.58680 19763.16800  111.97620    4.35680 19882.50200  -15.10830    6.64080    6.17160    6.95820  111.76790    -999.25  312.44400  250.62590    -999.25   81.58310    3.57400 19665.29880    0.29150    0.04230 2628.82620
 2254.10000  110.07890  309.50350  250.30620  246.92150 19759.13480  109.74340    4.32120 19866.62700  -14.63260    6.64290    6.18200    6.94780  110.16350    -999.25  310.75090  248.58700    -999.25   95.43720    3.57380 19666.29300    0.29220    0.04180 2638.93990
 2254.30000  108.37970  307.57250  250.29620  244.67390 19806.72070  108.27690    4.59990 19850.75200  -14.06650    6.62670    6.16910    6.92800  108.61940    -999.25  308.51540  245.57550    -999.25   86.55610    3.53060 19685.09180    0.29100    0.04990 2641.17600
 2254.50000  107.63090  306.91960  250.49340  242.21730 19860.74410  107.57620    4.62290 19834.87700  -13.84640    6.59110    6.14900    6.90820  107.84320    -999.25  307.02430  243.87380    -999.25   69.32590    3.55650 19716.97070    0.27730    0.05850 2623.02640
 2254.70000  106.07850  307.97870  250.20390  241.57670 19866.44920  105.85210    4.44470 19819.00200  -13.70810    6.55560    6.12890    6.88840  106.33400    -999.25  307.34810  240.83660    -999.25   78.42710    3.59190 19745.09770    0.27930    0.05980 2605.48290
 2254.90000  104.70620  310.30850  250.55780  241.83860 19773.06050  104.57570    4.35710 19803.12700  -13.36150    6.50700    6.10890    6.86870  104.89660    -999.25  308.87210  240.49180    -999.25   89.04840    3.56790 19709.66600    0.28520    0.05620 2607.45000
 2255.10000  104.09430  313.12340  251.49790  244.62040 19679.67190  104.24670    4.14910 19787.25200  -13.01500    6.45650    6.08900    6.84910  104.13240    -999.25  311.73510  244.29130    -999.25   80.14480    3.58740 19674.23630    0.29710    0.05520 2615.07030
 2255.30000  102.74500  314.78710  251.73240  247.70940 19664.08400  102.34970    4.07970 19771.37700  -12.66850    6.46560    6.06910    6.82950  102.71360    -999.25  314.81950  248.93760    -999.25   66.81550    3.59990 19644.00780    0.31030    0.05750 2614.81930
 2255.50000  100.36710  315.76260  251.85460  247.25260 19660.26370  100.88050    4.09690 19755.50200  -12.34750    6.53360    6.05940    6.81410  100.19400    -999.25  315.62850  248.11650    -999.25   71.41360    3.60790 19622.17580    0.30480    0.05960 2610.08980
 2255.70000  100.12520  316.94340  251.98080  246.79570 19661.39060  100.40150    4.29140 19739.62700  -12.05790    6.60240    6.09500    6.81340  100.03330    -999.25  316.83010  248.75960    -999.25   84.67730    3.57290 19672.89840    0.30960    0.06070 2604.96920
 2255.90000  100.41050  316.63340  251.58770  246.16540 19643.35550  101.06340    4.32330 19706.66020  -11.76830    6.67190    6.13070    6.81270  100.29180    -999.25  317.07290  245.96570    -999.25   86.02160    3.54020 19593.47070    0.30140    0.05940 2605.06910
 2256.10000  101.80530  316.50350  250.27550  244.31200 19583.65230  102.19120    4.01430 19670.27930  -11.47870    6.69320    6.16670    6.83260  102.16290    -999.25  316.88030  243.75910    -999.25   74.78500    3.55680 19525.86910    0.28980    0.05770 2608.86080
 2256.30000  104.70980  315.21390  249.18660  244.60450 19562.59960  104.57980    4.06950 19633.89840  -11.32000    6.71440    6.21450    6.87460  104.97770    -999.25  316.47110  244.61380    -999.25   65.25830    3.62250 19498.68550    0.28100    0.05560 2611.08030
 2256.50000  107.36790  313.20470  249.62960  244.89760 19640.15040  107.52740    4.51050 19597.51560  -11.52440    6.72200    6.26830    6.91680  107.23250    -999.25  314.82010  243.88930    -999.25   58.97250    3.66890 19569.98240    0.27560    0.05200 2615.08450
 2256.70000  108.79980  312.09210  250.18740  245.24700 19822.46090  108.90280    4.72820 19658.77930  -11.81460    6.69550    6.28950    6.92820  108.79690    -999.25  312.16250  245.34400    -999.25   52.54920    3.66930 19684.62300    0.29550    0.05060 2621.54390
 2256.90000  108.58590  313.05110  249.96130  245.72090 19857.72460  108.70360    4.70550 19767.93950  -12.05580    6.66910    6.22890    6.93670  108.72300    -999.25  312.68100  244.76140    -999.25   46.93680    3.64100 19756.34770    0.30340    0.05180 2623.62670
 2257.10000  109.11600  314.88110  249.81200  247.07990 19777.27930  108.91290    4.61220 19877.10160  -12.34440    6.64280    6.17980    6.94530  108.94980    -999.25  313.87090  246.31020    -999.25   46.07010    3.62670 19717.14260    0.30000    0.05340 2620.34130
 2257.30000  110.62980  317.05620  250.02460  247.67230 19658.93550  110.62100    4.14590 19888.42770  -12.63600    6.63230    6.19590    6.95380  110.38270    -999.25  315.92860  247.17150    -999.25   42.43650    3.61040 19613.71680    0.29230    0.05970 2618.13160
 2257.50000  111.89450  318.15860  250.00240  247.38540 19661.47460  111.70990    4.43740 19818.33010  -12.88250    6.63230    6.21190    6.96230  111.54790    -999.25  317.85530  246.93000    -999.25   38.80550    3.60830 19589.46090    0.30330    0.06560 2603.17900
 2257.70000  114.28130  321.54560  249.92450  247.94330 19659.93550  113.83390    4.58240 19736.45900  -13.17530    6.63220    6.22800    6.96260  114.16670    -999.25  319.56820  247.50180    -999.25   47.45610    3.57540 19582.83010    0.30880    0.06550 2591.68730
 2257.90000  113.58030  324.94670  249.96180  248.47380 19659.32230  114.45600    4.23050 19625.64450  -13.73470    6.63210    6.24420    6.96260  113.97290    -999.25  324.18050  248.77620    -999.25   66.42210    3.53220 19495.23240    0.30320    0.06540 2597.90600
 2258.10000  107.67570  325.21410  249.20070  248.74210 19660.27930  109.02660    4.22980 19585.21680  -14.07450    6.63200    6.25850    6.96250  107.55330    -999.25  326.83620  249.48810    -999.25   71.79900    3.49200 19555.15620    0.29920    0.06690 2594.91410
 2258.30000  102.25670  323.79130  248.78910  248.75210 19660.14060  102.97750    4.31070 19681.56450  -14.25540    6.63190    6.23480    6.96240  102.32250    -999.25  325.99170  249.48810    -999.25   71.43500    3.51140 19606.13280    0.28840    0.06470 2593.08760
