~Version ---------------------------------------------------
VERS.      2.0 : CWLS log ASCII Standard -VERSION 2.0
WRAP.       NO : One line per depth step
CREA. 07/26/13 : LAS Creation Date
~Well ------------------------------------------------------
STRT.M                         300.0 : START DEPTH
STOP.M                        3650.0 : STOP DEPTH
STEP.M                      50.00000 : STEP LENGTH
NULL.                        -999.25 : NULL VALUE
COMP.        PANCONTINENTAL OIL LTD. : COMPANY
WELL. PANCON ET AL SIMONN 6-21-64-25 : WELL
FLD .                                : FIELD
LOC .                                : LOCATION
CTRY.                         CANADA : COUNTRY
SRVC.                   Schlumberger : SERVICE COMPANY
DATE.                    13-Sep-1990 : LOGDATE
PROV.                        Alberta : PROVINCE
UWI .               100062106425W500 : UNIQUE WELL ID
SLAT.WGS84                  54.55006 : SURFACE LATITUDE
SLON.WGS84                 -117.7232 : SURFACE LONGITUDE
~Curve Information -----------------------------------------
DEPT    .M      : DEPTH METER
C1ED    .MM     : CALIPER FROM DENSITY LOG [ADJ. TO RESISTIVITY LOG]
C2ED    .MM     : CALIPER FROM DENSITY LOG [ADJ. TO RESISTIVITY LOG]
CALWS   .MM     : CALIPER [HDED]
CIDPED  .MMHO   : CONDUCTIVITY FROM RESISTIVITY LOG
CONDWS  .MMHO   : CONDUCTIVITY [1000/DRESWS]
DCORWS  .KG/M3  : DENSITY CORRECTION [DRHOED]
DENWS   .KG/M3  : FORMATION BULK DENSITY [RHOBED]
DPHILSED.V/V    : DENSITY POROSITY LIMESTONE  [M=2710,F=1000]  FROM DENSITY LOG [ADJ. TO RESISTIVITY LOG]
DPHISSED.V/V    : DENSITY POROSITY SANDSTONE [M=2650,F= 1000] FROM DENSITY LOG [ADJ. TO RESISTIVITY LOG]
DPOLSWS .V/V    : DENSITY POROSITY LIMESTONE [CAL. FROM DENWS, M=2710,F=1000]
DRESWS  .OHMM   : DEEP RESISTIVITY [IDPHED]
DRHOED  .KG/M3  : DENSITY CORRECTION FROM DENSITY LOG [ADJ. TO RESISTIVITY LOG]
DTED    .US/M   : DELTA T FROM SONIC LOG
DTWS    .US/M   : COMPRESSIONAL SONIC [DTED]
GRDED   .GAPI   : GAMMA RAY FROM DENSITY LOG [ADJ. TO RESISTIVITY LOG]
GRMED   .GAPI   : GAMMA RAY FROM MICROLOG [ADJ. TO RESISTIVITY LOG]
GRSED   .GAPI   : GAMMA RAY FROM SONIC LOG
GRWS    .GAPI   : GAMMA RAY [GRSED]
HDED    .MM     : CALIPER FROM SONIC LOG
IDPHED  .OHMM   : DEEP PHASOR INDUCTION RESISTIVITY FROM RESISTIVITY LOG
IMPHED  .OHMM   : MEDIUM PHASOR INDUCTION RESISTIVITY FROM RESISTIVITY LOG
MCALED  .MM     : CALIPER FROM MICROLOG [ADJ. TO RESISTIVITY LOG]
MRESWS  .OHMM   : MEDIUM RESISTIVITY [IMPHED]
NPHILSED.V/V    : NEUTRON POROSITY LIMESTONE FROM DENSITY LOG [ADJ. TO RESISTIVITY LOG]
NPHISSED.V/V    : NEUTRON POROSITY SANDSTONE FROM DENSITY LOG [ADJ. TO RESISTIVITY LOG]
NPOLSWS .V/V    : NEUTRON POROSITY LIMESTONE [NPHISSED MATRIX CONVERSION FOR LIMESTONE, SPL TO NPHILSED @ 2400.1M]
RHOBED  .KG/M3  : BULK DENSITY FROM DENSITY LOG  [ADJ. TO RESISTIVITY LOG]
SFLUED  .OHMM   : SPHERICALLY FOCUSED RESISTIVITY FROM RESISTIVITY LOG
SPRED   .MV     : SPONTANEOUS POTENTIAL FROM RESISTIVITY LOG
SPWS    .MV     : SPONTANEOUS POTENTIAL [BASELINE 0 MV, SPRED]
SRESWS  .OHMM   : SHALLOW RESISTIVITY [SFLUED]
TENDED  .N      : TENSION FROM DENSITY LOG [ADJ. TO RESISTIVITY LOG]
TENMED  .N      : TENTION FROM MICROLOG [ADJ. TO RESISTIVITY LOG]
TENSED  .N      : TENSION FROM SONIC LOG
~Params ----------------------------------------------------
PD  .                         GL : PERMANENT DATUM
EPD .M                     842.7 : ELEVATION PERMANENT DATUM
LMF .                         KB : LOG MEASURED FROM
DAPD.M                       6.4 : FEET ABOVE PERMANENT DATUM
DMF .                         KB : DRILLING MEASURED FROM
EKB .M                     849.1 : KELLY BUSHING
EDF .M                     848.8 : DRILLING FLOOR
EGL .M                     842.7 : GROUND LEVEL
DATE.                   09/13/90 : RUN DATE
RUN .                          1 : RUN NUMBER
DD  .M                      3707 : DEPTH DRILLER
DL  .M                    3692.5 : DEPTH LOGGER
BLI .M                    3989.5 : BOTTOM LOG INTERVAL
TLI .M                     469.7 : TOP LOG INTERVAL
CS  .MM                    244.5 : CASING SIZE
CBD .M                       470 : CASING BOTTOM DRILLER
CBL .M                     469.7 : CASING BOTTOM LOGGER
BS  .MM                      222 : BIT SIZE
BSD .M                      3707 : BIT SIZE AT DEPTH
DFT .                   GEL CHEM : DRILLING FLUID TYPE
DFD .                       1115 : DRILLING FLUID DENSITY
DFV .                         68 : DRILLING FLUID VISCOSITY
DFPH.                        9.5 : DRILLING FLUID PH
DFL .                        8.2 : DRILLING FLUID LOSS
MSS .                   FLOWLINE : MUD SAMPLE SOURCE
RMS .OHMM                   2.54 : RESISTIVITY MUD SAMPLE
MST .DEGC                     14 : MUD SAMPLE TEMPERATURE
RMF .OHMM                   2.41 : RESISTIVITY MUD FILTRATE SAMPLE
MFST.DEGC                     15 : MUD FILTRATE SAMPLE TEMPERATURE
RMC .OHMM                   2.41 : RESISTIVITY MUD CAKE
MCST.DEGC                     16 : MUD CAKE SAMPLE TEMPERATURE
MFSS.                   MEASURED : MUD FILTRATE SAMPLE SOURCE
MCSS.                   MEASURED : MUD CAKE SAMPLE SOURCE
RMB .OHMM                  0.857 : RESISTIVITY MUD AT BHT
TCS .HRS                    1930 : TIME CIRCULATED STOPPED
TLAB.HRS                    1405 : TIME LOGGER AT BOTTOM
LUN .                       8416 : LOGGING UNIT NUMBER
LUL .                   EDMONTON : LOGGING UNIT LOCATION
ENGI.          CRCKFORD BAZANSKY : RECORDING ENGINEER
WITN.                     MILLER : WITNESSED BY
CLNT.                    A2DTECH : CLIENT CODE
ORIG. 6.5"/100M 16.5"/100M PRINT : ORIGIN OF DATA
UWI .           100062106425W500 : UNIQUE WELL ID
DICO.     A2D Technologies, Inc. : DIGITIZING COMPANY
~Other -----------------------------------------------------
PI-SFL & BHC RUN IN COMBO & CNFD& ML LOG RAN
RHOB FROM SMALL SCALE SECTION
~ASCII -----------------------------------------------------
# ...
 2400.00000  231.81770  232.84460  235.23710   30.83500   28.83950    6.68420 2716.90000    -999.25   -0.04140   -0.00400   34.67470    6.68420  205.41330  205.41330  110.24890    -999.25   90.88900   90.88900  235.23710   34.67470   36.33150    -999.25   36.33150    -999.25    0.16320    0.12040 2716.90000   39.26860  -96.03280  -20.96070   39.26860 16422.34180    -999.25 15726.00490
 2450.00000  283.21440  234.13010  250.57770   18.52520   16.46420  185.78950 2331.00000    0.22970    -999.25    0.22160   60.73780  185.78950  168.21690  168.21690   29.05370    -999.25   26.11730   26.11730  250.57770   60.73780   41.27050    -999.25   41.27050    0.10300    -999.25    0.10300 2331.00000   77.45890 -123.15620  -59.10900   77.45890 16817.96090    -999.25 15566.05180
 2500.00000  248.35550  234.00220  232.10820    3.60880    3.60120  273.78950 2617.50000    0.05550    -999.25    0.05410  277.68250  273.78950  154.31600  154.31600   19.85000    -999.25   16.51760   16.51760  232.10820  277.68250  942.59050    -999.25  942.59050    0.07980    -999.25    0.07980 2617.50000 1457.70960 -229.28050 -174.78800 1457.70960 17274.34380    -999.25 16249.57420
 2550.00000  222.76330  234.28690  231.58220  104.79530   97.36060    0.52630 2732.60000   -0.01590    -999.25   -0.01320   10.27110    0.52630  192.07750  192.07750   46.29040    -999.25   45.36180   45.36180  231.58220   10.27110   11.17860    -999.25   11.17860    0.11100    -999.25    0.11100 2732.60000   11.95080 -223.06350 -178.12560   11.95080 17156.08590    -999.25 16156.97070
 2600.00000  247.39290  239.34340  237.75220   32.76300   33.11400   22.63160 2153.00000    0.26380    -999.25    0.32570   30.19870   22.63160  193.16750  193.16750   38.98290    -999.25   37.47130   37.47130  237.75220   30.19870   23.64490    -999.25   23.64490    0.12630    -999.25    0.12630 2153.00000   26.94640  -64.06440  -29.26200   26.94640 17691.13670    -999.25 16739.94340
 2650.00000  235.58230  253.13400  239.72370   22.51690   20.66170   21.89470 2779.10000   -0.03630    -999.25   -0.04040   48.39880   21.89470  172.39840  172.39840   26.50450    -999.25   25.71870   25.71870  239.72370   48.39880   48.78170    -999.25   48.78170    0.05540    -999.25    0.05540 2779.10000   49.72090 -156.29030 -146.32600   49.72090 17999.42970    -999.25 17052.28910
 2700.00000  222.31120  314.02290  245.67590   11.57200    9.45790  -10.78950 2702.20000    0.00240    -999.25    0.00460  105.73220  -10.78950  164.99680  164.99680   15.24810    -999.25   12.94910   12.94910  245.67590  105.73220   86.66320    -999.25   86.66320    0.02290    -999.25    0.02290 2702.20000  496.11260 -241.00820 -255.88200  496.11260 18385.34570    -999.25 17186.17770
 2750.00000  232.08910  249.16700  240.53410   76.13650   75.84840    0.89470 2713.20000   -0.00160    -999.25   -0.00190   13.18420    0.89470  188.48030  188.48030   55.87510    -999.25   53.90360   53.90360  240.53410   13.18420   11.29430    -999.25   11.29430    0.11420    -999.25    0.11420 2713.20000   13.07060  -73.68640 -113.38350   13.07060 18295.71680    -999.25 17576.79300
 2800.00000  225.48640  268.45070  244.60970   25.31540   20.87100   -7.05260 2700.20000    0.00620    -999.25    0.00570   47.91340   -7.05260  181.97930  181.97930   46.62660    -999.25   41.25220   41.25220  244.60970   47.91340   56.03520    -999.25   56.03520    0.06830    -999.25    0.06830 2700.20000   69.98760  -51.13920 -102.36120   69.98760 18592.62890    -999.25 17669.05860
 2850.00000  231.92940  237.12890  237.12570   18.68730   16.99090    1.05260 2698.20000    0.00660    -999.25    0.00690   58.85520    1.05260  181.41320  181.41320   47.33610    -999.25   44.99260   44.99260  237.12570   58.85520   68.73160    -999.25   68.73160    0.05460    -999.25    0.05460 2698.20000   92.56700 -101.24820 -161.58140   92.56700 18945.70510    -999.25 17898.07620
 2900.00000  223.62660  237.13890  225.57690   11.02290    8.94050  -10.68420 2702.00000    0.00470    -999.25    0.00470  111.85090  -10.68420  181.14070  181.14070   44.36060    -999.25   41.44320   41.44320  225.57690  111.85090  127.43750    -999.25  127.43750    0.03380    -999.25    0.03380 2702.00000  186.00070  -47.86020 -117.30480  186.00070 19336.95310    -999.25 18026.74410
 2950.00000  218.02950  296.87300  238.24110    2.05880    0.73730   -4.89470 2713.20000   -0.00240    -999.25   -0.00190 1356.28110   -4.89470  159.42040  159.42040   14.76340   15.57060   14.19500   14.19500  238.24110 1356.28110 2023.64000  226.29000 2023.64000    0.00370    -999.25    0.00370 2713.20000    -999.25 -221.73840 -302.73600    -999.25 19722.57620  997.65930 18247.58010
 3000.00000  218.07590  360.25240  244.17510    3.08230    1.44410   -6.73680 2737.60000   -0.01770    -999.25   -0.01610  692.48400   -6.73680  160.18020  160.18020   11.28350   12.04460   11.84250   11.84250  244.17510  692.48400  559.83280  231.69500  559.83280    0.00950    -999.25    0.00950 2737.60000 1341.62150 -222.29570 -331.50610 1341.62150 19757.54690  998.88480 18491.35740
 3050.00000  219.72600  306.74680  245.21050    3.02060    1.14610  -10.63160 2690.80000    0.01300    -999.25    0.01120  872.50320  -10.63160  159.90630  159.90630   11.15070   11.59770   10.97490   10.97490  245.21050  872.50320 1464.01000  228.76500 1464.01000    0.00140    -999.25    0.00140 2690.80000 1379.71340 -110.77430 -248.19760 1379.71340 19626.45900  985.54300 18742.07420
 3100.00000  222.18620  242.44040  227.36850   11.80000   10.32250   -7.78950 2694.40000    0.00920    -999.25    0.00910   96.87610   -7.78950  167.34870  167.34870   11.83880   11.80320   10.88670   10.88670  227.36850   96.87610   86.31470  230.64000   86.31470    0.00800    -999.25    0.00800 2694.40000  124.28080 -113.31970 -278.95580  124.28080 20057.97270 1012.01170 18923.79490
 3150.00000  216.38920  228.37880  221.81230   21.67730   19.01660    7.10530 2751.80000   -0.03170    -999.25   -0.02440   52.58570    7.10530  159.32340  159.32340   11.35810   13.29370   10.66310   10.66310  221.81230   52.58570   97.53520  224.91250   97.53520    0.01810    -999.25    0.01810 2751.80000  264.60650  -92.59860 -286.44750  264.60650 19932.91800 1004.87320 19094.42580
 3200.00000  220.10340  229.72990  225.20480   29.89280   29.01960   23.94740 2719.30000   -0.00820    -999.25   -0.00540   34.45950   23.94740  170.68210  170.68210   20.40750   22.85430   20.71410   20.71410  225.20480   34.45950   38.97150  226.97750   38.97150    0.05770    -999.25    0.05770 2719.30000  100.58360 -135.28670 -357.34860  100.58360 20491.31050 1030.95010 19014.14450
 3250.00000  221.83530  225.03590  225.21750   32.41910   32.02140  -10.73680 2726.90000   -0.01150    -999.25   -0.00990   31.22910  -10.73680  176.94180  176.94180   39.01670   41.29080   34.18970   34.18970  225.21750   31.22910   32.24240  235.00750   32.24240    0.04020    -999.25    0.04020 2726.90000   37.10570   35.14480 -215.12990   37.10570 20752.39260 1043.72730 19536.98830
 3300.00000  242.27070  224.59190  228.95620    2.47400    0.51010  283.84210 2761.30000   -0.02730    -999.25   -0.03000 1960.44030  283.84210  165.68530  165.68530   15.72670   16.81310   16.15220   16.15220  228.95620 1960.44030 1993.95140  241.91500 1993.95140    0.00420    -999.25    0.00420 2761.30000    -999.25   67.80600 -213.39910    -999.25 21026.12300 1065.15440 19822.84180
 3350.00000  218.09970  224.84680  220.34790   16.91310   14.41980    5.63160 2690.20000    0.01380    -999.25    0.01160   69.34890    5.63160  186.37190  186.37190   38.19150   40.51270   37.36320   37.36320  220.34790   69.34890   73.26720  229.24750   73.26720    0.05130    -999.25    0.05130 2690.20000   83.75960  263.94350  -61.84600   83.75960 21663.48830 1087.03140 20185.05860
 3400.00000  389.45870  317.79740  337.47370  292.60590  297.00910  118.47370 2259.50000    0.27640    -999.25    0.26350    3.36690  118.47370  272.29380  272.29380   88.36330   93.81230   84.23320   84.23320  337.47370    3.36690    3.25160  303.31000    3.25160    0.36780    -999.25    0.36780 2259.50000    3.85140  204.80850  -97.99410    3.85140 21562.80470 1079.73650 20329.82620
