~Version ---------------------------------------------------
VERS. 2.0 : CWLS log ASCII Standard -VERSION 2.0
WRAP. YES : MULTIPLE LINES PER DEPTH STEP
~Well ------------------------------------------------------
STRT.FT                      2000.0 : START DEPTH
STOP.FT                     17600.0 : STOP DEPTH
STEP.FT                    50.00000 : STEP LENGTH
NULL.                      -99925.0 : NULL VALUE
COMP.        SEAFORT PETROLEUM LTD. : COMPANY
WELL. SEAFORT ET AL KAKWA 2-20-61-7 : WELL
FLD .                               : FIELD
LOC .                               : LOCATION
CTRY.                        CANADA : COUNTRY
SRVC.        Schlumberger of Canada : SERVICE COMPANY
DATE.                   12-Aug-1975 : LOGDATE
PROV.                       Alberta : PROVINCE
UWI .              100022006107W600 : UNIQUE WELL ID
SLAT.WGS84                 54.28609 : SURFACE LATITUDE
SLON.WGS84                -119.0081 : SURFACE LONGITUDE
~Curve Information -----------------------------------------
DEPT    .FT    : DEPTH FEET
CALDED  .IN    : CALIPER FROM DENSITY LOG [ADJ TO GRRED]
CALSED  .IN    : CALIPER FROM SONIC LOG
CALWS   .IN    : CALIPER [CALSED]
CONDWS  .MMHO  : CONDUCTIVITY [1000/DRESWS]
DCORED  .G/C3  : DENSITY CORRECTION FROM DENSITY LOG [ADJ TO GRRED]
DCORWS  .G/C3  : DENSITY CORRECTION [DCORED]
DENWS   .G/C3  : BULK DENSITY [M=2.65 F=1.0] <14590> [M=2.71 F=1.0] [RHOBED]
DPHILSED.V/V   : DENSITY POROSITY [M=2.71 F=1.0] FROM DENSITY LOG [ADJ TO GRRED]
DPHISSED.V/V   : DENSITY POROSITY [M=2.65 F=1.0] FROM DENSITY LOG [ADJ TO GRRED]
DPOWS   .V/V   : DENSITY POROSITY [M=2.71 F=1.0] [CALCULATED FROM DENWS]
DRESWS  .OHMM  : DEEP RESISTIVITY [SPL ILDED <14590> LLDED]
DTED    .US/F  : DELTA TIME FROM SONIC LOG
DTWS    .US/F  : DELTA TIME [DTED]
GRDED   .GAPI  : GAMMA RAY FROM DENSITY LOG [ADJ TO GRRED]
GRRED   .GAPI  : GAMMA RAY FROM RESISTIVITY LOG
GRSED   .GAPI  : GAMMA RAY FROM SONIC LOG
GRWS    .GAPI  : GAMMA RAY [GRSED, CSG ABOVE 2005F]
ILDED   .OHMM  : INDUCTION LOG DEEP RESISTIVITY
ILMED   .OHMM  : INDUCTION LOG MEDIUM RESISTIVITY
LL8ED   .OHMM  : 8 INCH LATEROLOG RESISTIVITY
LLDED   .OHMM  : LATEROLOG DEEP RESISTIVITY
LLSED   .OHMM  : LATEROLOG SHALLOW RESISTIVITY
MRESWS  .OHMM  : MEDIUM RESISTIVITY [ILMED]
NPHILSED.V/V   : NEUTRON POROSITY LIMESTONE FROM DENSITY LOG [ADJ TO GRRED]
NPHISSED.V/V   : NEUTRON POROSITY SANDSTONE FROM DENSITY LOG [ADJ TO GRRED]
NPOWS   .V/V   : NEUTRON POROSITY LIMESTONE [CONVERTED NPHISSED TO LIMESTONE SPL WITH NPHILSED @14516F]
RHOBED  .G/C3  : BULK DENSITY FROM DENSITY LOG [ADJ TO GRRED]
SPRED   .MV    : SPONTANEOUS POTENTIAL FROM RESISTIVITY LOG
SPWS    .MV    : SPONTANEOUS POTENTIAL [BASELINE 0 MV] [SPRED]
SRESWS  .OHMM  : SHALLOW RESISTIVITY [SPL LL8ED <14590> LLSED]
~Params ----------------------------------------------------
PD  .                     GL : PERMANENT DATUM
EPD .FT                 3465 : ELEVATION PERMANENT DATUM
LMF .                     KB : LOG MEASURED FROM
DAPD.FT                   21 : FEET ABOVE PERMANENT DATUM
EKB .FT                 3486 : KELLY BUSHING
EGL .FT                 3465 : GROUND LEVEL
DATE.               10/06/75 : RUN DATE
RUN .                      2 : RUN NUMBER
DD  .FT                17618 : DEPTH DRILLER
DL  .FT                17600 : DEPTH LOGGER
BLI .FT                17600 : BOTTOM LOG INTERVAL
TLI .FT                14577 : TOP LOG INTERVAL
CBD .FT                14590 : CASING BOTTOM DRILLER
CBL .FT                14577 : CASING BOTTOM LOGGER
BS  .IN                  9.5 : BIT SIZE
BSD .FT                17618 : BIT SIZE AT DEPTH
DFT .                    GEL : DRILLING FLUID TYPE
DFD .                   13.8 : DRILLING FLUID DENSITY
DFV .                    115 : DRILLING FLUID VISCOSITY
DFPH.                     11 : DRILLING FLUID PH
DFL .                      7 : DRILLING FLUID LOSS
RMS .OHMM              0.809 : RESISTIVITY MUD SAMPLE
MST .DEGF                 75 : MUD SAMPLE TEMPERATURE
WITN.                  BROWN : WITNESSED BY
CLNT.                A2DTECH : CLIENT CODE
ORIG.               5" PRINT : ORIGIN OF DATA
UWI .       100022006107W600 : UNIQUE WELL ID
DICO. A2D Technologies, Inc. : DIGITIZING COMPANY
~Other -----------------------------------------------------
~ASCII -----------------------------------------------------
# ...
 11600.00000   12.84390   12.59040   12.59040   49.79710    0.05820    0.05820    2.50560   -99925.0    0.13280    0.11950   20.08150   61.27030   61.27030   67.08980   60.88740   56.06400   56.06400   20.08150   33.25200   20.13750   29.25060   33.88600   33.25200   -99925.0    0.08850    0.04810    2.50560  -89.48220   -5.62190   20.13750
 11650.00000   17.92150   14.51220   14.51220  283.02950    0.03290    0.03290    1.82770   -99925.0    0.30000    0.51600    3.53320   74.34280   74.34280   35.07610   37.15290   37.67970   37.67970    3.53320   32.07960   14.25210   75.52770   28.03250   32.07960   -99925.0    0.19460    0.15120    1.82770  -84.85540   -1.24080   14.25210
 11700.00000   13.37640   13.04510   13.04510   75.71570    0.10460    0.10460    2.37260   -99925.0    0.16600    0.19730   13.20730   66.22230   66.22230   80.03880   79.67880   63.91750   63.91750   13.20730   22.98930   17.44670   18.53220   19.24420   22.98930   -99925.0    0.22800    0.18430    2.37260  -85.57900   -2.42200   17.44670
 11750.00000   13.07320   14.00560   14.00560   59.18560    0.00760    0.00760    2.60250   -99925.0    0.02990    0.06290   16.89600   67.36210   67.36210   67.05390   71.35790   66.55030   66.55030   16.89600   15.79890   12.26690   31.07200   28.77820   15.79890   -99925.0    0.12230    0.08000    2.60250  -87.16870   -4.46930   12.26690
 11800.00000   13.11660   14.06520   14.06520  125.74030    0.09450    0.09450    2.64260   -99925.0    0.00070    0.03940    7.95290   71.08400   71.08400   54.12850   55.50090   58.98530   58.98530    7.95290   14.30000   12.41690   27.07760   28.55200   14.30000   -99925.0    0.09770    0.05650    2.64260  -88.92360   -6.68170   12.41690
 11850.00000   12.36730   13.36680   13.36680   50.43090    0.05700    0.05700    2.61530   -99925.0    0.02010    0.05540   19.82910   70.79190   70.79190   92.70410   77.31290   88.51190   88.51190   19.82910   15.59620   15.93670   26.24220   29.83620   15.59620   -99925.0    0.21260    0.16900    2.61530  -92.72300  -10.93870   15.93670
 11900.00000   13.70570   14.63910   14.63910  102.56090    0.06480    0.06480    2.66900   -99925.0   -0.01520    0.02400    9.75030   74.06870   74.06870   99.68360   88.90060   86.54800   86.54800    9.75030   12.59490   10.31690   17.22970   18.56240   12.59490   -99925.0    0.21040    0.16680    2.66900  -91.64880  -10.32210   10.31690
 11950.00000   13.31180   14.64910   14.64910  217.65630    0.09490    0.09490    2.68540   -99925.0   -0.02260    0.01440    4.59440   74.21840   74.21840   90.60300   81.58630   77.66180   77.66180    4.59440    9.38310    8.35790   14.33270   15.98290    9.38310   -99925.0    0.25710    0.21320    2.68540  -88.75580   -7.88670    8.35790
 12000.00000   12.63230   14.17900   14.17900  161.30850    0.05820    0.05820    2.62600   -99925.0    0.01070    0.04910    6.19930   80.06860   80.06860   97.14220   92.15830   94.17920   94.17920    6.19930    7.56700    9.24000    7.61890    8.60220    7.56700   -99925.0    0.30320    0.25920    2.62600  -83.04180   -2.63030    9.24000
 12050.00000   13.85800   16.32800   16.32800  409.75210    0.19520    0.19520    2.39810   -99925.0    0.15560    0.18240    2.44050   92.47000   92.47000   91.93080   86.41180   78.96660   78.96660    2.44050    4.15460    4.09350    4.21320    4.94330    4.15460   -99925.0   -99925.0   -99925.0    2.39810  -80.84600   -0.89200    4.09350
 12100.00000   13.76760   14.30610   14.30610  360.56820    0.14030    0.14030    2.37980   -99925.0    0.16160    0.19310    2.77340   96.03800   96.03800   90.30420   87.89450   82.57310   82.57310    2.77340    3.53580    3.85690    4.09980    5.06590    3.53580   -99925.0   -99925.0   -99925.0    2.37980  -80.85660   -1.36020    3.85690
 12150.00000   12.82440   12.92300   12.92300   75.58980    0.05470    0.05470    2.54840   -99925.0    0.06120    0.09450   13.22930   72.12540   72.12540  157.90670  143.30670  147.93120  147.93120   13.22930   62.04390   36.23220  296.41580  326.67550   62.04390   -99925.0    0.11270    0.07070    2.54840  -89.82830  -10.34270   36.23220
 12200.00000   12.35570   12.31240   12.31240   60.50670    0.03890    0.03890    2.73590   -99925.0   -0.05190   -0.01510   16.52710   71.06550   71.06550   27.17090  134.34960  192.81730  192.81730   16.52710   96.34140   39.30500  156.43790  185.69060   96.34140   -99925.0    0.04610    0.01300    2.73590  -95.59840  -15.32930   39.30500
 12250.00000   12.22840   12.25820   12.25820   53.01920    0.02380    0.02380    2.76260   -99925.0   -0.07560   -0.03080   18.86110   52.78880   52.78880   63.35040  162.81940   45.27210   45.27210   18.86110  226.17810   45.49670  420.25280  325.31210  226.17810   -99925.0    0.04480    0.01200    2.76260  -94.78010  -13.72750   45.49670
 12300.00000   12.33010   12.34030   12.34030   95.56850    0.08620    0.08620    2.80270   -99925.0   -0.09940   -0.05420   10.46370   57.06080   57.06080   60.40810  158.81960   51.69640   51.69640   10.46370   24.19390   24.19990   70.50890   48.00500   24.19390   -99925.0    0.10670    0.06500    2.80270  -84.05770   -2.22160   24.19990
 12350.00000   12.95600   12.48680   12.48680   39.27650    0.04290    0.04290    2.83850   -99925.0    0.30000   -0.07510   25.46050   52.74060   52.74060   40.05060  143.32570   62.68230   62.68230   25.46050   50.08830   27.23720   35.81030   21.30670   50.08830   -99925.0    0.06110    0.02470    2.83850  -89.49340   -6.87380   27.23720
 12400.00000   12.41680   12.23540   12.23540   34.74670    0.02490    0.02490    2.80290   -99925.0   -0.09780   -0.05430   28.77970   51.82740   51.82740   45.43950  148.11510   36.51640   36.51640   28.77970   83.00080   38.27020  130.20020  102.49170   83.00080   -99925.0    0.04430    0.01160    2.80290  -95.16500  -11.76180   38.27020
 12450.00000   12.48850   12.48920   12.48920   60.02330    0.02760    0.02760    2.80070   -99925.0   -0.09680   -0.05300   16.66020   54.19110   54.19110   54.81960  161.89890   64.86150   64.86150   16.66020   70.87550   36.96030   41.76200   55.88840   70.87550   -99925.0    0.08340    0.04360    2.80070  -92.58720   -8.40050   36.96030
 12500.00000   12.36020   12.32140   12.32140   53.99340    0.03850    0.03850    2.87590   -99925.0    0.30000   -0.09700   18.52080   49.73600   49.73600   31.50720  133.56270   34.66760   34.66760   18.52080  172.66520   38.79390 1963.56180  782.36040  172.66520   -99925.0    0.02450   -0.00270    2.87590  -90.41770   -5.44750   38.79390
 12550.00000   12.22960   12.01730   12.01730   85.36870    0.00900    0.00900    2.74940   -99925.0   -0.05490   -0.02300   11.71390   60.35010   60.35010   69.57400  169.67600   86.26260   86.26260   11.71390   25.67000   28.83700   33.09240   37.80850   25.67000   -99925.0    0.06330    0.02650    2.74940  -89.16070   -3.40700   28.83700
 12600.00000   12.30510   12.32520   12.32520   74.41920    0.04480    0.04480    2.76170   -99925.0   -0.07450   -0.03020   13.43740   61.04740   61.04740   78.16050  165.18850   79.06770   79.06770   13.43740   38.90020   29.34320  142.39100  126.59130   38.90020   -99925.0    0.06940    0.03160    2.76170  -93.89790   -7.36070   29.34320
 12650.00000   12.32820   12.42260   12.42260   59.46750    0.01910    0.01910    2.65820   -99925.0   -0.01040    0.03030   16.81590   63.97280   63.97280  153.60820  214.84950  134.29130  134.29130   16.81590   68.74050   37.04390   86.59030   92.56800   68.74050   -99925.0    0.12660    0.08430    2.65820  -88.43060   -1.10990   37.04390
 12700.00000   12.14150   12.28760   12.28760   61.03030    0.05970    0.05970    2.72210   -99925.0   -0.04600   -0.00710   16.38530   54.52360   54.52360   75.38740  277.51730   69.46580   69.46580   16.38530   39.53740   36.00600   48.65370   54.08710   39.53740   -99925.0    0.06190    0.02540    2.72210  -90.78780   -1.95700   36.00600
 12750.00000   12.48670   12.49250   12.49250   67.01330    0.04920    0.04920    2.66860   -99925.0   -0.02020    0.02420   14.92240   55.66570   55.66570   86.89530  291.12050   80.22280   80.22280   14.92240   66.30500   30.77760  126.72630  136.34580   66.30500   -99925.0    0.06810    0.03050    2.66860  -95.49630   -4.72870   30.77760
