~Version ---------------------------------------------------
VERS.      2.0 : CWLS log ASCII Standard -VERSION 2.0
WRAP.       NO : One line per depth step
CREA. 11/20/17 : LAS Creation Date
~Well ------------------------------------------------------
STRT.FT                          850.0 : START DEPTH
STOP.FT                         9050.0 : STOP DEPTH
STEP.FT                       50.00000 : STEP LENGTH
NULL.                          -999.25 : NULL VALUE
COMP.      BLUEMOUNT RESOURCES LIMITED : COMPANY
WELL. BLUEMOUNT WHITECOURT 10-36-59-13 : WELL
FLD .                                  : FIELD
LOC .                                  : LOCATION
CTRY.                           CANADA : COUNTRY
SRVC.                          Unknown : SERVICE COMPANY
DATE.                      30-Jan-1973 : LOGDATE
PROV.                          Alberta : PROVINCE
UWI .                 100103605913W500 : UNIQUE WELL ID
SLAT.WGS84                    54.14792 : SURFACE LATITUDE
SLON.WGS84                   -115.8081 : SURFACE LONGITUDE
~Curve Information -----------------------------------------
DEPT    .FT    : Depth Curve
CALDED  .IN    : CALIPER FROM DENSITY LOG [ADJ. TO RESISTIVITY LOG]
CALSED  .IN    : CALIPER FROM SONIC LOG [ADJ. TO RESISTIVITY LOG]
CALWS   .IN    : CALIPER [CALSED SPL. TO CALDED @ 2283']
CONDWS  .MMHO  : CONDUCTIVITY [1000/DRESWS]
DCORED  .G/C3  : DENSITY CORRECTION FROM DENSITY LOG [ADJ. TO RESISTIVITY LOG]
DCORWS  .G/C3  : DENSITY CORRECTION [DCORED]
DENWS   .G/C3  : FORMATION BULK DENSITY [CALC. FROM DPOLSWS, M=2.71, F=1.00]
DPHILSED.V/V   : DENSITY POROSITY LIMESTONE [M=2.71, F=1.00] FROM DENSITY LOG [ADJ. TO RESISTIVITY LOG]
DPOLSWS .V/V   : DENSITY POROSITY LIMESTONE [DPHILSED]
DRESWS  .OHMM  : DEEP RESISTIVITY [ILDED]
DTED    .US/F  : DELTA-T FROM SONIC LOG [ADJ. TO RESISTIVITY LOG]
DTWS    .US/F  : COMPRESSIONAL SONIC [DTED]
GRDED   .GAPI  : GAMMA RAY FROM DENSITY LOG [ADJ. TO RESISTIVITY LOG]
GRSED   .GAPI  : GAMMA RAY FROM SONIC LOG [ADJ. TO RESISTIVITY LOG]
GRWS    .GAPI  : GAMMA RAY [GRSED SPL. TO GRDED @ 2280'] GRSED IN CSG TOP-914' ADDED 40 GAPI
ILDED   .OHMM  : DEEP INDUCTION RESISTIVITY FROM RESISTIVITY LOG
ILMED   .OHMM  : MEDIUM INDUCTION RESISTIVITY FROM RESISTIVITY LOG
LL8ED   .OHMM  : LATEROLOG 8 RESISTIVITY FROM RESISTIVITY LOG
MRESWS  .OHMM  : MEDIUM RESISTIVITY [ILMED]
NPHILSED.V/V   : NEUTRON POROSITY LIMESTONE FROM DENSITY LOG [ADJ. TO RESISTIVITY LOG]
NPOLSWS .V/V   : NEUTRON POROSITY LIMESTONE [NPHILSED]
RHOBED  .G/C3  : BULK DENSITY FROM DENSITY LOG [ADJ. TO RESISTIVITY LOG]
SPRED   .MV    : SPONTANEOUS POTENTIAL FROM RESISTIVITY LOG
SPWS    .MV    : SPONTANEOUS POTENTIAL [BASELINE 0 MV, SPRED]
SRESWS  .OHMM  : SHALLOW RESISTIVITY [LL8ED]
~Params ----------------------------------------------------
PD  .                     GL : PERMANENT DATUM
EPD .FT                 2542 : ELEVATION PERMANENT DATUM
LMF .                     KB : LOG MEASURED FROM
DAPD.FT                 17.3 : FEET ABOVE PERMANENT DATUM
EKB .FT               2559.3 : KELLY BUSHING
EGL .FT                 2542 : GROUND LEVEL
DATE.               01/30/73 : RUN DATE
RUN .                      1 : RUN NUMBER
DD  .FT                 9060 : DEPTH DRILLER
DL  .FT                 9056 : DEPTH LOGGER
BLI .FT                 9053 : BOTTOM LOG INTERVAL
TLI .FT                  911 : TOP LOG INTERVAL
CBD .FT                  912 : CASING BOTTOM DRILLER
CBL .FT                  911 : CASING BOTTOM LOGGER
BS  .IN                 8.75 : BIT SIZE
BSD .FT                 9060 : BIT SIZE AT DEPTH
DFT .               GEL CHEM : DRILLING FLUID TYPE
DFD .                    9.2 : DRILLING FLUID DENSITY
DFV .                     80 : DRILLING FLUID VISCOSITY
DFPH.                   10.5 : DRILLING FLUID PH
DFL .                    8.8 : DRILLING FLUID LOSS
MSS .             CIRCULATED : MUD SAMPLE SOURCE
RMS .OHMM               1.83 : RESISTIVITY MUD SAMPLE
MST .DEGF                 76 : MUD SAMPLE TEMPERATURE
RMF .OHMM               1.59 : RESISTIVITY MUD FILTRATE SAMPLE
MFST.DEGF                 57 : MUD FILTRATE SAMPLE TEMPERATURE
RMC .OHMM                3.6 : RESISTIVITY MUD CAKE
MCST.DEGF                 76 : MUD CAKE SAMPLE TEMPERATURE
RMB .OHMM                0.9 : RESISTIVITY MUD AT BHT
TCS .HRS                   4 : TIME CIRCULATED STOPPED
LUN .                   5671 : LOGGING UNIT NUMBER
LUL .                    EDM : LOGGING UNIT LOCATION
ENGI.                 CALVIN : RECORDING ENGINEER
WITN.         SCHWAB DRYDALE : WITNESSED BY
CLNT.                A2DTECH : CLIENT CODE
ORIG.            2" 5" PRINT : ORIGIN OF DATA
UWI .       100103605913W500 : UNIQUE WELL ID
DICO. A2D Technologies, Inc. : DIGITIZING COMPANY
~Other -----------------------------------------------------
DI-LL-CNFD-SONIC LOG RUN
RHOBED & DCORED FROM 2" LOG
~ASCII -----------------------------------------------------
# ...
 2250.00000    -999.25    -999.25    -999.25   59.14880    -999.25    -999.25    -999.25    -999.25    -999.25   16.90650    -999.25    -999.25    -999.25    -999.25    -999.25   16.90650   16.07240   14.11820   16.07240    -999.25    -999.25    -999.25  -52.54150   -8.44680   14.11820
 2300.00000   10.08140    -999.25   10.08140   70.45970    0.06520    0.06520    2.41980    0.16970    0.16970   14.19250    -999.25    -999.25   50.13810    -999.25   50.13810   14.19250   13.64340   16.46320   13.64340    0.30160    0.30160    2.41870  -53.10570   -8.94650   16.46320
 2350.00000   13.53450    -999.25   13.53450  226.99930    0.19760    0.19760    2.10910    0.35140    0.35140    4.40530    -999.25    -999.25   65.18970    -999.25   65.18970    4.40530    4.13800    5.36680    4.13800    0.41900    0.41900    2.11400  -48.83970   -4.61590    5.36680
 2400.00000    8.11930    -999.25    8.11930   54.70400    0.13830    0.13830    2.39210    0.18590    0.18590   18.28020    -999.25    -999.25   44.71150    -999.25   44.71150   18.28020   17.59480   18.52930   17.59480    0.29650    0.29650    2.39340  -61.03410  -16.74580   18.52930
 2450.00000   15.27580   13.05950   15.27580  234.20370    0.20040    0.20040    1.91130    0.46710    0.46710    4.27020  102.14630  102.14630   53.71830   69.31370   53.71830    4.27020    3.82070    5.35080    3.82070    0.55560    0.55560    1.90490  -48.15010   -3.79690    5.35080
 2500.00000   12.64390   10.13240   12.64390  188.30620    0.23550    0.23550    1.91250    0.46640    0.46640    5.31050   91.41450   91.41450   62.25540   77.24940   62.25540    5.31050    4.89940    6.62430    4.89940    0.33790    0.33790    2.01000  -48.46630   -4.04880    6.62430
 2550.00000   10.35680   10.27260   10.35680  211.76570    0.15930    0.15930    2.32170    0.22710    0.22710    4.72220   95.52940   95.52940   57.44330   78.80550   57.44330    4.72220    4.51600    5.60320    4.51600    0.33040    0.33040    2.32830  -48.04810   -3.56610    5.60320
 2600.00000   11.53710   12.66040   11.53710  178.74060    0.21660    0.21660    2.09440    0.36000    0.36000    5.59470  103.69200  103.69200   62.76860   73.14540   62.76860    5.59470    6.22990    7.33860    6.22990    0.49040    0.49040    2.10440  -50.95770   -6.41110    7.33860
 2650.00000    8.91680    9.90930    8.91680  133.51490    0.06080    0.06080    2.53590    0.10180    0.10180    7.48980   86.68560   86.68560   63.17430   75.35920   63.17430    7.48980    8.29230    9.17000    8.29230    0.33370    0.33370    2.53910  -48.81810   -4.20700    9.17000
 2700.00000   12.40020   10.44240   12.40020  207.91220    0.21730    0.21730    1.99200    0.41990    0.41990    4.81350   91.75950   91.75950   54.86060   72.68690   54.86060    4.81350    5.13530    7.53100    5.13530    0.36550    0.36550    1.98970  -48.48500   -3.80900    7.53100
 2750.00000    8.01680    9.00750    8.01680  130.80270    0.19420    0.19420    2.41480    0.17270    0.17270    7.64510   85.71450   85.71450   59.74980   71.47920   59.74980    7.64510    8.30560    9.73290    8.30560    0.30620    0.30620    2.41330  -51.52330   -6.78310    9.73290
 2800.00000   14.47520    9.78090   14.47520  217.20720    0.22330    0.22330    2.00040    0.41500    0.41500    4.60390  100.52960  100.52960   60.54860   81.06640   60.54860    4.60390    4.75780    5.76880    4.75780    0.42420    0.42420    1.98790  -47.95810   -3.15330    5.76880
 2850.00000   11.94600    9.97850   11.94600  145.02630    0.23830    0.23830    1.98120    0.42620    0.42620    6.89530   94.24520   94.24520   61.33090   77.06410   61.33090    6.89530    7.15830    7.41770    7.15830    0.34820    0.34820    1.97270  -48.36720   -3.61410    7.41770
 2900.00000   12.55900    9.98820   12.55900  172.97450    0.25270    0.25270    1.97400    0.43040    0.43040    5.78120   89.83940   89.83940   63.93840   83.53310   63.93840    5.78120    5.91390    7.46140    5.91390    0.34330    0.34330    1.99650  -48.35000   -3.72600    7.46140
 2950.00000   11.55840   10.63480   11.55840  152.85170    0.19510    0.19510    1.94370    0.44810    0.44810    6.54240   91.52730   91.52730   86.90640  109.69750   86.90640    6.54240    7.12250    8.39550    7.12250    0.39340    0.39340    1.92360  -51.19640   -6.70210    8.39550
 3000.00000   12.52190   13.40890   12.52190  181.93730    0.18980    0.18980    1.91960    0.46220    0.46220    5.49640   99.88430   99.88430   84.31020  103.87690   84.31020    5.49640    6.07050    6.95680    6.07050    0.52870    0.52870    1.90330  -51.03100   -6.66520    6.95680
 3050.00000   12.62300   11.18130   12.62300  151.57950    0.19740    0.19740    1.81700    0.52220    0.52220    6.59720   92.25850   92.25850   84.07640  113.80030   84.07640    6.59720    6.97630    8.44060    6.97630    0.38490    0.38490    1.80410  -50.89270   -6.65600    8.44060
 3100.00000   11.94100    9.44160   11.94100  155.37120    0.18340    0.18340    1.86370    0.49490    0.49490    6.43620   97.32370   97.32370   93.90160  129.94960   93.90160    6.43620    6.81630    9.23290    6.81630    0.39540    0.39540    1.84590  -50.05640   -5.94880    9.23290
 3150.00000   10.98350   10.52160   10.98350  110.52290    0.29240    0.29240    2.32940    0.22260    0.22260    9.04790   95.88240   95.88240  109.05030  142.54010  109.05030    9.04790    9.53260   12.51020    9.53260    0.36350    0.36350    2.33310  -50.94340   -6.96490   12.51020
 3200.00000   13.18530   11.01360   13.18530  138.40840    0.24190    0.24190    2.07660    0.37040    0.37040    7.22510   94.60460   94.60460   92.97000  121.20490   92.97000    7.22510    7.62430   10.08990    7.62430    0.38630    0.38630    2.08290  -50.33390   -6.48510   10.08990
 3250.00000   11.97210   10.70970   11.97210  121.83980    0.26120    0.26120    2.11510    0.34790    0.34790    8.20750   88.11190   88.11190   89.73430  124.81350   89.73430    8.20750    8.56180   10.79090    8.56180    0.30740    0.30740    2.11930  -51.15740   -7.43710   10.79090
 3300.00000   10.98620   10.84980   10.98620  164.13620    0.20750    0.20750    1.97150    0.43190    0.43190    6.09250   91.30400   91.30400   92.23890  115.95550   92.23890    6.09250    6.43940    7.55850    6.43940    0.39410    0.39410    1.94420  -51.39240   -7.80120    7.55850
 3350.00000   12.35220   11.09450   12.35220  162.16390    0.13490    0.13490    1.71290    0.58310    0.58310    6.16660   93.82400   93.82400   84.86400  106.61960   84.86400    6.16660    6.66810    7.92030    6.66810    0.44240    0.44240    1.66440  -51.51780   -8.05570    7.92030
 3400.00000   12.33170   10.58180   12.33170  130.43590    0.22910    0.22910    1.94670    0.44640    0.44640    7.66660   90.09950   90.09950   91.15800  129.00980   91.15800    7.66660    7.93390    9.18430    7.93390    0.32630    0.32630    1.95070  -50.54950   -7.21660    9.18430
 3450.00000   12.35790   10.44040   12.35790  152.94660    0.21020    0.21020    2.00470    0.41250    0.41250    6.53870   93.15040   93.15040   90.20420  115.27490   90.20420    6.53870    6.84810    8.38510    6.84810    0.37470    0.37470    2.00520  -50.37660   -7.17350    8.38510
 3500.00000   12.59080   10.31400   12.59080  141.81580    0.07040    0.07040    2.37740    0.19450    0.19450    7.05140   90.31750   90.31750  100.49810  123.41660  100.49810    7.05140    7.60440    8.25300    7.60440    0.31750    0.31750    2.39520  -50.76620   -7.69150    8.25300
 3550.00000   10.60420   10.61670   10.60420  139.99520    0.07890    0.07890    2.46260    0.14470    0.14470    7.14310   87.26690   87.26690   92.76250  118.02030   92.76250    7.14310    7.36440    9.30820    7.36440    0.27690    0.27690    2.47040  -50.67690   -7.73130    9.30820
 3600.00000   11.58590   10.56230   11.58590  150.35110    0.10840    0.10840    2.40870    0.17620    0.17620    6.65110   89.28230   89.28230   95.78180  119.95670   95.78180    6.65110    7.00840    8.39370    7.00840    0.32360    0.32360    2.41480  -50.33470   -7.51820    8.39370
