~Version ---------------------------------------------------
VERS.      2.0 : CWLS log ASCII Standard -VERSION 2.0
WRAP.       NO : One line per depth step
CREA. 07/17/14 : LAS Creation Date
~Well ------------------------------------------------------
STRT.M                              650.0 : START DEPTH
STOP.M                             3900.0 : STOP DEPTH
STEP.M                           50.00000 : STEP LENGTH
NULL.                             -999.25 : NULL VALUE
COMP. UNION OIL COMPANY OF CANADA LIMITED : COMPANY
WELL.     UNION ET AL WESTPEM 11-16-49-14 : WELL
FLD .                                     : FIELD
LOC .                                     : LOCATION
CTRY.                              CANADA : COUNTRY
SRVC.                             Unknown : SERVICE COMPANY
DATE.                         14-Apr-1979 : LOGDATE
PROV.                             Alberta : PROVINCE
UWI .                    100111604914W500 : UNIQUE WELL ID
SLAT.WGS84                       53.22947 : SURFACE LATITUDE
SLON.WGS84                      -115.9887 : SURFACE LONGITUDE
~Curve Information -----------------------------------------
DEPT    .M      : DEPTH METER
CALDED  .MM     : CALIPER FROM DENSITY LOG [ADJ. TO DLL-DISFL LOG]
CALSED  .MM     : CALIPER FROM SONIC LOG [ADJ. TO DLL-DISFL LOG]
CALWS   .MM     : CALIPER [CALSED SPL. TO CALDED @ 2731M -2738M & 3910.3 M]
CONDWS  .MMHO   : CONDUCTIVITY [1000/DRESWS]
DCORED  .KG/M3  : DENSITY CORRECTION FROM DENSITY LOG [ADJ. TO DLL-DISFL LOG]
DCORWS  .KG/M3  : DENSITY CORRECTION [DCORED]
DENWS   .KG/M3  : FORMATION BULK DENSITY [CALC. FROM DPOLSWS,M=2710,F=1000]
DPHILSED.V/V    : DENSITY POROSITY LIMESTONE [M=2710,F=1000] FROM DENSITY LOG [ADJ. TO DLL-DISFL LOG]
DPHISSED.V/V    : DENSITY POROSITY SANDSTONE [M=2650,F=1000] FROM DENSITY LOG [ADJ. TO DLL-DISFL LOG]
DPOLSWS .V/V    : DENSITY POROSITY LIMESTONE [DPHISSED CONVERTED TO LIMESTONE MATRIX SPL. TO DPHILSED @2831.6 M & SPL. TO CALC. FROM RHOBED M=2710,F=1000, AT SEVERAL INTERVAL ]
DRESWS  .OHMM   : DEEP RESISTIVITY [LLDED]
DTED    .US/M   : DELTA-T FROM SONIC LOG [ADJ. TO DLL-DISFL LOG]
DTWS    .US/M   : COMPRESSIONAL SONIC [DTED]
GRDED   .GAPI   : GAMMA RAY FROM DENSITY LOG [ADJ. TO DLL-DISFL LOG]
GRSED   .GAPI   : GAMMA RAY FROM SONIC LOG [ADJ. TO DLL-DISFL LOG]
GRWS    .GAPI   : GAMMA RAY [GRSED SP. TO GRDED @ 3902.7M] GRWS (+5 API) IN CSG. FROM 3270M - 3323M
ILDED   .OHMM   : DEEP INDUCTION RESISTIVITY FROM DISFL LOG
ILMED   .OHMM   : MEDIUM  INDUCTION RESISTIVITY FROM DISFL LOG
LLDED   .OHMM   : DEEP  LATEROLOG RESISTIVITY FROM DLL LOG [ADJ. TO DISFL LOG]
LLSED   .OHMM   : SHALLOW LATEROLOG  RESISTIVITY FROM DLL LOG [ADJ. TO DISFL LOG]
MRESWS  .OHMM   : MEDIUM RESISTIVITY [ILMED]
NPHILSED.V/V    : NEUTRON POROSITY LIMESTONE FROM DENSITY LOG [ADJ. TO DLL-DISFL LOG]
NPHISSED.V/V    : NEUTRON POROSITY SANDSTONE FROM DENSITY LOG [ADJ. TO DLL-DISFL LOG]
NPOLSWS .V/V    : NEUTRON POROSITY LIMESTONE [NPHISSED CONVERTED TO LIMESTONE MATRIX SPL. TO NPHILSED @2771.6 M USE SCHLUMBERGER (NPHI)]
RHOBED  .KG/M3  : BULK DENSITY FROM DENSITY LOG [ADJ. TO DLL-DISFL LOG]
SFLED   .OHMM   : SPHERICALLY FOCUSED RESISTIVITY FROM DISFL LOG
SPR1ED  .MV     : SPONTANEOUS POTENTIAL FROM DISFL LOG
SPRED   .MV     : SPONTANEOUS POTENTIAL FROM DLL LOG [ADJ. TO DISFL LOG]
SPWS    .MV     : SPONTANEOUS POTENTIAL [BASELINE 0 MV,(SPRED SPL. TO SPR1ED 3324.1M- 3347.1M & 3899.9M -BORROM)*-1]
SRESWS  .OHMM   : SHALLOW RESISTIVITY [LLSED SPL. TO SFLED @ 3895 M]
~Params ----------------------------------------------------
PD  .                         GL : PERMANENT DATUM
EPD .M                      1081 : ELEVATION PERMANENT DATUM
LMF .                         KB : LOG MEASURED FROM
DAPD.M                      9.75 : FEET ABOVE PERMANENT DATUM
DMF .                         KB : DRILLING MEASURED FROM
EKB .M                   1090.75 : KELLY BUSHING
EGL .M                      1081 : GROUND LEVEL
DATE.                   04/14/79 : RUN DATE
RUN .                          1 : RUN NUMBER
DD  .M                      3327 : DEPTH DRILLER
DL  .M                    3280.4 : DEPTH LOGGER
BLI .M                    3275.5 : BOTTOM LOG INTERVAL
TLI .M                     644.5 : TOP LOG INTERVAL
CS  .MM                      320 : CASING SIZE
CBD .M                       644 : CASING BOTTOM DRILLER
CBL .M                     644.5 : CASING BOTTOM LOGGER
BS  .MM                    311.2 : BIT SIZE
BSD .M                      3327 : BIT SIZE AT DEPTH
DFT .                        KCL : DRILLING FLUID TYPE
DFD .                       1265 : DRILLING FLUID DENSITY
DFV .                         59 : DRILLING FLUID VISCOSITY
DFPH.                       10.5 : DRILLING FLUID PH
DFL .                         18 : DRILLING FLUID LOSS
MSS .                       CIRC : MUD SAMPLE SOURCE
RMS .OHMM                 0.0927 : RESISTIVITY MUD SAMPLE
MST .DEGC                   16.6 : MUD SAMPLE TEMPERATURE
RMF .OHMM                 0.0137 : RESISTIVITY MUD FILTRATE SAMPLE
MFST.DEGC                   15.5 : MUD FILTRATE SAMPLE TEMPERATURE
MFSS.                      WATER : MUD FILTRATE SAMPLE SOURCE
MCSS.                       LOSS : MUD CAKE SAMPLE SOURCE
TCS .HRS                    1400 : TIME CIRCULATED STOPPED
TLAB.HRS                     100 : TIME LOGGER AT BOTTOM
LUN .                       7800 : LOGGING UNIT NUMBER
LUL .                        EDM : LOGGING UNIT LOCATION
ENGI.         WESOLOWSKY ROVELLI : RECORDING ENGINEER
WITN.                      MCRAF : WITNESSED BY
CLNT.                    A2DTECH : CLIENT CODE
ORIG. 6.5"/100M 16.5"/100M PRINT : ORIGIN OF DATA
UWI .           100111604914W500 : UNIQUE WELL ID
DICO.     A2D Technologies, Inc. : DIGITIZING COMPANY
~Other -----------------------------------------------------
DLL-DISFL-CNFD-BCS LOG RAN
RHOB,DCOR FROM TOP TO BOTTOM FROM SMALL SECTION
~ASCII -----------------------------------------------------
# ...
 3050.00000  308.42030  304.54210  304.54210    6.21230    7.45150    7.45150 2669.47300    0.02370    -999.25    0.02370  160.97010  175.75590  175.75590   40.18730   47.72940   47.72940    -999.25    -999.25  160.97010   81.20150    -999.25    0.02730    -999.25    0.02730 2656.76070    -999.25    -999.25  -74.84750  -15.83340   81.20150
 3100.00000  321.72350  319.56470  319.56470    9.75360   -4.72300   -4.72300 2633.22100    0.04490    -999.25    0.04490  102.52660  213.33130  213.33130  124.21910  123.82870  123.82870    -999.25    -999.25  102.52660   55.10140    -999.25    0.18810    -999.25    0.18810 2626.54610    -999.25    -999.25  -78.08490  -16.27870   55.10140
 3150.00000  450.00000  363.90890  363.90890    0.28130  -63.31600  -63.31600 1588.83860    0.45000    -999.25    0.65560 3555.43970  174.91730  174.91730   40.58860   45.82130   45.82130    -999.25    -999.25 3555.43970    7.63060    -999.25    0.29620    -999.25    0.29620 1588.83860    -999.25    -999.25  -70.46320   -5.86490    7.63060
 3200.00000  332.57270  298.97230  298.97230    5.97670   89.45990   89.45990 2591.15500    0.06950    -999.25    0.06950  167.31650  160.53300  160.53300   29.81100   37.91600   37.91600    -999.25    -999.25  167.31650   39.61960    -999.25    0.07660    -999.25    0.07660 2617.89580    -999.25    -999.25  -93.79650  -31.09930   39.61960
 3250.00000  359.81870  325.29670  325.29670    0.83540    2.44660    2.44660 2305.41400    0.23660    -999.25    0.23660 1196.96020  169.49350  169.49350   38.35010   42.17160   42.17160    -999.25    -999.25 1196.96020   30.15040    -999.25    0.08260    -999.25    0.08260 2317.28320    -999.25    -999.25  -85.73560  -25.11470   30.15040
 3300.00000    -999.25    -999.25    -999.25    -999.25    -999.25    -999.25    -999.25    -999.25    -999.25    -999.25    -999.25    -999.25    -999.25   26.91590   29.87640   34.87640    -999.25    -999.25    -999.25    -999.25    -999.25    0.17190    -999.25    0.17190    -999.25    -999.25    -999.25    -999.25    -999.25    -999.25
 3350.00000  360.65180  272.57120  272.57120    1.14020  121.87180  121.87180 2562.94000    0.08600    -999.25    0.08600  877.06160  180.41360  180.41360   31.41410   32.28310   32.28310   50.16700 1845.65080  877.06160   70.81020 1845.65080    0.11320    -999.25    0.11320 2557.55810  155.45030 -128.46570  -71.40140  -16.14870   70.81020
 3400.00000  255.18140  237.11890  237.11890   41.32390  142.96280  142.96280 2741.29300   -0.01830    -999.25   -0.01830   24.19910  236.55010  236.55010  122.01040  109.06090  109.06090   12.69610   10.30140   24.19910   17.80420   10.30140    0.17030    -999.25    0.17030 2723.18680   20.62730  -99.31640  -71.93320  -21.18790   17.80420
 3450.00000  239.95920  222.73230  222.73230   10.07940    6.22130    6.22130 2719.57600   -0.00560    -999.25   -0.00560   99.21240  176.12190  176.12190   45.66830   44.46390   44.46390  146.40700   91.03310   99.21240  103.28470   91.03310    0.02530    -999.25    0.02530 2711.86060  144.66080 -146.95030  -80.84990  -34.61190  103.28470
 3500.00000  221.87640  211.93790  211.93790  101.43120   28.28710   28.28710 2740.26700   -0.01770    -999.25   -0.01770    9.85890  236.26140  236.26140  100.91280  102.90900  102.90900    7.74010    7.46550    9.85890    9.42610    7.46550    0.17460    -999.25    0.17460 2741.55790   10.84530 -118.04900  -62.54680  -18.40350    9.42610
 3550.00000    -999.25  216.82850  216.82850  113.74750    -999.25    -999.25    -999.25    -999.25    -999.25    -999.25    8.79140  237.02110  237.02110    -999.25  102.59160  102.59160    6.93710    7.22150    8.79140    9.79620    7.22150    -999.25    -999.25    -999.25    -999.25   10.84020  -62.21130 -124.11800  -79.73280    9.79620
 3600.00000    -999.25  219.78860  219.78860  119.02640    -999.25    -999.25    -999.25    -999.25    -999.25    -999.25    8.40150  236.80410  236.80410    -999.25   85.96070   85.96070    7.29230    7.66720    8.40150    9.74800    7.66720    -999.25    -999.25    -999.25    -999.25   10.65960  -24.74040 -113.18240  -68.55520    9.74800
 3650.00000  226.80740  218.90140  218.90140   77.76350   75.97720   75.97720 2697.34600    0.00740    -999.25    0.00740   12.85950  251.44270  251.44270  124.77370  105.12280  105.12280    9.36910    9.90720   12.85950   14.25320    9.90720    0.21230    -999.25    0.21230 2702.19730   15.42770  -57.98310  -66.18580  -21.31670   14.25320
 3700.00000  241.90560  229.86930  229.86930  117.75100   25.74650   25.74650 2682.81100    0.01590    -999.25    0.01590    8.49250  262.00740  262.00740  113.32310  101.63590  101.63590    5.46450    5.14320    8.49250    7.46440    5.14320    0.18570    -999.25    0.18570 2680.41820    8.54380  -79.38080  -78.96320  -43.81570    7.46440
 3750.00000  242.33680  224.73270  224.73270   45.55680   32.63680   32.63680 2745.39700   -0.02070    -999.25   -0.02070   21.95060  204.63540  204.63540   70.23130   59.17610   59.17610   16.72790   17.97660   21.95060   19.18730   17.97660    0.08370    -999.25    0.08370 2734.50370   22.11610 -119.88260  -76.34900  -53.53980   19.18730
 3800.00000  226.39140  222.18910  222.18910   14.45260   -6.49440   -6.49440 2743.00300   -0.01930    -999.25   -0.01930   69.19150  180.63660  180.63660   48.46360   41.63330   41.63330   59.53410   55.99510   69.19150   59.86930   55.99510    0.04860    -999.25    0.04860 2723.02760   85.59440   20.18220  -87.35150  -76.88070   59.86930
 3850.00000  233.59850  221.89340  221.89340   17.75620    5.82340    5.82340 2723.68000   -0.00800    -999.25   -0.00800   56.31850  190.40850  190.40850   60.88120   60.93430   60.93430  102.12220   45.58920   56.31850   52.64990   45.58920    0.05410    -999.25    0.05410 2703.95870   63.39800  -79.56640    0.00000   -1.86750   52.64990
 3900.00000  214.21610  211.33640  211.33640   20.81970    0.25850    0.25850 2797.21000   -0.05100    -999.25   -0.05100   48.03140  168.93980  168.93980   65.21740   52.65860   65.21740  146.08180  273.59160   48.03140   44.34890  273.59160    0.10190    -999.25    0.10190 2775.02100   51.83860  -31.53070    -999.25 -105.14000   44.34890
