~Version ---------------------------------------------------
VERS.      2.0 : CWLS log ASCII Standard -VERSION 2.0
WRAP.       NO : One line per depth step
CREA. 01/04/18 : LAS Creation Date
~Well ------------------------------------------------------
STRT.FT                            1100.0 : START DEPTH
STOP.FT                           10550.0 : STOP DEPTH
STEP.FT                          50.00000 : STEP LENGTH
NULL.                             -999.25 : NULL VALUE
COMP.                CHEVRON STANDARD LTD : COMPANY
WELL. CHEVRON GULF SHININGBANK 3-13-56-15 : WELL
FLD .                                     : FIELD
LOC .                                     : LOCATION
CTRY.                              CANADA : COUNTRY
SRVC.              Schlumberger of Canada : SERVICE COMPANY
DATE.                         25-Oct-1976 : LOGDATE
PROV.                             Alberta : PROVINCE
UWI .                    100031305615W500 : UNIQUE WELL ID
SLAT.WGS84                       53.83559 : SURFACE LATITUDE
SLON.WGS84                      -116.0977 : SURFACE LONGITUDE
~Curve Information -----------------------------------------
DEPT    .FT    : Depth Curve
CALDED  .IN    : CALIPER FROM DENSITY LOG
CALSED  .IN    : CALIPER FROM SONIC LOG [ADJ. TO RESISTIVITY LOG]
CALWS   .IN    : CALIPER [CALSED]
CONDWS  .MMHO  : CONDUCTIVITY [1000/DRESWS]
DCORED  .G/C3  : DENSITY CORRECTION FROM DENSITY LOG
DCORWS  .G/C3  : DENSITY CORRECTION [DCORED]
DENWS   .G/C3  : FORMATION BULK DENSITY [M=2.71 F=1.00] [RHOBED AND SPL. CALC DPHISSED FROM TOP TO 1142']
DPHILSED.V/V   : DENSITY POROSITY LIME [M=2.71 F=1.00] FROM DENSITY LOG [ADJ. TO RHOBED]
DPHISSED.V/V   : DENSITY POROSITY SAND [M=2.65 F=1.00] FROM DENSITY LOG [ADJ. TO RHOBED]
DPOLSWS .V/V   : DENSITY POROSITY [M=2.71 F=1.00] [CALC FROM DENWS]
DRESWS  .OHMM  : DEEP RESISTIVITY [ILDED]
DTED    .US/F  : DELTA-T FROM SONIC LOG [ADJ. TO RESISTIVITY LOG]
DTWS    .US/F  : COMPRESSIONAL SONIC [DTED]
GRDED   .GAPI  : GAMMA RAY FROM DENSITY LOG
GRSED   .GAPI  : GAMMA RAY FROM SONIC LOG [ADJ. TO GRDED]
GRWS    .GAPI  : GAMMA RAY [GRSED]
ILDED   .OHMM  : DEEP INDUCTION FROM RESISTIVITY LOG
ILMED   .OHMM  : MEDIUM INDUCTION FROM RESISTIVITY LOG
LL8ED   .OHMM  : LATEROLOG 8 FROM RESISTIVITY LOG
MRESWS  .OHMM  : MEDIUM RESISTIVITY [ILMED]
NPHILSED.V/V   : NEUTRON POROSITY LIME FROM DENSITY LOG [ADJ. TO RHOBED]
NPHISSED.V/V   : NEUTRON POROSITY SAND FROM DENSITY LOG [ADJ. TO RHOBED]
NPOLSWS .V/V   : NEUTRON POROSITY LIME [SS MATRIX(SLB) CONVERTED TO LIME, SPL. TO NPHILSED @ 2164']
RHOBED  .G/C3  : BULK DENSITY FROM DENSITY LOG
SPRED   .MV    : SPONTANEOUS POTENTIAL FROM RESISTIVITY LOG
SPWS    .MV    : SPONTANEOUS POTENTIAL [BASELINE 0 MV, SPRED]
SRESWS  .OHMM  : SHALLOW RESISTIVITY [LL8ED]
TENDED  .LBF   : TENSION FROM DENSITY LOG
TENSED  .LBF   : TENSION FROM SONIC LOG [ADJ. TO RESISTIVITY LOG]
~Params ----------------------------------------------------
EKB .FT               2889.7 : KELLY BUSHING
EGL .FT               2873.6 : GROUND LEVEL
DATE.               10/25/76 : RUN DATE
RUN .                      1 : RUN NUMBER
DD  .FT                10595 : DEPTH DRILLER
DL  .FT                10593 : DEPTH LOGGER
BLI .FT                10592 : BOTTOM LOG INTERVAL
TLI .FT                 1094 : TOP LOG INTERVAL
CBD .FT               1094.6 : CASING BOTTOM DRILLER
CBL .FT                 1094 : CASING BOTTOM LOGGER
BS  .IN                 8.75 : BIT SIZE
BSD .FT                10595 : BIT SIZE AT DEPTH
DFT .               GEL CHEM : DRILLING FLUID TYPE
DFD .                    9.5 : DRILLING FLUID DENSITY
DFV .                    124 : DRILLING FLUID VISCOSITY
DFPH.                   10.5 : DRILLING FLUID PH
DFL .                     10 : DRILLING FLUID LOSS
RMC .OHMM               2.04 : RESISTIVITY MUD CAKE
MCST.DEGF                 56 : MUD CAKE SAMPLE TEMPERATURE
RMB .OHMM               0.41 : RESISTIVITY MUD AT BHT
TCS .HRS                   5 : TIME CIRCULATED STOPPED
LUN .                   7691 : LOGGING UNIT NUMBER
LUL .                    WCT : LOGGING UNIT LOCATION
ENGI.              CROCKFORD : RECORDING ENGINEER
WITN.        WONG RICHARDSON : WITNESSED BY
CLNT.                A2DTECH : CLIENT CODE
ORIG.            2" 5" PRINT : ORIGIN OF DATA
UWI .       100031305615W500 : UNIQUE WELL ID
DICO. A2D Technologies, Inc. : DIGITIZING COMPANY
~Other -----------------------------------------------------
~ASCII -----------------------------------------------------
# ...
 9850.00000    9.72030    9.13660    9.13660  103.82370    0.01750    0.01750    2.66610    0.03040    -999.25    0.02570    9.63220   68.85780   68.85780   88.72010   85.72250   85.72250    9.63220   10.14940   14.47910   10.14940    0.16150    -999.25    0.16150    2.66610   -4.50850   -3.88310   14.47910 1274.99300 2138.40970
 9900.00000    9.37970    8.82910    8.82910   28.12680    0.01740    0.01740    2.69240    0.00380    -999.25    0.01030   35.55330   57.83980   57.83980   51.25460   53.01860   53.01860   35.55330   37.44560   52.82410   37.44560    0.10210    -999.25    0.10210    2.69240   -7.32310   -6.85490   52.82410 1077.21970 2060.21420
 9950.00000   10.01270   10.19860   10.19860   60.72550    0.20290    0.20290    2.34130    0.27920    -999.25    0.21560   16.56390   66.75880   66.75880   85.63890   86.00510   86.00510   16.56390   19.79460   26.97540   19.79460    0.20240    -999.25    0.20240    2.34130   -9.36780   -8.89960   26.97540 1359.36690 2383.99270
 10000.00000    9.72450    8.90220    8.90220    0.71010    0.03370    0.03370    2.68830    0.01930    -999.25    0.01270 1408.29390   51.28340   51.28340    8.02580   10.57510   10.57510 1408.29390 1398.14100  801.69490 1398.14100    0.00080    -999.25    0.00080    2.68830 -108.36070 -107.89250  801.69490 1365.79080 2102.29080
 10050.00000   10.98670    9.11300    9.11300    0.69840    0.19110    0.19110    2.64360    0.04490    -999.25    0.03880 1431.91940   49.46110   49.46110   10.11140   13.32060   13.32060 1431.91940 1474.03990 1513.00990 1474.03990   -0.00420    -999.25   -0.00420    2.64360 -100.79990 -100.33170 1513.00990 1715.17670 2263.06650
 10100.00000   12.18190    9.42340    9.42340    0.68160    0.17670    0.17670    2.51340    0.09240    -999.25    0.11490 1467.23880   50.11780   50.11780   12.63490   11.58150   11.58150 1467.23880 1479.55870 1499.19710 1479.55870   -0.00220    -999.25   -0.00220    2.51340  -90.20950  -89.74130 1499.19710 1549.97400 2166.24230
 10150.00000   11.09160    9.30210    9.30210    0.67220    0.22970    0.22970    2.60550    0.04660    -999.25    0.06110 1487.54330   49.38910   49.38910    9.25870    9.38950    9.38950 1487.54330 1432.80020 1501.64100 1432.80020   -0.00830    -999.25   -0.00830    2.60550  -72.10670  -71.63850 1501.64100 1597.85540 2336.80380
 10200.00000   11.75210    9.24680    9.24680    0.68610    0.20590    0.20590    2.31420    0.22880    -999.25    0.23140 1457.89970   52.32830   52.32830   20.11280   18.04700   18.04700 1457.89970 1356.09670 1319.49870 1356.09670   -0.00380    -999.25   -0.00380    2.31420  -94.10000  -93.63180 1319.49870 1649.88850 2299.84410
 10250.00000   10.07490    8.97270    8.97270    0.67670    0.15360    0.15360    2.70320   -0.01230    -999.25    0.00400 1477.69570   48.08160   48.08160   10.71740   14.42810   14.42810 1477.69570 1353.00830 1496.78590 1353.00830   -0.00620    -999.25   -0.00620    2.70320  -84.03670  -83.56850 1496.78590 1822.85320 1873.31320
 10300.00000   11.87550    9.43510    9.43510    0.70250    0.21420    0.21420    2.51690    0.11410    -999.25    0.11290 1423.45480   48.47130   48.47130   14.15410   14.12020   14.12020 1423.45480  757.94050 1524.35850  757.94050   -0.00490    -999.25   -0.00490    2.51690  -87.37130  -86.90310 1524.35850 1860.19800 1976.84320
 10350.00000   10.73730    8.84040    8.84040    0.70150    0.16340    0.16340    2.57310    0.08190    -999.25    0.08010 1425.62400   50.37550   50.37550   13.57720   13.70390   13.70390 1425.62400 1485.85300 1527.52440 1485.85300   -0.00280    -999.25   -0.00280    2.57310  -84.01780  -83.54960 1527.52440 1599.96150 1870.31190
 10400.00000    9.85840    8.76490    8.76490    3.36740    0.04410    0.04410    2.66820    0.01400    -999.25    0.02440  296.96310   49.01850   49.01850   13.23950   15.50090   15.50090  296.96310  894.95620  522.83450  894.95620   -0.00280    -999.25   -0.00280    2.66820  -64.54840  -64.08020  522.83450 1263.01620 1882.39380
 10450.00000    8.12070    8.44340    8.44340  243.86380    0.22270    0.22270    2.40890    0.17610    -999.25    0.17610    4.11370   61.70840   61.70840   49.74330   48.06460   48.06460    4.11370    6.28110   28.47510    6.28110    0.05490    -999.25    0.05490    2.40890 -104.86500 -104.39680   28.47510 1184.95520 1757.06440
 10500.00000    9.27500    8.88830    8.88830   23.90050    0.02220    0.02220    2.66270    0.02050    -999.25    0.02770   41.84010   56.29060   56.29060  112.90020  106.46210  106.46210   41.84010   53.20560   72.26220   53.20560    0.11910    -999.25    0.11910    2.66270  -16.26290  -15.79470   72.26220 1563.78190 2095.25830
 10550.00000    9.34810    8.60650    8.60650   90.57310    0.00610    0.00610    2.69050    0.00950    -999.25    0.01140   11.04080   54.08660   54.08660   33.70960   27.29610   27.29610   11.04080   10.25820    9.81560   10.25820    0.11550    -999.25    0.11550    2.69050  -62.29490  -61.82670    9.81560 2691.41940 2160.46870
