~Version ---------------------------------------------------
VERS.      2.0 : CWLS log ASCII Standard -VERSION 2.0
WRAP.       NO : One line per depth step
CREA. 12/01/17 : LAS Creation Date
~Well ------------------------------------------------------
STRT.FT                        700.0 : START DEPTH
STOP.FT                       7050.0 : STOP DEPTH
STEP.FT                     50.00000 : STEP LENGTH
NULL.                        -999.25 : NULL VALUE
COMP.                SUN OIL COMPANY : COMPANY
WELL. SUN CDR GOPHER HEAD 6-23-36-19 : WELL
FLD .                                : FIELD
LOC .                                : LOCATION
CTRY.                         CANADA : COUNTRY
SRVC.                        Unknown : SERVICE COMPANY
DATE.                    09-Sep-1971 : LOGDATE
PROV.                        Alberta : PROVINCE
UWI .               100062303619W400 : UNIQUE WELL ID
SLAT.WGS84                  52.10319 : SURFACE LATITUDE
SLON.WGS84                 -112.6149 : SURFACE LONGITUDE
~Curve Information -----------------------------------------
DEPT   .FT    : Depth Curve
CALNED .IN    : CALIPER FROM NEUTRON LOG [ADJ. TO RESISTIVITY LOG]
CALSED .IN    : CALIPER FROM SONIC LOG [ADJ. TO RESISTIVITY LOG]
CALWS  .IN    : CALIPER [CALSED SPL. TO CALNED @ 6918']
CONDWS .MMHO  : CONDUCTIVITY [1000/DRESWS]
DRESWS .OHMM  : DEEP RESISTIVITY [LLED]
DTED   .US/F  : DELTA-T (INTERVAL TRANSIT TIME) FROM SONIC LOG [ADJ. TO RESISTIVITY LOG]
DTWS   .US/F  : COMPRESSIONAL SONIC [DTED]
GRNED  .GAPI  : GAMMA RAY FROM GRN LOG [ADJ. TO RESISTIVITY LOG]
GRSED  .GAPI  : GAMMA RAY FROM SONIC LOG [ADJ. TO RESISTIVITY LOG]
GRWS   .GAPI  : GAMMA RAY [GRSED SPL. TO GRNED @ 6910']
LLED   .OHMM  : FOCUSED LATEROLOG RESISTIVITY FROM RESISTIVITY LOG
NEUTED .NAPI  : NEUTRON FROM NEUTRON LOG [ADJ. TO RESISTIVITY LOG]
NEUTWS .NAPI  : NEUTRON [NEUTED]
NPOLSWS.V/V   : NEUTRON POROSITY LIMESTONE [SNPLSED]
SNPLSED.V/V   : SIDEWALL NEUTRON POROSITY [LIMESTONE] FROM NEUTRON LOG [ADJ. TO RESISTIVITY LOG]
SPRED  .MV    : SPONTANEOUS POTENTIAL FROM RESISTIVITY LOG
SPWS   .MV    : SPONTANEOUS POTENTIAL [BASELINE 0 MV, SPRED*-1]
~Params ----------------------------------------------------
PD  .                     GL : PERMANENT DATUM
EPD .FT                 2870 : ELEVATION PERMANENT DATUM
LMF .                     KB : LOG MEASURED FROM
DAPD.FT                   14 : FEET ABOVE PERMANENT DATUM
DMF .                     KB : DRILLING MEASURED FROM
EKB .FT                 2884 : KELLY BUSHING
EGL .FT                 2870 : GROUND LEVEL
DATE.               09/11/71 : RUN DATE
RUN .                      2 : RUN NUMBER
DD  .FT                 7095 : DEPTH DRILLER
DL  .FT                 7092 : DEPTH LOGGER
BLI .FT                 7085 : BOTTOM LOG INTERVAL
TLI .FT                 6500 : TOP LOG INTERVAL
CS  .IN                8.625 : CASING SIZE
CBD .FT                  752 : CASING BOTTOM DRILLER
CBL .FT                  750 : CASING BOTTOM LOGGER
BS  .IN                7.875 : BIT SIZE
BSD .FT                 7095 : BIT SIZE AT DEPTH
DFT .           SALT MUD GEL : DRILLING FLUID TYPE
DFD .                   10.4 : DRILLING FLUID DENSITY
DFV .                     42 : DRILLING FLUID VISCOSITY
DFPH.                    8.5 : DRILLING FLUID PH
DFL .                      8 : DRILLING FLUID LOSS
MSS .                   CIRC : MUD SAMPLE SOURCE
RMS .OHMM               0.06 : RESISTIVITY MUD SAMPLE
MST .DEGF                 75 : MUD SAMPLE TEMPERATURE
RMF .OHMM               0.04 : RESISTIVITY MUD FILTRATE SAMPLE
MFST.DEGF                 74 : MUD FILTRATE SAMPLE TEMPERATURE
RMC .OHMM                0.1 : RESISTIVITY MUD CAKE
MCST.DEGF                 70 : MUD CAKE SAMPLE TEMPERATURE
MFSS.                   MEAS : MUD FILTRATE SAMPLE SOURCE
MCSS.                   MEAS : MUD CAKE SAMPLE SOURCE
RMB .OHMM               0.03 : RESISTIVITY MUD AT BHT
TCS .HRS                   3 : TIME CIRCULATED STOPPED
LUN .                   6077 : LOGGING UNIT NUMBER
LUL .                    R D : LOGGING UNIT LOCATION
ENGI.                MACLEAN : RECORDING ENGINEER
WITN.         STEBNE PATMORE : WITNESSED BY
CLNT.                A2DTECH : CLIENT CODE
ORIG.            2" 5" PRINT : ORIGIN OF DATA
UWI .       100062303619W400 : UNIQUE WELL ID
DICO. A2D Technologies, Inc. : DIGITIZING COMPANY
~Other -----------------------------------------------------
LL-SONIC-SNP LOG RUN
~ASCII -----------------------------------------------------
  700.00000    -999.25    -999.25    -999.25    -999.25    -999.25    -999.25    -999.25    -999.25   47.95020   47.95020    -999.25    -999.25    -999.25    -999.25    -999.25    -999.25    -999.25
  750.00000    -999.25    8.92270    8.92270   89.64830   11.15470  118.89070  118.89070    -999.25   52.68490   52.68490   11.15470    -999.25    -999.25    -999.25    -999.25  -18.35020  -10.23350
  800.00000    -999.25    8.24200    8.24200  142.85100    7.00030  122.43210  122.43210    -999.25   71.70720   71.70720    7.00030    -999.25    -999.25    -999.25    -999.25  -23.93270   -5.02900
  850.00000    -999.25    8.38750    8.38750  361.50680    2.76620  110.09720  110.09720    -999.25   61.40900   61.40900    2.76620    -999.25    -999.25    -999.25    -999.25  -25.15340   -4.56420
  900.00000    -999.25    8.13730    8.13730   54.04560   18.50290  125.46350  125.46350    -999.25   76.58350   76.58350   18.50290    -999.25    -999.25    -999.25    -999.25  -22.78690   -7.68660
  950.00000    -999.25    8.65740    8.65740  333.23340    3.00090  117.78520  117.78520    -999.25   68.18440   68.18440    3.00090    -999.25    -999.25    -999.25    -999.25  -27.52890   -3.70050
 1000.00000    -999.25    8.50200    8.50200  284.01830    3.52090  106.27700  106.27700    -999.25   67.95490   67.95490    3.52090    -999.25    -999.25    -999.25    -999.25  -27.79440   -4.19090
 1050.00000    -999.25    8.38090    8.38090  324.56990    3.08100  111.81780  111.81780    -999.25   74.39860   74.39860    3.08100    -999.25    -999.25    -999.25    -999.25  -27.79580   -4.94540
 1100.00000    -999.25    8.38470    8.38470  365.72430    2.73430  117.26850  117.26850    -999.25   75.39350   75.39350    2.73430    -999.25    -999.25    -999.25    -999.25  -28.52950   -4.96760
 1150.00000    -999.25    9.07160    9.07160  331.06010    3.02060  111.56460  111.56460    -999.25   80.63100   80.63100    3.02060    -999.25    -999.25    -999.25    -999.25  -28.73190   -5.64850
 1200.00000    -999.25    8.95060    8.95060  504.41360    1.98250  125.07880  125.07880    -999.25   87.40430   87.40430    1.98250    -999.25    -999.25    -999.25    -999.25  -30.14750   -5.19110
 1250.00000    -999.25    8.64660    8.64660  469.06520    2.13190  119.84700  119.84700    -999.25   72.74380   72.74380    2.13190    -999.25    -999.25    -999.25    -999.25  -29.80770   -6.48910
 1300.00000    -999.25   11.77070   11.77070  414.02720    2.41530  114.24260  114.24260    -999.25   63.61800   63.61800    2.41530    -999.25    -999.25    -999.25    -999.25  -30.25440   -7.00050
 1350.00000    -999.25    9.01160    9.01160  492.12600    2.03200  115.48560  115.48560    -999.25   68.70180   68.70180    2.03200    -999.25    -999.25    -999.25    -999.25  -30.61190   -7.60120
 1400.00000    -999.25    9.90340    9.90340  407.14950    2.45610  106.39150  106.39150    -999.25   78.91360   78.91360    2.45610    -999.25    -999.25    -999.25    -999.25  -30.39750   -8.30010
 1450.00000    -999.25   10.12420   10.12420  414.74850    2.41110  112.34130  112.34130    -999.25   60.01180   60.01180    2.41110    -999.25    -999.25    -999.25    -999.25  -29.93690   -7.46370
 1500.00000    -999.25    9.13120    9.13120  176.25800    5.67350  101.56990  101.56990    -999.25   59.44000   59.44000    5.67350    -999.25    -999.25    -999.25    -999.25  -23.73570  -12.36790
 1550.00000    -999.25    9.00090    9.00090  203.96090    4.90290   94.48730   94.48730    -999.25   60.33210   60.33210    4.90290    -999.25    -999.25    -999.25    -999.25  -22.89850  -11.90810
 1600.00000    -999.25    9.28510    9.28510  222.87600    4.48680  102.01500  102.01500    -999.25   62.94920   62.94920    4.48680    -999.25    -999.25    -999.25    -999.25  -29.41320   -4.94640
 1650.00000    -999.25    8.82340    8.82340  437.02470    2.28820   95.87240   95.87240    -999.25   58.23950   58.23950    2.28820    -999.25    -999.25    -999.25    -999.25  -29.85590   -4.69790
 1700.00000    -999.25    8.47600    8.47600  197.46460    5.06420   95.43160   95.43160    -999.25   48.65400   48.65400    5.06420    -999.25    -999.25    -999.25    -999.25  -30.18750   -4.56040
 1750.00000    -999.25    8.03450    8.03450  284.80290    3.51120   97.65640   97.65640    -999.25   53.50150   53.50150    3.51120    -999.25    -999.25    -999.25    -999.25  -26.77250   -8.16960
 1800.00000    -999.25    7.98200    7.98200  265.79490    3.76230   98.51030   98.51030    -999.25   54.07070   54.07070    3.76230    -999.25    -999.25    -999.25    -999.25  -28.75040   -6.38590
 1850.00000    -999.25    8.76870    8.76870  323.40480    3.09210   99.62930   99.62930    -999.25   57.29270   57.29270    3.09210    -999.25    -999.25    -999.25    -999.25  -29.69450   -5.63590
 1900.00000    -999.25   10.20900   10.20900  348.68720    2.86790  106.75140  106.75140    -999.25   53.90150   53.90150    2.86790    -999.25    -999.25    -999.25    -999.25  -30.45910   -5.06550
 1950.00000    -999.25    8.88140    8.88140  287.79460    3.47470  106.10800  106.10800    -999.25   52.69570   52.69570    3.47470    -999.25    -999.25    -999.25    -999.25  -29.11310   -6.60570
 2000.00000    -999.25    9.12500    9.12500  131.11830    7.62670   76.28220   76.28220    -999.25   46.08860   46.08860    7.62670    -999.25    -999.25    -999.25    -999.25  -31.22100   -4.69200
 2050.00000    -999.25    9.16750    9.16750  252.85730    3.95480   98.99430   98.99430    -999.25   55.23550   55.23550    3.95480    -999.25    -999.25    -999.25    -999.25  -30.90380   -5.20330
 2100.00000    -999.25    8.66860    8.66860  210.38460    4.75320   98.16360   98.16360    -999.25   59.47510   59.47510    4.75320    -999.25    -999.25    -999.25    -999.25  -32.85770   -3.44360
 2150.00000    -999.25    8.64000    8.64000  239.52100    4.17500   99.18420   99.18420    -999.25   44.64040   44.64040    4.17500    -999.25    -999.25    -999.25    -999.25  -29.32840   -7.16710
 2200.00000    -999.25    9.46120    9.46120  429.20300    2.32990  112.01000  112.01000    -999.25   54.13390   54.13390    2.32990    -999.25    -999.25    -999.25    -999.25  -31.37380   -5.31580
 2250.00000    -999.25    8.83490    8.83490  364.51120    2.74340  104.16270  104.16270    -999.25   59.61790   59.61790    2.74340    -999.25    -999.25    -999.25    -999.25  -31.12980   -5.75400
 2300.00000    -999.25    8.89560    8.89560  348.55350    2.86900  104.94800  104.94800    -999.25   65.59040   65.59040    2.86900    -999.25    -999.25    -999.25    -999.25  -31.90280   -5.17520
 2350.00000    -999.25    8.20890    8.20890  183.12340    5.46080   85.57630   85.57630    -999.25   70.83320   70.83320    5.46080    -999.25    -999.25    -999.25    -999.25  -30.54080   -6.73140
 2400.00000    -999.25   10.80110   10.80110  217.27320    4.60250   94.03700   94.03700    -999.25   69.75650   69.75650    4.60250    -999.25    -999.25    -999.25    -999.25  -29.65450   -7.81180
 2450.00000    -999.25   13.18100   13.18100  216.16010    4.62620  100.18860  100.18860    -999.25   63.62800   63.62800    4.62620    -999.25    -999.25    -999.25    -999.25  -28.18510   -9.18250
 2500.00000    -999.25   11.90580   11.90580  240.80140    4.15280  107.99220  107.99220    -999.25   72.10360   72.10360    4.15280    -999.25    -999.25    -999.25    -999.25  -28.14500   -8.88410
 2550.00000    -999.25   10.93150   10.93150  207.61960    4.81650   97.67140   97.67140    -999.25   58.40330   58.40330    4.81650    -999.25    -999.25    -999.25    -999.25  -28.41860   -8.27210
 2600.00000    -999.25   13.32230   13.32230  159.48200    6.27030   96.40720   96.40720    -999.25   61.55890   61.55890    6.27030    -999.25    -999.25    -999.25    -999.25  -26.86090   -9.49140
 2650.00000    -999.25   11.53200   11.53200  196.26700    5.09510  107.06560  107.06560    -999.25   82.03380   82.03380    5.09510    -999.25    -999.25    -999.25    -999.25  -26.94030   -9.07350
 2700.00000    -999.25    8.50430    8.50430  174.91080    5.71720   94.03480   94.03480    -999.25  144.01450  144.01450    5.71720    -999.25    -999.25    -999.25    -999.25  -29.16230   -6.51310
