~Version ---------------------------------------------------
VERS.      2.0 : CWLS log ASCII Standard -VERSION 2.0
WRAP.       NO : One line per depth step
CREA. 01/05/18 : LAS Creation Date
~Well ------------------------------------------------------
STRT.FT                      650.0 : START DEPTH
STOP.FT                    10650.0 : STOP DEPTH
STEP.FT                   50.00000 : STEP LENGTH
NULL.                      -999.25 : NULL VALUE
COMP.              SUN OIL COMPANY : COMPANY
WELL. SUN SHELL ROSEVEAR 6-6-55-14 : WELL
FLD .                              : FIELD
LOC .                              : LOCATION
CTRY.                       CANADA : COUNTRY
SRVC.       Schlumberger of Canada : SERVICE COMPANY
DATE.                  23-Jun-1971 : LOGDATE
PROV.                      Alberta : PROVINCE
UWI .             100060605514W500 : UNIQUE WELL ID
SLAT.WGS84                53.72017 : SURFACE LATITUDE
SLON.WGS84                -116.074 : SURFACE LONGITUDE
~Curve Information -----------------------------------------
DEPT    .FT    : Depth Curve
CALDED  .IN    : CALIPER FROM DENSITY LOG [ADJ. TO RESISTIVITY LOG]
CALNED  .IN    : CALIPER FROM SNP LOG [ADJ. TO RESISTIVITY LOG]
CALSED  .IN    : CALIPER FROM SONIC LOG [ADJ. TO RESISTIVITY LOG]
CALWS   .IN    : CALIPER [CALSED SPL. TO CALDED @ 10676']
CILDED  .MMHO  : CONDUCTIVITY FROM RESISTIVITY LOG
CONDWS  .MMHO  : CONDUCTIVITY [1000/DRESWS]
CORRED  .G/C3  : DENSITY CORRECTION FROM DENSITY LOG [ADJ. TO RESISTIVITY LOG]
DCORWS  .G/C3  : DENSITY CORRECTION [CORRED]
DENWS   .G/C3  : FORMATION BULK DENSITY  [RHOBED]
DPHILSED.V/V   : DENSITY POROSITY LIMESTONE [M=2.71 F=1.00] FROM DENSITY LOG [ADJ. TO RESISTIVITY LOG]
DPHISSED.V/V   : DENSITY POROSITY SANDSTONE [M=2.65 F=1.00] FROM DENSITY LOG [ADJ. TO RESISTIVITY LOG]
DPOLSWS .V/V   : DENSITY POROSITY LIMESTONE [CALC. FROM DENWS, M=2.71 F=1.00]
DRESWS  .OHMM  : DEEP RESISTIVITY [1000/CILDED IF ILDED<4, ILDED & SPL. TO ILDED @ 664'-3750' & 5083'-6070']
DTED    .US/F  : DELTA TIME FROM SONIC LOG [ADJ. TO RESISTIVITY LOG]
DTWS    .US/F  : COMPRESSIONAL SONIC [DTED]
GRNED   .GAPI  : GAMMA RAY FROM SNP LOG [ADJ. TO RESISTIVITY LOG]
GRSED   .GAPI  : GAMMA RAY FROM SONIC LOG [ADJ. TO RESISTIVITY LOG]
GRWS    .GAPI  : GAMMA RAY [GRSED SPL. TO GRNED @ 10658'] GRWS IN CSG. FROM 5023'-5078' ADDED 40 API
ILDED   .OHMM  : DEEP INDUCTIONRESISTIVITY FROM RESISTIVITY LOG
ILMED   .OHMM  : MEDIUM INDUCTIONRESISTIVITY FROM RESISTIVITY LOG
LL8ED   .OHMM  : 8 INCH LATEROLOG RESISTIVITY FROM RESISTIVITY LOG
MRESWS  .OHMM  : MEDIUM RESISTIVITY [ILMED]
NPOLSWS .V/V   : SIDEWALL NEUTRON POROSITY LIMESTONE [SNPLSED]
RHOBED  .G/C3  : FORMATION BULK DENSITY FROM DENSITY LOG [ADJ. TO RESISTIVITY LOG]
SNP1LSED.V/V   : SIDEWALL NEUTRON POROSITY FROM SNP LOG [ADJ. TO RESISTIVITY LOG]
SNPLSED .V/V   : SIDEWALL NEUTRON POROSITY LIMESTONE FROM SNP LOG [ADJ. TO RESISTIVITY LOG]
SPRED   .MV    : SPONTANEOUS POTENTIAL FROM RESISTIVITY LOG
SPWS    .MV    : SPONTANEOUS POTENTIAL  [BASELINE 0 MV. SPRED]
SRESWS  .OHMM  : SHALLOW RESISTIVITY [LL8ED]
~Params ----------------------------------------------------
PD  .                     GL : PERMANENT DATUM
EPD .FT                 2803 : ELEVATION PERMANENT DATUM
LMF .                     KB : LOG MEASURED FROM
DAPD.FT                   13 : FEET ABOVE PERMANENT DATUM
EKB .FT                 2816 : KELLY BUSHING
EGL .FT                 2803 : GROUND LEVEL
DATE.               07/14/71 : RUN DATE
RUN .                      2 : RUN NUMBER
DD  .FT                10687 : DEPTH DRILLER
DL  .FT                10692 : DEPTH LOGGER
BLI .FT                10686 : BOTTOM LOG INTERVAL
TLI .FT                 5078 : TOP LOG INTERVAL
CBD .FT                 5077 : CASING BOTTOM DRILLER
CBL .FT                 5078 : CASING BOTTOM LOGGER
BS  .IN                 8.75 : BIT SIZE
BSD .FT                10687 : BIT SIZE AT DEPTH
DFT .               GEL CHEM : DRILLING FLUID TYPE
DFD .                    9.8 : DRILLING FLUID DENSITY
DFV .                     80 : DRILLING FLUID VISCOSITY
DFPH.                     10 : DRILLING FLUID PH
DFL .                   10.2 : DRILLING FLUID LOSS
MSS .               FLOWLINE : MUD SAMPLE SOURCE
RMS .OHMM               2.12 : RESISTIVITY MUD SAMPLE
MST .DEGF                 76 : MUD SAMPLE TEMPERATURE
RMF .OHMM               1.66 : RESISTIVITY MUD FILTRATE SAMPLE
MFST.DEGF                 76 : MUD FILTRATE SAMPLE TEMPERATURE
RMB .OHMM               0.62 : RESISTIVITY MUD AT BHT
TCS .HRS                 3.5 : TIME CIRCULATED STOPPED
LUN .                   5628 : LOGGING UNIT NUMBER
LUL .                    EDM : LOGGING UNIT LOCATION
ENGI.                 HUTZAL : RECORDING ENGINEER
WITN.                   HERB : WITNESSED BY
CLNT.                A2DTECH : CLIENT CODE
ORIG.            2" 5" PRINT : ORIGIN OF DATA
UWI .       100060605514W500 : UNIQUE WELL ID
DICO. A2D Technologies, Inc. : DIGITIZING COMPANY
~Other -----------------------------------------------------
~ASCII -----------------------------------------------------
# ...
 3150.00000    -999.25    -999.25   12.44110   12.44110   78.47380   70.96680    -999.25    -999.25    -999.25    -999.25    -999.25    -999.25   14.09110   79.33970   79.33970    -999.25   52.02420   52.02420   14.09110    -999.25   16.48770    -999.25    -999.25    -999.25    -999.25    -999.25  -69.03880   -7.58950   16.48770
 3200.00000    -999.25    -999.25   12.56340   12.56340  151.36280  148.08890    -999.25    -999.25    -999.25    -999.25    -999.25    -999.25    6.75270   87.67020   87.67020    -999.25   38.87740   38.87740    6.75270    -999.25    8.94510    -999.25    -999.25    -999.25    -999.25    -999.25  -71.34830  -10.22760    8.94510
 3250.00000    -999.25    -999.25   12.28050   12.28050  108.46900   98.15180    -999.25    -999.25    -999.25    -999.25    -999.25    -999.25   10.18830   82.76180   82.76180    -999.25   48.92710   48.92710   10.18830    -999.25   13.25120    -999.25    -999.25    -999.25    -999.25    -999.25  -68.35640   -7.70240   13.25120
 3300.00000    -999.25    -999.25   12.22540   12.22540   45.97350   38.28150    -999.25    -999.25    -999.25    -999.25    -999.25    -999.25   26.12230   88.98240   88.98240    -999.25   34.63640   34.63640   26.12230    -999.25   28.79780    -999.25    -999.25    -999.25    -999.25    -999.25  -75.38960  -15.20230   28.79780
 3350.00000    -999.25    -999.25   13.51370   13.51370  316.81800  316.30560    -999.25    -999.25    -999.25    -999.25    -999.25    -999.25    3.16150  107.09930  107.09930    -999.25   62.08650   62.08650    3.26270    -999.25    4.84940    -999.25    -999.25    -999.25    -999.25    -999.25  -65.25450   -5.53700    4.84940
 3400.00000    -999.25    -999.25   12.97610   12.97610  173.09240  155.35910    -999.25    -999.25    -999.25    -999.25    -999.25    -999.25    6.43670   92.67260   92.67260    -999.25   52.87580   52.87580    6.43670    -999.25    8.82460    -999.25    -999.25    -999.25    -999.25    -999.25  -63.14780   -3.89700    8.82460
 3450.00000    -999.25    -999.25   12.54810   12.54810  158.03970  152.67640    -999.25    -999.25    -999.25    -999.25    -999.25    -999.25    6.54980   88.00770   88.00770    -999.25   56.91730   56.91730    6.54980    -999.25    9.30760    -999.25    -999.25    -999.25    -999.25    -999.25  -62.02830   -3.24730    9.30760
 3500.00000    -999.25    -999.25   12.53210   12.53210  125.76450  117.34330    -999.25    -999.25    -999.25    -999.25    -999.25    -999.25    8.52200   81.11880   81.11880    -999.25   48.59180   48.59180    8.52200    -999.25   11.59700    -999.25    -999.25    -999.25    -999.25    -999.25  -63.50360   -4.34810   11.59700
 3550.00000    -999.25    -999.25   13.14570   13.14570  182.61600  161.62400    -999.25    -999.25    -999.25    -999.25    -999.25    -999.25    6.18720   89.19610   89.19610    -999.25   55.10010   55.10010    6.18720    -999.25    8.26650    -999.25    -999.25    -999.25    -999.25    -999.25  -63.58210   -3.23250    8.26650
 3600.00000    -999.25    -999.25   12.85250   12.85250  201.21170  191.82440    -999.25    -999.25    -999.25    -999.25    -999.25    -999.25    5.21310   90.47070   90.47070    -999.25   54.50760   54.50760    5.21310    -999.25    7.26070    -999.25    -999.25    -999.25    -999.25    -999.25  -66.09360   -4.64430    7.26070
 3650.00000    -999.25    -999.25   13.40490   13.40490  176.54820  163.72240    -999.25    -999.25    -999.25    -999.25    -999.25    -999.25    6.10790   91.55590   91.55590    -999.25   58.97030   58.97030    6.10790    -999.25    8.31400    -999.25    -999.25    -999.25    -999.25    -999.25  -64.45360   -3.00430    8.31400
 3700.00000    -999.25    -999.25   12.50270   12.50270   86.18080   77.02850    -999.25    -999.25    -999.25    -999.25    -999.25    -999.25   12.98220   80.24870   80.24870    -999.25   42.03860   42.03860   12.98220    -999.25   18.67920    -999.25    -999.25    -999.25    -999.25    -999.25  -72.97830  -11.52900   18.67920
 3750.00000    -999.25    -999.25   13.24380   13.24380  118.27330  108.25090    -999.25    -999.25    -999.25    -999.25    -999.25    -999.25    9.23780   86.23560   86.23560    -999.25   51.17970   51.17970    9.23780   12.03170   15.27150   12.03170    -999.25    -999.25    -999.25    -999.25  -69.57280   -8.12350   15.27150
 3800.00000    -999.25    -999.25   12.52560   12.52560    -999.25   99.34930    -999.25    -999.25    -999.25    -999.25    -999.25    -999.25   10.06550   81.03490   81.03490    -999.25   41.98400   41.98400   10.06550   10.66500   14.28340   10.66500    -999.25    -999.25    -999.25    -999.25  -66.20990   -5.45070   14.28340
 3850.00000    -999.25    -999.25   12.27180   12.27180    -999.25   63.58450    -999.25    -999.25    -999.25    -999.25    -999.25    -999.25   15.72710   81.83620   81.83620    -999.25   31.96960   31.96960   15.72710   25.31880   38.90800   25.31880    -999.25    -999.25    -999.25    -999.25  -85.83590  -25.92150   38.90800
 3900.00000    -999.25    -999.25   12.48300   12.48300    -999.25   23.39120    -999.25    -999.25    -999.25    -999.25    -999.25    -999.25   42.75120   58.56490   58.56490    -999.25   26.93460   26.93460   42.75120   85.43120  160.73780   85.43120    -999.25    -999.25    -999.25    -999.25  -84.60260  -25.52740  160.73780
 3950.00000    -999.25    -999.25   14.28070   14.28070    -999.25  186.99980    -999.25    -999.25    -999.25    -999.25    -999.25    -999.25    5.34760  127.53990  127.53990    -999.25   43.03960   43.03960    5.34760    5.64930    9.30790    5.64930    -999.25    -999.25    -999.25    -999.25  -63.66450   -5.11380    9.30790
 4000.00000    -999.25    -999.25   12.60940   12.60940    -999.25   72.06220    -999.25    -999.25    -999.25    -999.25    -999.25    -999.25   13.87690   77.41850   77.41850    -999.25   38.54180   38.54180   13.87690   17.01580   18.81870   17.01580    -999.25    -999.25    -999.25    -999.25  -68.43280   -9.88210   18.81870
 4050.00000    -999.25    -999.25   12.50420   12.50420    -999.25   85.91800    -999.25    -999.25    -999.25    -999.25    -999.25    -999.25   11.63900   76.63980   76.63980    -999.25   48.68150   48.68150   11.63900   13.81130   15.84550   13.81130    -999.25    -999.25    -999.25    -999.25  -63.01930   -4.76050   15.84550
 4100.00000    -999.25    -999.25   12.73810   12.73810    -999.25  167.22690    -999.25    -999.25    -999.25    -999.25    -999.25    -999.25    5.97990   88.24650   88.24650    -999.25   58.73050   58.73050    5.97990    6.67390    8.66600    6.67390    -999.25    -999.25    -999.25    -999.25  -60.51600   -2.78900    8.66600
 4150.00000    -999.25    -999.25   12.61920   12.61920    -999.25  128.85100    -999.25    -999.25    -999.25    -999.25    -999.25    -999.25    7.76090   86.13220   86.13220    -999.25   59.77070   59.77070    7.76090    8.37740   12.35300    8.37740    -999.25    -999.25    -999.25    -999.25  -60.92100   -3.72230   12.35300
 4200.00000    -999.25    -999.25   13.03470   13.03470    -999.25  127.22650    -999.25    -999.25    -999.25    -999.25    -999.25    -999.25    7.86000   86.53950   86.53950    -999.25   79.57880   79.57880    7.86000    8.81550   11.24060    8.81550    -999.25    -999.25    -999.25    -999.25  -63.68540   -6.23760   11.24060
 4250.00000    -999.25    -999.25   12.91710   12.91710    -999.25  112.85030    -999.25    -999.25    -999.25    -999.25    -999.25    -999.25    8.86130   83.12510   83.12510    -999.25   74.71730   74.71730    8.86130   10.51210   13.08900   10.51210    -999.25    -999.25    -999.25    -999.25  -63.04180   -5.17280   13.08900
 4300.00000    -999.25    -999.25   12.40920   12.40920    -999.25  100.18330    -999.25    -999.25    -999.25    -999.25    -999.25    -999.25    9.98170   80.80290   80.80290    -999.25   81.42640   81.42640    9.98170   11.51200   14.58730   11.51200    -999.25    -999.25    -999.25    -999.25  -62.05420   -3.76400   14.58730
 4350.00000    -999.25    -999.25   12.47890   12.47890    -999.25  103.53250    -999.25    -999.25    -999.25    -999.25    -999.25    -999.25    9.65880   83.78560   83.78560    -999.25   88.77540   88.77540    9.65880   11.32880   14.99180   11.32880    -999.25    -999.25    -999.25    -999.25  -62.62580   -4.19260   14.99180
