~Version ---------------------------------------------------
VERS.      2.0 : CWLS log ASCII Standard -VERSION 2.0
WRAP.       NO : One line per depth step
CREA. 08/16/13 : LAS Creation Date
~Well ------------------------------------------------------
STRT.M                         450.0 : START DEPTH
STOP.M                        2900.0 : STOP DEPTH
STEP.M                      50.00000 : STEP LENGTH
NULL.                        -999.25 : NULL VALUE
COMP.               JOFFRE OILS LTD. : COMPANY
WELL. JOFFRE RUPERTS VIRGHILLS 4-12- : WELL
FLD .                                : FIELD
LOC .                                : LOCATION
CTRY.                         CANADA : COUNTRY
SRVC.                        Unknown : SERVICE COMPANY
DATE.                    28-May-1980 : LOGDATE
PROV.                        Alberta : PROVINCE
UWI .               100041206613W500 : UNIQUE WELL ID
SLAT.WGS84                  54.69305 : SURFACE LATITUDE
SLON.WGS84                 -115.8354 : SURFACE LONGITUDE
~Curve Information -----------------------------------------
DEPT    .M      : DEPTH METER
CALDED  .MM     : CALIPER FROM DENSITY LOG [ADJ. TO RESISTIVITY LOG]
CALSED  .MM     : CALIPER FROM SONIC LOG [ADJ. TO RESISTIVITY LOG]
CALWS   .MM     : CALIPER [CALDED]
CILDED  .MMHO   : CONDUCTIVITY INDUCTION LOG
CONDWS  .MMHO   : CONDUCTIVITY [1000/DRESWS]
DCORED  .KG/M3  : DENSITY CORRECTION  FROM DENSITY LOG [ADJ. TO RESISTIVITY LOG]
DCORWS  .KG/M3  : DENSITY CORRECTION [DCORED]
DENED   .KG/M3  : COMPENSATED BULK DENSITY FROM DENSITY LOG [ADJ. TO RESISTIVITY LOG]
DENWS   .KG/M3  : FORMATION BULK DENSITY [CALC. FROM DPOLSWS]
DPHILSED.V/V    : DENSITY POROSITY LIMESTONE [M=2710, F=1000] FROM DENSITY LOG [ADJ. TO RESISTIVITY LOG]
DPHISSED.V/V    : DENSITY POROSITY SANDSTONE [M=2650, F=1000] FROM DENSITY LOG [ADJ. TO RESISTIVITY LOG]
DPOLSWS .V/V    : DENSITY POROSITY LIMESTONE [DPHISSED MATRIX CONVERSION FOR LIMESTONE SPL. TODPHILSED @2686 M]
DRESWS  .OHMM   : DEEP RESISTIVITY [ILDED]
DTED    .US/M   : SONIC INTERVAL TRANSIT TIME FROM SONIC LOG [ADJ. TO RESISTIVITY LOG]
DTWS    .us/m   : COMPRESSIONAL SONIC [DTED]
GRDED   .GAPI   : GAMMA RAY FROM DENSITY LOG [ADJ. TO RESISTIVITY LOG]
GRSED   .GAPI   : GAMMA RAY FROM SONIC LOG [ADJ. TO RESISTIVITY LOG]
GRWS    .GAPI   : GAMMA RAY [GRDED]
ILDED   .OHMM   : DEEP INDUCTION RESISTIVITY FROM RESISTIVITY LOG
ILMED   .OHMM   : INDUCTION MEDIUM RESISTIVITY FROM RESISTIVITY LOG
MCALED  .MM     : MLT [MICROLOG] CALIPER FROM CALIPER LOG
MRESWS  .OHMM   : MEDIUM RESISTIVITY [ILMED]
NPHILSED.V/V    : NEUTRON POROSITY LIMESTONE FROM RESISTIVITY LOG [ADJ. TO RESISTIVITY LOG]
NPHISSED.V/V    : NEUTRON POROSITY SANDTONE FROM RESISTIVITY LOG [ADJ. TO RESISTIVITY LOG]
NPOLSWS .V/V    : NEUTRON POROSITY LIMESTONE [NPHISSED MATRIX CONVERSION FOR LIMESTONE SPL. TO NPHILSED @2690 M]
SFLED   .OHMM   : SHALLOW FOCUSED LOG FROM RESISTIVITY LOG
SPRED   .MV     : SPONTANEOUS POTENTIAL FROM RESISTIVITY LOG
SPWS    .MV     : SPONTANEOUS POTENTIAL [BASELINE 0 MV, SPRED]
SRESWS  .OHMM   : SHALLOW RESISTIVITY [SFLED]
~Params ----------------------------------------------------
PD  .                         GL : PERMANENT DATUM
EPD .M                    1141.5 : ELEVATION PERMANENT DATUM
LMF .                         KB : LOG MEASURED FROM
DAPD.M                       3.5 : FEET ABOVE PERMANENT DATUM
DMF .                         KB : DRILLING MEASURED FROM
EKB .M                      1145 : KELLY BUSHING
EGL .M                    1141.5 : GROUND LEVEL
DATE.                   05/28/80 : RUN DATE
RUN .                          1 : RUN NUMBER
DD  .M                      2900 : DEPTH DRILLER
DL  .M                      2906 : DEPTH LOGGER
BLI .M                      2905 : BOTTOM LOG INTERVAL
TLI .M                       405 : TOP LOG INTERVAL
CS  .MM                      200 : CASING SIZE
CBD .M                       407 : CASING BOTTOM DRILLER
CBL .M                       407 : CASING BOTTOM LOGGER
BS  .MM                      200 : BIT SIZE
BSD .M                      2900 : BIT SIZE AT DEPTH
DFT .                        GEL : DRILLING FLUID TYPE
DFD .                       1080 : DRILLING FLUID DENSITY
DFV .                         80 : DRILLING FLUID VISCOSITY
DFPH.                        9.5 : DRILLING FLUID PH
MSS .                   FLOWLINE : MUD SAMPLE SOURCE
RMS .OHMM                   2.28 : RESISTIVITY MUD SAMPLE
MST .DEGC                     12 : MUD SAMPLE TEMPERATURE
RMF .OHMM                   2.68 : RESISTIVITY MUD FILTRATE SAMPLE
MFST.DEGC                     12 : MUD FILTRATE SAMPLE TEMPERATURE
MFSS.                      PRESS : MUD FILTRATE SAMPLE SOURCE
MCSS.                      PRESS : MUD CAKE SAMPLE SOURCE
RMB .OHMM                   0.72 : RESISTIVITY MUD AT BHT
TCS .HRS                    2030 : TIME CIRCULATED STOPPED
LUN .                       7767 : LOGGING UNIT NUMBER
LUL .                        EDM : LOGGING UNIT LOCATION
ENGI.                     BIGLOW : RECORDING ENGINEER
WITN.                       DODD : WITNESSED BY
CLNT.                    A2DTECH : CLIENT CODE
ORIG. 6.5"/100M 16.5"/100M PRINT : ORIGIN OF DATA
UWI .           100041206613W500 : UNIQUE WELL ID
DICO.     A2D Technologies, Inc. : DIGITIZING COMPANY
~Other -----------------------------------------------------
DIL-SFL-CNFD-BCS-CALIPER LOG RUN
~ASCII -----------------------------------------------------
# ...
 1700.00000    -999.25    -999.25    -999.25    -999.25  183.68850    -999.25    -999.25    -999.25    -999.25    -999.25    -999.25    -999.25    5.44400    -999.25    -999.25    -999.25    -999.25    -999.25    5.44400    5.64300    -999.25    5.64300    -999.25    -999.25    -999.25    7.49600  -33.89400  -12.07460    7.49600
 1750.00000    -999.25    -999.25    -999.25    -999.25   52.99000    -999.25    -999.25    -999.25    -999.25    -999.25    -999.25    -999.25   18.87150    -999.25    -999.25    -999.25    -999.25    -999.25   18.87150   24.20200    -999.25   24.20200    -999.25    -999.25    -999.25   31.69090  -20.75620  -12.47530   31.69090
 1800.00000    -999.25    -999.25    -999.25    -999.25   65.10590    -999.25    -999.25    -999.25    -999.25    -999.25    -999.25    -999.25   15.35960    -999.25    -999.25    -999.25    -999.25    -999.25   15.35960   24.59490    -999.25   24.59490    -999.25    -999.25    -999.25  144.28600 -154.61300  -79.37490  144.28600
 1850.00000    -999.25    -999.25    -999.25    -999.25  501.30340    -999.25    -999.25    -999.25    -999.25    -999.25    -999.25    -999.25    1.99480    -999.25    -999.25    -999.25    -999.25    -999.25    1.99480    2.11310    -999.25    2.11310    -999.25    -999.25    -999.25    2.71340  -49.39140  -18.74610    2.71340
 1900.00000    -999.25    -999.25    -999.25    -999.25   22.48610    -999.25    -999.25    -999.25    -999.25    -999.25    -999.25    -999.25   44.47190    -999.25    -999.25    -999.25    -999.25    -999.25   44.47190   45.67290    -999.25   45.67290    -999.25    -999.25    -999.25   61.09220   -4.44110  -13.53400   61.09220
 1950.00000    -999.25    -999.25    -999.25    -999.25   55.44680    -999.25    -999.25    -999.25    -999.25    -999.25    -999.25    -999.25   18.03530    -999.25    -999.25    -999.25    -999.25    -999.25   18.03530   18.98120    -999.25   18.98120    -999.25    -999.25    -999.25   25.02980  -34.86150  -30.28400   25.02980
 2000.00000  278.47740    -999.25  278.47740    -999.25  235.40490    4.69880    4.69880 2550.50220    -999.25    -999.25    -999.25    -999.25    4.24800    -999.25    -999.25    -999.25    -999.25    -999.25    4.24800    4.33340    -999.25    4.33340    -999.25    -999.25    -999.25    5.23410  -10.32200  -10.19610    5.23410
 2050.00000  234.54060  217.93610  234.54060    -999.25    6.30660   12.66580   12.66580 2671.53930 2730.52000    -999.25   -0.01200   -0.01200  158.56350  165.43730  165.43730   15.24310   22.03560   15.24310  158.56350  190.94000  220.42950  190.94000    -999.25    0.02760    0.00400  423.99180  -57.79440  -56.01230  423.99180
 2100.00000  233.41530  207.89180  233.41530    -999.25   14.64170   69.08180   69.08180 2629.24930 2706.92200    -999.25    0.00180    0.00180   68.29790  165.83750  165.83750   10.70950   11.17840   10.70950   68.29790   85.85570  221.29920   85.85570    -999.25    0.04080    0.01440  228.08510  -98.70260  -25.45400  228.08510
 2150.00000  214.26810  203.76620  214.26810    -999.25   52.07030   90.60290   90.60290 2633.26220 2656.81900    -999.25    0.03110    0.03110   19.20480  181.81460  181.81460   11.32430   15.38520   11.32430   19.20480   32.90320  193.13370   32.90320    -999.25    0.12550    0.08320  141.54770 -204.30880  -58.00830  141.54770
 2200.00000  247.50090  211.07240  247.50090    -999.25    5.74120   41.75250   41.75250 2592.76860 2615.95000    -999.25    0.05500    0.05500  174.17830  161.07670  161.07670   10.65890   15.98470   10.65890  174.17830  259.79980  239.88350  259.79980    -999.25    0.02530    0.00210  911.21720 -138.58030  -33.87860  911.21720
 2250.00000  241.46600  220.34620  241.46600    -999.25   20.93820   29.00890   29.00890 2658.50020 2726.07400    -999.25   -0.00940   -0.00940   47.75950  163.61410  163.61410   13.41600   25.05480   13.41600   47.75950   70.60130  224.17840   70.60130    -999.25    0.04440    0.01720  183.97920 -158.36600  -82.00230  183.97920
 2300.00000  232.79840  204.99750  232.79840    -999.25   11.00640  179.80950  179.80950 2762.57520 2798.23600    -999.25   -0.05160   -0.05160   90.85650  160.27990  160.27990   17.24640   28.54580   17.24640   90.85650  168.29070  225.36570  168.29070    -999.25    0.09700    0.05960  607.90190 -134.19670  -81.75380  607.90190
 2350.00000  236.62030  218.53020  236.62030    -999.25   47.64490   10.35290   10.35290 2658.22560 2716.15600    -999.25   -0.00360   -0.00360   20.98860  187.39200  187.39200   44.90570   50.30020   44.90570   20.98860   22.97770  220.28840   22.97770    -999.25    0.08150    0.04700   30.71660  -37.94650  -14.37140   30.71660
 2400.00000  232.47770  212.87870  232.47770    -999.25  196.94730    1.36600    1.36600 2560.05080 2620.73800    -999.25    0.05220    0.05220    5.07750  232.47600  232.47600   63.84010   73.41660   63.84010    5.07750    5.40960  213.39280    5.40960    -999.25    0.22830    0.17610    7.25790  -34.00910  -10.53860    7.25790
 2450.00000  224.25270  210.08220  224.25270    -999.25  175.72220   11.17640   11.17640 2637.73730 2688.62500    -999.25    0.01250    0.01250    5.69080  228.93910  228.93910   57.22840   61.27910   57.22840    5.69080    5.92280  211.35640    5.92280    -999.25    0.22220    0.17020    7.10560  -30.70880   -6.03890    7.10560
 2500.00000  365.44180  256.83410  365.44180    -999.25  299.72430  111.04140  111.04140 2173.24100 2237.52700    -999.25    0.27630    0.27630    3.33640  274.11110  274.11110   79.56520   95.29280   79.56520    3.33640    3.47730  284.04300    3.47730    -999.25    0.38050    0.33380    4.10490  -43.75570  -14.99320    4.10490
 2550.00000  225.52080  210.77510  225.52080    -999.25  123.41260  144.58620  144.58620 2588.68730 2723.16700    -999.25   -0.00770   -0.00770    8.10290  217.56300  217.56300   64.34920   70.97260   64.34920    8.10290    8.53780  208.93320    8.53780    -999.25    0.17890    0.12970   10.65850  -20.47140  -10.45670   10.65850
 2600.00000  284.97890  235.05330  284.97890    -999.25  246.60300  264.56660  264.56660 2314.66190 2336.02300    -999.25    0.21870    0.21870    4.05510  247.34180  247.34180   81.50060   87.89030   81.50060    4.05510    4.26400  244.16930    4.26400    -999.25    0.27510    0.22280    4.96040  -31.80830   -3.06120    4.96040
 2650.00000  287.54610  227.91160  287.54610    -999.25  274.13780  235.99870  235.99870 2397.87280 2434.17700    -999.25    0.16130    0.16130    3.64780  253.57680  253.57680   82.10200   86.84700   82.10200    3.64780    3.77160  247.08940    3.77160    -999.25    0.30400    0.25270    4.75860  -30.66500   -2.03110    4.75860
 2700.00000  215.93810  206.75670  215.93810    -999.25  121.39160    2.39830    2.39830 2668.75150 2680.07500    0.01750    0.01780    0.01750    8.23780  227.72140  227.72140   77.23010   78.17920   77.23010    8.23780    8.58640  203.21330    8.58640    0.17470    0.21540    0.17470   10.58180  -10.72290   -6.67360   10.58180
 2750.00000  225.71660  216.05980  225.71660    -999.25   79.88690   29.79020   29.79020 2677.14330 2639.89000    0.04100    -999.25    0.04100   12.51770  193.91360  193.91360   48.69070   49.41360   48.69070   12.51770   14.44110  210.97080   14.44110    0.09180    -999.25    0.09180   21.06130  -13.57350   -7.18060   21.06130
 2800.00000  212.03590  201.65540  212.03590    -999.25   59.34540   19.84550   19.84550 2677.00830 2680.93000    0.01700    -999.25    0.01700   16.85050  196.43080  196.43080   49.01940   45.76680   49.01940   16.85050   18.67720  202.66950   18.67720    0.08710    -999.25    0.08710   24.22270   -4.96020  -14.72980   24.22270
 2850.00000  210.54760  195.66770  210.54760    -999.25   38.86760   14.83630   14.83630 2668.17680 2646.73000    0.03700    -999.25    0.03700   25.72840  170.93720  170.93720   12.44220   11.55960   12.44220   25.72840   30.09490  195.18230   30.09490    0.02420    -999.25    0.02420  186.49800 -191.17790 -197.47710  186.49800
 2900.00000  204.33380  197.77030  204.33380    -999.25  116.12780   36.78690   36.78690 2673.84790 2693.24200    0.00980    -999.25    0.00980    8.61120  197.65250  197.65250    -999.25    -999.25    -999.25    8.61120   12.46200  192.94850   12.46200    0.19590    -999.25    0.19590   36.07450  -32.26280  -36.16200   36.07450
