~Version ---------------------------------------------------
VERS.      2.0 : CWLS log ASCII Standard -VERSION 2.0
WRAP.       NO : One line per depth step
CREA. 09/27/17 : LAS Creation Date
~Well ------------------------------------------------------
STRT.FT                        300.0 : START DEPTH
STOP.FT                      12850.0 : STOP DEPTH
STEP.FT                     50.00000 : STEP LENGTH
NULL.                        -999.25 : NULL VALUE
COMP.  WESTERN DECALTA PETROLEUM LTD : COMPANY
WELL. DECALTA ET AL BRAZR 6-31-47-13 : WELL
FLD .                  BRAZEAU RIVER : FIELD
LOC .                                : LOCATION
CTRY.                         CANADA : COUNTRY
SRVC.                   Schlumberger : SERVICE COMPANY
DATE.                    15-Mar-1978 : LOGDATE
PROV.                        Alberta : PROVINCE
UWI .               100063104713W500 : UNIQUE WELL ID
SLAT.WGS84                  53.09535 : SURFACE LATITUDE
SLON.WGS84                 -115.8946 : SURFACE LONGITUDE
~Curve Information -----------------------------------------
DEPT    .FT    : Depth Curve
CALDED  .IN    : CALIPER FROM DENSITY LOG [ADJ. TO RESISTIVITY LOG]
CALSED  .IN    : CALIPER FROM SONIC LOG [ADJ. TO RESISTIVITY LOG]
CALWS   .IN    : CALIPER [CALSED]
CONDWS  .MMHO  : CONDUCTIVITY [1000/DRESWS]
DCORWS  .G/C3  : DENSITY CORRECTION [DRHOED]
DENWS   .G/C3  : FORAMTION BULK DENSITY [CALC FROM DPOLSWS,M=2.71, F=1.00]
DPHILSED.V/V   : DENSITY POROSITY LIMESTONE [M=2.71, F=1.00] FROM DENSITY LOG [ADJ. TO RESISTIVITY LOG]
DPHISSED.V/V   : DENSITY POROSITY SANDSTONE [M=2.65, F=1.00] FROM DENSITY LOG [ADJ. TO RESISTIVITY LOG]
DPOLSWS .V/V   : DENSITY POROSITY LIMESTONE [DPHISSED MATRIX CONVERTED TO LS & SPL. TO DPHILSED @ 9450']
DRESWS  .OHMM  : DEEP RESISTIVITY [ILDED]
DRHOED  .G/C3  : DENSITY CORRECTION FROM DENSITY LOG [ADJ. TO RESISTIVITY LOG]
DTED    .US/F  : DELTA TIME FROM SONIC LOG [ADJ. TO RESISTIVITY LOG]
DTWS    .US/F  : COMPRESSIONAL SONIC [DTED]
GRDED   .GAPI  : GAMMA RAY FROM DENSITY LOG [ADJ. TO RESISTIVITY LOG]
GRSED   .GAPI  : GAMMA RAY FROM SONIC LOG [ADJ. TO RESISTIVITY LOG]
GRWS    .GAPI  : GAMMA RAY [GRSED SPL. TO GRDED @ 12818']
ILDED   .OHMM  : DEEP INDUCTION RESISTIVITY FROM RESISTIVITY LOG
ILMED   .OHMM  : MEDIUM INDUCTION RESISTIVITY FROM RESISTIVITY LOG
LL8ED   .OHMM  : 8 INCH LATEROLOG RESISTIVITY FROM RESISTIVITY LOG
MRESWS  .OHMM  : MEDIUM RESISTIVITY [ILMED]
NPHILSED.V/V   : NEUTRON POROSITY LIMESTONE FROM DENSITY LOG [ADJ. TO RESISTIVITY LOG]
NPHISSED.V/V   : NEUTRON POROSITY SANDSTONE FROM DENSITY LOG [ADJ. TO RESISTIVITY LOG]
NPOLSWS .V/V   : NEUTRON POROSITY LIMESTONE [NPHISSED MATRIX CONVERTED TO LS & SPL. TO NPHILSED @ 9350']
RHOBED  .G/C3  : BULK DENSITY FROM DENSITY LOG [ADJ. TO RESISTIVITY LOG]
SPRED   .MV    : SPONTANEOUS POTENTIAL FROM RESISTIVITY LOG
SPWS    .MV    : SPONTANEOUS POTENTIAL [BASELINE 0 MV, SPRED]
SRESWS  .OHMM  : SHALLOW RESISTIVITY [LL8ED]
~Params ----------------------------------------------------
PD  .                     GL : PERMANENT DATUM
EPD .FT                 3420 : ELEVATION PERMANENT DATUM
LMF .                     KB : LOG MEASURED FROM
DAPD.FT                   27 : FEET ABOVE PERMANENT DATUM
DMF .                     KB : DRILLING MEASURED FROM
EGL .FT                 3420 : GROUND LEVEL
DATE.               03/15/78 : RUN DATE
RUN .                      2 : RUN NUMBER
DD  .FT                12857 : DEPTH DRILLER
DL  .FT                12856 : DEPTH LOGGER
BLI .FT                12850 : BOTTOM LOG INTERVAL
TLI .FT                10390 : TOP LOG INTERVAL
CS  .IN                9.625 : CASING SIZE
CBD .FT                10395 : CASING BOTTOM DRILLER
CBL .FT                10390 : CASING BOTTOM LOGGER
BS  .IN                6.125 : BIT SIZE
BSD .FT                12857 : BIT SIZE AT DEPTH
DFT .                    GEL : DRILLING FLUID TYPE
DFD .                   10.3 : DRILLING FLUID DENSITY
DFV .                     44 : DRILLING FLUID VISCOSITY
DFPH.                   11.5 : DRILLING FLUID PH
DFL .                    8.8 : DRILLING FLUID LOSS
MSS .               FLOWLINE : MUD SAMPLE SOURCE
RMS .OHMM               0.89 : RESISTIVITY MUD SAMPLE
MST .DEGF                 62 : MUD SAMPLE TEMPERATURE
TCS .HRS                 2.5 : TIME CIRCULATED STOPPED
LUN .                   7687 : LOGGING UNIT NUMBER
LUL .                    EDA : LOGGING UNIT LOCATION
ENGI.               BERNISKY : RECORDING ENGINEER
WITN.                  COWAN : WITNESSED BY
CLNT.                A2DTECH : CLIENT CODE
ORIG.            2" 5" PRINT : ORIGIN OF DATA
UWI .       100063104713W500 : UNIQUE WELL ID
DICO. A2D Technologies, Inc. : DIGITIZING COMPANY
~Other -----------------------------------------------------
DIL-LL-CNL-FDC-BHC LOG RUN
NEUTRON CONVERSION: SCHLUMBERGER, DESCRIPTION: CNL(NPHI)
~ASCII -----------------------------------------------------
# ...
 1600.00000   11.99690   11.46700   11.46700   71.24740    0.01830    2.47830    -999.25    0.10410    0.13550   14.03560    0.01830   80.86890   80.86890   68.03690   66.02450   66.02450   14.03560   15.87500   13.51140   15.87500    -999.25    0.25840    0.21450    2.49210 -151.12040   15.25640   13.51140
 1650.00000   12.47610   12.17790   12.17790   59.82580    0.07190    2.48720    -999.25    0.09600    0.12770   16.71520    0.07190   76.54550   76.54550   56.45120   55.53940   55.53940   16.71520   20.71780   15.81740   20.71780    -999.25    0.25570    0.21180    2.49800 -148.67410   17.70270   15.81740
 1700.00000   12.20370   12.27470   12.27470   40.20550    0.08230    2.49620    -999.25    0.09320    0.12500   24.87220    0.08230   79.61930   79.61930   48.77470   49.62800   49.62800   24.87220   28.78250   24.00820   28.78250    -999.25    0.36390    0.32040    2.50210 -147.02270   19.35410   24.00820
 1750.00000   11.67360   11.69030   11.69030   56.38690    0.07760    2.41960    -999.25    0.13910    0.16930   17.73460    0.07760   75.43500   75.43500   51.59830   50.64720   50.64720   17.73460   20.37870   18.81200   20.37870    -999.25    0.36480    0.32130    2.42570 -148.29110   18.08570   18.81200
 1800.00000   11.93010   10.93790   10.93790  133.40980    0.16510    2.28980    -999.25    0.22970    0.25670    7.49570    0.16510   91.25800   91.25800   81.65810   86.88060   86.88060    7.49570    9.50390    7.85760    9.50390    -999.25    0.44210    0.40020    2.27600 -153.38490   12.99190    7.85760
 1850.00000   11.54430    9.87840    9.87840   37.67330    0.17050    2.36780    -999.25    0.17100    0.20010   26.54400    0.17050   78.42260   78.42260   46.45320   55.85950   55.85950   26.54400   31.76850   27.03850   31.76850    -999.25    0.28620    0.24220    2.37570 -160.78490    5.59190   27.03850
 1900.00000   10.91950   10.25580   10.25580   37.25940    0.09340    2.58460    -999.25    0.04670    0.08010   26.83890    0.09340   72.45860   72.45860   55.74700   58.23900   58.23900   26.83890   29.78000   29.78010   29.78000    -999.25    0.21550    0.17190    2.59210 -147.03910   19.33770   29.78010
 1950.00000   10.21750    9.97870    9.97870   62.55040    0.11870    2.37140    -999.25    0.16880    0.19800   15.98710    0.11870   85.16280   85.16280   85.61230   81.78220   81.78220   15.98710   18.88050   20.52600   18.88050    -999.25    0.33900    0.29530    2.37030 -160.78400    5.59280   20.52600
 2000.00000   11.72240   10.45140   10.45140  148.91810    0.18770    2.29250    -999.25    0.21290    0.24050    6.71510    0.18770   89.57680   89.57680   90.91280   91.30300   91.30300    6.71510    8.31050    6.32620    8.31050    -999.25    0.35330    0.30970    2.26730 -163.99230    2.38450    6.32620
 2050.00000    8.59640    9.02360    9.02360  494.68220    0.12820    2.14100    -999.25    0.30450    0.32890    2.02150    0.12820  100.23990  100.23990  107.67630  108.47290  108.47290    2.02150    2.24780    2.86470    2.24780    -999.25    0.50830    0.46660    2.16180 -161.91670    1.03430    2.86470
 2100.00000   10.27980   10.69320   10.69320   82.99240    0.00160    2.42370    -999.25    0.13710    0.16740   12.04930    0.00160   75.30850   75.30850   53.91060   55.68590   55.68590   12.04930   12.64270   12.63170   12.64270    -999.25    0.29380    0.24980    2.43370 -166.48420   -7.38250   12.63170
 2150.00000   10.61100   11.11140   11.11140  104.53250    0.01460    2.39010    -999.25    0.13570    0.16600    9.56640    0.01460   81.54930   81.54930   49.45550   61.53820   61.53820    9.56640   11.17410    9.04910   11.17410    -999.25    0.31450    0.27060    2.40400 -160.81960   -5.56710    9.04910
 2200.00000    9.96550   10.34040   10.34040   23.53570    0.05450    1.90820    -999.25    0.44960    0.46890   42.48870    0.05450  122.82860  122.82860   46.69960   37.80390   37.80390   42.48870   45.59570   73.09920   45.59570    -999.25    0.62470    0.58300    2.00000 -159.41360   -4.85400   73.09920
 2250.00000    9.75050   10.08650   10.08650  248.08970    0.17580    2.03520    -999.25    0.34080    0.36390    4.03080    0.17580  120.82530  120.82530   77.28010   78.63170   78.63170    4.03080    5.30090   12.46350    5.30090    -999.25    0.50680    0.46510    2.03030 -164.80550  -10.24590   12.46350
 2300.00000    9.51750    9.21520    9.21520   72.47010    0.17270    2.54930    -999.25    0.04770    0.08110   13.79880    0.17270   79.11670   79.11670   79.17740   86.01690   86.01690   13.79880   12.86790   18.35700   12.86790    -999.25    0.30920    0.26530    2.55660 -169.08480  -14.52520   18.35700
 2350.00000   11.11130   10.02980   10.02980  111.35610    0.18720    2.30780    -999.25    0.20740    0.23520    8.98020    0.18720   86.01060   86.01060   87.52560   77.20370   77.20370    8.98020   11.27710    8.25340   11.27710    -999.25    0.32020    0.27630    2.30620 -167.96670  -13.40710    8.25340
 2400.00000   11.16080   10.04290   10.04290  231.91630    0.06210    2.31050    -999.25    0.22170    0.24900    4.31190    0.06210  103.73290  103.73290   92.12520   91.08050   91.08050    4.31190    4.96120    5.41490    4.96120    -999.25    0.39990    0.35700    2.33100 -165.98580  -11.42620    5.41490
 2450.00000   11.88090    9.87840    9.87840  172.83990    0.19680    2.34270    -999.25    0.18620    0.21480    5.78570    0.19680   83.02640   83.02640   77.87350   75.56460   75.56460    5.78570    6.32650    6.04610    6.32650    -999.25    0.29890    0.25490    2.35270 -166.96800  -12.40840    6.04610
 2500.00000   10.77240    9.61950    9.61950  140.67470    0.03750    2.41810    -999.25    0.14690    0.17680    7.10860    0.03750   89.24540   89.24540  105.02700   96.77900   96.77900    7.10860    8.46540    6.22510    8.46540    -999.25    0.37280    0.32950    2.42220 -165.98070  -11.42110    6.22510
 2550.00000   10.16910    9.78050    9.78050  405.91010    0.07380    2.24090    -999.25    0.25600    0.28210    2.46360    0.07380  113.36930  113.36930  100.95060   96.22490   96.22490    2.46360    3.23130    2.46760    3.23130    -999.25    0.48820    0.44650    2.24080 -165.09010  -10.53050    2.46760
 2600.00000   14.17320   10.35790   10.35790  379.37710    0.11520    1.90750    -999.25    0.45000    0.46930    2.63590    0.11520  113.03840  113.03840   99.60140  102.05510  102.05510    2.63590    2.85490    2.51350    2.85490    -999.25    0.50070    0.45900    2.00000 -160.95880   -6.39920    2.51350
 2650.00000   12.26450    9.23200    9.23200  373.42690    0.04120    1.91720    -999.25    0.45440    0.47350    2.67790    0.04120  115.02960  115.02960  108.53640  105.45330  105.45330    2.67790    3.05650    2.48630    3.05650    -999.25    0.50580    0.46410    1.99970 -161.19500   -6.63540    2.48630
 2700.00000   10.33430    9.70710    9.70710  166.65000    0.10330    2.38440    -999.25    0.16100    0.19040    6.00060    0.10330   87.93550   87.93550   87.08460   83.59970   83.59970    6.00060    7.22280    6.81070    7.22280    -999.25    0.35530    0.31170    2.39610 -163.82640   -9.26680    6.81070
 2750.00000   11.14390   10.00480   10.00480  191.18630    0.13670    2.26630    -999.25    0.18410    0.21270    5.23050    0.13670   89.09690   89.09690   98.94370   86.91350   86.91350    5.23050    5.96620    7.32350    5.96620    -999.25    0.35030    0.30670    2.37600 -158.68200   -4.12240    7.32350
 2800.00000   10.00170    9.81990    9.81990   64.10630    0.13690    2.55110    -999.25    0.05670    0.08980   15.59910    0.13690   70.42050   70.42050   48.06250   48.88840   48.88840   15.59910   16.21750   16.91210   16.21750    -999.25    0.19710    0.15370    2.55800 -168.02560  -14.78270   16.91210
 2850.00000   11.31390   10.57630   10.57630  205.49070    0.03090    1.90730    -999.25    0.45010    0.46940    4.86640    0.03090  134.60620  134.60620   78.87370   72.05390   72.05390    4.86640    4.76960   11.87350    4.76960    -999.25    0.57920    0.53750    2.00000 -154.98280   -5.11620   11.87350
