~Version ---------------------------------------------------
VERS.      2.0 : CWLS log ASCII Standard -VERSION 2.0
WRAP.       NO : One line per depth step
CREA. 12/18/17 : LAS Creation Date
~Well ------------------------------------------------------
STRT.FT                         300.0 : START DEPTH
STOP.FT                       11750.0 : STOP DEPTH
STEP.FT                      50.00000 : STEP LENGTH
NULL.                         -999.25 : NULL VALUE
COMP.            MOBIL OIL CANADA LTD : COMPANY
WELL. MOBIL OIL LESLIEVILLE 4-19-39-5 : WELL
FLD .                                 : FIELD
LOC .                                 : LOCATION
CTRY.                          CANADA : COUNTRY
SRVC.          Schlumberger of Canada : SERVICE COMPANY
DATE.                     02-Feb-1958 : LOGDATE
PROV.                         Alberta : PROVINCE
UWI .                100041903905W500 : UNIQUE WELL ID
SLAT.WGS84                   52.36478 : SURFACE LATITUDE
SLON.WGS84                  -114.7174 : SURFACE LONGITUDE
~Curve Information -----------------------------------------
DEPT  .FT     : Depth Curve
CALMED.IN     : CALIPER FROM MICRO LATEROLOG [ADJ. TO IEL LOG]
CALWS .IN     : CALIPER [MCALED SPL. TO CALMED @ 8500']
CILDED.MMHO   : CONDUCTIVITY INDUCTION LOG FROM IEL LOG
CONDWS.MMHO   : CONDUCTIVITY [1000/DRESWS]
DRESWS.OHMM   : DEEP RESISTIVITY [1000/CILDED,IF ILDED<2,ILDED]
GR1ED .GAPI   : GAMMA RAY FROM GR LOG [ADJ. TO IEL LOG]
GRED  .GAPI   : GAMMA RAY FROM GR-CCL LOG [ADJ. TO IEL LOG]
GRNED .UR/HR  : GAMMA RAY FROM GRN LOG [ADJ. TO IEL & LATEROLOG LOG]
GRWS  .GAPI   : GAMMA RAY [GRNED*10.4 SPL. TO GR1ED @ 7038'-7122']
ILDED .OHMM   : INDUCTION LOG RESISTIVITY FROM IEL LOG
LL7ED .OHMM   : LATEROLOG-7 RES. FROM LATEROLOG [ADJ. TO IEL LOG]
MCALED.IN     : MLT CALIPER FROM MICROLOG [ADJ. TO IEL LOG]
MLLED .OHMM   : MICRO-LATEROLOG RESISTIVITY FROM MICRO LATEROLOG [ADJ. TO IEL LOG]
MRESWS.OHMM   : MEDIUM RESISTIVITY [LL7ED]
NEUTED.NAPI   : NEUTRON FROM GRN LOG [ADJ. TO IEL & LATEROLOG LOG]
NEUTWS.NAPI   : NEUTRON [NEUTED]
SNED  .OHMM   : SHORT NORMAL 16" FROM IEL LOG
SPMED .MV     : SPONTAEOUS POTENTIAL FROM MICRO LATEROLOG [ADJ. TO IEL LOG]
SPR1ED.MV     : SPONTANEOUS POTENTIAL FROM LATEROLOG [ADJ. TO IEL LOG]
SPRED .MV     : SPONTANEOUS POTENTIAL FROM IEL LOG
SPWS  .MV     : SPONTANEOUS POTENTIAL [BASELINE 0MV, SPRED SPL. TO SPR1ED @ 7480']
SRESWS.OHMM   : SHALLOW RESISTIVITY [SNED]
TENED .LBF    : TENSION FROM GR LOG [ADJ. TO IEL LOG]
~Params ----------------------------------------------------
PD  .           GROUND LEVEL : PERMANENT DATUM
EPD .FT                 3169 : ELEVATION PERMANENT DATUM
LMF .                     KB : LOG MEASURED FROM
DMF .                     KB : DRILLING MEASURED FROM
EKB .FT                 3181 : KELLY BUSHING
EGL .FT                 3169 : GROUND LEVEL
DATE.             02/02/1958 : RUN DATE
RUN .                      1 : RUN NUMBER
DD  .FT                11765 : DEPTH DRILLER
DL  .FT                11766 : DEPTH LOGGER
BLI .FT                11762 : BOTTOM LOG INTERVAL
TLI .FT                 6000 : TOP LOG INTERVAL
CBD .FT                  886 : CASING BOTTOM DRILLER
CBL .FT                  885 : CASING BOTTOM LOGGER
BS  .IN                    9 : BIT SIZE
BSD .FT                11766 : BIT SIZE AT DEPTH
DFT .              LIME BASE : DRILLING FLUID TYPE
DFD .                   11.4 : DRILLING FLUID DENSITY
DFV .                    100 : DRILLING FLUID VISCOSITY
DFPH.                   13.0 : DRILLING FLUID PH
DFL .                    4.6 : DRILLING FLUID LOSS
RMS .OHMM                0.5 : RESISTIVITY MUD SAMPLE
MST .DEGF                 47 : MUD SAMPLE TEMPERATURE
RMF .OHMM                0.2 : RESISTIVITY MUD FILTRATE SAMPLE
MFST.DEGF                 70 : MUD FILTRATE SAMPLE TEMPERATURE
RMC .OHMM                0.6 : RESISTIVITY MUD CAKE
MCST.DEGF                 66 : MUD CAKE SAMPLE TEMPERATURE
RMB .OHMM               0.14 : RESISTIVITY MUD AT BHT
MRT .DEGF                212 : MAXIMUM RECORDED TEMPERATURE
LUN .                  1729C : LOGGING UNIT NUMBER
LUL .                     RD : LOGGING UNIT LOCATION
ENGI.                  CHASE : RECORDING ENGINEER
WITN.                 CARSON : WITNESSED BY
CLNT.                A2DTECH : CLIENT CODE
ORIG.           2", 5" PRINT : ORIGIN OF DATA
UWI .       100041903905W500 : UNIQUE WELL ID
DICO. A2D Technologies, Inc. : DIGITIZING COMPANY
~Other -----------------------------------------------------
~ASCII -----------------------------------------------------
# ...
 1850.00000    -999.25    -999.25  215.91770  168.31330    5.94130    -999.25    -999.25   12.83370  133.47050    5.94130    -999.25    -999.25    -999.25    -999.25  723.16790  723.16790    9.25290    -999.25    -999.25 -220.88260  -16.67040    9.25290    -999.25
 1900.00000    -999.25    -999.25  134.36990  117.17700    8.53410    -999.25    -999.25   13.70200  142.50080    8.53410    -999.25    -999.25    -999.25    -999.25  986.24290  986.24290    9.02590    -999.25    -999.25 -227.96640  -23.75420    9.02590    -999.25
 1950.00000    -999.25    -999.25  452.75020  309.99100    3.22590    -999.25    -999.25   13.80240  143.54500    3.22590    -999.25    -999.25    -999.25    -999.25  929.08220  929.08220    3.89320    -999.25    -999.25 -225.95730  -21.74510    3.89320    -999.25
 2000.00000    -999.25    -999.25  144.00060  127.15850    7.86420    -999.25    -999.25   12.18420  126.71570    7.86420    -999.25    -999.25    -999.25    -999.25 1071.15240 1071.15240    6.99300    -999.25    -999.25 -224.69050  -20.47830    6.99300    -999.25
 2050.00000    -999.25    -999.25   91.38730   91.47040   10.93250    -999.25    -999.25   13.45340  139.91540   10.93250    -999.25    -999.25    -999.25    -999.25 1212.80240 1212.80240   10.56090    -999.25    -999.25 -228.91590  -24.70370   10.56090    -999.25
 2100.00000    -999.25    -999.25  161.87630  145.28340    6.88310    -999.25    -999.25   12.52900  130.30160    6.88310    -999.25    -999.25    -999.25    -999.25 1045.07030 1045.07030    6.42680    -999.25    -999.25 -223.97590  -19.76370    6.42680    -999.25
 2150.00000    -999.25    -999.25  406.43570  301.18670    3.32020    -999.25    -999.25   12.71490  132.23500    3.32020    -999.25    -999.25    -999.25    -999.25  831.97960  831.97960    3.67300    -999.25    -999.25 -212.98470   -8.77250    3.67300    -999.25
 2200.00000    -999.25    -999.25  129.79670  112.81210    8.86430    -999.25    -999.25   13.37350  139.08440    8.86430    -999.25    -999.25    -999.25    -999.25 1200.44530 1200.44530    8.36020    -999.25    -999.25 -227.04060  -22.82840    8.36020    -999.25
 2250.00000    -999.25    -999.25  161.66360  132.88860    7.52510    -999.25    -999.25   12.58220  130.85490    7.52510    -999.25    -999.25    -999.25    -999.25 1029.96280 1029.96280    7.02530    -999.25    -999.25 -222.82990  -18.61770    7.02530    -999.25
 2300.00000    -999.25    -999.25  197.95620  176.46640    5.66680    -999.25    -999.25   13.00700  135.27280    5.66680    -999.25    -999.25    -999.25    -999.25  887.10410  887.10410    6.46710    -999.25    -999.25 -214.35320  -10.14100    6.46710    -999.25
 2350.00000    -999.25    -999.25  100.17470   99.76260   10.02380    -999.25    -999.25   14.15970  147.26090   10.02380    -999.25    -999.25    -999.25    -999.25 1142.94610 1142.94610    8.72630    -999.25    -999.25 -225.42800  -21.21580    8.72630    -999.25
 2400.00000    -999.25    -999.25   94.22090   92.75840   10.78070    -999.25    -999.25   13.80560  143.57820   10.78070    -999.25    -999.25    -999.25    -999.25 1273.90630 1273.90630   10.17050    -999.25    -999.25 -228.88210  -24.66990   10.17050    -999.25
 2450.00000    -999.25    -999.25  176.15410  161.93280    6.17540    -999.25    -999.25   13.78290  143.34220    6.17540    -999.25    -999.25    -999.25    -999.25 1117.48580 1117.48580    6.44070    -999.25    -999.25 -231.17400  -26.96180    6.44070    -999.25
 2500.00000    -999.25    -999.25  175.53690  149.30720    6.69760    -999.25    -999.25   13.73910  142.88660    6.69760    -999.25    -999.25    -999.25    -999.25 1039.94760 1039.94760    7.30570    -999.25    -999.25 -232.82900  -28.61680    7.30570    -999.25
 2550.00000    -999.25    -999.25  160.33620  124.03100    8.06250    -999.25    -999.25   14.97330  155.72230    8.06250    -999.25    -999.25    -999.25    -999.25 1233.59420 1233.59420    7.48680    -999.25    -999.25 -236.91960  -32.70740    7.48680    -999.25
 2600.00000    -999.25    -999.25   90.18350   82.87480   12.06640    -999.25    -999.25   13.40120  139.37250   12.06640    -999.25    -999.25    -999.25    -999.25 1377.33500 1377.33500   12.52230    -999.25    -999.25 -235.27490  -31.06270   12.52230    -999.25
 2650.00000    -999.25    -999.25  122.54240  115.76080    8.63850    -999.25    -999.25   13.96900  145.27760    8.63850    -999.25    -999.25    -999.25    -999.25 1134.84120 1134.84120    8.43660    -999.25    -999.25 -235.03870  -30.82650    8.43660    -999.25
 2700.00000    -999.25    -999.25  202.05470  174.79770    5.72090    -999.25    -999.25   13.05540  135.77620    5.72090    -999.25    -999.25    -999.25    -999.25  950.03470  950.03470    6.01860    -999.25    -999.25 -226.74090  -22.52870    6.01860    -999.25
 2750.00000    -999.25    -999.25  120.42990  119.72180    8.35270    -999.25    -999.25   13.88570  144.41130    8.35270    -999.25    -999.25    -999.25    -999.25 1088.41160 1088.41160    7.85520    -999.25    -999.25 -225.36650  -21.15430    7.85520    -999.25
 2800.00000    -999.25    -999.25   43.67660   49.02630   20.39720    -999.25    -999.25   13.31490  138.47500   20.39720    -999.25    -999.25    -999.25    -999.25 1309.97210 1309.97210   16.29550    -999.25    -999.25 -233.39820  -29.18600   16.29550    -999.25
 2850.00000    -999.25    -999.25  122.61020  122.29870    8.17670    -999.25    -999.25   12.96110  134.79540    8.17670    -999.25    -999.25    -999.25    -999.25 1057.63090 1057.63090    7.84180    -999.25    -999.25 -228.32940  -24.11720    7.84180    -999.25
 2900.00000    -999.25    -999.25  319.07500  258.15780    3.87360    -999.25    -999.25   13.39850  139.34440    3.87360    -999.25    -999.25    -999.25    -999.25  960.16510  960.16510    4.73850    -999.25    -999.25 -226.37030  -22.15810    4.73850    -999.25
 2950.00000    -999.25    -999.25  108.67970  104.83060    9.53920    -999.25    -999.25   13.62240  141.67300    9.53920    -999.25    -999.25    -999.25    -999.25 1127.86480 1127.86480    9.29170    -999.25    -999.25 -229.04730  -24.83510    9.29170    -999.25
 3000.00000    -999.25    -999.25  122.82350  117.87730    8.48340    -999.25    -999.25   12.80170  133.13770    8.48340    -999.25    -999.25    -999.25    -999.25 1079.59220 1079.59220    8.76260    -999.25    -999.25 -226.40430  -22.19210    8.76260    -999.25
 3050.00000    -999.25    -999.25  274.63370  237.86870    4.20400    -999.25    -999.25   14.24460  148.14380    4.20400    -999.25    -999.25    -999.25    -999.25  914.56760  914.56760    5.12370    -999.25    -999.25 -220.09340  -15.88120    5.12370    -999.25
 3100.00000    -999.25    -999.25  208.02490  184.78480    5.41170    -999.25    -999.25   13.49340  140.33140    5.41170    -999.25    -999.25    -999.25    -999.25  933.20430  933.20430    4.83920    -999.25    -999.25 -214.32390  -10.11170    4.83920    -999.25
 3150.00000    -999.25    -999.25  220.80990  180.04070    5.55430    -999.25    -999.25   13.51070  140.51130    5.55430    -999.25    -999.25    -999.25    -999.25 1038.41510 1038.41510    5.71510    -999.25    -999.25 -216.48360  -12.27140    5.71510    -999.25
 3200.00000    -999.25    -999.25  142.99940  128.90920    7.75740    -999.25    -999.25   13.33570  138.69130    7.75740    -999.25    -999.25    -999.25    -999.25 1162.85300 1162.85300    7.44850    -999.25    -999.25 -219.66140  -15.44920    7.44850    -999.25
 3250.00000    -999.25    -999.25  155.07520  132.45560    7.54970    -999.25    -999.25   12.23810  127.27620    7.54970    -999.25    -999.25    -999.25    -999.25  927.25210  927.25210    8.05960    -999.25    -999.25 -214.36890  -10.15670    8.05960    -999.25
 3300.00000    -999.25    -999.25  171.72970  150.03750    6.66500    -999.25    -999.25   13.83510  143.88500    6.66500    -999.25    -999.25    -999.25    -999.25 1048.23990 1048.23990    6.11240    -999.25    -999.25 -213.55220   -9.34000    6.11240    -999.25
 3350.00000    -999.25    -999.25  177.85330  141.77560    7.05340    -999.25    -999.25   14.46140  150.39860    7.05340    -999.25    -999.25    -999.25    -999.25 1091.34610 1091.34610    6.88790    -999.25    -999.25 -215.90750  -11.69530    6.88790    -999.25
