~Version ---------------------------------------------------
VERS.      2.0 : CWLS log ASCII Standard -VERSION 2.0
WRAP.       NO : One line per depth step
CREA. 11/17/17 : LAS Creation Date
~Well ------------------------------------------------------
STRT.FT                           1050.0 : START DEPTH
STOP.FT                           9750.0 : STOP DEPTH
STEP.FT                         50.00000 : STEP LENGTH
NULL.                            -999.25 : NULL VALUE
COMP.                TENNECO OIL COMPANY : COMPANY
WELL. TENN SUN A1 SAKWATAMAU 10-25-64-15 : WELL
FLD .                                    : FIELD
LOC .                                    : LOCATION
CTRY.                             CANADA : COUNTRY
SRVC.                       Schlumberger : SERVICE COMPANY
DATE.                        21-Feb-1963 : LOGDATE
PROV.                            Alberta : PROVINCE
UWI .                   100102506415W500 : UNIQUE WELL ID
SLAT.WGS84                      54.56867 : SURFACE LATITUDE
SLON.WGS84                     -116.1264 : SURFACE LONGITUDE
~Curve Information -----------------------------------------
DEPT  .FT    : Depth Curve
CALSED.IN    : CALIPER FROM SONIC LOG [ADJ. TO RESISTIVITY LOG]
CALWS .IN    : CALIPER [CALSED]
CILDED.MMHO  : CONDUCTIVITY FROM RESISTIVITY LOG
CONDWS.MMHO  : CONDUCTIVITY [1000/DRESWS]
DRESWS.OHMM  : DEEP RESISTIVITY [1000/CILDED IF ILDED < 1, ILDED]
DT1ED .US/F  : DELTA-T 1' SPAN FROM SONIC LOG [ADJ. TO RESISTIVITY LOG]
DTED  .US/F  : DELTA-T 3' SPAN FROM SONIC LOG [ADJ. TO RESISTIVITY LOG]
DTWS  .US/F  : COMPRESSIONAL SONIC [DTED]
GRSED .GAPI  : GAMMA RAY FROM SONIC LOG [ADJ. TO RESISTIVITY LOG]
GRWS  .GAPI  : GAMMA RAY [GRSED]
ILDED .OHMM  : DEEP INDUCTION FROM RESISTIVITY LOG
SNED  .OHMM  : SHORT NORMAL FROM RESISTIVITY LOG
SPRED .MV    : SPONTANEOUS POTENTIAL FROM RESISTIVITY LOG
SPWS  .MV    : SPONTANEOUS POTENTIAL [BASELINE 0 MV, SPRED]
SRESWS.OHMM  : SHALLOW RESISTIVITY [SNED]
~Params ----------------------------------------------------
PD  .                     GL : PERMANENT DATUM
EPD .FT              3480.18 : ELEVATION PERMANENT DATUM
LMF .                     KB : LOG MEASURED FROM
DAPD.FT                 11.6 : FEET ABOVE PERMANENT DATUM
DMF .                     KB : DRILLING MEASURED FROM
EKB .FT              3491.78 : KELLY BUSHING
EGL .FT              3490.18 : GROUND LEVEL
DATE.               02/21/63 : RUN DATE
RUN .                      1 : RUN NUMBER
DD  .FT                 9800 : DEPTH DRILLER
DL  .FT                 9804 : DEPTH LOGGER
BLI .FT                 9803 : BOTTOM LOG INTERVAL
TLI .FT                 1027 : TOP LOG INTERVAL
CBD .FT                 1024 : CASING BOTTOM DRILLER
CBL .FT                 1027 : CASING BOTTOM LOGGER
BS  .IN                 8.75 : BIT SIZE
BSD .FT                 9800 : BIT SIZE AT DEPTH
DFT .           OIL EMULSION : DRILLING FLUID TYPE
DFD .                    9.6 : DRILLING FLUID DENSITY
DFV .                     90 : DRILLING FLUID VISCOSITY
DFPH.                   10.5 : DRILLING FLUID PH
DFL .                    8.8 : DRILLING FLUID LOSS
RMS .OHMM               1.35 : RESISTIVITY MUD SAMPLE
MST .DEGF                 74 : MUD SAMPLE TEMPERATURE
RMF .OHMM              0.895 : RESISTIVITY MUD FILTRATE SAMPLE
MFST.DEGF                 74 : MUD FILTRATE SAMPLE TEMPERATURE
RMC .OHMM               1.92 : RESISTIVITY MUD CAKE
MCST.DEGF                 74 : MUD CAKE SAMPLE TEMPERATURE
RMB .OHMM              0.895 : RESISTIVITY MUD AT BHT
TCS .HRS                   3 : TIME CIRCULATED STOPPED
LUN .                   1572 : LOGGING UNIT NUMBER
LUL .                    EDM : LOGGING UNIT LOCATION
ENGI.                 HAINES : RECORDING ENGINEER
WITN.                 MORGAN : WITNESSED BY
CLNT.                A2DTECH : CLIENT CODE
ORIG.            2" 5" PRINT : ORIGIN OF DATA
UWI .       100102506415W500 : UNIQUE WELL ID
DICO. A2D Technologies, Inc. : DIGITIZING COMPANY
~Other -----------------------------------------------------
IEL-BHC LOG RUN
ALL DATA VERIFY FROM TOP - 5978' & 6430' - 9114' FROM 2" SCALE LOG
~ASCII -----------------------------------------------------
 1050.00000   14.74110   14.74110  294.19230  292.18390    3.42980    -999.25  126.23080  126.23080   82.41780   82.41780    3.42980    5.01940  -62.43700   -6.91370    5.01940
 1100.00000   12.96100   12.96100  128.07260  124.98130    8.00120    -999.25  112.15270  112.15270   70.04810   70.04810    8.00120    6.67660  -70.01570  -14.41550    6.67660
 1150.00000   13.23840   13.23840  130.07940  127.53430    7.84160    -999.25  113.55060  113.55060   74.62780   74.62780    7.84160    6.58380  -70.52440  -14.84810    6.58380
 1200.00000   14.10490   14.10490  185.80050  185.85630    5.38050    -999.25  117.30270  117.30270   74.48810   74.48810    5.38050    5.85570  -66.40300  -10.64970    5.85570
 1250.00000   12.81620   12.81620  288.92300  301.25930    3.31940    -999.25  136.91510  136.91510   86.17260   86.17260    3.31940    3.56970  -61.51030   -5.68050    3.56970
 1300.00000   12.78720   12.78720  271.37680  271.42780    3.68430    -999.25  130.31460  130.31460   80.37830   80.37830    3.68430    4.31720  -61.16830   -5.26220    4.31720
 1350.00000   12.92460   12.92460  219.00180  217.71790    4.59310    -999.25  129.37250  129.37250   96.47160   96.47160    4.59310    4.81460  -62.70170   -6.71880    4.81460
 1400.00000   13.01430   13.01430  336.62240  330.16040    3.02890    -999.25  128.34940  128.34940   87.39230   87.39230    3.02890    2.86850  -61.88230   -5.82320    2.86850
 1450.00000   12.98870   12.98870  209.83040  191.26310    5.22840    -999.25  114.48140  114.48140   88.42520   88.42520    5.22840    4.78170  -60.79350   -4.65750    4.78170
 1500.00000   13.23280   13.23280  179.13640  179.09910    5.58350    -999.25   98.17630   98.17630   83.21180   83.21180    5.58350    4.77470  -60.92620   -4.71360    4.77470
 1550.00000   12.49470   12.49470  382.11480  382.20250    2.62020    -999.25  118.71840  118.71840   82.93570   82.93570    2.62020    3.45380  -60.66770   -4.37900    3.45380
 1600.00000   14.33180   14.33180  375.22670  354.78610    2.81860    -999.25  124.35680  124.35680   86.62030   86.62030    2.81860    2.40120  -60.29110   -3.92540    2.40120
 1650.00000   13.97200   13.97200  369.06010  369.04950    2.71080    -999.25  119.25600  119.25600   97.39780   97.39780    2.71080    2.29890  -60.62620   -4.18440    2.29890
 1700.00000   11.98800   11.98800  210.89040  235.34400    4.24910    -999.25  109.21570  109.21570   68.03410   68.03410    4.24910    4.80770  -60.95090   -4.43210    4.80770
 1750.00000   12.35900   12.35900  357.53650  420.06220    2.38060    -999.25  116.57560  116.57560   78.28510   78.28510    2.38060    2.92460  -62.42120   -5.82590    2.92460
 1800.00000   11.91930   11.91930  340.12580  358.60270    2.78940    -999.25  115.09420  115.09420   94.07660   94.07660    2.78940    2.35830  -61.99030   -5.31880    2.35830
 1850.00000   13.34130   13.34130  276.00470  302.58100    3.30490    -999.25  141.98210  141.98210   64.08940   64.08940    3.30490    3.88490  -61.51980   -4.77140    3.88490
 1900.00000   13.30510   13.30510  307.47020  307.36700    3.25400    -999.25  111.50670  111.50670   80.11300   80.11300    3.25400    2.76250  -61.27920   -4.45470    2.76250
 1950.00000   12.84480   12.84480  442.74750  584.59020    1.71060    -999.25  132.01100  132.01100   92.11630   92.11630    1.71060    2.44490  -60.83440   -3.93290    2.44490
 2000.00000   11.94500   11.94500  340.43470  391.09860    2.55690    -999.25  124.44320  124.44320   98.75130   98.75130    2.55690    2.89910  -60.44990   -3.47190    2.89910
 2050.00000   12.42200   12.42200  423.53830  423.57640    2.36090    -999.25  131.09160  131.09160   63.10850   63.10850    2.36090    1.91940  -60.50480   -3.45060    1.91940
 2100.00000   10.51260   10.51260  152.00920  159.84650    6.25600    -999.25  110.70900  110.70900   68.69990   68.69990    6.25600    5.58680  -73.18280  -16.05170    5.58680
 2150.00000   10.88370   10.88370  181.84500  181.25700    5.55440    -999.25  102.90080  102.90080   75.24520   75.24520    5.55440    4.15690  -70.82350  -13.61610    4.15690
 2200.00000   10.66640   10.66640  205.16390  211.14420    4.73610    -999.25  110.87160  110.87160   70.80130   70.80130    4.73610    4.10100  -68.01570  -10.73150    4.10100
 2250.00000   12.76780   12.76780  211.25700  247.43900    4.04140    -999.25  100.73650  100.73650   83.29230   83.29230    4.04140    4.37620  -62.87960   -5.51880    4.37620
 2300.00000   10.45400   10.45400  267.45490  302.49380    3.33340    -999.25  120.04160  120.04160   71.21290   71.21290    3.33340    3.91540  -66.30230   -8.90210    3.91540
 2350.00000   12.56030   12.56030  297.58390  297.63680    3.35980    -999.25  115.05150  115.05150   78.90010   78.90010    3.35980    2.81980  -60.94340   -3.58740    2.81980
 2400.00000   10.56620   10.56620   66.79630   70.96890   14.09610    -999.25   96.59290   96.59290   49.03860   49.03860   14.09610   10.00280  -71.84450  -14.53220   10.00280
 2450.00000   12.09160   12.09160  282.61650  326.97900    3.05830    -999.25  103.35420  103.35420   68.35880   68.35880    3.05830    3.76650  -60.91840   -3.65030    3.76650
 2500.00000   12.86070   12.86070  317.32020  372.84220    2.68210    -999.25  113.24580  113.24580   82.36020   82.36020    2.68210    3.11300  -59.31760   -2.09350    3.11300
 2550.00000   13.28570   13.28570  361.78730  431.87560    2.31650    -999.25  114.39160  114.39160   72.36100   72.36100    2.31650    3.16870  -59.63760   -2.45730    3.16870
 2600.00000   12.59410   12.59410  367.17300  423.83660    2.35940    -999.25  123.26720  123.26720   69.96240   69.96240    2.35940    2.67590  -58.26810   -1.13190    2.67590
 2650.00000   11.73120   11.73120   86.23790   98.15750   10.21920    -999.25   93.02420   93.02420   51.82380   51.82380   10.21920   12.84490  -70.78920  -13.69670   12.84490
 2700.00000   11.62040   11.62040  260.91910  291.73230    3.42780    -999.25  120.65310  120.65310   61.16650   61.16650    3.42780    4.06520  -59.69410   -2.64580    4.06520
 2750.00000   12.05930   12.05930  211.11090  233.01330    4.29160    -999.25   97.66840   97.66840   57.27110   57.27110    4.29160    6.24850  -63.11870   -6.11440    6.24850
 2800.00000   13.07020   13.07020  357.53490  405.49890    2.46630    -999.25  121.27010  121.27010   66.02750   66.02750    2.46630    2.99860  -59.52210   -2.56150    2.99860
 2850.00000   12.62630   12.62630  286.80830  326.16850    3.06590    -999.25  134.82480  134.82480   67.86380   67.86380    3.06590    3.83180  -57.60870   -0.69230    3.83180
 2900.00000   13.32310   13.32310  301.99350  317.28950    3.15610    -999.25  105.33070  105.33070   69.64520   69.64520    3.15610    3.55960  -59.97950   -3.10680    3.55960
 2950.00000   13.50080   13.50080  178.16120  199.91600    5.00210    -999.25   96.20350   96.20350   56.34320   56.34320    5.00210    5.47760  -59.45710   -2.62860    5.47760
 3000.00000   15.19390   15.19390  290.56540  328.39640    3.04510    -999.25  110.91080  110.91080   67.69130   67.69130    3.04510    4.01850  -57.89090   -1.10640    4.01850
 3050.00000   14.11190   14.11190  235.69370  238.58600    4.19240    -999.25  108.87930  108.87930   73.12570   73.12570    4.19240    4.43650  -58.40080   -1.66000    4.43650
 3100.00000   13.05160   13.05160  246.89950  252.41050    3.96180    -999.25  108.60620  108.60620   61.13080   61.13080    3.96180    5.33460  -63.88690   -7.19030    5.33460
 3150.00000   12.44770   12.44770  146.85680  145.31920    6.88170    -999.25   88.72720   88.72720   62.53660   62.53660    6.88170    6.22870  -61.08010   -4.42720    6.22870
 3200.00000   13.32000   13.32000  354.45480  356.83700    2.80240    -999.25  115.82240  115.82240   68.98930   68.98930    2.80240    3.26520  -57.83610   -1.22740    3.26520
 3250.00000   13.05870   13.05870  203.17500  209.38020    4.77600    -999.25  106.82380  106.82380   80.72460   80.72460    4.77600    5.71560  -59.24790   -2.68320    5.71560
 3300.00000   12.72220   12.72220  218.39320  222.43860    4.49580    -999.25  107.49800  107.49800   90.94020   90.94020    4.49580    5.03670  -57.82320   -1.30220    5.03670
