~Version ---------------------------------------------------
VERS.      2.0 : CWLS log ASCII Standard -VERSION 2.0
WRAP.       NO : One line per depth step
CREA. 12/14/17 : LAS Creation Date
~Well ------------------------------------------------------
STRT.FT                          1000.0 : START DEPTH
STOP.FT                          9450.0 : STOP DEPTH
STEP.FT                        50.00000 : STEP LENGTH
NULL.                           -999.25 : NULL VALUE
COMP.      CANADIAN HOMESTEAD OILS LTD. : COMPANY
WELL. HOMESTEAD ET AL SNIPE 11-28-68-19 : WELL
FLD .                                   : FIELD
LOC .                                   : LOCATION
CTRY.                            CANADA : COUNTRY
SRVC.                      Schlumberger : SERVICE COMPANY
DATE.                       25-Dec-1972 : LOGDATE
PROV.                           Alberta : PROVINCE
UWI .                  100112806819W500 : UNIQUE WELL ID
SLAT.WGS84                     54.91868 : SURFACE LATITUDE
SLON.WGS84                    -116.8396 : SURFACE LONGITUDE
~Curve Information -----------------------------------------
DEPT    .FT    : Depth Curve
CALDED  .IN    : CALIPER FROM DENSITY LOG [ADJ. TO GRSED]
CALSED  .IN    : CALIPER FROM SONIC LOG
CALWS   .IN    : CALIPER [CALSED]
CONDWS  .MMHO  : CONDUCTIVITY [1000/DRESWS]
DRESWS  .OHMM  : DEEP RESISTIVITY [ILDED]
DTED    .US/F  : DELTA TIME FROM SONIC LOG
DTWS    .US/F  : COMPRESSIONAL SONIC [DTED]
GRDED   .GAPI  : GAMMA RAY FROM DENSITY LOG [ADJ. TO GRSED]
GRSED   .GAPI  : GAMMA RAY FROM SONIC LOG
GRWS    .GAPI  : GAMMA RAY [GRSED]
ILDED   .OHMM  : DEEP INDUCTION RESISTIVITY FROM RESISTIVITY LOG
ILMED   .OHMM  : MEDIUM INDUCTION  RESISTIVITY FROM RESISTIVITY LOG
LL8ED   .OHMM  : LATEROLOG 8 FROM RESISTIVITY LOG
MRESWS  .OHMM  : MEDIUM RESISTIVITY [ILMED]
NPHILSED.V/V   : NEUTRON POROSITY LIMESTONE FROM DENSITY LOG
NPHISSED.V/V   : NEUTRON POROSITY SANDSTONE FROM DENSITY LOG
NPOLSWS .V/V   : NEUTRON POROSITY LIMESTONE [NPHISSED MATRIX CONVERSION FOR LIMESTONE, SPL. TO NPHILSED @ 5498']
SPHILSED.V/V   : SONIC POROSITY LIMESTONE [DTM=55.6, DTF=189] FROM SONIC LOG
SPHISSED.V/V   : SONIC POROSITY SANDSTONE [DTM=47.6, DTF=189]  FROM SONIC LOG
SPOWS   .V/V   : SONIC POROSITY [SPHISSED SPL. TO SPHILSED @ 5403']
SPRED   .MV    : SPONTANEOUS POTENTIAL FROM RESISTIVITY LOG
SPWS    .MV    : SPONTANEOUS POTENTIAL [BASELINE 0, MV SPRED]
SRESWS  .OHMM  : SHALLOW RESISTIVITY [LL8ED]
~Params ----------------------------------------------------
PD  .                     GL : PERMANENT DATUM
EPD .FT                 2594 : ELEVATION PERMANENT DATUM
LMF .                     KB : LOG MEASURED FROM
DAPD.FT                   16 : FEET ABOVE PERMANENT DATUM
EKB .FT                 2610 : KELLY BUSHING
EGL .FT                 2594 : GROUND LEVEL
DATE.               12/25/72 : RUN DATE
RUN .                      1 : RUN NUMBER
DD  .FT                 9485 : DEPTH DRILLER
DL  .FT                 9485 : DEPTH LOGGER
BLI .FT                 9479 : BOTTOM LOG INTERVAL
TLI .FT                  972 : TOP LOG INTERVAL
CBD .FT                  972 : CASING BOTTOM DRILLER
CBL .FT                  972 : CASING BOTTOM LOGGER
BS  .IN                7.875 : BIT SIZE
BSD .FT                 9485 : BIT SIZE AT DEPTH
DFT .                    FGM : DRILLING FLUID TYPE
DFD .                    9.1 : DRILLING FLUID DENSITY
DFV .                     75 : DRILLING FLUID VISCOSITY
DFPH.                    9.5 : DRILLING FLUID PH
DFL .                      8 : DRILLING FLUID LOSS
MSS .               MEASURED : MUD SAMPLE SOURCE
RMS .OHMM               2.13 : RESISTIVITY MUD SAMPLE
MST .DEGF                 44 : MUD SAMPLE TEMPERATURE
RMF .OHMM                1.3 : RESISTIVITY MUD FILTRATE SAMPLE
MFST.DEGF                 75 : MUD FILTRATE SAMPLE TEMPERATURE
RMC .OHMM               2.06 : RESISTIVITY MUD CAKE
MCST.DEGF                 52 : MUD CAKE SAMPLE TEMPERATURE
CLNT.                A2DTECH : CLIENT CODE
ORIG.            2" 5" PRINT : ORIGIN OF DATA
UWI .       100112806819W500 : UNIQUE WELL ID
DICO. A2D Technologies, Inc. : DIGITIZING COMPANY
~Other -----------------------------------------------------
DIL-CNL-SLC LOG RUN
CALD/GRD DEPTH SHIFTED TO GRSED
~ASCII -----------------------------------------------------
# ...
 5650.00000    8.73180    8.60760    8.60760  388.85100    2.57420   57.68930   57.68930   19.29880   19.29640   19.29640    2.57420    3.02680   14.86180    3.02680    0.12190    -999.25    0.12190    0.08020    -999.25    0.08020 -174.24750  -93.96260   14.86180
 5700.00000    8.62990    8.51840    8.51840   83.20160   12.01900   58.68010   58.68010   61.70490   56.69300   56.69300   12.01900   12.62620   18.78790   12.62620    0.06930    -999.25    0.06930    0.08900    -999.25    0.08900  -95.82610  -19.30390   18.78790
 5750.00000    8.83040    8.65780    8.65780   65.36290   15.29920   55.53440   55.53440   57.48490   55.18580   55.18580   15.29920   22.86640  515.32920   22.86640    0.03770    -999.25    0.03770    0.05460    -999.25    0.05460  -85.40400  -12.34380  515.32920
 5800.00000    -999.25    8.46990    8.46990  126.53330    7.95060   58.08990   58.08990    -999.25   19.81500   19.81500    7.95060    8.90430   28.65000    8.90430    -999.25    -999.25    -999.25    0.07920    -999.25    0.07920 -150.01010  -75.06230   28.65000
 5850.00000    -999.25    8.22580    8.22580 1372.68360    0.72850   78.34340   78.34340    -999.25   31.55380   31.55380    0.72850    1.10950    8.00510    1.10950    -999.25    -999.25    -999.25    0.22140    -999.25    0.22140 -193.63210 -116.77780    8.00510
 5900.00000    -999.25    8.48510    8.48510  888.62610    1.13010   63.96800   63.96800    -999.25   27.22350   27.22350    1.13010    1.34070    7.70270    1.34070    -999.25    -999.25    -999.25    0.12940    -999.25    0.12940 -165.97420  -87.23230    7.70270
 5950.00000    -999.25    8.56920    8.56920   33.10300   30.20870   54.11250   54.11250    -999.25   36.41170   36.41170   30.20870   33.71180   42.93010   33.71180    -999.25    -999.25    -999.25    0.05220    -999.25    0.05220  -92.96360  -12.31520   42.93010
 6000.00000    -999.25    8.32440    8.32440   92.82030   10.77350   56.37860   56.37860    -999.25   11.16230   11.16230   10.77350   16.57050  127.29990   16.57050    -999.25    -999.25    -999.25    0.06460    -999.25    0.06460 -184.08270 -103.57230  127.29990
 6050.00000    -999.25    8.61220    8.61220  112.21550    8.92940   53.01550   53.01550    -999.25   13.18740   13.18740    8.92940   16.03080  136.79220   16.03080    -999.25    -999.25    -999.25    0.04160    -999.25    0.04160 -178.01650  -98.28280  136.79220
 6100.00000    -999.25    8.69570    8.69570   23.97310   41.71340   51.48420   51.48420    -999.25   12.65280   12.65280   41.71340   54.90250  117.38740   54.90250    -999.25    -999.25    -999.25    0.02820    -999.25    0.02820 -160.54250  -81.59340  117.38740
 6150.00000    -999.25    8.13540    8.13540   14.92760   67.05310   50.88700   50.88700    -999.25   11.00110   11.00110   67.05310   96.76700  143.67500   96.76700    -999.25    -999.25    -999.25    0.02310    -999.25    0.02310 -142.44300  -64.27060  143.67500
 6200.00000    -999.25    9.25780    9.25780  504.41360    1.98250   65.58400   65.58400    -999.25   44.10500   44.10500    1.98250    2.15880    6.55710    2.15880    -999.25    -999.25    -999.25    0.13830    -999.25    0.13830 -114.82220  -38.15100    6.55710
 6250.00000    -999.25    8.90170    8.90170  316.30560    3.16150   64.23710   64.23710    -999.25   49.16680   49.16680    3.16150    3.35340    6.85650    3.35340    -999.25    -999.25    -999.25    0.12140    -999.25    0.12140 -106.63960  -32.31900    6.85650
 6300.00000    -999.25    8.89410    8.89410  123.06790    8.14100   61.97880   61.97880    -999.25   47.65350   47.65350    8.14100    8.31380   16.24640    8.31380    -999.25    -999.25    -999.25    0.11140    -999.25    0.11140  -85.22200  -13.56660   16.24640
 6350.00000    -999.25    8.47190    8.47190   49.81920   20.07260   57.07530   57.07530    -999.25   36.85240   36.85240   20.07260   21.30290   33.77140   21.30290    -999.25    -999.25    -999.25    0.07170    -999.25    0.07170  -83.63930  -14.67570   33.77140
 6400.00000    -999.25    8.17950    8.17950   24.34820   41.07350   54.98510   54.98510    -999.25   24.48470   24.48470   41.07350   46.72140   61.44100   46.72140    -999.25    -999.25    -999.25    0.05650    -999.25    0.05650  -78.66690  -12.36840   61.44100
 6450.00000    -999.25    8.19470    8.19470   36.93760   27.07270   57.08130   57.08130    -999.25   37.64110   37.64110   27.07270   28.68610   39.27240   28.68610    -999.25    -999.25    -999.25    0.07480    -999.25    0.07480  -72.00500   -8.39840   39.27240
 6500.00000    -999.25    8.18890    8.18890   31.49610   31.75000   55.38690   55.38690    -999.25   30.86820   30.86820   31.75000   33.38210   43.83290   33.38210    -999.25    -999.25    -999.25    0.05940    -999.25    0.05940  -79.70060  -16.88460   43.83290
 6550.00000    -999.25    8.21900    8.21900   30.92550   32.33590   55.38250   55.38250    -999.25   29.58950   29.58950   32.33590   35.83990   45.12820   35.83990    -999.25    -999.25    -999.25    0.06010    -999.25    0.06010  -73.70810  -11.42270   45.12820
 6600.00000    -999.25    8.07470    8.07470   28.79400   34.72940   55.46380   55.46380    -999.25   33.66810   33.66810   34.72940   37.75400   50.31100   37.75400    -999.25    -999.25    -999.25    0.05860    -999.25    0.05860  -71.71340   -9.96390   50.31100
 6650.00000    -999.25    8.12390    8.12390   15.65200   63.89560   54.59850   54.59850    -999.25   26.70190   26.70190   63.89560   67.71000   91.74970   67.71000    -999.25    -999.25    -999.25    0.05460    -999.25    0.05460  -79.70640  -18.48750   91.74970
 6700.00000    -999.25    8.25060    8.25060   26.21290   38.14920   58.46670   58.46670    -999.25   43.37760   43.37760   38.14920   41.33010   53.38600   41.33010    -999.25    -999.25    -999.25    0.08110    -999.25    0.08110  -74.38750  -13.70450   53.38600
 6750.00000    -999.25    8.35910    8.35910   35.73140   27.98660   59.77240   59.77240    -999.25   47.22530   47.22530   27.98660   30.39660   41.51560   30.39660    -999.25    -999.25    -999.25    0.09290    -999.25    0.09290  -89.34480  -29.19500   41.51560
 6800.00000    -999.25    8.17610    8.17610   11.06170   90.45080   51.15330   51.15330    -999.25   21.73290   21.73290   90.45080  140.08890  256.40050  140.08890    -999.25    -999.25    -999.25    0.02660    -999.25    0.02660 -109.78030  -50.16110  256.40050
 6850.00000    -999.25    8.20990    8.20990    8.32690  120.09320   49.82250   49.82250    -999.25   19.31430   19.31430  120.09320  160.73380  390.80040  160.73380    -999.25    -999.25    -999.25    0.02500    -999.25    0.02500 -115.80010  -56.71680  390.80040
 6900.00000    -999.25    8.54130    8.54130   17.06230   58.61340   52.28070   52.28070    -999.25   11.85990   11.85990   58.61340   60.61210  106.15780   60.61210    -999.25    -999.25    -999.25    0.03620    -999.25    0.03620 -158.25510  -99.70240  106.15780
 6950.00000    -999.25    8.50080    8.50080    2.10660  474.70910   49.38760   49.38760    -999.25   11.08040   11.08040  474.70910  502.45870  681.62270  502.45870    -999.25    -999.25    -999.25    0.01230    -999.25    0.01230 -123.14010  -65.12330  681.62270
 7000.00000    -999.25    8.44200    8.44200    2.10200  475.72760   49.31250   49.31250    -999.25   12.37220   12.37220  475.72760  399.03050  461.34340  399.03050    -999.25    -999.25    -999.25    0.01130    -999.25    0.01130 -134.27930  -76.79570  461.34340
 7050.00000    -999.25    8.66270    8.66270    1.44310  699.47740   48.55510   48.55510    -999.25   10.30130   10.30130  699.47740  793.56930  456.24090  793.56930    -999.25    -999.25    -999.25    0.00480    -999.25    0.00480 -140.95600  -84.00300  456.24090
 7100.00000    -999.25    8.63130    8.63130    2.56510  389.84420   39.40770   39.40770    -999.25   13.54780   13.54780  389.84420  305.24380  270.94070  305.24380    -999.25    -999.25    -999.25    0.00010    -999.25    0.00010 -160.05610 -103.63900  270.94070
 7150.00000    -999.25    8.56840    8.56840   15.56680   64.29930   49.75610   49.75610    -999.25   10.27220   10.27220   64.29930   94.73380  213.43550   94.73380    -999.25    -999.25    -999.25    0.01640    -999.25    0.01640 -187.14230 -131.25580  213.43550
