~Version ---------------------------------------------------
VERS. 2.0 : CWLS log ASCII Standard -VERSION 2.0
WRAP.  NO : ONE LINE PER DEPTH STEP
~Well ------------------------------------------------------
STRT.F                      1300.0 : START DEPTH
STOP.F                     12000.0 : STOP DEPTH
STEP.F                    50.00000 : STEP LENGTH
NULL.                      -999.25 : NULL VALUE
COMP. CENTRAL DEL RIO OILS LIMITED : COMPANY
WELL.     CDR GULF TONY 7-21-62-23 : WELL
FLD .                           WC : FIELD
LOC .                              : LOCATION
CTRY.                       CANADA : COUNTRY
SRVC.                 Schlumberger : SERVICE COMPANY
DATE.                  26-Feb-1970 : LOGDATE
PROV.                      Alberta : PROVINCE
UWI .             100072106223W500 : UNIQUE WELL ID
SLAT.WGS84                54.37491 : SURFACE LATITUDE
SLON.WGS84               -117.3829 : SURFACE LONGITUDE
~Curve Information -----------------------------------------
DEPT   .F                 : 
CALD   .IN   42 280 60 00 : CALIPER FROM DENSITY LOG
GRD    .GAPI 42 310 01 00 : GAMMA RAY FROM DENSITY LOG
NPOR_SS.DEC               : ENCHANCED THERMAL NEUTRON POROSITY IN SELECTED LITHOLOGY SANDSTONE
NPHI_DM.DEC  42 890 11 00 : NEUTRON POROSITY DOLOMITE MATRIX
NPHI_LS.DEC  42 890 10 00 : NEUTRON POROSITY LIMESTONE
ILD    .OHMM 07 120 46 00 : INDUCTION DEEP RESISTIVITY
ILM    .OHMM 07 120 44 00 : INDUCTION MEDIUM RESISTIVITY
LL8    .OHMM 07 220 08 00 : LATEROLOG 8
SPR    .MV   07 010 01 00 : SPONTANEOUS POTENTIAL FROM RESISTIVITY LOG
GRS    .GAPI 60 310 01 00 : GAMMA RAY FROM SONIC LOG
DT     .US/F 60 500 00 00 : DELTA-T (INTERVAL TRANSIT TIME)
CALS   .IN   60 280 50 00 : CALIPER FROM SONIC LOG
~Params ----------------------------------------------------
PD  .                     GL : PERMANENT DATUM
EPD .FT               2973.7 : ELEVATION PERMANENT DATUM
LMF .                     KB : LOG MEASURED FROM
DAPD.FT                 13.3 : FEET ABOVE PERMANENT DATUM
EKB .FT               2987.0 : KELLY BUSHING
EGL .FT               2973.7 : GROUND LEVEL
DATE.               02/26/70 : RUN DATE
RUN .                      1 : RUN NUMBER
DD  .FT                12050 : DEPTH DRILLER
DL  .FT                12048 : DEPTH LOGGER
BLI .FT                12044 : BOTTOM LOG INTERVAL
TLI .FT                 1302 : TOP LOG INTERVAL
CBD .FT                 1303 : CASING BOTTOM DRILLER
CBL .FT                 1302 : CASING BOTTOM LOGGER
BS  .IN                 8.75 : BIT SIZE
BSD .FT                12050 : BIT SIZE AT DEPTH
DFT .                 FGM CS : DRILLING FLUID TYPE
DFD .                    9.4 : DRILLING FLUID DENSITY
DFV .                     68 : DRILLING FLUID VISCOSITY
DFPH.                    9.5 : DRILLING FLUID PH
DFL .                   10.1 : DRILLING FLUID LOSS
MSS .               FLOWLINE : MUD SAMPLE SOURCE
RMS .OHMM               2.43 : RESISTIVITY MUD SAMPLE
MST .DEGF                 74 : MUD SAMPLE TEMPERATURE
RMF .OHMM               2.06 : RESISTIVITY MUD FILTRATE SAMPLE
MFST.DEGF                 74 : MUD FILTRATE SAMPLE TEMPERATURE
RMC .OHMM               2.57 : RESISTIVITY MUD CAKE
MCST.DEGF                 74 : MUD CAKE SAMPLE TEMPERATURE
TCS .HRS                3.25 : TIME CIRCULATED STOPPED
LUN .                   7502 : LOGGING UNIT NUMBER
LUL .                    EDM : LOGGING UNIT LOCATION
ENGI.                KERCHUM : RECORDING ENGINEER
WITN.          RONCO WHEELER : WITNESSED BY
CLNT.                A2DTECH : CLIENT CODE
ORIG.            2" 5" PRINT : ORIGIN OF DATA
UWI .       100072106223W500 : UNIQUE WELL ID
DICO. A2D Technologies, Inc. : DIGITIZING COMPANY
~Other -----------------------------------------------------
~ASCII -----------------------------------------------------
 1300.00000    -999.25    -999.25    -999.25    -999.25    -999.25    -999.25    -999.25    -999.25    -999.25   48.44620    -999.25    -999.25
 1350.00000    -999.25    -999.25    -999.25    -999.25    -999.25    5.35960    3.90770    6.11430  -55.10110   68.74360  101.48370   11.30280
 1400.00000    -999.25    -999.25    -999.25    -999.25    -999.25    4.09040    2.93590    3.57600  -56.64680   56.71300   74.12560    9.90590
 1450.00000    -999.25    -999.25    -999.25    -999.25    -999.25    4.66700    3.28310    3.45450  -57.05680   82.06300  114.97390   10.03810
 1500.00000    -999.25    -999.25    -999.25    -999.25    -999.25    5.05550    4.00090    3.78670  -59.85530   64.18870   98.04710    9.39010
 1550.00000    -999.25    -999.25    -999.25    -999.25    -999.25   14.50620   10.46750   12.22410  -60.48140   50.20190   78.71930    9.65210
 1600.00000    -999.25    -999.25    -999.25    -999.25    -999.25    6.84170    4.93330    4.18370  -61.15920   63.06580   86.40230    9.67640
 1650.00000    -999.25    -999.25    -999.25    -999.25    -999.25    5.14180    3.66510    3.45020  -61.37030   78.06940   99.21390   11.24940
 1700.00000    -999.25    -999.25    -999.25    -999.25    -999.25    4.14720    3.02700    3.32500  -60.25160   77.65810  112.35370   11.49540
 1750.00000    -999.25    -999.25    -999.25    -999.25    -999.25    4.75110    3.54220    3.84620  -59.66680   72.65040   94.99800   11.05960
 1800.00000    -999.25    -999.25    -999.25    -999.25    -999.25    5.96330    4.20280    6.60030  -57.34420   80.08130   97.38120   11.14870
 1850.00000    -999.25    -999.25    -999.25    -999.25    -999.25    8.13520    5.54710    6.59240  -57.14850   71.95290   98.25830   10.21030
 1900.00000    -999.25    -999.25    -999.25    -999.25    -999.25    2.15950    1.69670    1.99080  -58.14580   81.41060  114.34860    9.73150
 1950.00000    -999.25    -999.25    -999.25    -999.25    -999.25    4.42260    3.61460    3.37750  -59.63600   80.41210   93.79560    9.97790
 2000.00000    -999.25    -999.25    -999.25    -999.25    -999.25    9.77580    6.95870    7.86530  -57.87560   64.14740   91.44510    9.86630
 2050.00000    -999.25    -999.25    -999.25    -999.25    -999.25    3.98880    3.06970    2.87310  -58.10620   59.12190   81.74450   10.02670
 2100.00000    -999.25    -999.25    -999.25    -999.25    -999.25    5.63510    4.10160    4.50760  -58.60750   74.04640   92.07910   10.44660
 2150.00000    -999.25    -999.25    -999.25    -999.25    -999.25    2.44990    1.99630    1.90450  -57.51590   90.47930   95.06150   11.15270
 2200.00000    -999.25    -999.25    -999.25    -999.25    -999.25    4.07130    3.11820    3.18980  -58.72790   63.68180   97.65390   10.94970
 2250.00000    -999.25    -999.25    -999.25    -999.25    -999.25    5.48620    4.54380    5.65910  -59.51240   96.11300   95.17600   10.32750
 2300.00000    -999.25    -999.25    -999.25    -999.25    -999.25   11.27760    9.46450    8.74790  -60.18600   66.54930   81.47180    9.79310
 2350.00000    -999.25    -999.25    -999.25    -999.25    -999.25   20.80970   17.90190   19.36840  -64.17300   55.04010   81.09000    9.81410
 2400.00000    -999.25    -999.25    -999.25    -999.25    -999.25    4.09790    3.41020    3.35690  -58.02790   77.86290  114.49010   10.39210
 2450.00000    -999.25    -999.25    -999.25    -999.25    -999.25    4.07880    3.23440    3.64560  -56.83970   97.71550  123.22930   10.31440
 2500.00000    -999.25    -999.25    -999.25    -999.25    -999.25    5.64110    3.90030    4.48100  -56.19790   91.28260  103.71830    9.89960
 2550.00000    -999.25    -999.25    -999.25    -999.25    -999.25    2.38520    2.18330    4.11990  -54.88800   88.65400  121.35530   10.04390
 2600.00000    -999.25    -999.25    -999.25    -999.25    -999.25    3.37740    2.66770    2.56920  -55.09490   98.57890  102.99810   10.43930
 2650.00000    -999.25    -999.25    -999.25    -999.25    -999.25    6.35020    4.63650    4.93770  -56.48530   69.41810   81.42930    9.66530
 2700.00000    -999.25    -999.25    -999.25    -999.25    -999.25    2.94790    2.42030    2.38690  -54.89370   88.28640  106.56030    9.82290
 2750.00000    -999.25    -999.25    -999.25    -999.25    -999.25    4.99160    3.38120    3.67890  -56.65590   56.46810   91.63240    9.36800
 2800.00000    -999.25    -999.25    -999.25    -999.25    -999.25    4.28770    3.42670    3.68400  -55.86980   78.84440   99.98370   10.83110
 2850.00000    -999.25    -999.25    -999.25    -999.25    -999.25    9.41800    7.59750    6.91230  -62.45800   64.58010   90.32950   10.01560
 2900.00000    -999.25    -999.25    -999.25    -999.25    -999.25    6.47600    4.79000    4.86560  -57.63310   58.59690   91.64800    9.82520
 2950.00000    -999.25    -999.25    -999.25    -999.25    -999.25    3.48100    2.88590    2.76690  -55.37290   68.71370   96.48470   10.92680
 3000.00000    -999.25    -999.25    -999.25    -999.25    -999.25   16.17300   11.97230   10.07880  -62.63660   56.15160   70.36980    9.56360
 3050.00000    -999.25    -999.25    -999.25    -999.25    -999.25    5.22920    4.08980    4.36100  -55.10290   67.33670  102.77360   13.01680
 3100.00000    -999.25    -999.25    -999.25    -999.25    -999.25    4.27610    3.30930    3.05810  -54.82520   62.57710   98.62310    9.24990
 3150.00000    -999.25    -999.25    -999.25    -999.25    -999.25    5.83450    4.51800    4.23210  -54.84170   68.91390   88.11310    9.71720
 3200.00000    -999.25    -999.25    -999.25    -999.25    -999.25    5.00860    4.11930    3.87030  -54.13470   69.72330   88.07340    9.68800
 3250.00000    -999.25    -999.25    -999.25    -999.25    -999.25    5.72480    4.89460    5.23030  -53.99190   59.72300   87.38960    9.19150
 3300.00000    -999.25    -999.25    -999.25    -999.25    -999.25    6.72270    5.05410    5.02670  -53.44050   60.67620   80.17210    9.83410
 3350.00000    -999.25    -999.25    -999.25    -999.25    -999.25   20.39540   14.70440   13.79710  -55.80740   37.37270   66.21880    9.72650
 3400.00000    -999.25    -999.25    -999.25    -999.25    -999.25    5.08750    3.87670    4.04170  -54.47110   68.36670  110.80260   11.29110
 3450.00000    -999.25    -999.25    -999.25    -999.25    -999.25    4.80170    3.93850    4.36740  -53.45240   65.06830   95.36360   11.50400
 3500.00000    -999.25    -999.25    -999.25    -999.25    -999.25    6.70150    5.81390    7.97880  -53.10810   53.97630   81.66360   10.12900
 3550.00000    -999.25    -999.25    -999.25    -999.25    -999.25   14.73520   13.13660   12.00580  -61.15560   32.76910   81.64440    9.35370
 3600.00000    -999.25    -999.25    -999.25    -999.25    -999.25   10.64660    8.57640    8.13610  -52.92960   52.41240   82.22310    9.35690
 3650.00000    -999.25    -999.25    -999.25    -999.25    -999.25    6.79000    5.51170    6.74480  -53.57070   60.35560   88.25840    9.54670
 3700.00000    -999.25    -999.25    -999.25    -999.25    -999.25   44.13210   32.15300   27.76500  -71.90420   33.48390   78.56750    8.84200
 3750.00000    -999.25    -999.25    -999.25    -999.25    -999.25    6.03540    4.60080    5.05800  -53.29800   62.83680   96.91740   10.44120
 3800.00000    -999.25    -999.25    -999.25    -999.25    -999.25    5.91520    4.01840    6.10040  -56.54760   54.30330  101.68950   10.33730
 3850.00000    -999.25    -999.25    -999.25    -999.25    -999.25   10.59470    8.41610    7.88980  -55.97050   58.48660   80.45710    9.16220
 3900.00000    -999.25    -999.25    -999.25    -999.25    -999.25    4.84470    4.06530    4.51590  -52.08700   74.14030   94.76660   10.16500
 3950.00000    -999.25    -999.25    -999.25    -999.25    -999.25    5.95530    4.86550    5.19930  -51.64930   66.40410   88.71270   11.42620
 4000.00000    -999.25    -999.25    -999.25    -999.25    -999.25    6.66690    5.35340    5.69190  -51.82420   70.13450   88.16840   10.64020
 4050.00000    -999.25    -999.25    -999.25    -999.25    -999.25    9.34990    7.66000    8.80320  -53.33490   82.07410   58.68180   10.03470
