~Version ---------------------------------------------------
VERS.      2.0 : CWLS log ASCII Standard -VERSION 2.0
WRAP.       NO : One line per depth step
CREA. 01/05/18 : LAS Creation Date
~Well ------------------------------------------------------
STRT.FT                              300.0 : START DEPTH
STOP.FT                            15450.0 : STOP DEPTH
STEP.FT                           50.00000 : STEP LENGTH
NULL.                              -999.25 : NULL VALUE
COMP.                        BANFF OIL LTD : COMPANY
WELL. BANFF AQUIT CHIEFCO WAWA 11-20-42-13 : WELL
FLD .                                      : FIELD
LOC .                                      : LOCATION
CTRY.                               CANADA : COUNTRY
SRVC.               Schlumberger of Canada : SERVICE COMPANY
DATE.                          07-Apr-1970 : LOGDATE
PROV.                              Alberta : PROVINCE
UWI .                     100112004213W500 : UNIQUE WELL ID
SLAT.WGS84                        52.63304 : SURFACE LATITUDE
SLON.WGS84                       -115.8375 : SURFACE LONGITUDE
~Curve Information -----------------------------------------
DEPT    .FT    : Depth Curve
CALDED  .IN    : CALIPER FROM DENSITY LOG [ADJ. TO RESISTIVITY LOG]
CALNED  .IN    : CALIPER FROM SNP LOG [ADJ. TO RESISTIVITY LOG]
CALSED  .IN    : CALIPER FROM SONIC LOG [ADJ. TO RESISTIVITY LOG]
CALWS   .IN    : CALIPER [CALSED]
CONDWS  .MMHO  : CONDUCTIVITY [1000/DRESWS]
CORRED  .G/C3  : DENSITY CORRECTION FROM DENSITY LOG [ADJ. TO RESISTIVITY LOG]
DCORWS  .G/C3  : DENSITY CORRECTION [CORRED]
DENWS   .G/C3  : FORMATION BULK DENSITY [RHOBED]
DPHILSED.V/V   : DENSITY POROSITY LIMESTONE FROM DENSITY LOG [ADJ. TO RESISTIVITY LOG]
DPOLSWS .V/V   : DENSITY POROSITY LIMESTONE [CALC. FROM DENWS, M=2.71 F=1.00]
DRESWS  .OHMM  : DEEP RESISTIVITY [ILDED]
DTED    .US/F  : DELTA T FROM SONIC LOG [ADJ. TO RESISTIVITY LOG]
DTWS    .US/F  : COMPRESSIONAL SONIC [DTED]
GRDED   .GAPI  : GAMMA RAY FROM DENSITY LOG [ADJ. TO RESISTIVITY LOG]
GRDRED  .GAPI  : GAMMA RAY (REPEAT) FROM DENSITY LOG
GRNED   .GAPI  : GAMMA RAY FROM SNP LOG [ADJ. TO RESISTIVITY LOG]
GRSED   .GAPI  : GAMMA RAY FROM SONIC LOG [ADJ. TO RESISTIVITY LOG]
GRWS    .GAPI  : GAMMA RAY [GRSED]
ILDED   .OHMM  : DEEP INDUCTION RESISTIVITY FROM RESISTIVITY LOG
ILMED   .OHMM  : MEDIUM INDUCTION RESISTIVITY FROM RESISTIVITY LOG
ILMRED  .OHMM  : MEDIUM INDUCTION RESISTIVITY(REPEAT) FROM RESISTIVITY LOG [ADJ. TO ILDED]
LL8ED   .OHMM  : LATEROLOG 8 RESISTIVITY FROM RESISTIVITY LOG
MRESWS  .OHMM  : MEDIUM RESISTIVITY [ILMED SPL. TO ILMRED @ 15233']
NPOLSWS .V/V   : NEUTRON POROSITY LIMESTONE [SNPLSED]
RHOBED  .G/C3  : BULK DENSITY FROM DENSITY LOG [ADJ. TO RESISTIVITY LOG]
SNPLSED .V/V   : SIDEWALL NEUTRON POROSITY LIMESTONE FROM SNP LOG [ADJ. TO RESISTIVITY LOG]
SPRED   .MV    : SPONTANEOUS POTENTIAL FROM RESISTIVITY LOG
SPRRED  .MV    : SPONTANEOUS POTENTIAL(REPEAT) FROM RESISTIVITY LOG [ADJ. TO ILDED]
SPWS    .MV    : SPONTANEOUS POTENTIAL [BASELINE 0 MV, SPRED SPL. TO SPRRED @ 15223']
SRESWS  .OHMM  : SHALLOW RESISTIVITY [LL8ED]
~Params ----------------------------------------------------
PD  .                     GL : PERMANENT DATUM
EPD .FT                 4345 : ELEVATION PERMANENT DATUM
LMF .                     KB : LOG MEASURED FROM
DAPD.FT                   14 : FEET ABOVE PERMANENT DATUM
EKB .FT                 4359 : KELLY BUSHING
EGL .FT                 4345 : GROUND LEVEL
DATE.               06/04/70 : RUN DATE
RUN .                      3 : RUN NUMBER
DD  .FT                15476 : DEPTH DRILLER
DL  .FT                15473 : DEPTH LOGGER
BLI .FT                15471 : BOTTOM LOG INTERVAL
TLI .FT                14327 : TOP LOG INTERVAL
CBD .FT                12360 : CASING BOTTOM DRILLER
CBL .FT                12355 : CASING BOTTOM LOGGER
BS  .IN                    6 : BIT SIZE
BSD .FT                15476 : BIT SIZE AT DEPTH
DFT .               GEL CHEM : DRILLING FLUID TYPE
DFD .                    8.9 : DRILLING FLUID DENSITY
DFV .                     47 : DRILLING FLUID VISCOSITY
DFPH.                     11 : DRILLING FLUID PH
DFL .                   12.4 : DRILLING FLUID LOSS
MSS .               FLOWLINE : MUD SAMPLE SOURCE
RMS .OHMM               2.62 : RESISTIVITY MUD SAMPLE
TCS .HRS                   4 : TIME CIRCULATED STOPPED
LUN .                  CSU C : LOGGING UNIT NUMBER
LUL .                 364 RD : LOGGING UNIT LOCATION
ENGI.                 MEGSON : RECORDING ENGINEER
WITN.                BRINKER : WITNESSED BY
CLNT.                A2DTECH : CLIENT CODE
ORIG.        2" 5" 10" PRINT : ORIGIN OF DATA
UWI .       100112004213W500 : UNIQUE WELL ID
DICO. A2D Technologies, Inc. : DIGITIZING COMPANY
~Other -----------------------------------------------------
~ASCII -----------------------------------------------------
# ...
 11100.00000    9.15410    9.35750    8.80100    8.80100   81.34050    0.00830    0.00830    2.57220    0.07850    0.08060   12.29400   69.31760   69.31760   49.79700    -999.25   63.12040   55.46490   55.46490   12.29400   13.31750    -999.25   14.03770   13.31750    0.08020    2.57220    0.08020 -590.71140    -999.25 -123.59430   14.03770
 11150.00000    9.28150    9.48100    8.81030    8.81030  102.99720    0.12890    0.12890    2.56000    0.08470    0.08770    9.70900   66.92440   66.92440   61.70750    -999.25   63.53050   60.56580   60.56580    9.70900   12.29590    -999.25   14.31660   12.29590    0.13620    2.56000    0.13620 -464.16820    -999.25    0.48740   14.31660
 11200.00000   11.83110   12.26260    9.90860    9.90860  158.57660    0.09540    0.09540    2.09530    0.30030    0.35950    6.30610   89.65840   89.65840   74.80830    -999.25   82.55610   74.80800   74.80800    6.30610    5.92680    -999.25    5.27280    5.92680    0.30050    2.09530    0.30050 -471.51500    -999.25   -9.32090    5.27280
 11250.00000    9.24590    9.46840    8.84470    8.84470  101.69010    0.16420    0.16420    2.48990    0.12870    0.12870    9.83380   72.54390   72.54390   67.98710    -999.25   69.81900   64.21090   64.21090    9.83380   11.45270    -999.25   12.30460   11.45270    0.20010    2.48990    0.20010 -466.45680    -999.25  -11.73560   12.30460
 11300.00000    9.18830    9.45750    8.87790    8.87790  122.61910    0.06930    0.06930    2.61470    0.06020    0.05570    8.15680   71.33050   71.33050   91.66360    -999.25  100.73290   88.36730   88.36730    8.15680    8.90440    -999.25   10.38050    8.90440    0.13650    2.61470    0.13650 -541.36200    -999.25 -105.71150   10.38050
 11350.00000    9.16580    9.40280    8.87050    8.87050   94.15660    0.03410    0.03410    2.60370    0.07600    0.06220   10.62060   69.16040   69.16040   57.33330    -999.25   69.84350   61.40260   61.40260   10.62060   12.67590    -999.25   15.65860   12.67590    0.11650    2.60370    0.11650 -610.14870    -999.25 -193.76030   15.65860
 11400.00000   11.82380   11.79710   10.03440   10.03440  164.89680    0.06390    0.06390    1.97410    0.30000    0.43040    6.06440   89.01770   89.01770   60.43760    -999.25   59.68170   59.06930   59.06930    6.06440    6.58980    -999.25    7.54580    6.58980    0.30010    1.97410    0.30010 -584.87340    -999.25 -187.65150    7.54580
 11450.00000   10.13860    9.42930    9.63200    9.63200   85.14910    0.00610    0.00610    2.57630    0.08580    0.07820   11.74410   67.32710   67.32710   46.35270    -999.25   55.13490   50.61220   50.61220   11.74410   19.17870    -999.25   54.01470   19.17870    0.05510    2.57630    0.05510 -425.57680    -999.25  -47.52130   54.01470
 11500.00000    8.98610    8.90990    8.81950    8.81950   83.34580    0.05380    0.05380    2.59040    0.05640    0.06990   11.99820   66.15620   66.15620   65.67230    -999.25   68.50400   71.51060   71.51060   11.99820   12.16110    -999.25   12.46460   12.16110    0.10320    2.59040    0.10320 -421.61620    -999.25  -62.72710   12.46460
 11550.00000    9.11900    9.34050    8.58850    8.58850   58.98300    0.01370    0.01370    2.65010    0.04750    0.03510   16.95930   67.84690   67.84690   76.90110    -999.25   80.83050   71.78510   71.78510   16.95930   22.28200    -999.25   26.15270   22.28200    0.09400    2.65010    0.09400 -423.53580    -999.25  -83.71730   26.15270
 11600.00000   12.09450   11.65190    9.45050    9.45050   39.84440    0.12700    0.12700    2.14870    0.30000    0.32820   25.09760   73.64660   73.64660   39.95620    -999.25   42.40740   41.72220   41.72220   25.09760   27.46450    -999.25   40.24430   27.46450    0.24540    2.14870    0.24540 -435.47600    -999.25 -114.91970   40.24430
 11650.00000   10.83570   11.08470    9.33350    9.33350   80.31030    0.14490    0.14490    2.25310    0.26180    0.26720   12.45170   71.10270   71.10270   62.86750    -999.25   61.37410   64.31410   64.31410   12.45170   15.54810    -999.25   16.46830   15.54810    0.19770    2.25310    0.19770 -438.44770    -999.25 -137.05780   16.46830
 11700.00000    9.14560    9.41070    8.95090    8.95090  100.86440    0.12170    0.12170    2.50400    0.07880    0.12050    9.91430   69.60020   69.60020   84.88450    -999.25   84.44170   83.67060   83.67060    9.91430   12.93020    -999.25   12.58710   12.93020    0.18380    2.50400    0.18380 -489.26420    -999.25 -207.04070   12.58710
 11750.00000    9.58770    8.48130    8.70470    8.70470   32.80800    0.18900    0.18900    2.33290    0.22310    0.22060   30.48040   63.98040   63.98040   27.86310    -999.25   32.87570   31.07170   31.07170   30.48040   47.93520    -999.25   62.32690   47.93520    0.11060    2.33290    0.11060 -306.04100    -999.25  -42.98390   62.32690
 11800.00000   10.68520   10.77830    9.51490    9.51490  224.85190    0.08840    0.08840    2.21110    0.27220    0.29180    4.46510   74.88470   74.88470   63.29680    -999.25   78.15490   67.15770   67.15770    4.46510    5.15870    -999.25    5.38600    5.15870    0.24730    2.21110    0.24730 -321.06770    -999.25 -104.15190    5.38600
 11850.00000    8.73690    8.92290    8.56340    8.56340    0.69330    0.00970    0.00970    2.65720    0.02730    0.03090 1442.47380   51.63530   51.63530   13.32690    -999.25   14.81300   13.33890   13.33890 1442.47380 1532.86440    -999.25 1494.50660 1532.86440    0.00670    2.65720    0.00670 -282.35700    -999.25  -63.49130 1494.50660
 11900.00000    8.70750    8.90900    8.55910    8.55910    0.67660    0.00280    0.00280    2.57350    0.07850    0.07980 1477.90580   57.85080   57.85080   22.45300    -999.25   27.00930   25.75400   25.75400 1477.90580 1557.35740    -999.25 1052.79580 1557.35740    0.02620    2.57350    0.02620 -255.63360    -999.25  -33.66850 1052.79580
 11950.00000    8.55470    8.77500    8.12400    8.12400    5.05660    0.07110    0.07110    2.71110   -0.00370   -0.00060  197.76300   51.83310   51.83310   11.74570    -999.25   11.36790   13.07920   13.07920  197.76300  243.95070    -999.25  491.43070  243.95070    0.04100    2.71110    0.04100 -310.18520    -999.25  -93.87040  491.43070
 12000.00000    7.72530    8.13780    7.83330    7.83330    9.51310    0.10450    0.10450    2.50310    0.11710    0.12100  105.11800   58.08890   58.08890   11.40520    -999.25   15.60260   12.87950   12.87950  105.11800  150.79790    -999.25  137.02670  150.79790    0.16810    2.50310    0.16810 -365.74090    -999.25 -155.07640  137.02670
 12050.00000    8.47770    8.52570    7.95640    7.95640    4.62260    0.10370    0.10370    2.58520    0.07480    0.07300  217.00100   51.57470   51.57470   18.18260    -999.25   17.83080   17.89100   17.89100  217.00100 1324.90180    -999.25  195.51710 1324.90180    0.11780    2.58520    0.11780 -328.09530    -999.25 -123.05290  195.51710
 12100.00000    8.74760    9.10160    8.61300    8.61300    0.61330    0.01910    0.01910    2.75710   -0.02740   -0.02750 1630.52950   48.46100   48.46100   45.00980    -999.25   47.42540   39.87210   39.87210 1630.52950 1499.53050    -999.25  721.86250 1499.53050    0.02580    2.75710    0.02580 -300.38050    -999.25 -101.01660  721.86250
 12150.00000    8.84560    9.16260    8.83040    8.83040   34.62650    0.03690    0.03690    2.72050   -0.00690   -0.00610   28.87960   55.98950   55.98950   63.82460    -999.25   67.46800   60.95430   60.95430   28.87960   27.40070    -999.25   42.06940   27.40070    0.06230    2.72050    0.06230 -296.87810    -999.25 -103.16450   42.06940
 12200.00000    8.70680    8.97800    8.62280    8.62280    0.78000    0.03890    0.03890    2.94690   -0.14410   -0.13860 1282.02310   50.27650   50.27650    7.64790    -999.25    8.14690    7.39610    7.39610 1282.02310 1500.80370    -999.25 1411.97960 1500.80370    0.00040    2.94690    0.00040 -268.50390    -999.25  -80.44050 1411.97960
 12250.00000    8.70870    9.00810    8.61230    8.61230    8.18990    0.04530    0.04530    2.90860   -0.11860   -0.11610  122.10160   50.19910   50.19910   11.33830    -999.25   10.75250   11.62620   11.62620  122.10160  170.79970    -999.25 1579.93380  170.79970   -0.00090    2.90860   -0.00090 -272.35510    -999.25  -89.94200 1579.93380
