~Version ---------------------------------------------------
VERS.      2.0 : CWLS log ASCII Standard -VERSION 2.0
WRAP.       NO : One line per depth step
CREA. 09/27/17 : LAS Creation Date
~Well ------------------------------------------------------
STRT.FT                    300.0 : START DEPTH
STOP.FT                  13950.0 : STOP DEPTH
STEP.FT                 50.00000 : STEP LENGTH
NULL.                    -999.25 : NULL VALUE
COMP.   PENN WEST PETROLEUM LTD. : COMPANY
WELL. CONOCO WEB PECO 6-26-47-15 : WELL
FLD .                       PECO : FIELD
LOC .                            : LOCATION
CTRY.                     CANADA : COUNTRY
SRVC.     Schlumberger of Canada : SERVICE COMPANY
DATE.                03-May-1960 : LOGDATE
PROV.                    Alberta : PROVINCE
UWI .           100062604715W500 : UNIQUE WELL ID
SLAT.WGS84         53.0817985535 : SURFACE LATITUDE
SLON.WGS84       -116.0888900757 : SURFACE LONGITUDE
~Curve Information -----------------------------------------
DEPT  .FT         : Depth Curve
CALMED.IN         : CALIPER FROM MICRO LOG [ADJ. TO EL LOG]
CALWS .IN         : CALIPER [MCALED SPL. TO CALMED @ 9383']
CILDED.MMHO       : CONDUCTIVITY FROM IL LOG
CONDWS.MMHO       : CONDUCTIVITY [1000/DRESWS]
DRESWS.OHMM       : DEEP RESISTIVITY [LNED]
DT1ED .US/F       : DELTA-T 1 FEET SPACING FROM SONIC LOG [ADJ. TO EL LOG/DTED]
DTED  .US/F       : DELTA-T 3 FEET SPACING FROM SONIC LOG [ADJ. TO EL LOG]
DTWS  .US/F       : COMPRESSIONAL SONIC [DTED]
GRSED .UgRa-Eq/T  : GAMMA RAY FROM SONIC LOG [ADJ. TO EL LOG]
GRWS  .GAPI       : GAMMA RAY [GRSED*16.50, GRWS (CSG+15) @ 9354'-9407']
ILDED .OHMM       : DEEP INDUCTION FROM IL LOG
LNED  .OHMM       : LONG NORMAL FROM EL LOG
LT18ED.OHMM       : LATERAL 18 FROM EL LOG
MCALED.IN         : CALIPER FROM MICRO LOG [ADJ. TO EL LOG]
MLLED .OHMM       : CALIPER FROM MICRO LOG [ADJ. TO EL LOG]
SNED  .OHMM       : SHORT NORMAL FROM EL LOG
SPR1ED.MV         : SPONTANEOUS POTENTIAL FROM IL LOG
SPRED .MV         : SPONTANEOUS POTENTIAL FROM EL LOG
SPWS  .MV         : SPONTANEOUS POTENTIAL [SPRED SPL. TO SPR1ED @ 9383', BASELINE 0 MV]
SRESWS.OHMM       : SHALLOW RESISTIVITY [SNED]
~Params ----------------------------------------------------
PD  .                    GND : PERMANENT DATUM
LMF .                    GND : LOG MEASURED FROM
DMF .                    GND : DRILLING MEASURED FROM
EGL .FT                 3857 : GROUND LEVEL
DATE.               05/03/60 : RUN DATE
RUN .                      2 : RUN NUMBER
DD  .FT                13975 : DEPTH DRILLER
DL  .FT                13965 : DEPTH LOGGER
BLI .FT                13960 : BOTTOM LOG INTERVAL
TLI .FT                 9389 : TOP LOG INTERVAL
CBD .FT                 9386 : CASING BOTTOM DRILLER
CBL .FT                 9389 : CASING BOTTOM LOGGER
BS  .IN                8.875 : BIT SIZE
BSD .FT                13975 : BIT SIZE AT DEPTH
DFT .                   LIME : DRILLING FLUID TYPE
DFD .                     10 : DRILLING FLUID DENSITY
DFV .                     96 : DRILLING FLUID VISCOSITY
DFPH.                     13 : DRILLING FLUID PH
RMS .OHMM               0.69 : RESISTIVITY MUD SAMPLE
MST .DEGF                 58 : MUD SAMPLE TEMPERATURE
RMF .OHMM                0.4 : RESISTIVITY MUD FILTRATE SAMPLE
MFST.DEGF                 70 : MUD FILTRATE SAMPLE TEMPERATURE
RMC .OHMM                0.7 : RESISTIVITY MUD CAKE
MCST.DEGF                 70 : MUD CAKE SAMPLE TEMPERATURE
RMB .OHMM               0.16 : RESISTIVITY MUD AT BHT
TCS .HRS                   5 : TIME CIRCULATED STOPPED
LUN .               DSU C 72 : LOGGING UNIT NUMBER
ENGI.                  JAMES : RECORDING ENGINEER
WITN.               SHERRIFF : WITNESSED BY
CLNT.                A2DTECH : CLIENT CODE
ORIG.            2" 5" PRINT : ORIGIN OF DATA
UWI .       100062604715W500 : UNIQUE WELL ID
DICO. A2D Technologies, Inc. : DIGITIZING COMPANY
~Other -----------------------------------------------------
TOOL RAN: IL-EL-SONIC-ML-MLL LOG RAN.
EL LOG ARE FROM SMALL SECTION @FR-5350'& 680'0-7600',8200'-8900'
SONIC LOG ARE FROM SMALL SECTION @ FR-5000'& 6800'-7900',8200'-9000'
~ASCII -----------------------------------------------------
# ...
 3800.00000    -999.25   14.96880    -999.25   68.81810   14.53460    -999.25   80.59420   80.59420    4.75060   78.38490    -999.25   14.53460    7.20260   14.96880    -999.25    7.71670    -999.25  -46.26400   -7.59440    7.71670
 3850.00000    -999.25   15.88120    -999.25   73.60630   13.58580    -999.25   84.57740   84.57740    5.40610   89.20070    -999.25   13.58580   11.41190   15.88120    -999.25    7.41480    -999.25  -44.90690   -6.27650    7.41480
 3900.00000    -999.25   14.54940    -999.25  138.68510    7.24480    -999.25   76.10330   76.10330    4.24070   69.97150    -999.25    7.24480    8.77070   14.54940    -999.25    6.40110    -999.25  -42.86320   -4.27180    6.40110
 3950.00000    -999.25   14.67770    -999.25   63.95090   15.63700    -999.25   77.77220   77.77220    3.36000   55.44000    -999.25   15.63700   22.33670   14.67770    -999.25    9.09440    -999.25  -49.32150  -10.76930    9.09440
 4000.00000    -999.25   14.61790    -999.25   64.07380   15.60700    -999.25   76.03990   76.03990    4.06800   67.12200    -999.25   15.60700   19.22400   14.61790    -999.25    8.70320    -999.25  -52.72050  -14.20730    8.70320
 4050.00000    -999.25   16.70840    -999.25   98.08120   10.19580    -999.25   80.61850   80.61850    4.99660   82.44470    -999.25   10.19580   13.05070   16.70840    -999.25    6.21890    -999.25  -43.85460   -5.38040    6.21890
 4100.00000    -999.25   15.52100    -999.25   89.83520   11.13150    -999.25   87.82420   87.82420    4.85690   80.13890    -999.25   11.13150   20.24650   15.52100    -999.25    6.36510    -999.25  -45.72090   -7.28590    6.36510
 4150.00000    -999.25   16.56400    -999.25  131.48440    7.60580    -999.25  100.14630  100.14630    4.93720   81.46300    -999.25    7.60580    8.42400   16.56400    -999.25    3.91950    -999.25  -42.81320   -4.41720    3.91950
 4200.00000    -999.25   13.87250    -999.25   39.50290   25.31460    -999.25   70.07070   70.07070    4.11460   67.89090    -999.25   25.31460   26.63390   13.87250    -999.25   12.94030    -999.25  -51.18140  -12.82460   12.94030
 4250.00000    -999.25   14.60830    -999.25   40.30360   24.81170    -999.25   75.32280   75.32280    3.62670   59.84060    -999.25   24.81170   31.31780   14.60830    -999.25   11.62140    -999.25  -53.32040  -15.00260   11.62140
 4300.00000    -999.25   15.92160    -999.25  103.46580    9.66510    -999.25   83.19540   83.19540    3.93210   64.88050    -999.25    9.66510    9.60740   15.92160    -999.25    6.95070    -999.25  -42.49350   -4.21460    6.95070
 4350.00000    -999.25   16.64260    -999.25   99.31770   10.06870    -999.25  122.11630  122.11630    3.78330   62.42450    -999.25   10.06870   27.65460   16.64260    -999.25    7.78980    -999.25  -44.82110   -6.58150    7.78980
 4400.00000    -999.25   15.87770    -999.25   56.47470   17.72490    -999.25   74.87060   74.87060    3.61380   59.62850    -999.25   17.72490   20.05400   15.87770    -999.25   11.28490    -999.25  -49.62100  -11.42440   11.28490
 4450.00000    -999.25   16.43710    -999.25   92.98000   10.75500    -999.25   95.41020   95.41020    5.13620   84.74730    -999.25   10.75500    6.39070   16.43710    -999.25    6.19530    -999.25  -45.04980   -6.89660    6.19530
 4500.00000    -999.25   16.62470    -999.25  147.89620    6.76150    -999.25   92.50260   92.50260    5.65670   93.33550    -999.25    6.76150    6.38130   16.62470    -999.25    4.63580    -999.25  -48.29690  -10.18680    4.63580
 4550.00000    -999.25   16.43680    -999.25   86.30770   11.58640    -999.25   90.83700   90.83700    4.83340   79.75190    -999.25   11.58640   16.94290   16.43680    -999.25    6.35440    -999.25  -47.64100   -9.57410    6.35440
 4600.00000    -999.25   16.65380    -999.25  102.22750    9.78210    -999.25   82.05700   82.05700    4.46800   73.72200    -999.25    9.78210    9.56780   16.65380    -999.25    6.00590    -999.25  -48.80020  -10.77670    6.00590
 4650.00000    -999.25   13.00340    -999.25   35.31550   28.31730    -999.25   64.67570   64.67570    3.13510   51.72830    -999.25   28.31730   20.10440   13.00340    -999.25   15.39510    -999.25  -59.47340  -21.49300   15.39510
 4700.00000    -999.25   14.09580    -999.25   34.94790   28.61400    -999.25   73.44400   73.44400    3.00410   49.56770    -999.25   28.61400   31.82210   14.09580    -999.25   14.77530    -999.25  -61.79310  -23.85610   14.77530
 4750.00000    -999.25   16.66770    -999.25  118.67460    8.42640    -999.25  108.93690  108.93690    4.63940   76.55010    -999.25    8.42640    6.85170   16.66770    -999.25    3.77430    -999.25  -45.97140   -8.07760    3.77430
 4800.00000    -999.25   16.23340    -999.25   70.88150   14.10830    -999.25   81.45560   81.45560    4.83250   79.73540    -999.25   14.10830   13.45330   16.23340    -999.25    8.65580    -999.25  -48.83730  -10.98660    8.65580
 4850.00000    -999.25   15.71080    -999.25   40.16810   24.89540    -999.25   72.44530   72.44530    3.19680   52.74720    -999.25   24.89540   25.52210   15.71080    -999.25   12.11890    -999.25  -55.79940  -17.99210   12.11890
 4900.00000    -999.25   16.56490    -999.25   72.58520   13.77810    -999.25   85.12910   85.12910    3.46150   57.11470    -999.25   13.77810   16.22120   16.56490    -999.25    6.91310    -999.25  -48.67430  -10.91010    6.91310
 4950.00000    -999.25   16.62200  154.40760  128.39110    7.78870    -999.25   86.81560   86.81560    5.77970   95.36500    6.41080    7.78870    7.54060   16.62200    -999.25    5.67510  -48.73790  -47.34690   -9.62620    5.67510
 5000.00000    -999.25   16.31940  179.63940   92.07680   10.86050    -999.25   96.94850   96.94850    4.26430   70.36100    5.54350   10.86050   10.64040   16.31940    -999.25    6.04360  -48.60290  -48.65220  -10.97460    6.04360
 5050.00000    -999.25   16.60620  122.97490   66.98800   14.92800   77.44400   78.16180   78.16180    4.30830   71.08700    8.39280   14.92800    6.93990   16.60620    -999.25    8.32440  -51.11420  -46.36380   -8.72930    8.32440
 5100.00000    -999.25   16.30430   94.04230   47.29210   21.14520   78.26780   79.87730   79.87730    5.07620   83.75730   11.34770   21.14520   16.44650   16.30430    -999.25    9.78980  -55.71340  -50.80500  -13.21390    9.78980
 5150.00000    -999.25   16.61410  152.40980   67.69450   14.77290   90.75600   84.90930   84.90930    3.78890   62.51770    6.66620   14.77290   31.61570   16.61410    -999.25    6.94520  -53.06710  -50.84570  -13.29780    6.94520
 5200.00000    -999.25   16.65220  157.36290  106.78510    9.36460   93.04400   89.99630   89.99630    4.87610   80.45570    6.42360    9.36460   11.60140   16.65220    -999.25    5.88390  -48.98890  -44.84570   -7.34120    5.88390
 5250.00000    -999.25   16.56550  196.85550  129.04390    7.74930    -999.25   87.20100   87.20100    5.81890   96.01190    5.08200    7.74930    8.26150   16.56550    -999.25    5.28040  -49.14600  -44.11120   -6.64980    5.28040
 5300.00000    -999.25   15.86750  136.97890   76.26070   13.11300    -999.25   79.81290   79.81290    4.94490   81.59170    7.48980   13.11300    9.27220   15.86750    -999.25    7.24920  -48.49550  -44.48930   -7.07100    7.24920
 5350.00000    -999.25   16.59960  272.15890  158.49870    6.30920    -999.25   92.75710   92.75710    5.04910   83.31020    3.25730    6.30920   10.29210   16.59960    -999.25    3.88500  -45.56910  -39.78850   -2.41370    3.88500
 5400.00000    -999.25   16.56370   82.18200   43.14380   23.18020    -999.25   76.33570   76.33570    4.35930   71.92840   14.72640   23.18020   29.75300   16.56370    -999.25   10.46680  -46.28290  -41.05790   -3.72620   10.46680
 5450.00000    -999.25   16.63000  126.59440   95.59220   10.46110    -999.25   74.74380   74.74380    3.88960   64.17840    8.23120   10.46110   13.86800   16.63000    -999.25    6.98580  -45.02820  -42.50190   -5.21360    6.98580
 5500.00000    -999.25   16.29070  117.34400   67.80300   14.74860    -999.25   81.54580   81.54580    4.46180   73.61970    8.89390   14.74860   10.10800   16.29070    -999.25    8.40580  -47.56400  -45.15440   -8.03610    8.40580
