~Version ---------------------------------------------------
VERS. 2.0 : CWLS log ASCII Standard -VERSION 2.0
WRAP.  NO : ONE LINE PER DEPTH STEP
~Well ------------------------------------------------------
STRT.M                    500.0 : START DEPTH
STOP.M                   3850.0 : STOP DEPTH
STEP.M                 50.00000 : STEP LENGTH
NULL.                   -999.25 : NULL VALUE
COMP. BP EXPLORATION CANADA LLC : COMPANY
WELL.   BP BASELINE 10-25-65-27 : WELL
FLD .                           : FIELD
LOC .                           : LOCATION
CTRY.                    CANADA : COUNTRY
SRVC.             Dresser Atlas : SERVICE COMPANY
DATE.               16-Apr-1981 : LOGDATE
PROV.                   Alberta : PROVINCE
UWI .          100102506527W500 : UNIQUE WELL ID
SLAT.WGS84             54.65773 : SURFACE LATITUDE
SLON.WGS84            -117.9393 : SURFACE LONGITUDE
~Curve Information -----------------------------------------
DEPT   .M    0   1   0  0 : 1 MEASURED DEPTH
GRD    .GAPI 45 310 01 00 : GAMMA RAY FROM DENSITY LOG
CALD   .MM   45 280 60 00 : CALIPER FROM DENSITY LOG
CORR   .K/M3 45 356 01 00 : DENSITY CORRECTION
RHOB   .K/M3 45 350 01 00 : BULK DENSITY
DPHI_SS.DEC  45 890 12 00 : DENSITY POROSITY SANDSTONE
NPHI_SS.DEC  42 890 03 00 : NEUTRON POROSITY SANDSTONE
DPHI_LS.DEC  45 890 10 00 : DENSITY POROSITY LIMESTONE
NPHI_LS.DEC  42 890 01 00 : NEUTRON POROSITY LIMESTONE
SPR    .MV   07 010 01 00 : SPONTANEOUS POTENTIAL FROM RESISTIVITY LOG
ILD    .OHMM 07 120 46 00 : INDUCTION DEEP RESISTIVITY
ILM    .OHMM 07 120 44 00 : INDUCTION MEDIUM RESISTIVITY
SFL    .OHMM 07 220 06 00 : SPHERICALLY FOCUSED LOG
GRS    .GAPI 60 310 01 00 : GAMMA RAY FROM SONIC LOG
CALS   .MM   60 280 50 00 : CALIPER FROM SONIC LOG
AC     .US/M 60 500 00 00 : ACOUSTIC
~Params ----------------------------------------------------
PD  .                     GL : PERMANENT DATUM
EPD .M                 924.3 : ELEVATION PERMANENT DATUM
LMF .                     KB : LOG MEASURED FROM
DAPD.M                  8.98 : FEET ABOVE PERMANENT DATUM
DMF .                     KB : DRILLING MEASURED FROM
EKB .M                933.28 : KELLY BUSHING
EGL .M                 924.3 : GROUND LEVEL
DATE.               04/16/81 : RUN DATE
RUN .                      1 : RUN NUMBER
DD  .M                  3875 : DEPTH DRILLER
DL  .M                3871.9 : DEPTH LOGGER
BLI .M                3871.1 : BOTTOM LOG INTERVAL
TLI .M                  1800 : TOP LOG INTERVAL
CS  .MM                244.5 : CASING SIZE
CBD .M                 477.5 : CASING BOTTOM DRILLER
BS  .MM                  222 : BIT SIZE
BSD .M                  3875 : BIT SIZE AT DEPTH
DFT .               GEL CHEM : DRILLING FLUID TYPE
DFD .                   1100 : DRILLING FLUID DENSITY
DFV .                     89 : DRILLING FLUID VISCOSITY
DFPH.                    9.5 : DRILLING FLUID PH
DFL .                      9 : DRILLING FLUID LOSS
MSS .               FLOWLINE : MUD SAMPLE SOURCE
RMS .OHMM                1.5 : RESISTIVITY MUD SAMPLE
MST .DEGC                 18 : MUD SAMPLE TEMPERATURE
RMF .OHMM                1.2 : RESISTIVITY MUD FILTRATE SAMPLE
MFST.DEGC                 18 : MUD FILTRATE SAMPLE TEMPERATURE
RMC .OHMM                2.1 : RESISTIVITY MUD CAKE
MCST.DEGC                 18 : MUD CAKE SAMPLE TEMPERATURE
MFSS.                   MEAS : MUD FILTRATE SAMPLE SOURCE
MCSS.                   MEAS : MUD CAKE SAMPLE SOURCE
RMB .OHMM               0.49 : RESISTIVITY MUD AT BHT
TCS .HRS                  45 : TIME CIRCULATED STOPPED
LUN .                HL 6091 : LOGGING UNIT NUMBER
LUL .                  GR PR : LOGGING UNIT LOCATION
ENGI.         HOWARD LAMBORN : RECORDING ENGINEER
WITN.                  LEWIS : WITNESSED BY
CLNT.                A2DTECH : CLIENT CODE
ORIG.        6.5"/100M PRINT : ORIGIN OF DATA
UWI .       100102506527W500 : UNIQUE WELL ID
DICO. A2D Technologies, Inc. : DIGITIZING COMPANY
~Other -----------------------------------------------------
~ASCII -----------------------------------------------------
  500.00000    -999.25    -999.25    -999.25    -999.25    -999.25    -999.25    -999.25    -999.25  -62.57260   12.52610   11.40260   16.10990   93.72360  237.27030  449.58090
  550.00000    -999.25    -999.25    -999.25    -999.25    -999.25    -999.25    -999.25    -999.25  -64.57620    3.63810    3.82930    5.17720   94.31570  216.10640  349.20410
  600.00000    -999.25    -999.25    -999.25    -999.25    -999.25    -999.25    -999.25    -999.25  -62.48310    4.85660    5.14720    6.12320  117.60460  250.98310  317.97820
  650.00000    -999.25    -999.25    -999.25    -999.25    -999.25    -999.25    -999.25    -999.25  -59.72490    1.45820    1.69590    4.34340  142.86810  245.74730  418.94000
  700.00000    -999.25    -999.25    -999.25    -999.25    -999.25    -999.25    -999.25    -999.25  -62.59900    3.44120    3.98020    4.45410  111.49240  226.88280  347.87660
  750.00000    -999.25    -999.25    -999.25    -999.25    -999.25    -999.25    -999.25    -999.25  -61.55540    2.95430    3.15310    4.82870  110.04050  230.94440  317.16960
  800.00000    -999.25    -999.25    -999.25    -999.25    -999.25    -999.25    -999.25    -999.25  -62.31500    3.76350    4.07810    4.27030   98.89250  231.02580  348.39820
  850.00000    -999.25    -999.25    -999.25    -999.25    -999.25    -999.25    -999.25    -999.25  -62.66610    4.61970    4.89600    5.10470   91.37080  228.66040  300.89950
  900.00000    -999.25    -999.25    -999.25    -999.25    -999.25    -999.25    -999.25    -999.25  -62.01790   13.22010   14.32020   11.13400   87.41310  232.34630  302.40490
  950.00000    -999.25    -999.25    -999.25    -999.25    -999.25    -999.25    -999.25    -999.25  -64.83140   25.67650   18.47470   24.46330   71.07800  227.87920  293.09630
 1000.00000    -999.25    -999.25    -999.25    -999.25    -999.25    -999.25    -999.25    -999.25  -61.72650    4.99680    4.38170    6.45720   48.82540  225.99650  320.78210
 1050.00000    -999.25    -999.25    -999.25    -999.25    -999.25    -999.25    -999.25    -999.25  -62.86930    6.17360    5.71750    5.52550   77.08600  284.58750  326.72980
 1100.00000    -999.25    -999.25    -999.25    -999.25    -999.25    -999.25    -999.25    -999.25  -62.15490    5.36020    5.20170    4.68190   86.16990  246.23900  358.17760
 1150.00000    -999.25    -999.25    -999.25    -999.25    -999.25    -999.25    -999.25    -999.25  -63.57490    6.81120    7.40160    7.95880  124.33580  224.82640  311.72310
 1200.00000    -999.25    -999.25    -999.25    -999.25    -999.25    -999.25    -999.25    -999.25  -66.26090    8.48600    9.92850    9.62150  112.40770  203.78670  292.49200
 1250.00000    -999.25    -999.25    -999.25    -999.25    -999.25    -999.25    -999.25    -999.25  -66.41220    8.68620    8.01710    7.51030  111.36570  217.81870  300.24050
 1300.00000    -999.25    -999.25    -999.25    -999.25    -999.25    -999.25    -999.25    -999.25  -68.46710    7.88550    7.17090    6.66920  115.92630  225.65600  322.14970
 1350.00000    -999.25    -999.25    -999.25    -999.25    -999.25    -999.25    -999.25    -999.25  -66.87760   13.60450   12.81000   11.94580  116.40270  235.68260  263.42340
 1400.00000    -999.25    -999.25    -999.25    -999.25    -999.25    -999.25    -999.25    -999.25  -65.36700    9.31250    8.91970    8.58950  124.15660  242.27870  286.50610
 1450.00000    -999.25    -999.25    -999.25    -999.25    -999.25    -999.25    -999.25    -999.25  -63.92940    8.59540    9.13440    9.96930  130.85000  260.60770  306.59390
 1500.00000    -999.25    -999.25    -999.25    -999.25    -999.25    -999.25    -999.25    -999.25  -64.45180    8.20440    9.16170    9.71740  119.56870  249.91070  301.06620
 1550.00000    -999.25    -999.25    -999.25    -999.25    -999.25    -999.25    -999.25    -999.25  -62.55350    9.54780   10.61140   11.33600  130.95870  249.58790  305.63400
 1600.00000    -999.25    -999.25    -999.25    -999.25    -999.25    -999.25    -999.25    -999.25  -65.74770   14.09670   12.20260   13.63720   97.93380  274.76500  248.07960
 1650.00000    -999.25    -999.25    -999.25    -999.25    -999.25    -999.25    -999.25    -999.25  -61.49100    7.31860    7.64010    9.18830  123.29960  233.04140  279.63050
 1700.00000    -999.25    -999.25    -999.25    -999.25    -999.25    -999.25    -999.25    -999.25  -61.21170    6.87170    7.24670    7.42220  121.72710  242.48370  273.66470
 1750.00000    -999.25    -999.25    -999.25    -999.25    -999.25    -999.25    -999.25    -999.25  -59.49980    4.92440    5.15730    7.77510  156.47950  267.17920  293.23780
 1800.00000  156.95090  371.05940   73.54360 2411.98540    0.12750    0.41570    -999.25    -999.25  -59.46570    3.28380    3.47830    4.84310  120.19210  240.05830  313.74940
 1850.00000   94.66160  270.88800   65.05990 2589.04130    0.04020    0.19220    -999.25    -999.25  -69.09000   17.73510   19.57390   20.59400   70.54190  242.51040  233.13270
 1900.00000  123.55540  297.92090   53.15830 2506.32470    0.09590    0.34910    -999.25    -999.25  -59.54830    6.26870    7.36890    7.61100  107.16900  269.64560  322.49510
 1950.00000  127.05210  291.68840   86.37260 2386.12650    0.10390    0.38450    -999.25    -999.25  -54.38560    7.16870    7.77250   16.02400  109.96220  291.85140  302.19340
 2000.00000  127.87230  274.30100   27.85340 2437.52910    0.18680    0.30270    -999.25    -999.25  -56.92440    8.91770   11.10130   10.37670  102.47930  267.38700  277.44570
 2050.00000  124.53280  319.21830   13.34830 2457.40500    0.23870    0.32570    -999.25    -999.25  -71.31180   14.93500   16.89740   24.79300   72.10280  304.10980  361.94740
 2100.00000  104.79060  279.85540   37.01210 2564.13090    0.04730    0.26060    -999.25    -999.25  -61.63860   13.75330   15.41070   16.50000   83.67890  291.27220  236.83590
 2150.00000  129.96590  278.08220  119.20840 2284.43210    0.22410    0.30660    -999.25    -999.25  -45.82290   10.87640   11.55880   18.96740   89.74750  259.12560  228.07720
 2200.00000  133.27560  245.26450   46.42700 2634.69140    0.11630    0.22970    -999.25    -999.25  -48.79510   24.38120   22.18310   26.53710  112.85980  250.45520  265.73970
 2250.00000   85.07470  242.94580   21.52710 2564.57130    0.04640    0.18020    -999.25    -999.25  -64.95720   28.36040   33.05150   35.52450   66.62930  253.32410  219.68290
 2300.00000  123.31130  217.88480   10.77950 2431.58030    0.14780    0.23950    -999.25    -999.25  -82.27090    5.47760    8.44770   12.84670   58.37760  191.76390  247.16310
 2350.00000  140.91160  313.55870  -25.99550 1393.78390    0.75670    -999.25    -999.25    -999.25  -42.43660    2.69570    2.40610    4.12790  116.53070  204.16240  457.81600
 2400.00000  136.78370  250.73010   19.23720 2578.67310    0.04480    0.17480    -999.25    -999.25  -96.70680    9.22820   12.12660   20.89080  104.63280  241.86520  200.38390
 2450.00000  141.69850  238.04880   43.33440 2657.29910   -0.01320    0.16150    -999.25    -999.25  -71.48620   22.07340   26.46370   29.06000  112.97630  234.73480  208.82640
 2500.00000  135.12980  237.23570   20.73690 2640.80250    0.00140    0.12980    -999.25    -999.25  -93.32500   33.30180   38.34750   42.59610  113.67140  231.41160  200.99620
 2550.00000  172.77820  267.31240   27.55000 2683.48950   -0.00670    0.17040    -999.25    -999.25  -40.88780   41.07680   46.34510   55.68040  126.92670  239.64960  206.49230
 2600.00000   87.10860  267.25670   99.62950 2414.17260    0.14230    0.20010    0.21650    0.16190  -88.22750   38.26220  101.34480  143.17100   51.97770  242.48490  168.93700
 2650.00000   51.21550  246.96390   98.61100 2779.42600    -999.25    -999.25   -0.06190    0.06880  -70.52170  100.54140   87.62440  349.22220   53.48060  220.78500  169.63590
 2700.00000   27.80680  222.18110  109.08440 2421.80980    -999.25    -999.25    0.12810    0.09860 -168.21980   17.12580   26.91920   79.58970   25.94280  202.76550  181.65860
 2750.00000   37.01730  242.63600   82.76420 2345.82030    -999.25    -999.25    0.19330    0.06410  -77.48580   21.45460   27.10840   40.81240   37.98640  217.05220  173.01320
