~Version ---------------------------------------------------
VERS.      2.0 : CWLS log ASCII Standard -VERSION 2.0
WRAP.       NO : One line per depth step
CREA. 11/14/17 : LAS Creation Date
~Well ------------------------------------------------------
STRT.FT                           1100.0 : START DEPTH
STOP.FT                          10400.0 : STOP DEPTH
STEP.FT                         50.00000 : STEP LENGTH
NULL.                            -999.25 : NULL VALUE
COMP.               CHEVRON STANDARD LTD : COMPANY
WELL. CHEVRON GULF PASS CREEK 7-36-61-18 : WELL
FLD .                                    : FIELD
LOC .                                    : LOCATION
CTRY.                             CANADA : COUNTRY
SRVC.                       Schlumberger : SERVICE COMPANY
DATE.                        11-Jan-1976 : LOGDATE
PROV.                            Alberta : PROVINCE
UWI .                   100073606118W500 : UNIQUE WELL ID
SLAT.WGS84                      54.31663 : SURFACE LATITUDE
SLON.WGS84                      -116.558 : SURFACE LONGITUDE
~Curve Information -----------------------------------------
DEPT    .FT    : Depth Curve
CALDED  .IN    : CALIPER FROM DENSITY LOG
CALSED  .IN    : CALIPER FROM SONIC LOG [ADJ.TO GRDED]
CALWS   .IN    : CALIPER [CALSED]
CONDWS  .MMHO  : CONDUCTIVITY [1000/DRESWS]
DCORED  .G/C3  : DENSITY CORRECTION FROM DENSITY LOG
DCORWS  .G/C3  : DENSITY CORRECTION [DCORED]
DENWS   .G/C3  : FORMATION BULK DENSITY [RHOBED]
DPHILSED.V/V   : DENSITY POROSITY LIME [M=2.71, F=1.00,ADJ.TO RHOBED] FROM DENSITY LOG
DPHISSED.V/V   : DENSITY POROSITY SAND [M=2.65, F=1.00,ADJ.TO RHOBED] FROM DENSITY LOG
DPOLSWS .V/V   : DENSITY POROSITY LIME [CALC FROM DENWS, M=2.71, F=1.00]
DRESWS  .OHMM  : DEEP RESISTIVITY [ILDED]
DTED    .US/F  : DELTA-T FROM SONIC LOG [ADJ.TO GRDED]
DTWS    .US/F  : COMPRESSIONAL SONIC [DTED]
GRDED   .GAPI  : GAMMA RAY FROM DENSITY LOG
GRSED   .GAPI  : GAMMA RAY FROM SONIC LOG [ADJ.TO GRDED]
GRWS    .GAPI  : GAMMA RAY [GRSED SPL.TO GRDED @ 10379']
ILDED   .OHMM  : DEEP INDUCTION FROM RESISTIVITY LOG
ILMED   .OHMM  : MEDIUM INDUCTION FROM RESISTIVITY LOG
LL8ED   .OHMM  : LATEROLOG 8 FROM RESISTIVITY LOG
MRESWS  .OHMM  : MEDIUM RESISTIVITY [ILMED]
NPHILSED.V/V   : NEUTRON POROSITY LIME FROM DENSITY LOG [ADJ.TO RHOBED]
NPHISSED.V/V   : NEUTRON POROSITY SAND FROM DENSITY LOG [ADJ.TO RHOBED]
NPOLSWS .V/V   : NEUTRON POROSITY LIME [NPHISSED MATRIX CONVERTED TO LIME SPL.TO NPHILSED @ 6655']
RHOBED  .G/C3  : BULK DENSITY FROM DENSITY LOG
SPRED   .MV    : SPONTANEOUS POTENTIAL FROM RESISTIVITY LOG
SPWS    .MV    : SPONTANEOUS POTENTIAL [BASELINE 0 MV, SPRED]
SRESWS  .OHMM  : SHALLOW RESISTIVITY [LL8ED]
~Params ----------------------------------------------------
PD  .                     GL : PERMANENT DATUM
EPD .FT                 2874 : ELEVATION PERMANENT DATUM
LMF .                     KB : LOG MEASURED FROM
DAPD.FT                   15 : FEET ABOVE PERMANENT DATUM
EKB .FT                 2889 : KELLY BUSHING
EGL .FT                 2874 : GROUND LEVEL
DATE.               01/11/76 : RUN DATE
RUN .                      1 : RUN NUMBER
DD  .FT                10410 : DEPTH DRILLER
DL  .FT                10421 : DEPTH LOGGER
BLI .FT                10415 : BOTTOM LOG INTERVAL
TLI .FT                 1118 : TOP LOG INTERVAL
CBD .FT                 1118 : CASING BOTTOM DRILLER
CBL .FT                 1121 : CASING BOTTOM LOGGER
BS  .IN                 8.75 : BIT SIZE
BSD .FT                10410 : BIT SIZE AT DEPTH
DFT .               GEL CHEM : DRILLING FLUID TYPE
DFD .                    9.5 : DRILLING FLUID DENSITY
DFV .                    137 : DRILLING FLUID VISCOSITY
DFPH.                    9.5 : DRILLING FLUID PH
DFL .                      9 : DRILLING FLUID LOSS
MSS .               FLOWLINE : MUD SAMPLE SOURCE
RMS .OHMM               2.38 : RESISTIVITY MUD SAMPLE
MST .DEGF                 54 : MUD SAMPLE TEMPERATURE
RMF .OHMM               2.06 : RESISTIVITY MUD FILTRATE SAMPLE
MFST.DEGF                 60 : MUD FILTRATE SAMPLE TEMPERATURE
RMC .OHMM               1.88 : RESISTIVITY MUD CAKE
MCST.DEGF                 42 : MUD CAKE SAMPLE TEMPERATURE
RMB .OHMM               0.66 : RESISTIVITY MUD AT BHT
TCS .HRS                 5.5 : TIME CIRCULATED STOPPED
LUN .                   7657 : LOGGING UNIT NUMBER
ENGI.                STANDEN : RECORDING ENGINEER
WITN.                   WONG : WITNESSED BY
CLNT.                A2DTECH : CLIENT CODE
ORIG.            2" 5" PRINT : ORIGIN OF DATA
UWI .       100073606118W500 : UNIQUE WELL ID
DICO. A2D Technologies, Inc. : DIGITIZING COMPANY
~Other -----------------------------------------------------
~ASCII -----------------------------------------------------
# ...
 8900.00000    9.19800    9.23640    9.23640   24.55640    0.00820    0.00820    2.71750   -0.01060    -999.25   -0.00440   40.72330   54.63070   54.63070   33.69790   31.63640   31.63640   40.72330   44.09800   54.40310   44.09800    0.03620    -999.25    0.03620    2.71750  -66.18780   -7.72660   54.40310
 8950.00000    9.42230    9.33700    9.33700   52.69680    0.00210    0.00210    2.71240   -0.00630    -999.25   -0.00140   18.97650   58.25520   58.25520   48.82530   45.61920   45.61920   18.97650   21.11830   25.30780   21.11830    0.06790    -999.25    0.06790    2.71240  -79.72990  -20.72970   25.30780
 9000.00000    9.59100    9.46220    9.46220   95.80560   -0.00440   -0.00440    2.68210    0.01130    -999.25    0.01630   10.43780   63.78970   63.78970   61.95460   58.55520   58.55520   10.43780   11.02990   15.30840   11.02990    0.09540    -999.25    0.09540    2.68210  -74.29330  -12.64380   15.30840
 9050.00000   10.63470   10.10240   10.10240  175.44830    0.22360    0.22360    2.69730   -0.00270    -999.25    0.00740    5.69970   70.80890   70.80890   79.13770   81.13020   81.13020    5.69970    6.25710    8.29750    6.25710    0.15660    -999.25    0.15660    2.69730  -83.57540  -17.78030    8.29750
 9100.00000    -999.25    9.39570    9.39570   95.90490    -999.25    -999.25    -999.25    -999.25    -999.25    -999.25   10.42700   63.05310   63.05310    -999.25   65.22930   65.22930   10.42700   11.34350   14.60680   11.34350    -999.25    -999.25    -999.25    -999.25  -86.00750  -16.03950   14.60680
 9150.00000    -999.25   10.01520   10.01520  106.28610    -999.25    -999.25    -999.25    -999.25    -999.25    -999.25    9.41250   67.73780   67.73780    -999.25   70.54850   70.54850    9.41250    9.81160   13.74890    9.81160    -999.25    -999.25    -999.25    -999.25  -84.53350  -10.41990   13.74890
 9200.00000    -999.25    9.69910    9.69910   97.11570    -999.25    -999.25    -999.25    -999.25    -999.25    -999.25   10.29700   69.69620   69.69620    -999.25   96.13440   96.13440   10.29700   11.02860   13.93300   11.02860    -999.25    -999.25    -999.25    -999.25  -83.92110   -5.63470   13.93300
 9250.00000    -999.25    9.88010    9.88010  121.54660    -999.25    -999.25    -999.25    -999.25    -999.25    -999.25    8.22730   68.98610   68.98610    -999.25   70.82770   70.82770    8.22730    9.01750   11.45390    9.01750    -999.25    -999.25    -999.25    -999.25  -90.14120  -10.20710   11.45390
 9300.00000    -999.25   11.62740   11.62740  180.95920    -999.25    -999.25    -999.25    -999.25    -999.25    -999.25    5.52680   75.05580   75.05580    -999.25   84.66930   84.66930    5.52680    6.40610    7.45700    6.40610    -999.25    -999.25    -999.25    -999.25 -103.73490  -22.81930    7.45700
 9350.00000    -999.25    9.66650    9.66650   35.36990    -999.25    -999.25    -999.25    -999.25    -999.25    -999.25   28.27260   59.84310   59.84310    -999.25   62.11220   62.11220   28.27260   34.45380   65.14940   34.45380    -999.25    -999.25    -999.25    -999.25  -90.63490   -8.73140   65.14940
 9400.00000    -999.25    9.94460    9.94460   93.61840    -999.25    -999.25    -999.25    -999.25    -999.25    -999.25   10.68180   66.70820   66.70820    -999.25   87.42070   87.42070   10.68180   11.36210   14.36870   11.36210    -999.25    -999.25    -999.25    -999.25  -89.55610   -7.13750   14.36870
 9450.00000    -999.25    9.80010    9.80010   85.65600    -999.25    -999.25    -999.25    -999.25    -999.25    -999.25   11.67460   66.22140   66.22140    -999.25   85.12340   85.12340   11.67460   12.14430   17.02250   12.14430    -999.25    -999.25    -999.25    -999.25  -90.22780   -7.52100   17.02250
 9500.00000    -999.25    9.70910    9.70910  107.36640    -999.25    -999.25    -999.25    -999.25    -999.25    -999.25    9.31390   66.72190   66.72190    -999.25   87.25730   87.25730    9.31390   10.20230   14.10600   10.20230    -999.25    -999.25    -999.25    -999.25  -91.47190   -8.47870   14.10600
 9550.00000    -999.25    9.32950    9.32950   90.97970    -999.25    -999.25    -999.25    -999.25    -999.25    -999.25   10.99160   67.34170   67.34170    -999.25   98.61780   98.61780   10.99160   12.10330   16.82590   12.10330    -999.25    -999.25    -999.25    -999.25  -92.12110   -8.84150   16.82590
 9600.00000    9.49630    9.47400    9.47400  111.01120    0.13730    0.13730    2.67540    0.02210    -999.25    0.02020    9.00810   68.26560   68.26560   90.96700   85.98030   85.98030    9.00810    9.72930   13.67130    9.72930    0.17850    -999.25    0.17850    2.67540  -85.67530   -2.10750   13.67130
 9650.00000    9.24320    9.18180    9.18180  103.35280    0.07070    0.07070    2.71020   -0.00890    -999.25   -0.00010    9.67560   69.22940   69.22940   95.47120   94.20720   94.20720    9.67560   10.36570   15.88800   10.36570    0.17140    -999.25    0.17140    2.71020  -85.48950   -2.65960   15.88800
 9700.00000    8.84790    8.99640    8.99640    7.56740    0.01520    0.01520    2.65940    0.02270    -999.25    0.02960  132.14520   64.42050   64.42050   87.90910   83.68820   83.68820  132.14520  140.83440  230.19690  140.83440    0.12540    -999.25    0.12540    2.65940 -113.70890  -33.72510  230.19690
 9750.00000    8.85910    8.98520    8.98520    2.05130    0.00840    0.00840    2.51370    0.11460    -999.25    0.11480  487.50490   74.48580   74.48580  179.30920  172.16460  172.16460  487.50490  582.36190 1316.22440  582.36190    0.15710    -999.25    0.15710    2.51370 -164.03450  -86.87810 1316.22440
 9800.00000    8.84660    8.95700    8.95700    6.41240    0.03020    0.03020    2.67270    0.02730    -999.25    0.02180  156.01040   71.22320   71.22320   70.35590   73.45410   73.45410  156.01040  178.33440  232.46080  178.33440    0.10440    -999.25    0.10440    2.67270 -112.11600  -37.78710  232.46080
 9850.00000    8.81530    8.96900    8.96900   15.58640    0.00840    0.00840    2.70720   -0.00320    -999.25    0.00160   64.15860   54.39970   54.39970   42.90060   37.12440   37.12440   64.15860   72.62790  139.68770   72.62790    0.04570    -999.25    0.04570    2.70720  -83.88120  -12.39840  139.68770
 9900.00000    8.81000    8.91400    8.91400    9.10140    0.02250    0.02250    2.69130    0.00600    -999.25    0.01090  109.87380   57.99610   57.99610   45.45530   41.51250   41.51250  109.87380  298.91440 1480.61830  298.91440    0.06770    -999.25    0.06770    2.69130  -90.97200  -21.79700 1480.61830
 9950.00000    8.77200    8.88320    8.88320    9.04150    0.01390    0.01390    2.75380   -0.03550    -999.25   -0.02560  110.60140   52.78680   52.78680   41.69490   43.70860   43.70860  110.60140  141.57690  262.37660  141.57690    0.03530    -999.25    0.03530    2.75380  -99.12280  -31.65800  262.37660
 10000.00000    8.70610    8.84020    8.84020    1.40530    0.01610    0.01610    2.72460   -0.01340    -999.25   -0.00850  711.59270   49.61370   49.61370   20.21670   19.59940   19.59940  711.59270 1438.08070 1504.34830 1438.08070    0.00840    -999.25    0.00840    2.72460 -208.11320 -142.34740 1504.34830
 10050.00000    8.66530    8.69280    8.69280    1.33680   -0.00100   -0.00100    2.73330   -0.01700    -999.25   -0.01360  748.45910   48.62500   48.62500   13.87770   13.99170   13.99170  748.45910 1383.70220 1508.33210 1383.70220    0.00580    -999.25    0.00580    2.73330 -238.04420 -173.97750 1508.33210
 10100.00000    9.07800    8.91050    8.91050    0.70620    0.25270    0.25270    2.64060    0.04650    -999.25    0.04060 1416.02320   49.35750   49.35750   55.26080   15.30160   15.30160 1416.02320 1544.22790 1515.26920 1544.22790    0.00560    -999.25    0.00560    2.64060 -297.58750 -235.23100 1515.26920
 10150.00000    8.69570    8.66120    8.66120    0.95690    0.03150    0.03150    2.72680   -0.01490    -999.25   -0.00980 1046.18910   49.31010   49.31010   21.83480   23.43050   23.43050 1046.18910 1454.88000 1510.59730 1454.88000    0.01010    -999.25    0.01010    2.72680 -271.37080 -210.71340 1510.59730
