~Version ---------------------------------------------------
VERS. 2.0 : CWLS log ASCII Standard -VERSION 2.0
WRAP.  NO : ONE LINE PER DEPTH STEP
~Well ------------------------------------------------------
STRT.M                               380.5 : START DEPTH
STOP.M                              2549.3 : STOP DEPTH
STEP.M                             0.20000 : STEP LENGTH
NULL.                              -999.25 : NULL VALUE
COMP.                DEVON ARL CORPORATION : COMPANY
WELL. DEVON ARL ETAL 7D GVILLEE 7-25-76-23 : WELL
FLD .                                      : FIELD
LOC .                                      : LOCATION
CTRY.                               CANADA : COUNTRY
SRVC.                         Schlumberger : SERVICE COMPANY
DATE.                          06-Mar-2003 : LOGDATE
PROV.                              Alberta : PROVINCE
UWI .                     100072507623W500 : UNIQUE WELL ID
SLAT.WGS84                        55.61368 : SURFACE LATITUDE
SLON.WGS84                       -117.4224 : SURFACE LONGITUDE
~Curve Information -----------------------------------------
DEPT    .M    0   1   0  0 : 1 MEASURED DEPTH
GRS     .GAPI 60 310 01 00 : GAMMA RAY FROM SONIC LOG
HDS     .MM   60 280 00 00 : HOLE DIAMETER FROM SONIC
DT      .US/M 60 500 00 00 : DELTA-T (INTERVAL TRANSIT TIME)
HCALS   .MM   60 280 50 00 : HRCC CALIPER CALIBRATED FROM SONIC LOG
TENS    .N    60 635 00 00 : TENSION FROM SONIC LOG
GRR     .GAPI 06 310 01 00 : GAMMA RAY FROM RESISTIVITY LOG
RXOZ    .OHMM 06 270 04 00 : INVADED FORMATION RESISTIVITY FILTERED AT 18 INCHES
TENR    .N    06 635 00 00 : TENSION FROM RESISTIVITY LOG
SPR     .MV   06 010 01 00 : SPONTANEOUS POTENTIAL FROM RESISTIVITY LOG
AHF30   .OHMM 06 120 30 00 : ARRAY INDUCTION FOUR FOOT RESISTIVITY A30
AHF20   .OHMM 06 120 20 00 : ARRAY INDUCTION FOUR FOOT RESISTIVITY A20
AHF60   .OHMM 06 120 60 00 : ARRAY INDUCTION FOUR FOOT RESISTIVITY A60
GRD     .GAPI 45 310 01 00 : GAMMA RAY FROM DENSITY LOG
NPOR_SAN.DEC  42 890 03 00 : ENHANCED THERMAL NEUTRON POROSITY (SANDSTONE)
HDD     .MM   45 280 60 00 : HOLE DIAMETER
HCALD   .MM   45 280 60 00 : HRCC CALIPER CALIBRATED FROM DENSITY LOG
DPHI_SAN.DEC  45 890 12 00 : DENSITY POROSITY (MATRIX SANDSTONE)
HDRA    .K/M3 45 356 01 00 : HRDD SPINE AND RIBS DENSITY CORRECTION
PEFZ    .B/E  45 358 01 00 : HRDD STANDARD RESOLUTION FORMATION PHOTOELECTRIC FACTOR
TEND    .N    45 635 00 00 : TENSION FROM DENSITY LOG
NPOR_LS .DEC  42 890 01 00 : NEUTRON POROSITY LIMESTONE
DPHI_LS .DEC  45 890 10 00 : DENSITY POROSITY LIMESTONE
RHOZ    .K/M3 45 350 01 00 : HRDD STANDARD RESOLUTION FORMATION DENSITY
~Params ----------------------------------------------------
PD  .                                  GL : PERMANENT DATUM
EPD .M                              551.9 : ELEVATION PERMANENT DATUM
LMF .                                  KB : LOG MEASURED FROM
DAPD.M                                4.7 : FEET ABOVE PERMANENT DATUM
DMF .                                  KB : DRILLING MEASURED FROM
EKB .M                              556.6 : KELLY BUSHING
EDF .M                              556.3 : DRILLING FLOOR
EGL .M                              551.9 : GROUND LEVEL
DATE.                            03/06/03 : RUN DATE
RUN .                                   1 : RUN NUMBER
DD  .M                               2545 : DEPTH DRILLER
DL  .M                               2544 : DEPTH LOGGER
BLI .M                             2538.3 : BOTTOM LOG INTERVAL
TLI .M                                421 : TOP LOG INTERVAL
CS  .MM                             219.1 : CASING SIZE
CBD .M                                421 : CASING BOTTOM DRILLER
CBL .M                              420.5 : CASING BOTTOM LOGGER
BS  .MM                               200 : BIT SIZE
BSD .M                               2545 : BIT SIZE AT DEPTH
DFT .                            GEL CHEM : DRILLING FLUID TYPE
DFD .                                1050 : DRILLING FLUID DENSITY
DFV .                                  83 : DRILLING FLUID VISCOSITY
DFPH.                                10.5 : DRILLING FLUID PH
DFL .                                   7 : DRILLING FLUID LOSS
MSS .                            FLOWLINE : MUD SAMPLE SOURCE
RMS .OHMM                            1.27 : RESISTIVITY MUD SAMPLE
MST .DEGC                              17 : MUD SAMPLE TEMPERATURE
RMF .OHMM                            0.98 : RESISTIVITY MUD FILTRATE SAMPLE
MFST.DEGC                              18 : MUD FILTRATE SAMPLE TEMPERATURE
RMC .OHMM                            1.55 : RESISTIVITY MUD CAKE
MCST.DEGC                              18 : MUD CAKE SAMPLE TEMPERATURE
MFSS.                            MEASURED : MUD FILTRATE SAMPLE SOURCE
MCSS.                             MEAURED : MUD CAKE SAMPLE SOURCE
RMB .OHMM                           0.566 : RESISTIVITY MUD AT BHT
TCS .HRS                              640 : TIME CIRCULATED STOPPED
TLAB.HRS                             1645 : TIME LOGGER AT BOTTOM
LUN .                                2133 : LOGGING UNIT NUMBER
LUL .                      GRANDE PRAIRIE : LOGGING UNIT LOCATION
ENGI.                            STIRLING : RECORDING ENGINEER
WITN.                              MCLEAY : WITNESSED BY
CLNT.                             A2DTECH : CLIENT CODE
ORIG. 6.5"/100M 16.5"/100M 33"/100M PRINT : ORIGIN OF DATA
UWI .                    100072507623W500 : UNIQUE WELL ID
DICO.              A2D Technologies, Inc. : DIGITIZING COMPANY
~Other -----------------------------------------------------
~ASCII -----------------------------------------------------
# ...
 2534.50000    -999.25    -999.25    -999.25  190.28660 20609.22660    -999.25   90.35350 20589.11910  -85.10700  215.27720  204.98510  281.83210  249.00630    0.10810  230.28720  190.56030   -0.01070   -6.80910    2.92120 20651.90430    -999.25    -999.25 2660.76780
 2534.70000    -999.25    -999.25    -999.25  190.65090 20561.53910    -999.25  257.08060 20576.15820  -84.64050  187.48120  178.78300  232.66910  245.82560    0.10560  230.28440  190.93100   -0.00260   -5.86410    3.02780 20624.63480    -999.25    -999.25 2647.37960
 2534.90000    -999.25    -999.25    -999.25  189.95380 20501.00000    -999.25   38.97140 20562.36330  -84.17590  163.27420  157.16840  192.08220  238.27110    0.10820  230.28160  189.69830   -0.00240    3.74340    3.07200 20597.36720    -999.25    -999.25 2662.06470
 2535.10000    -999.25    -999.25    -999.25  190.07460 20440.46290    -999.25   30.31710 20548.56840  -83.49690  155.33860  148.66090  185.02920  235.35640    0.10930  230.29400  190.15990   -0.01440   16.78820    3.14540 20558.86520    -999.25    -999.25 2682.54130
 2535.30000    -999.25    -999.25    -999.25  190.23480 20379.92380    -999.25   85.57840 20534.77340  -82.81940  180.95140  162.49550  209.79940  234.36740    0.10890  230.30680  190.14110   -0.02530    9.33100    3.19000 20400.13280    -999.25    -999.25 2699.95070
 2535.50000    -999.25    -999.25    -999.25  190.57440 20319.38480    -999.25  689.54360 20520.97660  -82.37440  225.23640  207.77590  245.86500  236.98050    0.10850  230.30370  190.14060   -0.02460   -1.85880    3.26420 20378.92380    -999.25    -999.25 2691.16090
 2535.70000    -999.25    -999.25    -999.25  189.58090 20258.84570    -999.25 1192.56570 20507.18160  -82.12710  279.68730  267.05850  296.09920  239.95800    0.10800  230.30270  190.21540   -0.02110   -2.71520    3.31150 20518.24800    -999.25    -999.25 2682.96260
 2535.90000    -999.25    -999.25    -999.25  189.87210 20248.59770    -999.25 1603.75560 20482.70510  -81.90550  334.58670  328.29190  356.59680  240.62780    0.10820  230.29500  189.47880   -0.01730    0.63950    3.29860 20503.12500    -999.25    -999.25 2673.04960
 2536.10000    -999.25    -999.25    -999.25  190.54790 20248.59770    -999.25 1312.73240 20456.29880  -81.68390  389.08310  334.49010  434.31130  241.29190    0.10580  230.29530  189.30580   -0.00980    0.27880    3.25590 20399.15820    -999.25    -999.25 2658.29810
 2536.30000    -999.25    -999.25    -999.25  188.75270 20196.68360    -999.25  361.00480 20429.89260  -81.46230  391.50150  347.42500  556.63400  243.00410    0.10460  230.31410  188.79030   -0.00920   -2.33640    3.28920 20296.16600    -999.25    -999.25 2676.97610
 2536.50000    -999.25    -999.25    -999.25  188.61920 20094.19140    -999.25  369.52650 20002.49610  -81.23690  401.04690  372.40020  793.60710  242.21880    0.10720  230.30630  188.44640   -0.02050   -1.44110    3.40060 20193.17580    -999.25    -999.25 2700.26290
 2536.70000    -999.25    -999.25    -999.25  190.05280 19991.69730    -999.25 1493.67900 20040.39260  -80.99710  515.21830  399.84460 1105.29810  238.64800    0.10830  230.35650  189.93810   -0.02740   -0.68020    3.27440 20090.18550    -999.25    -999.25 2688.23780
 2536.90000    -999.25    -999.25    -999.25  189.56050 20036.74410    -999.25 1983.27780 20110.12500  -80.75730  488.34300  385.05930 1241.45420  238.20200    0.10640  230.44040  189.92050   -0.01720    0.13230    2.93950 20000.49610    -999.25    -999.25 2662.77560
 2537.10000    -999.25    -999.25    -999.25  188.94550 20189.49220    -999.25 1985.10670 20179.85940  -80.51760  377.03480  311.16090 1001.80510  242.77980    0.10590  230.28200  189.71600   -0.00400    1.00750    2.70360 20000.49610    -999.25    -999.25 2652.72680
 2537.30000    -999.25    -999.25    -999.25  188.88630 20342.24020    -999.25 1568.32130 20249.59180  -80.37130  252.55250  255.07190  560.29800  246.96670    0.10670  230.28690  189.30020    0.00140   -0.82650    2.58420 20205.18360    -999.25    -999.25 2640.94020
 2537.50000    -999.25    -999.25    -999.25  190.07880 20463.59180    -999.25  655.35680 20407.44920  -80.42890  169.16930  203.69620  318.02410  245.19840    0.10810  230.15140  189.34570    0.01690   -4.46930    2.52790 20425.75780    -999.25    -999.25 2601.83960
 2537.70000    -999.25    -999.25    -999.25  189.72880 20390.97660    -999.25  310.68690 20465.04300  -81.04340  117.58300  125.91920  188.61170  241.38080    0.10790  230.24150  189.69610    0.03550    1.19340    2.50910 20493.46290    -999.25    -999.25 2576.40580
 2537.90000    -999.25    -999.25    -999.25  189.44730 20323.42380    -999.25   22.16170 20392.59770  -81.95750   83.95030   77.83970  111.50050  237.85940    0.10590  230.66740  188.07400    0.05060   18.32180    2.48530 20545.38480    -999.25    -999.25 2549.20850
 2538.10000    -999.25    -999.25    -999.25  188.69440 20320.49220    -999.25    9.65670 20320.15230  -83.31880   59.93770   50.85280   74.12820  236.47100    0.10800  230.62390  187.93470    0.06980   23.21350    2.45190 20535.01950    -999.25    -999.25 2504.40770
 2538.30000    -999.25    -999.25    -999.25  186.50960 20317.56250    -999.25    8.86150 20247.70510  -85.53290   48.64550   44.27320   58.29370  241.31170    0.10910  230.56040  188.40000    0.10340    6.03700    2.39230 20456.26370    -999.25    -999.25 2451.21700
 2538.50000    -999.25    -999.25    -999.25  183.65450 20314.63090    -999.25   11.13140 20175.25980  -87.71110   57.37120   52.17780   67.65240  244.88060    0.10880  230.52590  180.80010    0.13220    8.58840    2.34390 20377.50780    -999.25    -999.25    -999.25
 2538.70000    -999.25    -999.25    -999.25  179.92370 20311.70120    -999.25   10.73410 20141.76950  -89.71930   92.01870   72.68060  105.11140    -999.25    -999.25    -999.25    -999.25    -999.25    -999.25    -999.25 20300.18360    -999.25    -999.25    -999.25
 2538.90000    -999.25    -999.25    -999.25  174.88480 20308.76950    -999.25    9.74940 20180.66800  -91.61190  150.16720  107.40350  181.65130    -999.25    -999.25    -999.25    -999.25    -999.25    -999.25    -999.25 20238.79490    -999.25    -999.25    -999.25
 2539.10000    -999.25    -999.25    -999.25  171.68420 20305.83790    -999.25    9.33040 20219.56640  -94.43760  257.07750  181.24190  323.07450    -999.25    -999.25    -999.25    -999.25    -999.25    -999.25    -999.25 20211.12110    -999.25    -999.25    -999.25
 2539.30000    -999.25    -999.25    -999.25  171.02470 20347.19730    -999.25    8.96630 20258.46480  -97.11850  401.08260  360.23670  562.46050    -999.25    -999.25    -999.25    -999.25    -999.25    -999.25    -999.25 20361.67970    -999.25    -999.25    -999.25
 2539.50000    -999.25    -999.25    -999.25    -999.25 20416.40620    -999.25    -999.25 20405.95310 -101.04340  506.20770  475.86030  941.77840    -999.25    -999.25    -999.25    -999.25    -999.25    -999.25    -999.25 20655.35160    -999.25    -999.25    -999.25
 2539.70000    -999.25    -999.25    -999.25    -999.25 20485.61520    -999.25    -999.25 20682.44140 -105.21370  615.65670  590.99990 1298.67470    -999.25    -999.25    -999.25    -999.25    -999.25    -999.25    -999.25 20612.24800    -999.25    -999.25    -999.25
 2539.90000    -999.25    -999.25    -999.25    -999.25 20554.82420    -999.25    -999.25 20708.72460 -108.64800  659.84330  772.77310 1744.95060    -999.25    -999.25    -999.25    -999.25    -999.25    -999.25    -999.25 20556.61520    -999.25    -999.25    -999.25
 2540.10000    -999.25    -999.25    -999.25    -999.25 20606.08790    -999.25    -999.25 20677.82420 -111.16880  697.09810  880.98150 1929.86630    -999.25    -999.25    -999.25    -999.25    -999.25    -999.25    -999.25 20664.45510    -999.25    -999.25    -999.25
 2540.30000    -999.25    -999.25    -999.25    -999.25 20637.96090    -999.25    -999.25 20646.92580 -115.48260  713.90440 1077.21260 2016.49830    -999.25    -999.25    -999.25    -999.25    -999.25    -999.25    -999.25 20687.85740    -999.25    -999.25    -999.25
