~Version ---------------------------------------------------
VERS.      2.0 : CWLS log ASCII Standard -VERSION 2.0
WRAP.       NO : One line per depth step
CREA. 08/02/17 : LAS Creation Date
~Well ------------------------------------------------------
STRT.FT                  1500.0 : START DEPTH
STOP.FT                 14300.0 : STOP DEPTH
STEP.FT                50.00000 : STEP LENGTH
NULL.                   -999.25 : NULL VALUE
COMP. BANNER PETROLEUMS LIMITED : COMPANY
WELL.   CREW PHOENIX 7-21-39-10 : WELL
FLD .                           : FIELD
LOC .                           : LOCATION
CTRY.                    CANADA : COUNTRY
SRVC.              Schlumberger : SERVICE COMPANY
DATE.               05-Aug-1970 : LOGDATE
PROV.                   Alberta : PROVINCE
UWI .          100072103910W500 : UNIQUE WELL ID
SLAT.WGS84             52.36858 : SURFACE LATITUDE
SLON.WGS84            -115.3771 : SURFACE LONGITUDE
~Curve Information -----------------------------------------
DEPT    .FT    : Depth Curve
ACED    .US/F  : DELTA TIME FROM SONIC LOG, DEPTH ADJUSTED WITH [GRSED]
CALDED  .IN    : CALIPER FROM DENSITY LOG, DEPTH ADJUSTED WITH [SPRED]
CALS1ED .IN    : CALIPER FROM SONIC LOG (DRESSER ATLAS),DEPTH ADJUSTED WITH [GRSED]
CALSED  .IN    : CALIPER FROM SONIC LOG, DEPTH ADJUSTED WITH [SPRED]
CALWS   .IN    : CALIPER [CALSED], SPLICED WITH [CALS1ED] FROM 9970'- 11167'
CILDED  .MMHO  : CONDUCTIVITY FROM RESISTIVITY LOG
CONDWS  .MMHO  : CONDUCTIVITY [1000/DRESWS]
DCORED  .G/C3  : DENSITY CORRECTION FROM CFD LOG, DEPTH ADJUSTED WITH [SPRED]
DCORWS  .G/C3  : DENSITY CORRECTION [DRHOED]
DENWS   .G/C3  : BULK DENSITY [RHOBED]
DPHILSED.V/V   : DENSITY POROSITY [M=2.71 F=1.00] FROM CFD LOG, DEPTH ADJUSTED WITH [SPRED]
DPOLSWS .V/V   : DENSITY POROSITY LIMESTONE [CALCULATED FROM DENWS]
DRESWS  .OHMM  : DEEP RESISTIVITY [ILDED] IF DRESWS<1;1000/CONDWS,SPLICED WITH [ILD1ED] AT 11167'
DTED    .US/F  : DELTA TIME FROM SONIC LOG, DEPTH ADJUSTED WITH [SPRED]
DTWS    .US/F  : DELTA TIME [DTED], SPLICED WITH [ACED] FROM 9967-11167'
GRDED   .GAPI  : GAMMA RAY FROM DENSITY LOG, DEPTH ADJUSTED WITH [SPRED]
GRNED   .GAPI  : GAMMA RAY FROM NEUTRON LOG, DEPTH ADJUSTED WITH [SPRED]
GRS1ED  .GAPI  : GAMMA RAY FROM SONIC LOG (DRESSER ATLAS), DEPTH ADJUSTED WITH [GRSED]
GRSED   .GAPI  : GAMMA RAY FROM SONIC LOG,DEPTH ADJUSTED WITH [SPRED]
GRWS    .GAPI  : GAMMA RAY [GRSED], SPLICED WITH [GRS1ED] FROM 9967-11167'
ILD1ED  .OHMM  : INDUCTION LOG DEEP RESISTIVITY
ILDED   .OHMM  : INDUCTION LOG DEEP RESISTIVITY
ILMED   .OHMM  : INDUCTION LOG MEDIUM RESISTIVITY
LL8ED   .OHMM  : 8 INCH LATEROLOG RESISTIVITY
MRESWS  .OHMM  : MEDIUM RESISTIVITY [ILMED]
NEUTED  .NAPI  : NEUTRON FROM NEUTRON LOG, DEPTH ADJUSTED WITH [SPRED]
NEUTWS  .NAPI  : NEUTRON [NEUTED]
RHOBED  .G/C3  : BULK DENSITY FROM CFD LOG, DEPTH ADJUSTED WITH [SPRED]
SNED    .OHMM  : 16 INCH SHORT NORMAL RESISTIVITY FROM IEL
SPR1ED  .MV    : SPONTANEOUS POTENTIAL FROM RESISTIVITY LOG
SPRED   .MV    : SPONTANEOUS POTENTIAL FROM RESISTIVITY LOG
SPWS    .MV    : SPONTANEOUS POTENTIAL [BASELINE 0 MV] [SPRED], SPLICWED WITH [SPR1ED] AT 11167
SRESWS  .OHMM  : SHALLOW RESISTIVITY [SNED]
~Params ----------------------------------------------------
PD  .                     GL : PERMANENT DATUM
EPD .FT                 3888 : ELEVATION PERMANENT DATUM
LMF .                     KB : LOG MEASURED FROM
DAPD.FT                   14 : FEET ABOVE PERMANENT DATUM
EKB .FT                 3902 : KELLY BUSHING
EGL .FT                 3888 : GROUND LEVEL
DATE.               08/07/70 : RUN DATE
RUN .                      1 : RUN NUMBER
DD  .FT                14310 : DEPTH DRILLER
DL  .FT                14309 : DEPTH LOGGER
BLI .FT                14304 : BOTTOM LOG INTERVAL
TLI .FT                11171 : TOP LOG INTERVAL
CBD .FT                11171 : CASING BOTTOM DRILLER
CBL .FT                11168 : CASING BOTTOM LOGGER
BS  .IN                5.968 : BIT SIZE
BSD .FT                14310 : BIT SIZE AT DEPTH
DFT .               GEL CHEM : DRILLING FLUID TYPE
DFD .                   11.6 : DRILLING FLUID DENSITY
DFV .                    105 : DRILLING FLUID VISCOSITY
DFPH.                    7.5 : DRILLING FLUID PH
DFL .                    6.4 : DRILLING FLUID LOSS
MSS .               FLOWLINE : MUD SAMPLE SOURCE
RMS .OHMM               1.51 : RESISTIVITY MUD SAMPLE
MST .DEGF                 71 : MUD SAMPLE TEMPERATURE
RMF .OHMM               1.05 : RESISTIVITY MUD FILTRATE SAMPLE
MFST.DEGF                 70 : MUD FILTRATE SAMPLE TEMPERATURE
RMB .OHMM               0.29 : RESISTIVITY MUD AT BHT
TCS .HRS                   3 : TIME CIRCULATED STOPPED
LUN .                   7002 : LOGGING UNIT NUMBER
LUL .                     RD : LOGGING UNIT LOCATION
ENGI.                 MEGSON : RECORDING ENGINEER
WITN.         DOMANKO HUTTON : WITNESSED BY
CLNT.                A2DTECH : CLIENT CODE
ORIG.            2" 5" PRINT : ORIGIN OF DATA
UWI .       100072103910W500 : UNIQUE WELL ID
DICO. A2D Technologies, Inc. : DIGITIZING COMPANY
~Other -----------------------------------------------------
~ASCII -----------------------------------------------------
# ...
 11400.00000    -999.25    6.89830    -999.25    6.09100    6.09100    -999.25    4.03120    0.02930    0.02930    2.65710    0.02130    0.03090  248.06550   48.53050   48.53050    3.34190    -999.25    -999.25    6.67330    6.67330  248.06550    -999.25    -999.25 1462.06790    -999.25    -999.25    -999.25    2.65710    -999.25 -155.25370    -999.25 -110.03040 1462.06790
 11450.00000    -999.25    5.96520    -999.25    6.04700    6.04700    -999.25   14.98760    0.01120    0.01120    2.77860   -0.03270   -0.04010   66.72160   51.11870   51.11870   42.02800    -999.25    -999.25   35.76700   35.76700   66.72160    -999.25    -999.25   78.09970    -999.25    -999.25    -999.25    2.77860    -999.25  -83.93240    -999.25  -39.01770   78.09970
 11500.00000    -999.25    7.43620    -999.25    6.24300    6.24300    -999.25   15.61170    0.16830    0.16830    2.49480    0.12320    0.12580   64.05460   53.09560   53.09560   27.29750    -999.25    -999.25   31.32220   31.32220   64.05460    -999.25    -999.25   78.88100    -999.25    -999.25    -999.25    2.49480    -999.25 -104.04270    -999.25  -59.43650   78.88100
 11550.00000    -999.25    6.24540    -999.25    6.03250    6.03250    -999.25    4.78590    0.01370    0.01370    2.73970   -0.02710   -0.01740  208.94820   49.22930   49.22930   69.27760    -999.25    -999.25   78.69360   78.69360  208.94820    -999.25    -999.25  268.98820    -999.25    -999.25    -999.25    2.73970    -999.25  -59.06680    -999.25  -14.76910  268.98820
 11600.00000    -999.25    6.02810    -999.25    6.10860    6.10860    -999.25   13.94330    0.02660    0.02660    2.70460    0.00020    0.00320   71.71900   52.69590   52.69590   38.74290    -999.25    -999.25   42.14810   42.14810   71.71900    -999.25    -999.25  100.88530    -999.25    -999.25    -999.25    2.70460    -999.25  -52.15960    -999.25   -8.17040  100.88530
 11650.00000    -999.25    6.02130    -999.25    6.01030    6.01030    -999.25    9.62350    0.00840    0.00840    2.70610   -0.00010    0.00230  103.91200   50.91040   50.91040   28.40520    -999.25    -999.25   28.42460   28.42460  103.91200    -999.25    -999.25  116.32370    -999.25    -999.25    -999.25    2.70610    -999.25  -50.98440    -999.25   -7.30370  116.32370
 11700.00000    -999.25    5.69310    -999.25    5.86800    5.86800    -999.25   19.16980    0.00530    0.00530    2.71920   -0.00780   -0.00540   52.16530   55.15140   55.15140   36.43410    -999.25    -999.25   38.59260   38.59260   52.16530    -999.25    -999.25   60.05840    -999.25    -999.25    -999.25    2.71920    -999.25  -41.47240    -999.25    1.89980   60.05840
 11750.00000    -999.25    5.92090    -999.25    5.86720    5.86720    -999.25   12.39140    0.04240    0.04240    2.72940   -0.01470   -0.01130   80.70100   52.95370   52.95370   23.86990    -999.25    -999.25   31.62520   31.62520   80.70100    -999.25    -999.25  130.59420    -999.25    -999.25    -999.25    2.72940    -999.25  -53.19940    -999.25  -10.13570  130.59420
 11800.00000    -999.25    5.99850    -999.25    5.86070    5.86070    -999.25    9.58300   -0.00020   -0.00020    2.69240    0.00860    0.01030  104.35130   53.59680   53.59680   18.33170    -999.25    -999.25   19.55560   19.55560  104.35130    -999.25    -999.25  167.33670    -999.25    -999.25    -999.25    2.69240    -999.25  -76.65990    -999.25  -33.90470  167.33670
 11850.00000    -999.25    6.00230    -999.25    5.87730    5.87730    -999.25   10.62450    0.01570    0.01570    2.68090    0.01440    0.01700   94.12170   52.02500   52.02500   16.01430    -999.25    -999.25   20.10160   20.10160   94.12170    -999.25    -999.25  224.19640    -999.25    -999.25    -999.25    2.68090    -999.25  -81.43580    -999.25  -38.98910  224.19640
 11900.00000    -999.25    5.99180    -999.25    5.86950    5.86950    -999.25   10.47250    0.01120    0.01120    2.68800    0.01030    0.01290   95.48780   52.34340   52.34340   15.48430    -999.25    -999.25   20.81470   20.81470   95.48780    -999.25    -999.25  203.95220    -999.25    -999.25    -999.25    2.68800    -999.25  -73.17460    -999.25  -31.03650  203.95220
 11950.00000    -999.25    6.03320    -999.25    5.91660    5.91660    -999.25    3.48490    0.00040    0.00040    2.67240    0.01930    0.02200  286.94870   52.63170   52.63170   20.36460    -999.25    -999.25   28.35940   28.35940  286.94870    -999.25    -999.25  553.67680    -999.25    -999.25    -999.25    2.67240    -999.25  -53.12890    -999.25  -11.29930  553.67680
 12000.00000    -999.25    6.03020    -999.25    5.93430    5.93430    -999.25   33.89890    0.01350    0.01350    2.67680    0.01930    0.01940   29.49950   62.05490   62.05490   60.68450    -999.25    -999.25   63.06290   63.06290   29.49950    -999.25    -999.25   44.14660    -999.25    -999.25    -999.25    2.67680    -999.25  -43.64240    -999.25   -2.12130   44.14660
 12050.00000    -999.25    5.84360    -999.25    5.98120    5.98120    -999.25    6.02710    0.00180    0.00180    2.58420    0.06910    0.07360  165.91840   61.84270   61.84270   79.66990    -999.25    -999.25  169.83960  169.83960  165.91840    -999.25    -999.25  230.43710    -999.25    -999.25    -999.25    2.58420    -999.25  -49.42090    -999.25   -9.43830  230.43710
 12100.00000    -999.25    6.36260    -999.25    5.91620    5.91620    -999.25    4.73040    0.09090    0.09090    2.68350    0.00890    0.01550  211.39730   48.55790   48.55790    9.72540    -999.25    -999.25    8.82610    8.82610  211.39730    -999.25    -999.25  222.12100    -999.25    -999.25    -999.25    2.68350    -999.25 -138.54660    -999.25 -100.62970  222.12100
 12150.00000    -999.25    6.47320    -999.25    6.19390    6.19390    -999.25    0.72760    0.13910    0.13910    2.58670    0.05340    0.07210 1374.42820   47.28600   47.28600    9.54220    -999.25    -999.25   11.17360   11.17360 1374.42820    -999.25    -999.25 1498.06180    -999.25    -999.25    -999.25    2.58670    -999.25 -170.19090    -999.25 -134.33970 1498.06180
 12200.00000    -999.25    6.36780    -999.25    6.06320    6.06320    -999.25    2.14960    0.01320    0.01320    2.93440   -0.13250   -0.13120  465.21260   48.38360   48.38360   10.15190    -999.25    -999.25   11.69960   11.69960  465.21260    -999.25    -999.25 1400.63320    -999.25    -999.25    -999.25    2.93440    -999.25 -115.33780    -999.25  -81.55230 1400.63320
 12250.00000    -999.25    6.05160    -999.25    5.92890    5.92890    -999.25    9.80930    0.02010    0.02010    2.87460   -0.10330   -0.09630  101.94400   51.79060   51.79060    5.23320    -999.25    -999.25    5.37530    5.37530  101.94400    -999.25    -999.25  690.45700    -999.25    -999.25    -999.25    2.87460    -999.25  -82.16820    -999.25  -50.44840  690.45700
 12300.00000    -999.25    6.01980    -999.25    6.02020    6.02020    -999.25    0.87150    0.00770    0.00770    2.78660   -0.04830   -0.04480 1147.39360   45.72820   45.72820   12.72610    -999.25    -999.25   14.37300   14.37300 1147.39360    -999.25    -999.25 1464.90880    -999.25    -999.25    -999.25    2.78660    -999.25 -109.25800    -999.25  -79.60400 1464.90880
 12350.00000    -999.25    7.87990    -999.25    6.11180    6.11180    -999.25    0.72270    0.12240    0.12240    2.63150    0.03970    0.04590 1383.65450   48.28280   48.28280   13.00440    -999.25    -999.25   12.87960   12.87960 1383.65450    -999.25    -999.25 1159.39310    -999.25    -999.25    -999.25    2.63150    -999.25 -146.83590    -999.25 -119.24760 1159.39310
 12400.00000    -999.25    8.03730    -999.25    6.23140    6.23140    -999.25    0.80260    0.12700    0.12700    2.54710    0.06300    0.09530 1246.02550   49.68920   49.68920    6.53400    -999.25    -999.25    8.15950    8.15950 1246.02550    -999.25    -999.25  522.55160    -999.25    -999.25    -999.25    2.54710    -999.25 -161.05170    -999.25 -135.52910  522.55160
 12450.00000    -999.25    7.08210    -999.25    6.16490    6.16490    -999.25    0.74210    0.14400    0.14400    2.66600    0.03190    0.02570 1347.48820   49.05770   49.05770    9.97980    -999.25    -999.25   13.87040   13.87040 1347.48820    -999.25    -999.25 1482.10140    -999.25    -999.25    -999.25    2.66600    -999.25 -159.60040    -999.25 -136.14350 1482.10140
