~Version ---------------------------------------------------
VERS.      2.0 : CWLS log ASCII Standard -VERSION 2.0
WRAP.       NO : One line per depth step
CREA. 08/22/13 : LAS Creation Date
~Well ------------------------------------------------------
STRT.m                     450.0 : START DEPTH
STOP.m                    3450.0 : STOP DEPTH
STEP.m                  50.00000 : STEP LENGTH
NULL.                    -999.25 : NULL VALUE
COMP.  GULF CANADA RESOURCES INC : COMPANY
WELL. GULF ANTE CREEK 12-1-66-25 : WELL
FLD .                            : FIELD
LOC .                            : LOCATION
CTRY.                     CANADA : COUNTRY
SRVC.                    Unknown : SERVICE COMPANY
DATE.                30-Dec-1983 : LOGDATE
PROV.                    Alberta : PROVINCE
UWI .           100120106625W500 : UNIQUE WELL ID
SLAT.WGS84              54.68568 : SURFACE LATITUDE
SLON.WGS84             -117.6494 : SURFACE LONGITUDE
~Curve Information -----------------------------------------
DEPT     .m      : Depth Curve
C1DED    .MM     : CALIPER 1 CNLD (ADJ TO RES.)
C2DED    .MM     : CALIPER 2 CNLD (ADJ TO RES.)
CALSED   .MM     : CALIPER  SONIC (ADJ TO RES.)
CALWS    .MM     : CALIPER (CALSED)
CONDWS   .MMHO   : CONDUCTIVITY (1000/DRESWS)
DCORWS   .KG/M3  : DENSITY CORRECTION (DRHOED)
DENWS    .KG/M3  : BULK DENSITY  (DPHI_SSED/DPHI_LSED)
DPHI_LSED.V/V    : DENSITY POROSITY LIMESTONE  (ADJ TO RES.)
DPHI_SSED.V/V    : DENSITY POROSITY SANDSTONE  (ADJ TO RES.)
DPOLSWS  .V/V    : DENSITY POROSITY (M=2710 F=1000 DENWS)
DRESWS   .OHMM   : DEEP RESISTIVITY (ILDED)
DRHOED   .KG/M3  : DENSITY CORRECTION (ADJ TO RES.)
DTED     .US/M   : DELTA TIME  (ADJ TO RES.)
DTWS     .US/M   : DELTA TIME  (DTED)
GRDED    .GAPI   : GAMMA RAY  CNLD (ADJ TO RES.)
GRSED    .GAPI   : GAMMA RAY  SONIC (ADJ TO RES.)
GRWS     .GAPI   : GAMMA RAY (GRSED/GRDED @ 447.6)
ILDED    .OHMM   : INDUCTION DEEP RESISTIVITY
ILMED    .OHMM   : INDUCTION MEDIUM RESISTIVITY
MRESWS   .OHMM   : MEDIUM RESISTIVITY (ILMED)
NPHI_LSED.V/V    : NEUTRON POROSITY LIMESTONE (ADJ TO RES.)
NPHI_SSED.V/V    : NEUTRON POROSITY SANDSTONE (ADJ TO RES.)
NPOLSWS  .V/V    : NEUTRON POROSITY LIMESTONE (NPHI_SSED CONVERTED TO LS/NPHI_LSED)
RHOBED   .KG/M3  : BULK DENSITY (ADJ TO RES.)
SFLUED   .OHMM   : SHALLOW FOCUSED RESISTIVITY (UNAVERAGED)
SPRED    .MV     : SPONTANEOUS POTENTIAL FROM RESISTIVITY LOG
SPWS     .MV     : SPONTANEOUS POTENTIAL (SPRED) BASELINE 0 MV (PARTIALLY REVERSED)
SRESWS   .OHMM   : SHALLOW RESISTIVITY (SFLUED)
~Params ----------------------------------------------------
PD  .                         GL : PERMANENT DATUM
EPD .M                     763.3 : ELEVATION PERMANENT DATUM
LMF .                         KB : LOG MEASURED FROM
DAPD.M                      4.87 : FEET ABOVE PERMANENT DATUM
DMF .                         KB : DRILLING MEASURED FROM
EKB .M                    768.17 : KELLY BUSHING
EGL .M                     763.3 : GROUND LEVEL
DATE.                   12/30/83 : RUN DATE
RUN .                          1 : RUN NUMBER
DD  .M                    3487.5 : DEPTH DRILLER
DL  .M                    3487.6 : DEPTH LOGGER
BLI .M                    3486.7 : BOTTOM LOG INTERVAL
TLI .M                       449 : TOP LOG INTERVAL
CS  .MM                    244.5 : CASING SIZE
CBD .M                       449 : CASING BOTTOM DRILLER
CBL .M                       449 : CASING BOTTOM LOGGER
BS  .MM                    222.2 : BIT SIZE
BSD .M                    3487.5 : BIT SIZE AT DEPTH
DFT .                   GEL CHEM : DRILLING FLUID TYPE
DFD .                       1130 : DRILLING FLUID DENSITY
DFV .                         64 : DRILLING FLUID VISCOSITY
DFPH.                          9 : DRILLING FLUID PH
DFL .                         11 : DRILLING FLUID LOSS
MSS .                   FLOWLINE : MUD SAMPLE SOURCE
RMS .OHMM                   1.16 : RESISTIVITY MUD SAMPLE
MST .DEGC                   12.5 : MUD SAMPLE TEMPERATURE
RMF .OHMM                   0.94 : RESISTIVITY MUD FILTRATE SAMPLE
MFST.DEGC                   14.5 : MUD FILTRATE SAMPLE TEMPERATURE
RMC .OHMM                  0.327 : RESISTIVITY MUD CAKE
MCST.DEGC                   82.2 : MUD CAKE SAMPLE TEMPERATURE
MFSS.                      PRESS : MUD FILTRATE SAMPLE SOURCE
RMB .OHMM                  0.381 : RESISTIVITY MUD AT BHT
TCS .HRS                    1230 : TIME CIRCULATED STOPPED
TLAB.HRS                    2015 : TIME LOGGER AT BOTTOM
LUN .                       8156 : LOGGING UNIT NUMBER
LUL .                        EDM : LOGGING UNIT LOCATION
ENGI.                    GAGGINO : RECORDING ENGINEER
WITN.             GHORASHI ZADEH : WITNESSED BY
CLNT.                    A2DTECH : CLIENT CODE
ORIG. 6.5"/100M 16.5"/100M PRINT : ORIGIN OF DATA
UWI .           100120106625W500 : UNIQUE WELL ID
DICO.     A2D Technologies, Inc. : DIGITIZING COMPANY
~Other -----------------------------------------------------
~ASCII -----------------------------------------------------
  450.00000  232.38930  227.94490  236.40320  236.40320    -999.25    -999.25    -999.25    -999.25    -999.25    -999.25    -999.25    -999.25    -999.25    -999.25   51.49870   51.50560   66.49870    -999.25    -999.25    -999.25    -999.25    0.52280    0.53930    -999.25    -999.25    -999.25    -999.25    -999.25
  500.00000  356.02770  253.74550  292.96800  292.96800  267.34390  112.30400 2014.58500    -999.25    0.38510    0.40670    3.74050  112.30400  354.54900  354.54900   65.81860   74.82240   65.81860    3.74050    3.16680    3.16680    -999.25    0.44770    0.47270 2036.80150    2.72320 -203.48820   -4.89770    2.72320
  550.00000  340.42160  244.08030  279.69130  279.69130  203.20660   28.21570 2322.80500    -999.25    0.19830    0.22640    4.92110   28.21570  311.52410  311.52410   63.94910   69.73950   63.94910    4.92110    4.38300    4.38300    -999.25    0.42460    0.45290 2325.65010    3.87370 -204.17460   -5.09380    3.87370
  600.00000  314.68090  225.89320  255.60050  255.60050  307.24800    5.76320 2248.06000    -999.25    0.24360    0.27010    3.25470    5.76320  338.73480  338.73480   64.32850   72.85900   64.32850    3.25470    3.13520    3.13520    -999.25    0.44340    0.46900 2258.31730    2.89740 -200.75180   -4.11700    2.89740
  650.00000  326.50680  203.80520  246.65380  246.65380  197.96880   61.68770 2342.44000    -999.25    0.18640    0.21490    5.05130   61.68770  319.73710  319.73710   59.23920   88.04590   59.23920    5.05130    4.36870    4.36870    -999.25    0.40510    0.43670 2345.84110    3.96240 -201.71100   -4.50480    3.96240
  700.00000  262.96650  197.91090  236.54550  236.54550   82.72940   32.87440 2243.44000    -999.25    0.24640    0.27280   12.08760   32.87440  311.29080  311.29080   39.03160   44.63040   39.03160   12.08760   10.88540   10.88540    -999.25    0.36890    0.40770 2242.26810    9.75820 -200.67410   -4.32230    9.75820
  750.00000  255.92140  263.68280  239.88640  239.88640  274.34840   51.17380 2333.69500    -999.25    0.19170    0.22010    3.64500   51.17380  335.13230  335.13230   73.12240   85.85910   73.12240    3.64500    3.33550    3.33550    -999.25    0.44770    0.47270 2337.73320    3.23530 -198.98350   -3.95300    3.23530
  800.00000  266.30780  221.99070  237.99320  237.99320   94.50810   85.58220 2315.21500    -999.25    0.20290    0.23090   10.58110   85.58220  308.25870  308.25870   48.11530   49.11010   48.11530   10.58110   10.22470   10.22470    -999.25    0.35780    0.39920 2321.77760   11.04170 -200.39770   -4.47080   11.04170
  850.00000  245.65190  241.58160  252.10240  252.10240  194.65100  137.02630 2110.61500    -999.25    0.32690    0.35050    5.13740  137.02630  310.36760  310.36760   66.46530   75.15750   66.46530    5.13740    4.93780    4.93780    -999.25    0.42530    0.45350 2102.45970    4.67640 -196.49580   -3.46980    4.67640
  900.00000  344.60580  164.85550  254.96750  254.96750  130.76680   20.83820 2375.27500    -999.25    0.16650    0.19570    7.64720   20.83820  333.02370  333.02370  113.10600  132.70790  113.10600    7.64720    6.95480    6.95480    -999.25    0.33780    0.38410 2378.41140    7.95800 -199.35890   -4.40160    7.95800
  950.00000  385.43640  161.38000  256.47400  256.47400  145.85980   66.78590 2434.84000    -999.25    0.13040    0.16090    6.85590   66.78590  311.91920  311.91920  100.00330  115.50330  100.00330    6.85590    6.36160    6.36160    -999.25    0.32330    0.37300 2436.14230    6.53830 -197.00340   -3.84230    6.53830
 1000.00000  362.54170  183.77060  265.52200  265.52200   79.47480   55.62200 2472.95500    -999.25    0.10730    0.13860   12.58260   55.62200  302.56400  302.56400   85.02540   92.98150   85.02540   12.58260   11.78850   11.78850    -999.25    0.28890    0.34600 2474.15870   11.18520 -195.16140   -3.42980   11.18520
 1050.00000  251.24890  254.39900  259.70740  259.70740  113.32220  105.72600 1955.02000    -999.25    0.42120    0.44150    8.82440  105.72600  301.05230  301.05230   93.11920   97.97000   93.11920    8.82440    8.01180    8.01180    -999.25    0.43200    0.45920 1964.99190    7.65360 -195.13680   -3.53650    7.65360
 1100.00000  268.97570  226.97810  244.90850  244.90850  103.82490  154.20480 2109.29500    -999.25    0.32770    0.35130    9.63160  154.20480  304.41490  304.41490   92.73550   90.87240   92.73550    9.63160    9.19090    9.19090    -999.25    0.37990    0.41630 2114.40450    8.63710 -194.38160   -3.43450    8.63710
 1150.00000  250.91850  297.64170  278.33250  278.33250  133.98900  190.04710 2094.61000    -999.25    0.33660    0.35990    7.46330  190.04710  310.23680  310.23680   95.67570  109.81830   95.67570    7.46330    6.89800    6.89800    -999.25    0.43340    0.46040 2112.64840    7.75830 -193.36610   -3.25810    7.75830
 1200.00000  265.63640  258.43410  264.08980  264.08980  126.62560  171.69350 2135.86000    -999.25    0.31160    0.33580    7.89730  171.69350  306.38680  306.38680   98.82760  110.59830   98.82760    7.89730    7.51350    7.51350    -999.25    0.42000    0.44910 2142.62550    8.44700 -192.47710   -3.11790    8.44700
 1250.00000  227.48110  233.85650  232.37210  232.37210  100.06500  161.02210 2372.14000    -999.25    0.16840    0.19760    9.99350  161.02210  333.54060  333.54060  124.35170  157.88560  124.35170    9.99350   10.51680   10.51680    -999.25    0.45530    0.47920 2370.19560   13.22630 -192.37750   -3.20320   13.22630
 1300.00000  249.97780  270.31020  268.68360  268.68360   89.50950  239.07970 2655.28000    -999.25   -0.00320    0.03200   11.17200  239.07970  237.63950  237.63950   58.95390   71.50830   58.95390   11.17200   10.21390   10.21390    -999.25    0.31080    0.36330 2633.27730   15.18390 -196.85690   -4.59680   15.18390
 1350.00000  242.94000  231.12820  243.04680  243.04680  124.27610  234.82120 2456.62000    -999.25    0.11720    0.14820    8.04660  234.82120  274.01730  274.01730   88.30770  101.30660   88.30770    8.04660    8.53820    8.53820    -999.25    0.27340    0.33350 2463.51640    9.20490 -188.59630   -2.35040    9.20490
 1400.00000  269.74410  219.51330  256.66850  256.66850  138.83880  181.65580 2394.91000    -999.25    0.15460    0.18430    7.20260  181.65580  269.61460  269.61460   90.59610   90.71490   90.59610    7.20260    6.60970    6.60970    -999.25    0.30180    0.35630 2393.41190    6.82370 -187.58390   -2.17490    6.82370
 1450.00000  279.39420  288.88070  303.37480  303.37480  313.69600  139.90510 2128.43500    -999.25    0.31610    0.34010    3.18780  139.90510  325.36010  325.36010  103.44020  125.89050  103.44020    3.18780    3.01500    3.01500    -999.25    0.44450    0.46990 2129.44380    3.63250 -185.38840   -1.66130    3.63250
 1500.00000  282.41850  309.35640  313.91240  313.91240  234.35670  137.47720 2251.36000    -999.25    0.24160    0.26820    4.26700  137.47720  296.92330  296.92330   83.73810   94.88270   83.73810    4.26700    4.09380    4.09380    -999.25    0.40040    0.43280 2248.07450    4.49120 -182.49820   -0.94930    4.49120
 1550.00000  319.11480  261.15840  286.69530  286.69530  113.88220  157.88440 2222.65000    -999.25    0.25900    0.28500    8.78100  157.88440  257.77540  257.77540   77.65480   90.01320   77.65480    8.78100    8.28680    8.28680    -999.25    0.34350    0.38840 2225.81200    7.83870 -182.42680   -1.04270    7.83870
 1600.00000  320.49130  282.40540  315.51640  315.51640  159.68320  165.32570 2520.31000    -999.25    0.07860    0.11090    6.26240  165.32570  250.35650  250.35650   42.05910   49.05040   42.05910    6.26240    6.64370    6.64370    -999.25    0.31050    0.36310 2519.80050    5.91170 -182.56120   -1.19490    5.91170
 1650.00000  234.45940  230.37910  246.33010  246.33010   60.70430   51.15870 2406.62500    -999.25    0.14750    0.17740   16.47330   51.15870  245.06050  245.06050   35.62350   37.63680   35.62350   16.47330   17.55640   17.55640    -999.25    0.23050    0.29770 2410.98900   18.97690 -208.07570   -8.59850   18.97690
