~Version ---------------------------------------------------
VERS.      2.0 : CWLS log ASCII Standard -VERSION 2.0
WRAP.       NO : One line per depth step
CREA. 12/18/17 : LAS Creation Date
~Well ------------------------------------------------------
STRT.FT                                  500.0 : START DEPTH
STOP.FT                                 6050.0 : STOP DEPTH
STEP.FT                               50.00000 : STEP LENGTH
NULL.                                  -999.25 : NULL VALUE
COMP. THE BRITISH AMERICAN OIL COMPANY LIMITED : COMPANY
WELL.          B.A. ARNOLD DONALDA A5-20-42-17 : WELL
FLD .                                          : FIELD
LOC .                                          : LOCATION
CTRY.                                   CANADA : COUNTRY
SRVC.                   Schlumberger of Canada : SERVICE COMPANY
DATE.                              20-Apr-1959 : LOGDATE
PROV.                                  Alberta : PROVINCE
UWI .                         102052004217W400 : UNIQUE WELL ID
SLAT.WGS84                            52.62891 : SURFACE LATITUDE
SLON.WGS84                            -112.424 : SURFACE LONGITUDE
~Curve Information -----------------------------------------
DEPT  .FT         : Depth Curve
CALMED.IN         : MICROLATERO CALIPER  FROM MLL LOG [ADJ. TO EL LOG]
CALWS .IN         : CALIPER [MCALED SPL. TO CALMED @ 3900']
CONDWS.MMHO       : CONDUCTIVITY [1000/DRESWS]
DRESWS.OHMM       : DEEP RESISTIVITY [LNED]
GRNED .UgRa-Eq/T  : GAMMA RAY FROM GRN LOG [ADJ. TO ML/EL LOG]
GRWS  .GAPI       : GAMMA RAY [GRNED*16.50]
LNED  .OHMM       : LONG NORMAL 64" FROM EL LOG
LT18ED.OHMM       : LATERAL 18' 8" FROM EL LOG
MCALED.IN         : MICRO CALIPER FROM ML LOG
MINVED.OHMM       : MICRO INVERSE RESISTIVITY FROM ML LOG
MLLED .OHMM       : MICRO-LATEROLOG RESISTIVITY FROM MLL LOG [ADJ. TO EL LOG]
MNORED.OHMM       : MICRO NORMAL RESISTIVITY FROM ML LOG
NEUTED.CPS        : NEUTRON FROM GRN LOG [ADJ. TO ML/EL LOG]
NEUTWS.CPS        : NEUTRON [NEUTED]
SNED  .OHMM       : SHORT NORMAL 16" FROM EL LOG
SPRED .MV         : SPONTANEOUS POTENTIAL FROM EL LOG
SPWS  .MV         : SPONTANEOUS POTENTIAL [BASELINE 0 MV, SPRED]
SRESWS.OHMM       : SHALLOW RESISTIVITY [SNED]
~Params ----------------------------------------------------
LMF .                     KB : LOG MEASURED FROM
DMF .                     KB : DRILLING MEASURED FROM
EKB .FT                 2473 : KELLY BUSHING
EGL .FT               2458.8 : GROUND LEVEL
DATE.               04/20/59 : RUN DATE
RUN .                      1 : RUN NUMBER
DD  .FT                 6050 : DEPTH DRILLER
DL  .FT                 6058 : DEPTH LOGGER
BLI .FT                 6057 : BOTTOM LOG INTERVAL
TLI .FT                 3699 : TOP LOG INTERVAL
CBD .FT                  623 : CASING BOTTOM DRILLER
CBL .FT                  625 : CASING BOTTOM LOGGER
BS  .IN                7.875 : BIT SIZE
BSD .FT                 6050 : BIT SIZE AT DEPTH
DFT .                    GYP : DRILLING FLUID TYPE
DFD .                   10.7 : DRILLING FLUID DENSITY
DFV .                     64 : DRILLING FLUID VISCOSITY
DFPH.                    6.4 : DRILLING FLUID PH
DFL .                    9.2 : DRILLING FLUID LOSS
MSS .            CIRCULATION : MUD SAMPLE SOURCE
RMS .OHMM                1.9 : RESISTIVITY MUD SAMPLE
MST .DEGF                 44 : MUD SAMPLE TEMPERATURE
RMF .OHMM               0.74 : RESISTIVITY MUD FILTRATE SAMPLE
MFST.DEGF                 63 : MUD FILTRATE SAMPLE TEMPERATURE
RMC .OHMM                1.4 : RESISTIVITY MUD CAKE
MCST.DEGF                 63 : MUD CAKE SAMPLE TEMPERATURE
RMB .OHMM               0.67 : RESISTIVITY MUD AT BHT
TCS .HRS                   3 : TIME CIRCULATED STOPPED
LUN .                  760 C : LOGGING UNIT NUMBER
ENGI.                MCKEOWN : RECORDING ENGINEER
WITN.               HANNEGAN : WITNESSED BY
CLNT.                A2DTECH : CLIENT CODE
ORIG.            2" 5" PRINT : ORIGIN OF DATA
UWI .       102052004217W400 : UNIQUE WELL ID
DICO. A2D Technologies, Inc. : DIGITIZING COMPANY
~Other -----------------------------------------------------
ML-EL-MLL-GRN TOOL RUN
EL LOG (TOP TO 3682') AND GRN LOG (TOP TO 490') FROM 2" SECTION
~ASCII -----------------------------------------------------
# ...
 4400.00000    7.83650    7.83650   58.99050   16.96670    2.93190   48.37590   16.96670   20.03930    -999.25    -999.25   45.12500    -999.25  249.06600  249.06600   18.95010  -37.97590   -7.12480   18.95010
 4450.00000    7.87380    7.87380   58.68650   17.03970    6.17750  101.92880   17.03970    5.27640    -999.25    -999.25   14.11960    -999.25  210.20040  210.20040   12.52340  -32.28460   -2.71270   12.52340
 4500.00000    7.97080    7.97080   63.37980   15.77790    2.70490   44.63080   15.77790   16.87090    -999.25    -999.25   39.63570    -999.25  292.08290  292.08290   20.15010  -32.54190   -4.24080   20.15010
 4550.00000    8.02820    8.02820  111.83760    8.94320    5.95450   98.24920    8.94320    8.69110    -999.25    -999.25   13.66390    -999.25  217.61980  217.61980    9.60150  -29.85080   -2.82050    9.60150
 4600.00000    8.01920    8.01920  174.01590    5.74660    7.26750  119.91380    5.74660    6.01100    -999.25    -999.25   11.76040    -999.25  183.72470  183.72470    7.41720  -29.33120   -3.14090    7.41720
 4650.00000    8.02640    8.02640  155.10120    6.44740    7.15750  118.09960    6.44740    6.24980    -999.25    -999.25   12.93740    -999.25  194.14250  194.14250    8.15810  -27.77380   -1.95210    8.15810
 4700.00000    8.11240    8.11240  133.92800    7.46670    6.45030  106.43000    7.46670    7.43750    -999.25    -999.25   13.43890    -999.25  196.35120  196.35120    8.98340  -26.12020   -0.66960    8.98340
 4750.00000    8.01460    8.01460  134.68560    7.42470    6.68020  110.22330    7.42470    7.67850    -999.25    -999.25   13.37560    -999.25  196.57400  196.57400    8.95170  -26.28820   -0.92490    8.95170
 4800.00000    8.01830    8.01830   85.55500   11.70090    4.75430   78.44680   11.70090   15.47930    -999.25    -999.25   13.81640    -999.25  206.16740  206.16740   12.00720  -27.75690   -2.39360   12.00720
 4850.00000    8.06850    8.06850   73.74090   13.56100    5.00420   82.56930   13.56100    9.31690    -999.25    -999.25   18.33380    -999.25  199.53900  199.53900   12.98540  -25.85640   -0.09500   12.98540
 4900.00000    7.85360    7.85360   10.02320   99.81580    4.47320   73.80780   99.81580  261.45210    -999.25    -999.25  171.38750    -999.25  233.19880  233.19880   61.25300  -32.67800   -6.42870   61.25300
 4950.00000    7.78670    7.78670   16.77410   59.61580    5.64650   93.16720   59.61580  191.56880    -999.25    -999.25   18.40220    -999.25  207.13280  207.13280   19.18390  -30.38140   -3.64090   19.18390
 5000.00000    7.84910    7.84910    8.11520  123.22610    2.33080   38.45820  123.22610  133.58360    -999.25    -999.25  127.45110    -999.25  311.66670  311.66670   64.70730  -37.14830   -9.91980   64.70730
 5050.00000    7.85440    7.85440   11.89060   84.14520    2.35410   38.84180   84.14520   88.89260    -999.25    -999.25  170.56320    -999.25  346.89310  346.89310   58.86350  -44.86360  -17.14710   58.86350
 5100.00000    7.83230    7.83230    8.25280  121.17050    1.22260   20.17290  121.17050  173.01730    -999.25    -999.25  225.09600    -999.25  361.79050  361.79050   69.63570  -73.63250  -45.42490   69.63570
 5150.00000    7.69290    7.69290    3.36610  297.24660    0.97480   16.08500  297.24660  305.64740    -999.25    -999.25 1000.88260    -999.25  422.04640  422.04640  132.32710  -80.83350  -52.13790  132.32710
 5200.00000    7.74570    7.74570   13.30960   75.13390    3.43930   56.74930   75.13390  138.47760    -999.25    -999.25   46.81460    -999.25  239.15210  239.15210   36.33690  -35.31970   -6.13290   36.33690
 5250.00000    7.56420    7.56420   23.64290   42.29600    1.11380   18.37770   42.29600   43.72590    -999.25    -999.25   67.72710    -999.25  281.02960  281.02960   34.26520  -86.52640  -56.85160   34.26520
 5300.00000    7.68240    7.68240   24.68680   40.50750    1.12750   18.60290   40.50750   15.48050    -999.25    -999.25  151.76750    -999.25  330.58030  330.58030   37.55430  -78.44260  -48.27990   37.55430
 5350.00000    7.75270    7.75270   26.58290   37.61820    4.00990   66.16330   37.61820   33.06380    -999.25    -999.25   28.55000    -999.25  242.97190  242.97190   24.36160  -33.26670   -2.61280   24.36160
 5400.00000    7.75630    7.75630   28.16800   35.50140    3.28520   54.20660   35.50140   28.91010    -999.25    -999.25   29.94940    -999.25  244.57100  244.57100   23.88280  -25.61260    5.52930   23.88280
 5450.00000    7.64490    7.64490   69.75590   14.33570    1.24250   20.50120   14.33570   11.21060    -999.25    -999.25   41.84790    -999.25  260.70900  260.70900   18.10090  -80.84460  -49.22070   18.10090
 5500.00000    7.72810    7.72810    5.09300  196.34640    1.40800   23.23200  196.34640   96.40580    -999.25    -999.25  447.88090    -999.25  429.64740  429.64740   98.92400  -59.48780  -27.39510   98.92400
 5550.00000    7.70820    7.70820   10.03030   99.71380    1.10740   18.27210   99.71380  263.57120    -999.25    -999.25  989.04640    -999.25  383.55670  383.55670   64.65770  -66.28350  -33.72200   64.65770
 5600.00000    7.70980    7.70980    6.23530  160.37800    1.13250   18.68630  160.37800   87.11250    -999.25    -999.25  448.89000    -999.25  357.02740  357.02740   87.28410  -68.00420  -34.97090   87.28410
 5650.00000    7.74090    7.74090   14.46140   69.16300    1.30910   21.59930   69.16300   71.18890    -999.25    -999.25  129.48200    -999.25  342.64510  342.64510   39.43320  -69.37690  -35.87480   39.43320
 5700.00000    7.76090    7.76090   14.85240   67.32920    1.71990   28.37840   67.32920  177.15810    -999.25    -999.25   65.47500    -999.25  333.63980  333.63980   36.17610  -64.37170  -30.39780   36.17610
 5750.00000    7.72830    7.72830   24.95840   40.06670    3.65890   60.37270   40.06670   20.55410    -999.25    -999.25   25.98200    -999.25  211.06330  211.06330   24.03990  -37.43410   -3.01300   24.03990
 5800.00000    7.62950    7.62950    6.14640  162.70760    1.33440   22.01760  162.70760  220.17600    -999.25    -999.25   93.64490    -999.25  344.53480  344.53480   69.39930  -81.67780  -47.25670   69.39930
 5850.00000    7.61350    7.61350   21.07510   47.44930    2.13650   35.25140   47.44930  223.84600    -999.25    -999.25   42.87970    -999.25  268.46230  268.46230   30.92660  -53.75350  -19.33240   30.92660
 5900.00000    7.65590    7.65590  112.38780    8.89900    6.37240  105.14460    8.89900   11.70140    -999.25    -999.25   10.97910    -999.25  186.64430  186.64430    9.19170  -41.70720   -7.28610    9.19170
 5950.00000    7.66770    7.66770   21.87940   45.70510    2.64350   43.61780   45.70510   20.95410    -999.25    -999.25   49.18260    -999.25  245.10980  245.10980   33.52440  -42.58190   -8.16080   33.52440
 6000.00000    7.66930    7.66930   12.59290   79.40980    1.78700   29.48550   79.40980  500.00000    -999.25    -999.25  375.99910    -999.25  337.11250  337.11250   41.57360  -58.63720  -24.21610   41.57360
 6050.00000    9.04380    9.04380    4.90600  203.98750    3.53740   58.36790  203.98750   20.87310    -999.25    -999.25  152.28120    -999.25  404.75910  404.75910   78.96180  -50.07710  -15.65600   78.96180
