~Version ---------------------------------------------------
VERS.      2.0 : CWLS log ASCII Standard -VERSION 2.0
WRAP.       NO : One line per depth step
CREA. 01/03/18 : LAS Creation Date
~Well ------------------------------------------------------
STRT.FT                 1000.0 : START DEPTH
STOP.FT                12750.0 : STOP DEPTH
STEP.FT               50.00000 : STEP LENGTH
NULL.                  -999.25 : NULL VALUE
COMP.      TALISMAN ENERGY INC : COMPANY
WELL. TALISMAN EDSON 6-8-52-17 : WELL
FLD .                          : FIELD
LOC .                          : LOCATION
CTRY.                   CANADA : COUNTRY
SRVC.   Schlumberger of Canada : SERVICE COMPANY
DATE.              06-May-1978 : LOGDATE
PROV.                  Alberta : PROVINCE
UWI .         100060805217W500 : UNIQUE WELL ID
SLAT.WGS84            53.47276 : SURFACE LATITUDE
SLON.WGS84           -116.4739 : SURFACE LONGITUDE
~Curve Information -----------------------------------------
DEPT    .FT    : Depth Curve
CALDED  .IN    : CALIPER FROM DENSITY LOG [ADJ. TO RESISTIVITY LOG]
CALSED  .IN    : CALIPER FROM SONIC LOG
CALWS   .IN    : CALIPER [CALSED]
CILDED  .MMHO  : DEEP CONDUCTIVITY FROM RESISTIVITY LOG
CONDWS  .MMHO  : CONDUCTIVITY [1000/DRESWS]
DCORED  .G/C3  : DENSITY CORRECTION FROM DENSITY LOG
DCORWS  .G/C3  : DENSITY CORRECTION [DCORED]
DENWS   .G/C3  : FORMATION BULK DENSITY [CALC. FROM DPOLSWS , M=2.71 F=1.00]
DPHILSED.V/V   : DENSITY POROSITY LIMESTONE [M=2.71 F=1.00] FROM DENSITY LOG [ADJ. TO RESISTIVITY LOG]
DPHISSED.V/V   : DENSITY POROSITY SANDSTONE [M=2.71 F=1.00] FROM DENSITY LOG [ADJ. TO RESISTIVITY LOG]
DPOLSWS .V/V   : DENSITY POROSITY LIMESTONE [DPHISSED MATRIX CONVERSION FOR LIMESTONE , M=2.71 F=1.00 & SPL TO DPHILSED @ 9209']
DRESWS  .OHMM  : DEEP RESISTIVITY [1000/CILDED IF ILDED<1, ILDED & SPL. TO ILDED 6256']
DTED    .US/F  : DELTA TIME FROM SONIC LOG
DTWS    .US/F  : COMPRESSIONAL SONIC [DTED]
GRDED   .GAPI  : GAMMA RAY FROM DENSITY LOG [ADJ. TO RESISTIVITY LOG]
GRSED   .GAPI  : GAMMA RAY FROM SONIC LOG
GRWS    .GAPI  : GAMMA RAY [GRSED]
ILDED   .OHMM  : DEEP INDUCTION RESISTIVITY FROM RESISTIVITY LOG
ILMED   .OHMM  : MEDIUM INDUCTION RESISTIVITY FROM RESISTIVITY LOG
LL8ED   .OHMM  : LATEROLOG 8 RESISTIVITY FROM RESISTIVITY LOG
MRESWS  .OHMM  : MEDIUM RESISTIVITY [ILMED]
NPHILSED.V/V   : NEUTRON POROSITY LIMESTONE FROM DENSITY LOG [ADJ. TO RESISTIVITY LOG]
NPHISSED.V/V   : NEUTRON POROSITY  SANDSTONE FROM DENSITY LOG [ADJ. TO RESISTIVITY LOG]
NPOLSWS .V/V   : NEUTRON POROSITY LIMESTONE [NPHISSED MATRIX CONVERSION FOR LIMESTONE & SPL. TO NPHILSED @ 9198']
RHOBED  .G/C3  : FORMATION BULK DENSITY  FROM DENSITY LOG[ADJ. TO RESISTIVITY LOG]
SPRED   .MV    : SPONTANEOUS POTENTIAL FROM RESISTIVITY LOG
SPWS    .MV    : SPONTANEOUS POTENTIAL [BASELINE 0 MV. SPRED]
SRESWS  .OHMM  : SHALLOW RESISTIVITY [LL8ED]
~Params ----------------------------------------------------
PD  .                     GL : PERMANENT DATUM
EPD .FT               3147.2 : ELEVATION PERMANENT DATUM
LMF .                     KB : LOG MEASURED FROM
DAPD.FT                 22.3 : FEET ABOVE PERMANENT DATUM
EKB .FT               3169.5 : KELLY BUSHING
EGL .FT               3147.2 : GROUND LEVEL
DATE.               05/31/78 : RUN DATE
RUN .                      2 : RUN NUMBER
DD  .FT                12769 : DEPTH DRILLER
DL  .FT                12757 : DEPTH LOGGER
BLI .FT                12751 : BOTTOM LOG INTERVAL
TLI .FT                 9616 : TOP LOG INTERVAL
CBD .FT                 9625 : CASING BOTTOM DRILLER
BS  .IN                  8.5 : BIT SIZE
BSD .FT                12769 : BIT SIZE AT DEPTH
DFT .                    GEL : DRILLING FLUID TYPE
DFD .                    9.1 : DRILLING FLUID DENSITY
DFV .                     51 : DRILLING FLUID VISCOSITY
DFPH.                     10 : DRILLING FLUID PH
DFL .                     22 : DRILLING FLUID LOSS
MSS .               FLOWLINE : MUD SAMPLE SOURCE
RMF .OHMM              0.809 : RESISTIVITY MUD FILTRATE SAMPLE
MFST.DEGF                 63 : MUD FILTRATE SAMPLE TEMPERATURE
TCS .HRS                  12 : TIME CIRCULATED STOPPED
LUN .                   7800 : LOGGING UNIT NUMBER
LUL .                    EDM : LOGGING UNIT LOCATION
ENGI.               BERNISKY : RECORDING ENGINEER
WITN.               BRINKMAN : WITNESSED BY
CLNT.                A2DTECH : CLIENT CODE
ORIG.            2" 5" PRINT : ORIGIN OF DATA
UWI .       100060805217W500 : UNIQUE WELL ID
DICO. A2D Technologies, Inc. : DIGITIZING COMPANY
~Other -----------------------------------------------------
~ASCII -----------------------------------------------------
# ...
 2250.00000    -999.25   12.51910   12.51910   90.29630   70.74140    -999.25    -999.25    -999.25    -999.25    -999.25    -999.25   14.13600   74.06460   74.06460    -999.25   68.05990   68.05990   14.13600    -999.25    9.61620    -999.25    -999.25    -999.25    -999.25    -999.25 -295.87250   -9.50730    9.61620
 2300.00000    -999.25   12.31130   12.31130   58.91760   57.56690    -999.25    -999.25    -999.25    -999.25    -999.25    -999.25   17.37620   76.13230   76.13230    -999.25   79.18560   79.18560   17.37620    -999.25   13.89740    -999.25    -999.25    -999.25    -999.25    -999.25 -288.76960  -16.42120   13.89740
 2350.00000    -999.25   13.95990   13.95990  349.13690  311.89570    -999.25    -999.25    -999.25    -999.25    -999.25    -999.25    3.20620  110.76340  110.76340    -999.25   90.69630   90.69630    3.20620    -999.25    5.87340    -999.25    -999.25    -999.25    -999.25    -999.25 -292.33950  -12.66100    5.87340
 2400.00000    -999.25   14.38650   14.38650  272.98810  262.33640    -999.25    -999.25    -999.25    -999.25    -999.25    -999.25    3.81190  132.40880  132.40880    -999.25   75.46410   75.46410    3.81190    -999.25    9.84910    -999.25    -999.25    -999.25    -999.25    -999.25 -291.71160  -13.09990    9.84910
 2450.00000    -999.25   13.02710   13.02710  113.80200   98.55230    -999.25    -999.25    -999.25    -999.25    -999.25    -999.25   10.14690   73.81570   73.81570    -999.25   84.26440   84.26440   10.14690    -999.25    5.98360    -999.25    -999.25    -999.25    -999.25    -999.25 -299.04390   -5.57730    5.98360
 2500.00000    -999.25   13.92040   13.92040  167.41330  180.88740    -999.25    -999.25    -999.25    -999.25    -999.25    -999.25    5.52830  110.53510  110.53510    -999.25  103.46650  103.46650    5.52830    -999.25    6.47960    -999.25    -999.25    -999.25    -999.25    -999.25 -297.14870   -7.28350    6.47960
 2550.00000    -999.25   12.89450   12.89450   99.51460  101.05790    -999.25    -999.25    -999.25    -999.25    -999.25    -999.25    9.89830   82.53300   82.53300    -999.25   89.71980   89.71980    9.89830    -999.25    7.89620    -999.25    -999.25    -999.25    -999.25    -999.25 -297.31720   -6.92590    7.89620
 2600.00000    -999.25   13.52490   13.52490  107.32780  100.71200    -999.25    -999.25    -999.25    -999.25    -999.25    -999.25    9.92930   80.55250   80.55250    -999.25   92.26540   92.26540    9.92930    -999.25    6.45800    -999.25    -999.25    -999.25    -999.25    -999.25 -296.36460   -7.68830    6.45800
 2650.00000    -999.25   12.94620   12.94620  108.31160  103.96420    -999.25    -999.25    -999.25    -999.25    -999.25    -999.25    9.61870   77.69560   77.69560    -999.25   96.96110   96.96110    9.61870    -999.25    7.05390    -999.25    -999.25    -999.25    -999.25    -999.25 -296.50470   -7.35920    7.05390
 2700.00000    -999.25   12.52790   12.52790   69.49490   67.52560    -999.25    -999.25    -999.25    -999.25    -999.25    -999.25   14.80920   76.89830   76.89830    -999.25   69.81690   69.81690   14.80920    -999.25   10.08530    -999.25    -999.25    -999.25    -999.25    -999.25 -292.24200  -11.43160   10.08530
 2750.00000    -999.25   12.34990   12.34990   74.26750   75.52470    -999.25    -999.25    -999.25    -999.25    -999.25    -999.25   13.24070   75.24520   75.24520    -999.25   84.42840   84.42840   13.24070    -999.25   10.71230    -999.25    -999.25    -999.25    -999.25    -999.25 -294.11970   -9.36490   10.71230
 2800.00000    -999.25   13.19220   13.19220  117.20070  107.48860    -999.25    -999.25    -999.25    -999.25    -999.25    -999.25    9.33340   81.80780   81.80780    -999.25  103.71980  103.71980    9.33340    -999.25    6.99730    -999.25    -999.25    -999.25    -999.25    -999.25 -298.58880   -4.70670    6.99730
 2850.00000    -999.25   13.15710   13.15710  134.01510  134.61120    -999.25    -999.25    -999.25    -999.25    -999.25    -999.25    7.42880   89.99940   89.99940    -999.25   97.46040   97.46040    7.42880    -999.25    7.89480    -999.25    -999.25    -999.25    -999.25    -999.25 -298.71000   -4.39530    7.89480
 2900.00000    -999.25   13.12950   13.12950   59.23470   53.33560    -999.25    -999.25    -999.25    -999.25    -999.25    -999.25   18.74920   70.51560   70.51560    -999.25   76.70800   76.70800   18.74920    -999.25   12.95270    -999.25    -999.25    -999.25    -999.25    -999.25 -296.47160   -6.44460   12.95270
 2950.00000    -999.25   13.13400   13.13400   10.94650   70.43940    -999.25    -999.25    -999.25    -999.25    -999.25    -999.25   14.19660   84.58200   84.58200    -999.25   91.70550   91.70550   14.19660    -999.25   12.58810    -999.25    -999.25    -999.25    -999.25    -999.25 -295.50720   -7.21880   12.58810
 3000.00000    -999.25   12.82080   12.82080   22.21310   21.27890    -999.25    -999.25    -999.25    -999.25    -999.25    -999.25   46.99500   74.74540   74.74540    -999.25   62.90490   62.90490   46.99500    -999.25   19.30250    -999.25    -999.25    -999.25    -999.25    -999.25 -292.21310  -10.32390   19.30250
 3050.00000    -999.25   13.45990   13.45990  175.37700  173.95100    -999.25    -999.25    -999.25    -999.25    -999.25    -999.25    5.74870   82.02970   82.02970    -999.25  102.05940  102.05940    5.74870    -999.25    4.79980    -999.25    -999.25    -999.25    -999.25    -999.25 -299.43830   -2.91580    4.79980
 3100.00000    -999.25   13.07590   13.07590  163.69220  170.77380    -999.25    -999.25    -999.25    -999.25    -999.25    -999.25    5.85570   84.25360   84.25360    -999.25   95.13530   95.13530    5.85570    -999.25    5.50260    -999.25    -999.25    -999.25    -999.25    -999.25 -298.72790   -3.67240    5.50260
 3150.00000    -999.25   13.48420   13.48420  146.95180  155.06760    -999.25    -999.25    -999.25    -999.25    -999.25    -999.25    6.44880   77.31740   77.31740    -999.25   95.34300   95.34300    6.44880    -999.25    5.17680    -999.25    -999.25    -999.25    -999.25    -999.25 -295.31940   -7.12680    5.17680
 3200.00000    -999.25   13.24680   13.24680  133.03780  120.34710    -999.25    -999.25    -999.25    -999.25    -999.25    -999.25    8.30930   84.25280   84.25280    -999.25   90.88790   90.88790    8.30930    -999.25    5.60530    -999.25    -999.25    -999.25    -999.25    -999.25 -297.02550   -5.46690    5.60530
 3250.00000    -999.25   13.10490   13.10490  213.11630  223.09480    -999.25    -999.25    -999.25    -999.25    -999.25    -999.25    4.48240  102.67290  102.67290    -999.25   78.57510   78.57510    4.48240    -999.25    5.59560    -999.25    -999.25    -999.25    -999.25    -999.25 -295.62580   -6.91250    5.59560
 3300.00000    -999.25   14.63860   14.63860  176.54190  176.39430    -999.25    -999.25    -999.25    -999.25    -999.25    -999.25    5.67060   86.87930   86.87930    -999.25   93.95930   93.95930    5.67060    -999.25    4.62660    -999.25    -999.25    -999.25    -999.25    -999.25 -296.90100   -5.68320    4.62660
 3350.00000    -999.25   12.28700   12.28700   41.40670   39.00690    -999.25    -999.25    -999.25    -999.25    -999.25    -999.25   25.63650   73.02130   73.02130    -999.25   58.50330   58.50330   25.63650    -999.25   18.84150    -999.25    -999.25    -999.25    -999.25    -999.25 -290.98570  -11.64460   18.84150
 3400.00000    -999.25   14.57800   14.57800  138.50200  129.94780    -999.25    -999.25    -999.25    -999.25    -999.25    -999.25    7.69540   86.28610   86.28610    -999.25   89.90790   89.90790    7.69540    -999.25    5.79610    -999.25    -999.25    -999.25    -999.25    -999.25 -297.15980   -5.51640    5.79610
 3450.00000    -999.25   12.74650   12.74650  139.98890  147.74320    -999.25    -999.25    -999.25    -999.25    -999.25    -999.25    6.76850   80.18430   80.18430    -999.25  105.83600  105.83600    6.76850    -999.25    7.53000    -999.25    -999.25    -999.25    -999.25    -999.25 -298.42250   -4.29990    7.53000
