~Version ---------------------------------------------------
VERS. 2.0 : CWLS log ASCII Standard -VERSION 2.0
WRAP.  NO : ONE LINE PER DEPTH STEP
~Well ------------------------------------------------------
STRT.M                         300.0 : START DEPTH
STOP.M                        2850.0 : STOP DEPTH
STEP.M                      50.00000 : STEP LENGTH
NULL.                        -999.25 : NULL VALUE
COMP.      GULF CANADA RESOURCES INC : COMPANY
WELL. GULF UNIT GOOSE RIVER 2-15-67- : WELL
FLD .                                : FIELD
LOC .                                : LOCATION
CTRY.                         CANADA : COUNTRY
SRVC.                        Unknown : SERVICE COMPANY
DATE.                    24-Jan-1984 : LOGDATE
PROV.                        Alberta : PROVINCE
UWI .               100021506718W500 : UNIQUE WELL ID
SLAT.WGS84                  54.79387 : SURFACE LATITUDE
SLON.WGS84                 -116.6546 : SURFACE LONGITUDE
~Curve Information -----------------------------------------
DEPT   .M                 : 
ILD    .OHMM 07 120 46 00 : INDUCTION DEEP RESISTIVITY
ILM    .OHMM 07 120 44 00 : INDUCTION MEDIUM RESISTIVITY
SPR    .MV   07 010 01 00 : SPONTANEOUS POTENTIAL FROM RESISTIVITY LOG
CILD   .MMHO 07 110 46 00 : INDUCTION DEEP CONDUCTIVITY
DT     .US/M 60 500 00 00 : DELTA-T (INTERVAL TRANSIT TIME)
CALS   .MM   60 280 50 00 : CALIPER FROM SONIC LOG
GRS    .GAPI 60 310 01 00 : GAMMA RAY FROM SONIC LOG
CALD   .MM   45 280 60 00 : CALIPER FROM DENSITY LOG
C2     .MM   45 280 24 00 : CALIPER 2
GRD    .GAPI 45 310 01 00 : GAMMA RAY FROM DENSITY LOG
NPHI_SS.DEC  42 890 03 00 : NEUTRON POROSITY SANDSTONE
DPHI_SS.DEC  45 890 12 00 : DENSITY POROSITY SANDSTONE
NPHI_LS.DEC  42 890 01 00 : NEUTRON POROSITY LIMESTONE
DPHI_LS.DEC  45 890 10 00 : DENSITY POROSITY LIMESTONE
DRHO   .K/M3 45 356 01 00 : BULK DENSITY CORRECTION
RHOB   .K/M3 45 350 01 00 : BULK DENSITY
SFLU   .OHMM 07 220 01 00 : SHALLOW FOCUSED RESISTIVITY (UNAVERAGED)
~Params ----------------------------------------------------
PD  .                         GL : PERMANENT DATUM
EPD .M                    810.15 : ELEVATION PERMANENT DATUM
LMF .                         KB : LOG MEASURED FROM
DAPD.M                       5.2 : FEET ABOVE PERMANENT DATUM
DMF .                         KB : DRILLING MEASURED FROM
EKB .M                    815.35 : KELLY BUSHING
EDF .M                    815.05 : DRILLING FLOOR
EGL .M                    810.15 : GROUND LEVEL
DATE.                   01/24/84 : RUN DATE
RUN .                          1 : RUN NUMBER
DD  .M                      2900 : DEPTH DRILLER
DL  .M                    2900.5 : DEPTH LOGGER
BLI .M                    2889.6 : BOTTOM LOG INTERVAL
TLI .M                     301.5 : TOP LOG INTERVAL
CS  .MM                      244 : CASING SIZE
CBD .M                       301 : CASING BOTTOM DRILLER
CBL .M                     301.5 : CASING BOTTOM LOGGER
BS  .MM                    222.2 : BIT SIZE
BSD .M                      2900 : BIT SIZE AT DEPTH
DFT .                   GEL CHEM : DRILLING FLUID TYPE
DFD .                       1110 : DRILLING FLUID DENSITY
DFV .                         96 : DRILLING FLUID VISCOSITY
DFPH.                        7.5 : DRILLING FLUID PH
DFL .                        9.5 : DRILLING FLUID LOSS
MSS .                   FLOWLINE : MUD SAMPLE SOURCE
RMS .OHMM                   2.68 : RESISTIVITY MUD SAMPLE
MST .DEGC                     19 : MUD SAMPLE TEMPERATURE
RMF .OHMM                   2.36 : RESISTIVITY MUD FILTRATE SAMPLE
MFST.DEGC                     17 : MUD FILTRATE SAMPLE TEMPERATURE
RMC .OHMM                  0.847 : RESISTIVITY MUD CAKE
MCST.DEGC                     86 : MUD CAKE SAMPLE TEMPERATURE
MFSS.                      PRESS : MUD FILTRATE SAMPLE SOURCE
RMB .OHMM                  1.012 : RESISTIVITY MUD AT BHT
TCS .HRS                    1000 : TIME CIRCULATED STOPPED
TLAB.HRS                    2030 : TIME LOGGER AT BOTTOM
LUN .                       8156 : LOGGING UNIT NUMBER
LUL .                        EDM : LOGGING UNIT LOCATION
ENGI.                    GAGGINO : RECORDING ENGINEER
WITN.                   GILKISON : WITNESSED BY
CLNT.                    A2DTECH : CLIENT CODE
ORIG. 6.5"/100M 16.5"/100M PRINT : ORIGIN OF DATA
UWI .           100021506718W500 : UNIQUE WELL ID
DICO.     A2D Technologies, Inc. : DIGITIZING COMPANY
~Other -----------------------------------------------------
~ASCII -----------------------------------------------------
  300.00000    -999.25    -999.25    -999.25    -999.25    -999.25    -999.25   51.02560    -999.25    -999.25    -999.25    -999.25    -999.25    -999.25    -999.25    -999.25    -999.25    -999.25
  350.00000    3.24250    -999.25  -78.82470  308.49090  400.35120  319.80000   69.75740    -999.25    -999.25    -999.25    -999.25    -999.25    -999.25    -999.25    -999.25    -999.25    2.74050
  400.00000    3.87600    -999.25  -75.23530  257.67520  398.23610  294.38050   63.71580    -999.25    -999.25    -999.25    -999.25    -999.25    -999.25    -999.25    -999.25    -999.25    2.69770
  450.00000    5.55990    -999.25  -68.27320  196.07180  408.51530  280.22850   54.49390    -999.25    -999.25    -999.25    -999.25    -999.25    -999.25    -999.25    -999.25    -999.25    4.11570
  500.00000   12.24400    -999.25  -61.39940   83.26100  365.10490  222.82330   43.72120    -999.25    -999.25    -999.25    -999.25    -999.25    -999.25    -999.25    -999.25    -999.25   10.38020
  550.00000    8.60290    -999.25  -52.28190  116.25990  352.74400  225.56410   46.80020    -999.25    -999.25    -999.25    -999.25    -999.25    -999.25    -999.25    -999.25    -999.25    7.51140
  600.00000    4.60490    -999.25  -43.95970  232.72670  357.26940  249.31900   61.58690    -999.25    -999.25    -999.25    -999.25    -999.25    -999.25    -999.25    -999.25    -999.25    3.91300
  650.00000    5.76480    -999.25  -46.28990  178.26150  342.41350  230.32500   51.14430    -999.25    -999.25    -999.25    -999.25    -999.25    -999.25    -999.25    -999.25    -999.25    4.95470
  700.00000    5.02440    -999.25  -41.38950  199.00610  309.70560  294.07350   63.21200    -999.25    -999.25    -999.25    -999.25    -999.25    -999.25    -999.25    -999.25    -999.25    4.65020
  750.00000    5.83170    -999.25  -40.98570  171.46500  360.51780  278.72480   97.85530    -999.25    -999.25    -999.25    -999.25    -999.25    -999.25    -999.25    -999.25    -999.25    5.65750
  800.00000    6.10730    -999.25  -43.32860  163.70630  361.57820  261.39620   93.32530    -999.25    -999.25    -999.25    -999.25    -999.25    -999.25    -999.25    -999.25    -999.25    5.64300
  850.00000    6.90860    -999.25  -41.34430  144.24300  308.39160  278.17200   98.56080    -999.25    -999.25    -999.25    -999.25    -999.25    -999.25    -999.25    -999.25    -999.25    6.07840
  900.00000    9.08980    -999.25  -40.01830  110.01770  294.38980  264.38780   96.24890    -999.25    -999.25    -999.25    -999.25    -999.25    -999.25    -999.25    -999.25    -999.25    8.21410
  950.00000    5.77370    -999.25  -36.47610  169.79730  324.50940  270.76240   97.87030    -999.25    -999.25    -999.25    -999.25    -999.25    -999.25    -999.25    -999.25    -999.25    5.54080
 1000.00000    6.05300    -999.25  -30.01470  165.27790  331.46920  294.41560   96.89790    -999.25    -999.25    -999.25    -999.25    -999.25    -999.25    -999.25    -999.25    -999.25    6.29480
 1050.00000    6.17450    -999.25  -30.24580  159.88570  291.20010  261.77860   90.01460    -999.25    -999.25    -999.25    -999.25    -999.25    -999.25    -999.25    -999.25    -999.25    5.95000
 1100.00000    5.54470    5.68400  -25.99920    -999.25  291.23980  264.14950   98.63260  274.60760  274.43380   95.29020    -999.25    -999.25    -999.25    -999.25  105.59100 1909.80080    5.94470
 1150.00000    4.50330    4.31330  -23.44990    -999.25  307.79990  299.17390   96.76900  294.88950  326.64070  102.37670    0.42040    0.19020    -999.25    -999.25   82.21110 1869.11550    4.64420
 1200.00000    2.32400    2.13910  -18.76490    -999.25  378.99620  329.79080   87.92550  309.36600  351.04850   85.74380    0.59100    0.47670    -999.25    -999.25    5.65930 2002.82280    2.45800
 1250.00000    6.91260    7.34700  -34.50780    -999.25  279.03680  226.71120   65.63770  224.62320  227.57960   50.81180    0.25120    0.15930    -999.25    -999.25   22.61660 2388.25900    6.85110
 1300.00000    6.05940    9.50310  -82.97620    -999.25  264.98080  222.04230   25.78110  223.20650  224.47690   25.24020    0.23630    0.18500    -999.25    -999.25   24.38480 2345.11990   16.32170
 1350.00000    7.02770    7.39560  -21.84810    -999.25  272.29530  262.30660   73.88980  245.41110  326.29570   78.04830    0.32850    0.07380    -999.25    -999.25   -8.50040 2526.78610    7.77600
 1400.00000    4.86070    6.41000  -51.47930    -999.25  265.99590  259.96680   58.40060  262.84460  283.46380   56.79030    0.24480    0.12160    -999.25    -999.25  207.39240 2447.51710   10.42720
 1450.00000    5.78050    8.84520  -69.18710    -999.25  244.24770  236.35780   54.19220  253.12190  235.67830   58.36870    0.26670    0.14430    -999.25    -999.25   72.19650 2410.99760   14.83240
 1500.00000    2.27560    2.11630  -15.21880    -999.25  305.73900  320.30460   62.53300  341.07840  374.41750   68.18580    0.49650    0.34450    -999.25    -999.25   86.94350 2025.15930    2.41850
 1550.00000   11.14430   12.19720  -17.55060    -999.25  247.82610  266.09040   72.71710  273.24340  268.71670   79.33290    0.29610    0.09450    -999.25    -999.25   -4.04420 2491.34350   16.55160
 1600.00000   12.23700   10.53590    2.01720    -999.25  354.23300  273.32070  132.01560  252.78660  275.36570  149.12610    0.42030    0.16570    0.35640    0.19330   -3.89410 2379.82540   12.34630
 1650.00000    3.14930    5.46320  -91.97670    -999.25  237.26650  220.28610   48.14480  229.38550  224.74610   61.36520    0.21660    0.10760    0.17620    0.14380   99.18770 2470.54570   15.44660
 1700.00000   14.91160   19.03580  -20.32620    -999.25  162.96050  272.77720   28.97200  279.60410  331.88290   33.87990    -999.25    -999.25    0.10690    0.00040    4.64360 2705.67530   63.21160
 1750.00000   34.44260   41.21650    7.86910    -999.25  182.09950  303.66750   45.90640  305.90340  301.03560   60.30180    -999.25    -999.25    0.08330    0.02020  -11.38940 2675.27220   63.44110
 1800.00000    2.55840    3.54450 -159.92290    -999.25  203.22850  288.26510   23.40650  314.82780  328.59930   55.85170    -999.25    -999.25    0.14610    0.00550   54.53410 2702.09590   19.19730
 1850.00000   37.94230   49.92190 -186.33900    -999.25  169.14420  290.44790   16.94910  308.08460  322.28060   15.51560    -999.25    -999.25    0.05680    0.02710   -0.60210 2662.33860  108.91660
 1900.00000    3.46170    3.60710  -95.72830    -999.25  236.92230  322.28170   64.78970  305.62780  328.85940   60.70450    -999.25    -999.25    0.27500    0.20840  -25.19660 2308.40210    3.86650
 1950.00000   62.20720   73.34260 -108.79750    -999.25  171.81970  280.87950   25.91260  269.45700  282.88700   27.17720    -999.25    -999.25    0.02250    0.01400    0.23830 2685.13450  114.95560
 2000.00000   58.16190   72.18580 -109.01210    -999.25  176.55310  237.10540   32.51610  243.96780  241.94070   34.67320    -999.25    -999.25    0.02460    0.02220  -16.14490 2671.01440   84.08130
 2050.00000   43.11210   49.34270  -72.52330    -999.25  213.00770  277.16090   72.49080  293.26520  265.40580   71.57200    -999.25    -999.25    0.13120    0.03440  -20.74960 2651.36010   54.03040
 2100.00000  177.24460  269.14470 -168.92850    -999.25  163.68540  258.70450   17.17530  287.00030  246.64850   17.29950    -999.25    -999.25    0.00780   -0.00010  -10.66330 2711.64430  475.59680
 2150.00000  159.15850  239.45460 -133.66760    -999.25  161.15390  246.30560   13.48180  282.30290  237.38780   15.67760    -999.25    -999.25    0.01040   -0.07650  220.68940 2838.57980  328.98700
 2200.00000  108.20100  191.17060 -187.26980    -999.25  166.56760  253.17630   13.83720  305.58370  329.11120   12.02980    -999.25    -999.25    0.00110    0.02340  182.04990 2673.57150  328.54700
 2250.00000  320.50730  176.69120 -182.71630    -999.25  167.57060  265.15410   15.40710  230.98900  361.70160   17.00370    -999.25    -999.25    0.01710    0.03270   -8.09800 2656.26760 1569.46680
 2300.00000   37.21300   48.06450 -169.52550    -999.25  174.96630  260.45100   14.19090  281.57570  289.68510   12.06630    -999.25    -999.25    0.02080    0.03700  105.94730 2650.30180  197.18010
