~Version ---------------------------------------------------
VERS.      2.0 : CWLS log ASCII Standard -VERSION 2.0
WRAP.       NO : One line per depth step
CREA. 12/14/17 : LAS Creation Date
~Well ------------------------------------------------------
STRT.FT                       1400.0 : START DEPTH
STOP.FT                       9950.0 : STOP DEPTH
STEP.FT                     50.00000 : STEP LENGTH
NULL.                        -999.25 : NULL VALUE
COMP.         PHILLIPS PETROLEUM CO. : COMPANY
WELL.            PHILLIPS KAYBOB B-1 : WELL
FLD .                                : FIELD
LOC .                                : LOCATION
CTRY.                         CANADA : COUNTRY
SRVC. HALLIBURTON OIL WELL CEMENT CO : SERVICE COMPANY
DATE.                    14-Sep-1957 : LOGDATE
PROV.                        Alberta : PROVINCE
UWI .               100050506418W500 : UNIQUE WELL ID
SLAT.WGS84                  54.50709 : SURFACE LATITUDE
SLON.WGS84                 -116.6935 : SURFACE LONGITUDE
~Curve Information -----------------------------------------
DEPT  .FT    : Depth Curve
CALMED.IN    : CALIPER FROM MICROLOG
CALWS .IN    : CALIPER [CALMED]
CONDWS.MMHO  : CONDUCTIVITY [1000/DRESWS]
DRESWS.OHMM  : DEEP RESISTIVITY [LAT9ED]
GRED  .GAPI  : GAMMA RAY FROM CEMENT LOG, DEPTH ADJUSTED WITH [LAT9ED]
GRNED .CPS   : GAMMA RAY FROM NEUTRON LOG, DEPTH ADJUSTED WITH [LAT9ED]
GRWS  .CPS   : GAMMA RAY [GRNED], SPLICED WITH [GRED] FROM TOP-1492'
LAT9ED.OHMM  : LATERAL 9'
LT16ED.OHMM  : LATERAL 16'
NEUTED.CPS   : NEUTRON FROM NEUTRON LOG, DEPTH ADJUSTED WITH [LAT9ED]
NEUTWS.CPS   : NEUTRON [NEUTED]
SNED  .OHMM  : 16 INCH SHORT NORMAL RESISTIVITY FROM IEL
SPRED .MV    : SPONTANEOUS POTENTIAL FROM RESISTIVITY LOG
SPWS  .MV    : SPONTANEOUS POTENTIAL [BASELINE 0 MV] [SPRED]
SRESWS.OHMM  : SHALLOW RESISTIVITY [SNED]
~Params ----------------------------------------------------
PD  .                              GL : PERMANENT DATUM
EPD .FT                          2600 : ELEVATION PERMANENT DATUM
LMF .                              KB : LOG MEASURED FROM
DMF .                              KB : DRILLING MEASURED FROM
EKB .FT                          2600 : KELLY BUSHING
DATE.                        09/14/57 : RUN DATE
RUN .                               1 : RUN NUMBER
DD  .FT                          9955 : DEPTH DRILLER
DL  .FT                          9949 : DEPTH LOGGER
CS  .IN                        13.375 : CASING SIZE
CBD .FT                          1512 : CASING BOTTOM DRILLER
CBL .FT                          1510 : CASING BOTTOM LOGGER
BS  .IN                             9 : BIT SIZE
BSD .FT                          9955 : BIT SIZE AT DEPTH
DFT . OIL EMULSION GEL CAUSTIC MILBAR : DRILLING FLUID TYPE
DFD .                            11.2 : DRILLING FLUID DENSITY
DFV .                              64 : DRILLING FLUID VISCOSITY
DFPH.                               9 : DRILLING FLUID PH
DFL .                             4.8 : DRILLING FLUID LOSS
RMS .OHMM                         1.7 : RESISTIVITY MUD SAMPLE
MST .DEGF                          70 : MUD SAMPLE TEMPERATURE
RMB .OHMM                        0.64 : RESISTIVITY MUD AT BHT
MRT .DEGF                         192 : MAXIMUM RECORDED TEMPERATURE
LUN .                             447 : LOGGING UNIT NUMBER
ENGI.                         EDWARDS : RECORDING ENGINEER
WITN.                    MOTE HANKINS : WITNESSED BY
CLNT.                         A2DTECH : CLIENT CODE
ORIG.                     2" 5" PRINT : ORIGIN OF DATA
UWI .                100050506418W500 : UNIQUE WELL ID
DICO.          A2D Technologies, Inc. : DIGITIZING COMPANY
~Other -----------------------------------------------------
~ASCII -----------------------------------------------------
# ...
 8300.00000   10.04270   10.04270    3.77230  265.08940    -999.25   34.92210   34.92210  265.08940  366.25550  501.36600  501.36600  120.92760  -75.64020  -74.29170  120.92760
 8350.00000    9.98750    9.98750    5.83260  171.47330    -999.25   56.82830   56.82830  171.47330  102.43640  504.90090  504.90090   88.47650  -70.20150  -68.75030   88.47650
 8400.00000   10.35060   10.35060    7.60060  131.56880    -999.25   45.13120   45.13120  131.56880   90.94400  526.02910  526.02910   64.34440  -62.82030  -61.26760   64.34440
 8450.00000   10.33550   10.33550   16.19010   61.76660    -999.25   57.84890   57.84890   61.76660   44.55510  431.21640  431.21640   35.69000  -39.40150  -37.74610   35.69000
 8500.00000   10.33700   10.33700   28.22740   35.42660    -999.25   70.79030   70.79030   35.42660   19.74900  391.85480  391.85480   26.52580  -15.84020  -14.08330   26.52580
 8550.00000   10.08470   10.08470   19.30770   51.79280    -999.25   59.14980   59.14980   51.79280   36.24050  427.55040  427.55040   30.57810  -15.44490  -13.30810   30.57810
 8600.00000   10.38340   10.38340   32.36300   30.90210    -999.25   77.32740   77.32740   30.90210   20.82520  353.36280  353.36280   23.98750  -28.59400  -25.79630   23.98750
 8650.00000   10.16500   10.16500   13.09530   76.36330    -999.25   62.24330   62.24330   76.36330   25.67100  406.36130  406.36130   44.53420  -15.17920  -11.72710   44.53420
 8700.00000   10.92510   10.92510   44.29770   22.66520    -999.25   81.24160   81.24160   22.66520   25.15340  330.13270  330.13270   20.68010   -9.04790   -4.93490   20.68010
 8750.00000   13.32360   13.32360   96.02000   10.41450    -999.25   83.22140   83.22140   10.41450    6.27240  293.76510  293.76510   10.73340  -13.56150   -8.79410   10.73340
 8800.00000   15.08070   15.08070  105.49300    9.47930    -999.25   83.12250   83.12250    9.47930    6.54150  250.19220  250.19220    6.84290  -43.62910  -38.20410    6.84290
 8850.00000   14.79770   14.79770   94.36480   10.59720    -999.25   97.32940   97.32940   10.59720    7.55380  251.64040  251.64040    8.08090  -33.30870  -27.22270    8.08090
 8900.00000   14.68680   14.68680   71.70050   13.94690    -999.25   93.76530   93.76530   13.94690    8.35330  231.62380  231.62380    8.78130  -34.28120  -27.54090    8.78130
 8950.00000   14.52600   14.52600  101.74630    9.83110    -999.25   93.62450   93.62450    9.83110    5.86700  243.64040  243.64040    7.30920  -42.44520  -35.04400    7.30920
 9000.00000    9.86540    9.86540   35.73550   27.98340    -999.25   80.93250   80.93250   27.98340   19.49950  349.23240  349.23240   22.42730  -36.51730  -28.46180   22.42730
 9050.00000    9.63690    9.63690   40.26270   24.83690    -999.25  109.29990  109.29990   24.83690   14.58650  354.19200  354.19200   21.25520  -33.31000  -24.59680   21.25520
 9100.00000   10.10890   10.10890   48.73300   20.52110    -999.25  101.51150  101.51150   20.52110   10.99240  341.00090  341.00090   20.15960  -35.72820  -26.35410   20.15960
 9150.00000    9.68420    9.68420   44.05890   22.69690    -999.25  102.07290  102.07290   22.69690   13.33990  307.85290  307.85290   15.00350  -34.23100  -24.20250   15.00350
 9200.00000   12.43680   12.43680   59.77990   16.72890    -999.25  106.80000  106.80000   16.72890   11.67080  255.97530  255.97530   11.87860  -29.41850  -18.72920   11.87860
 9250.00000    9.66200    9.66200   40.29900   24.81450    -999.25   89.91830   89.91830   24.81450   10.86160  328.18760  328.18760   25.91350  -39.31130  -27.96760   25.91350
 9300.00000   10.05920   10.05920   56.48600   17.70350    -999.25  102.43740  102.43740   17.70350   10.20800  319.47870  319.47870   16.77750  -40.27920  -28.27780   16.77750
 9350.00000    9.48890    9.48890    2.30010  434.89060    -999.25  105.98780  105.98780  434.89060  383.06890  407.95720  407.95720  293.96230  -54.38970  -41.72750  293.96230
 9400.00000    9.77510    9.77510    2.95220  338.73490    -999.25  140.38430  140.38430  338.73490  689.17860  360.66420  360.66420  134.59460  -73.97550  -60.65890  134.59460
 9450.00000    9.78620    9.78620    5.65440  177.21500    -999.25   38.21330   38.21330  177.21500  176.15780  525.72270  525.72270  118.75050  -97.69830  -83.72070  118.75050
 9500.00000   13.19090   13.19090    3.80810  262.59860    -999.25   91.28000   91.28000  262.59860  266.32040  355.90550  355.90550   76.58890  -83.37960  -68.74770   76.58890
 9550.00000    9.37290    9.37290    2.70280  369.99060    -999.25   53.18700   53.18700  369.99060  366.94730  397.59260  397.59260  163.50610  -79.19800  -63.90850  163.50610
 9600.00000    9.11720    9.11720    2.65740  376.31840    -999.25   49.10360   49.10360  376.31840  638.65550  396.93700  396.93700  115.63770  -81.83670  -65.88620  115.63770
 9650.00000    9.02600    9.02600   14.58650   68.55660    -999.25   60.38310   60.38310   68.55660   67.21070  334.60530  334.60530   69.67000  -89.26650  -72.66170   69.67000
 9700.00000    8.70090    8.70090    4.78280  209.14570    -999.25   55.89410   55.89410  209.14570  330.33250  378.09830  378.09830  120.20980  -82.29690  -65.03120  120.20980
 9750.00000    8.95100    8.95100    3.04020  328.93100    -999.25   22.64190   22.64190  328.93100  713.70750  496.19600  496.19600  114.16710  -91.00740  -73.08730  114.16710
 9800.00000    9.49570    9.49570    5.21860  191.62410    -999.25   21.85610   21.85610  191.62410  192.50790  463.70850  463.70850   92.08550  -68.18730  -49.60960   92.08550
 9850.00000    9.38100    9.38100    1.99150  502.21950    -999.25   23.96410   23.96410  502.21950 1345.09990  554.07940  554.07940  399.73820  -45.85080  -26.61210  399.73820
 9900.00000    9.42640    9.42640    1.94500  514.13510    -999.25   45.88130   45.88130  514.13510 1140.91850  566.69130  566.69130   70.40650  -46.19330  -26.30030   70.40650
 9950.00000    -999.25    -999.25    -999.25    -999.25    -999.25   97.22290   97.22290    -999.25    -999.25  447.68580  447.68580    -999.25    -999.25    -999.25    -999.25
