~Version ---------------------------------------------------
VERS.      2.0 : CWLS log ASCII Standard -VERSION 2.0
WRAP.       NO : One line per depth step
CREA. 12/29/17 : LAS Creation Date
~Well ------------------------------------------------------
STRT.FT                     1350.0 : START DEPTH
STOP.FT                    12700.0 : STOP DEPTH
STEP.FT                   50.00000 : STEP LENGTH
NULL.                      -999.25 : NULL VALUE
COMP. TRANS-PRAIRIES PIPELINES LTD : COMPANY
WELL. TPPL DEEP VALLEY 11-21-64-25 : WELL
FLD .                              : FIELD
LOC .                              : LOCATION
CTRY.                       CANADA : COUNTRY
SRVC.                 Schlumberger : SERVICE COMPANY
DATE.                  04-Jan-1974 : LOGDATE
PROV.                      Alberta : PROVINCE
UWI .             100112106425W500 : UNIQUE WELL ID
SLAT.WGS84                54.55513 : SURFACE LATITUDE
SLON.WGS84               -117.7228 : SURFACE LONGITUDE
~Curve Information -----------------------------------------
DEPT    .FT    : Depth Curve
CALDED  .IN    : CALIPER FROM DENSITY LOG [ADJ. TO RESISTIVITY LOG]
CALSED  .IN    : CALIPER FROM SONIC LOG [ADJ. TO RESISTIVITY LOG]
CALWS   .IN    : CALIPER [CALSED]
CILDED  .MMHO  : CONDUCTIVITY FROM RESISTIVITY LOG
CONDWS  .MMHO  : CONDUCTIVITY [1000/DRESWS]
DCORWS  .G/C3  : DENSITY CORRECTION [DRHOED]
DENWS   .G/C3  : FORMATION BULK DENSITY [RHOBED]
DPHILSED.V/V   : DENSITY POROSITY LIMESTONE [M=2.71 F=1.00] FROM DENSITY LOG [ADJ. TO RHOBED/RESISTIVITY LOG]
DPHISSED.V/V   : DENSITY POROSITY SANDSTONE [M=2.65 F=1.00] FROM DENSITY LOG [ADJ. TO RHOBED/RESISTIVITY LOG]
DPOLSWS .V/V   : DENSITY POROSITY LIMESTONE [CALC FROM DENWS,M=2.71 F=1.00]
DRESWS  .OHMM  : DEEP RESISTIVITY [1000/CILDED IF ILDED<=5, ILDED]
DRHOED  .G/C3  : DENSITY CORRECTION FROM DENSITY LOG [ADJ. TO RESISTIVITY LOG]
DTED    .US/F  : DELTA T FROM SONIC LOG [ADJ. TO RESISTIVITY LOG]
DTWS    .US/F  : COMPRESSIONAL SONIC [DTED]
GRDED   .GAPI  : GAMMA RAY FROM DENSITY LOG [ADJ. TO RESISTIVITY LOG]
GRSED   .GAPI  : GAMMA RAY FROM SONIC LOG [ADJ. TO RESISTIVITY LOG]
GRWS    .GAPI  : GAMMA RAY [GRSED SPL. TO GRDED @ 7211']
ILDED   .OHMM  : DEEP INDUCTION FROM RESISTIVITY LOG
NPHILSED.V/V   : NEUTRON POROSITY LIMESTONE FROM DENSITY LOG [ADJ. TO RHOBED/RESISTIVITY LOG]
NPHISSED.V/V   : NEUTRON POROSITY SANDSTONE FROM DENSITY LOG [ADJ. TO RHOBED/RESISTIVITY LOG]
NPOLSWS .V/V   : NEUTRON POROSITY LIMESTONE [NPHISSED CONVERTED TO LIMESTONE MATRIX, SPL. TO NPHILSED @ 7065']
RHOBED  .G/C3  : BULK DENSITY FROM DENSITY LOG [ADJ. TO RESISTIVITY LOG]
SNED    .OHMM  : SHORT NORMAL FROM RESISTIVITY LOG
SPRED   .MV    : SPONTANEOUS POTENTIAL FROM RESISTIVITY LOG
SPWS    .MV    : SPONATENOUS POTENTIAL [BASELINE 0 MV, SPRED]
SRESWS  .OHMM  : SHALLOW RESISTIVITY [SNED]
~Params ----------------------------------------------------
PD  .                     GL : PERMANENT DATUM
EPD .FT                 2726 : ELEVATION PERMANENT DATUM
LMF .                     KB : LOG MEASURED FROM
DAPD.FT                   22 : FEET ABOVE PERMANENT DATUM
EKB .FT                 2748 : KELLY BUSHING
EDF .FT                 2726 : DRILLING FLOOR
DATE.               01/04/74 : RUN DATE
RUN .                      3 : RUN NUMBER
DD  .FT                12720 : DEPTH DRILLER
DL  .FT                12719 : DEPTH LOGGER
BLI .FT                12713 : BOTTOM LOG INTERVAL
TLI .FT                11088 : TOP LOG INTERVAL
CBD .FT                 1313 : CASING BOTTOM DRILLER
CBL .FT                 1314 : CASING BOTTOM LOGGER
BS  .IN                 8.75 : BIT SIZE
BSD .FT                12720 : BIT SIZE AT DEPTH
DFT .               GEL CHEM : DRILLING FLUID TYPE
DFD .                    9.6 : DRILLING FLUID DENSITY
DFV .                     97 : DRILLING FLUID VISCOSITY
DFL .                   10.9 : DRILLING FLUID LOSS
RMS .OHMM               2.08 : RESISTIVITY MUD SAMPLE
MST .DEGF                 50 : MUD SAMPLE TEMPERATURE
RMF .OHMM               1.51 : RESISTIVITY MUD FILTRATE SAMPLE
MFST.DEGF                 58 : MUD FILTRATE SAMPLE TEMPERATURE
RMC .OHMM               2.27 : RESISTIVITY MUD CAKE
MCST.DEGF                 52 : MUD CAKE SAMPLE TEMPERATURE
TCS .HRS                 2.5 : TIME CIRCULATED STOPPED
LUN .                   7691 : LOGGING UNIT NUMBER
LUL .                    EDM : LOGGING UNIT LOCATION
ENGI.                  LEITH : RECORDING ENGINEER
WITN.        SLOAN MCDONNELL : WITNESSED BY
CLNT.                A2DTECH : CLIENT CODE
ORIG.            2" 5" PRINT : ORIGIN OF DATA
UWI .       100112106425W500 : UNIQUE WELL ID
DICO. A2D Technologies, Inc. : DIGITIZING COMPANY
~Other -----------------------------------------------------
CNFD-IEL-BCS LOG RAN.
RUN#2: FDC ONLY TO 11088' & CNL ONLY TO 11650'
~ASCII -----------------------------------------------------
 1350.00000    -999.25    9.75920    9.75920  169.04600  169.54040    -999.25    -999.25    -999.25    -999.25    -999.25    5.89830    -999.25  107.39490  107.39490    -999.25   93.20930   93.20930    5.89830    -999.25    -999.25    -999.25    -999.25    6.59110  -44.09470   -3.65990    6.59110
 1400.00000    -999.25   10.03400   10.03400  241.06700  241.06700    -999.25    -999.25    -999.25    -999.25    -999.25    4.14820    -999.25  123.39610  123.39610    -999.25   82.15510   82.15510    4.15620    -999.25    -999.25    -999.25    -999.25    4.54480  -45.05500   -4.62020    4.54480
 1450.00000    -999.25    8.84380    8.84380   53.46380   55.22480    -999.25    -999.25    -999.25    -999.25    -999.25   18.10780    -999.25  101.00410  101.00410    -999.25   62.85530   62.85530   18.10780    -999.25    -999.25    -999.25    -999.25   19.41540  -54.03550  -13.90900   19.41540
 1500.00000    -999.25    9.95940    9.95940  207.69820  207.69820    -999.25    -999.25    -999.25    -999.25    -999.25    4.81470    -999.25  111.85590  111.85590    -999.25   95.56390   95.56390    4.82420    -999.25    -999.25    -999.25    -999.25    5.06640  -43.51890   -3.75570    5.06640
 1550.00000    -999.25    9.15710    9.15710   58.84540   58.65210    -999.25    -999.25    -999.25    -999.25    -999.25   17.04970    -999.25   81.74340   81.74340    -999.25   50.52530   50.52530   17.04970    -999.25    -999.25    -999.25    -999.25   16.15600  -43.95150   -4.55160   16.15600
 1600.00000    -999.25   10.15670   10.15670  223.84290  223.84290    -999.25    -999.25    -999.25    -999.25    -999.25    4.46740    -999.25  111.07510  111.07510    -999.25   93.05380   93.05380    4.46550    -999.25    -999.25    -999.25    -999.25    4.92270  -41.45000   -2.41570    4.92270
 1650.00000    -999.25   10.38370   10.38370  176.89070  183.39200    -999.25    -999.25    -999.25    -999.25    -999.25    5.45280    -999.25  105.22010  105.22010    -999.25   85.78820   85.78820    5.45280    -999.25    -999.25    -999.25    -999.25    6.07900  -41.10690   -2.43590    6.07900
 1700.00000    -999.25   10.11800   10.11800  275.83550  275.83550    -999.25    -999.25    -999.25    -999.25    -999.25    3.62530    -999.25  123.42440  123.42440    -999.25   87.84810   87.84810    3.60550    -999.25    -999.25    -999.25    -999.25    4.18880  -41.32630   -3.02100    4.18880
 1750.00000    -999.25   10.06610   10.06610  127.33220  129.38950    -999.25    -999.25    -999.25    -999.25    -999.25    7.72860    -999.25  113.09750  113.09750    -999.25   97.46920   97.46920    7.72860    -999.25    -999.25    -999.25    -999.25    9.01830  -40.68150   -2.73940    9.01830
 1800.00000    -999.25    9.55220    9.55220   75.18590   74.37160    -999.25    -999.25    -999.25    -999.25    -999.25   13.44600    -999.25   86.77540   86.77540    -999.25   52.32830   52.32830   13.44600    -999.25    -999.25    -999.25    -999.25   13.78110  -46.06270   -8.48390   13.78110
 1850.00000    -999.25   10.04840   10.04840  141.46750  153.64050    -999.25    -999.25    -999.25    -999.25    -999.25    6.50870    -999.25   95.62390   95.62390    -999.25   88.36380   88.36380    6.50870    -999.25    -999.25    -999.25    -999.25    7.27070  -41.22390   -4.01080    7.27070
 1900.00000    -999.25    9.98980    9.98980  318.80630  318.80630    -999.25    -999.25    -999.25    -999.25    -999.25    3.13670    -999.25  109.11320  109.11320    -999.25  132.38280  132.38280    3.14740    -999.25    -999.25    -999.25    -999.25    3.82710  -40.76870   -3.91890    3.82710
 1950.00000    -999.25    9.76760    9.76760   97.32420   93.99200    -999.25    -999.25    -999.25    -999.25    -999.25   10.63920    -999.25   92.81360   92.81360    -999.25   72.09280   72.09280   10.63920    -999.25    -999.25    -999.25    -999.25   10.46510  -40.48800   -4.00380   10.46510
 2000.00000    -999.25   10.54810   10.54810  411.66570  411.66570    -999.25    -999.25    -999.25    -999.25    -999.25    2.42920    -999.25  113.56560  113.56560    -999.25  106.07790  106.07790    2.42390    -999.25    -999.25    -999.25    -999.25    3.17090  -41.07330   -4.95240    3.17090
 2050.00000    -999.25    9.87810    9.87810  153.03220  152.98470    -999.25    -999.25    -999.25    -999.25    -999.25    6.53660    -999.25   97.94460   97.94460    -999.25   85.33030   85.33030    6.53660    -999.25    -999.25    -999.25    -999.25    7.39760  -41.25340   -5.49580    7.39760
 2100.00000    -999.25    9.61130    9.61130   62.11210   63.69020    -999.25    -999.25    -999.25    -999.25    -999.25   15.70100    -999.25   94.09030   94.09030    -999.25   78.90110   78.90110   15.70100    -999.25    -999.25    -999.25    -999.25   18.73200  -46.46760  -11.07560   18.73200
 2150.00000    -999.25   10.12880   10.12880  185.68000  185.88740    -999.25    -999.25    -999.25    -999.25    -999.25    5.37960    -999.25  104.28030  104.28030    -999.25   82.25620   82.25620    5.37960    -999.25    -999.25    -999.25    -999.25    5.75670  -39.22900   -4.20030    5.75670
 2200.00000    -999.25    9.27250    9.27250   82.15930   85.55200    -999.25    -999.25    -999.25    -999.25    -999.25   11.68880    -999.25   82.51670   82.51670    -999.25   56.51850   56.51850   11.68880    -999.25    -999.25    -999.25    -999.25   13.16430  -40.36640   -5.70340   13.16430
 2250.00000    -999.25    9.43980    9.43980   97.54190   97.90580    -999.25    -999.25    -999.25    -999.25    -999.25   10.21390    -999.25   88.54470   88.54470    -999.25   64.34650   64.34650   10.21390    -999.25    -999.25    -999.25    -999.25   10.66280  -38.68540   -4.38570   10.66280
 2300.00000    -999.25   11.21170   11.21170  182.97920  184.21630    -999.25    -999.25    -999.25    -999.25    -999.25    5.42840    -999.25  111.46610  111.46610    -999.25   71.84580   71.84580    5.42840    -999.25    -999.25    -999.25    -999.25    5.89110  -38.16670   -4.23020    5.89110
 2350.00000    -999.25    8.37840    8.37840   81.67360   82.89400    -999.25    -999.25    -999.25    -999.25    -999.25   12.06360    -999.25  103.38360  103.38360    -999.25   47.70680   47.70680   12.06360    -999.25    -999.25    -999.25    -999.25   11.46260  -46.06860  -12.49780   11.46260
 2400.00000    -999.25   10.64030   10.64030  194.56160  194.50330    -999.25    -999.25    -999.25    -999.25    -999.25    5.14130    -999.25  104.41150  104.41150    -999.25   92.14100   92.14100    5.14130    -999.25    -999.25    -999.25    -999.25    5.61010  -37.28060   -4.07310    5.61010
 2450.00000    -999.25    9.87290    9.87290  142.77060  140.30560    -999.25    -999.25    -999.25    -999.25    -999.25    7.12730    -999.25   97.44500   97.44500    -999.25   79.12410   79.12410    7.12730    -999.25    -999.25    -999.25    -999.25    6.75420  -36.26210   -3.42020    6.75420
 2500.00000    -999.25    9.14920    9.14920  107.29490  110.12370    -999.25    -999.25    -999.25    -999.25    -999.25    9.08070    -999.25   89.59540   89.59540    -999.25   61.69960   61.69960    9.08070    -999.25    -999.25    -999.25    -999.25    9.50730  -36.95560   -4.47700    9.50730
 2550.00000    -999.25    9.68490    9.68490  146.44230  143.65750    -999.25    -999.25    -999.25    -999.25    -999.25    6.96100    -999.25  104.62050  104.62050    -999.25   68.73480   68.73480    6.96100    -999.25    -999.25    -999.25    -999.25    7.46690  -36.02710   -3.91180    7.46690
 2600.00000    -999.25    9.31300    9.31300  103.04910  105.19560    -999.25    -999.25    -999.25    -999.25    -999.25    9.50610    -999.25   93.62980   93.62980    -999.25   53.34110   53.34110    9.50610    -999.25    -999.25    -999.25    -999.25   10.89660  -36.80620   -5.05660   10.89660
 2650.00000    -999.25    9.08900    9.08900   85.98050   83.85110    -999.25    -999.25    -999.25    -999.25    -999.25   11.92590    -999.25   94.23010   94.23010    -999.25   56.62430   56.62430   11.92590    -999.25    -999.25    -999.25    -999.25   12.19440  -36.53800   -5.15160   12.19440
