~Version ---------------------------------------------------
VERS. 2.0 : CWLS log ASCII Standard -VERSION 2.0
WRAP.  NO : ONE LINE PER DEPTH STEP
~Well ------------------------------------------------------
STRT.F                     300.0 : START DEPTH
STOP.F                    7750.0 : STOP DEPTH
STEP.F                  50.00000 : STEP LENGTH
NULL.                    -999.25 : NULL VALUE
COMP.        GULF CANADA LIMITED : COMPANY
WELL. B.A. CPR HUXLEY 2-33-33-22 : WELL
FLD .                            : FIELD
LOC .                            : LOCATION
CTRY.                     CANADA : COUNTRY
SRVC.     Schlumberger of Canada : SERVICE COMPANY
DATE.                09-May-1959 : LOGDATE
PROV.                    Alberta : PROVINCE
UWI .           100023303322W400 : UNIQUE WELL ID
SLAT.WGS84              51.86894 : SURFACE LATITUDE
SLON.WGS84             -113.0601 : SURFACE LONGITUDE
~Curve Information -----------------------------------------
DEPT.F      0   1   0  0 : 1 MEASURED DEPTH
MCAL.IN     15 280 01 00 : MLT (MICROLOG) CALIPER
GRN .MG/TON 35 310 00 00 : GAMMA RAY FROM GRN LOG
NEUT.CPS    35 330 30 00 : NEUTRON
CALM.IN     20 280 01 00 : CALIPER FROM MICROLATEROLOG
MLL .OHMM   20 270 04 00 : MICRO FOCUSED LATEROLOG RESISTIVITY
ILD .OHMM   05 120 46 00 : INDUCTION DEEP RESISTIVITY
SN  .OHMM   05 040 16 00 : SHORT NORMAL RESISTIVITY
SPR .MV     05 010 01 00 : SPONTANEOUS POTENTIAL FROM RESISTIVITY LOG
CILD.MMHO   05 110 46 00 : INDUCTION DEEP CONDUCTIVITY
~Params ----------------------------------------------------
LMF .                     KB : LOG MEASURED FROM
DMF .                     KB : DRILLING MEASURED FROM
EKB .FT                 2780 : KELLY BUSHING
DATE.               05/09/59 : RUN DATE
RUN .                      2 : RUN NUMBER
DD  .FT                 7791 : DEPTH DRILLER
DL  .FT                 7795 : DEPTH LOGGER
BLI .FT                 7790 : BOTTOM LOG INTERVAL
TLI .FT                 5209 : TOP LOG INTERVAL
CBD .FT                  612 : CASING BOTTOM DRILLER
CBL .FT                  615 : CASING BOTTOM LOGGER
BS  .IN                    9 : BIT SIZE
BSD .FT                 7791 : BIT SIZE AT DEPTH
DFT .               GYP BASE : DRILLING FLUID TYPE
DFD .                   10.4 : DRILLING FLUID DENSITY
DFV .                     72 : DRILLING FLUID VISCOSITY
DFPH.                      7 : DRILLING FLUID PH
DFL .                    7.8 : DRILLING FLUID LOSS
RMS .OHMM                0.7 : RESISTIVITY MUD SAMPLE
MST .DEGF                 65 : MUD SAMPLE TEMPERATURE
RMF .OHMM               0.43 : RESISTIVITY MUD FILTRATE SAMPLE
MFST.DEGF                 78 : MUD FILTRATE SAMPLE TEMPERATURE
RMC .OHMM               0.84 : RESISTIVITY MUD CAKE
MCST.DEGF                 78 : MUD CAKE SAMPLE TEMPERATURE
RMB .OHMM               0.32 : RESISTIVITY MUD AT BHT
TCS .HRS                   2 : TIME CIRCULATED STOPPED
LUN .                  27410 : LOGGING UNIT NUMBER
ENGI.                MCKEOWN : RECORDING ENGINEER
WITN.                DOMANKO : WITNESSED BY
CLNT.                A2DTECH : CLIENT CODE
ORIG.            2" 5" PRINT : ORIGIN OF DATA
UWI .       100023303322W400 : UNIQUE WELL ID
DICO. A2D Technologies, Inc. : DIGITIZING COMPANY
~Other -----------------------------------------------------
~ASCII -----------------------------------------------------
  300.00000    -999.25    2.79300  151.32800    -999.25    -999.25    -999.25    -999.25    -999.25    -999.25
  350.00000    -999.25    2.65680  173.31740    -999.25    -999.25    -999.25    -999.25    -999.25    -999.25
  400.00000    -999.25    3.22380  153.71700    -999.25    -999.25    -999.25    -999.25    -999.25    -999.25
  450.00000    -999.25    3.15040  173.89230    -999.25    -999.25    -999.25    -999.25    -999.25    -999.25
  500.00000    -999.25    2.75110  146.34900    -999.25    -999.25    -999.25    -999.25    -999.25    -999.25
  550.00000    -999.25    3.24810  155.63520    -999.25    -999.25    -999.25    -999.25    -999.25    -999.25
  600.00000    -999.25    3.26130  145.81540    -999.25    -999.25    -999.25    -999.25    -999.25    -999.25
  650.00000   11.26250    5.60360  173.47590    -999.25    -999.25    6.02730    6.83880  -27.16060  172.37830
  700.00000   10.71400    5.78660  195.86350    -999.25    -999.25    5.62360    8.67010  -28.47410  190.23650
  750.00000   10.37120    5.98990  200.67670    -999.25    -999.25    4.56730    5.43860  -27.94490  231.37320
  800.00000   11.24440    6.73560  193.21620    -999.25    -999.25    3.92660    4.68560  -28.49410  278.18070
  850.00000   10.57220    4.75160  236.10580    -999.25    -999.25   12.65710   12.76380  -31.47660   87.57380
  900.00000   10.32510    5.28060  195.91460    -999.25    -999.25    4.93300    5.96900  -29.76860  208.04040
  950.00000   11.11340    5.71200  197.18280    -999.25    -999.25    5.72200    6.19700  -29.65840  181.20010
 1000.00000    9.37190    6.54620  190.34690    -999.25    -999.25    6.00290    7.53150  -28.14920  196.50810
 1050.00000   10.06870    4.86600  193.66600    -999.25    -999.25    5.79400   10.24610  -27.46110  179.28430
 1100.00000    9.27940    4.82330  175.84920    -999.25    -999.25    3.64570    7.35350  -26.79150  299.65010
 1150.00000   10.64260    4.84140  178.99610    -999.25    -999.25    7.57690   10.39350  -28.01030  140.25850
 1200.00000   10.30530    3.36670  160.75210    -999.25    -999.25    6.35060    9.29280  -26.97380  158.79490
 1250.00000   11.16490    4.87090  169.88640    -999.25    -999.25    4.55210    5.46770  -27.40350  229.23780
 1300.00000   11.44980    4.93340  179.08420    -999.25    -999.25    7.04640    8.86930  -27.44890  154.78650
 1350.00000    9.86380    5.57770  175.24950    -999.25    -999.25    4.00270    6.35670  -27.46700  264.02970
 1400.00000   14.21790    4.81720  174.44670    -999.25    -999.25    3.29560    4.51900  -25.54780  317.39720
 1450.00000   11.64870    5.04890  164.24310    -999.25    -999.25    3.59830    4.47090  -24.92130  290.68380
 1500.00000    9.86380    5.81180  186.66730    -999.25    -999.25    6.81960   11.67130  -25.66690  155.43760
 1550.00000    9.95890    3.91760  204.96880    -999.25    -999.25    4.37690    4.80440  -24.07150  233.09470
 1600.00000    9.74870    5.55850  166.09180    -999.25    -999.25    3.10620    3.83340  -24.06230  343.17480
 1650.00000   11.84930    5.30290  181.69940    -999.25    -999.25    3.83270    4.16540  -24.76530  279.76960
 1700.00000    9.12800    3.50650  213.72820    -999.25    -999.25   10.10790   10.70220  -39.23200  108.14540
 1750.00000    9.43770    3.52140  213.33890    -999.25    -999.25   11.32850   11.54690  -40.66420   98.81900
 1800.00000    8.53760    4.94770  213.45280    -999.25    -999.25   15.22160   20.49930  -62.26930   72.50880
 1850.00000   10.41730    4.19390  222.83580    -999.25    -999.25    7.68020    8.58720  -29.25020  136.28130
 1900.00000   11.83110    4.70620  188.50940    -999.25    -999.25    6.05380    7.22790  -26.53340  167.41940
 1950.00000   13.46680    4.35970  163.94400    -999.25    -999.25    4.34780    5.30750  -25.26050  234.16650
 2000.00000    8.44790    3.44420  172.72090    -999.25    -999.25   14.66670    7.54470  -26.42020  176.68060
 2050.00000   10.42520    4.02520  211.58350    -999.25    -999.25    6.80610    7.55540  -26.52820  149.58440
 2100.00000   13.56870    4.25260  180.50590    -999.25    -999.25    4.06650    5.06370  -25.22760  256.78680
 2150.00000   11.48030    4.23340  188.45450    -999.25    -999.25    4.53600    5.46350  -25.08710  232.56930
 2200.00000    9.92790    2.88260  215.91040    -999.25    -999.25   15.06700   14.86490  -35.65370   71.25070
 2250.00000   10.04320    3.76780  214.25030    -999.25    -999.25    7.15310    7.50810  -27.45440  149.59220
 2300.00000   10.57770    4.10260  180.89230    -999.25    -999.25    5.36110    6.29910  -25.19760  197.47100
 2350.00000    9.74070    3.19820  227.69380    -999.25    -999.25    6.69390    7.59250  -27.16290  151.95740
 2400.00000   10.18030    4.02280  165.52220    -999.25    -999.25    6.33830    9.70070  -24.23070  162.46980
 2450.00000    9.37500    4.25120  194.89050    -999.25    -999.25    9.23100   10.78040  -25.34110  120.00380
 2500.00000    9.77820    3.46460  187.15240    -999.25    -999.25    5.37970    6.25560  -24.43920  189.78920
 2550.00000   10.20030    4.53950  183.94420    -999.25    -999.25    6.10370    7.16970  -25.82990  166.51050
 2600.00000   12.10550    4.52370  167.62720    -999.25    -999.25    4.38000    5.05740  -23.84490  241.64940
 2650.00000   12.30840    5.06290  162.26070    -999.25    -999.25    6.58140    7.89700  -26.80620  155.13060
 2700.00000   11.93230    5.66640  172.45920    -999.25    -999.25    7.56320    8.80260  -29.40110  139.29220
 2750.00000   12.40770    5.53370  168.94020    -999.25    -999.25    7.70800    8.71150  -30.79460  135.55970
 2800.00000   11.71330    5.22680  165.90760    -999.25    -999.25   10.16480   11.49520  -29.80900  102.40950
 2850.00000   11.11100    5.31610  180.93670    -999.25    -999.25    8.64450    9.94880  -31.23170  121.71350
 2900.00000   12.82450    5.79520  172.46500    -999.25    -999.25    7.98970    9.58720  -29.65300  131.22650
 2950.00000   10.70450    6.87840  174.83880    -999.25    -999.25    8.75570   11.24070  -30.74730  119.13480
 3000.00000    9.88370    7.83650  171.40520    -999.25    -999.25   10.19210   14.16550  -27.87100  101.67150
 3050.00000   11.32170    6.84090  173.23710    -999.25    -999.25    9.26390   11.75070  -28.30670  112.80620
 3100.00000   11.95410    7.09230  176.28400    -999.25    -999.25    7.48530   10.06730  -27.89180  139.43780
 3150.00000   10.85290    5.66030  175.75100    -999.25    -999.25    7.44160    9.11800  -31.74300  137.81300
 3200.00000   12.88440    6.52790  171.09840    -999.25    -999.25    6.32970    8.02750  -29.24280  161.62880
 3250.00000   11.89750    6.13400  184.21970    -999.25    -999.25    6.76410    7.97030  -27.63490  150.58480
 3300.00000   11.68080    6.50180  184.41840    -999.25    -999.25    8.75080   10.32520  -30.58140  123.65420
 3350.00000   13.00630    6.36500  174.71370    -999.25    -999.25    6.34060    7.72150  -30.84420  161.04200
 3400.00000   11.81140    6.53500  171.61780    -999.25    -999.25    6.12380    7.75470  -30.37790  164.75700
 3450.00000   11.30370    6.29880  181.95470    -999.25    -999.25    8.15960    9.59350  -30.10420  129.06900
 3500.00000   11.43690    6.94200  182.61610    -999.25    -999.25    7.99770   10.15050  -29.19860  130.91830
 3550.00000    9.99380    5.15140  213.54980    -999.25    -999.25   13.35750   14.61420  -31.39150   77.11040
 3600.00000   12.86080    6.05310  174.26350    -999.25    -999.25    7.30690    8.56160  -30.76680  141.46040
 3650.00000   11.81650    6.54380  180.26890    -999.25    -999.25    8.75060    9.96610  -30.06710  122.32140
 3700.00000   11.77850    6.81890  180.18600    -999.25    -999.25    6.60150    8.53980  -31.88440  154.24550
 3750.00000   12.58530    6.81900  164.26210    -999.25    -999.25    6.68500    8.63570  -32.81520  154.34010
 3800.00000   10.29180    7.24260  165.98980    -999.25    -999.25    7.35120    9.94770  -31.29610  139.21510
 3850.00000    9.27650    7.96190  187.47330    -999.25    -999.25   10.28720   13.81210  -29.73840  100.44680
 3900.00000    9.71300    7.36780  187.45930    -999.25    -999.25   10.55090   14.89150  -29.55940  106.42920
