~Version ---------------------------------------------------
VERS.      2.0 : CWLS log ASCII Standard -VERSION 2.0
WRAP.       NO : One line per depth step
CREA. 01/03/18 : LAS Creation Date
~Well ------------------------------------------------------
STRT.FT                               650.0 : START DEPTH
STOP.FT                              8300.0 : STOP DEPTH
STEP.FT                            50.00000 : STEP LENGTH
NULL.                               -999.25 : NULL VALUE
COMP.              HOME OIL COMPANY LIMITED : COMPANY
WELL. HOME FPC ET AL MORSE RIVER 10-15-66-9 : WELL
FLD .                                       : FIELD
LOC .                                       : LOCATION
CTRY.                                CANADA : COUNTRY
SRVC.                          Schlumberger : SERVICE COMPANY
DATE.                           24-Mar-1959 : LOGDATE
PROV.                               Alberta : PROVINCE
UWI .                      100101506609W500 : UNIQUE WELL ID
SLAT.WGS84                         54.71376 : SURFACE LATITUDE
SLON.WGS84                        -115.2703 : SURFACE LONGITUDE
~Curve Information -----------------------------------------
DEPT  .FT     : Depth Curve
CALWS .IN     : CALIPER [MCALED
CILDED.MMHO   : INDUCTION DEEP CONDUCTIVITY FROM IEL
CONDWS.MMHO   : CONDUCTIVITY [1000/DRESWS]
DRESWS.OHMM   : DEEP RESISTIVITY [IF ILDED < 2, THEN 1000/CILDED, ELSE ILDED]
GRED  .GAPI   : GAMMA RAY [DEPTH SHIFTED TO GNED]
GRNED .UR/HR  : GAMMA RAY FROM GRN LOG [DEPTH SHIFTED TO SNED]
GRWS  .GAPI   : GAMMA RAY [GRNED*10.4]
ILDED .OHMM   : INDUCTION DEEP RESISTIVITY FROM IEL
MCALED.IN     : CALIPER FROM MICROLOG [DEPTH SHIFTED TO SPRED]
NEUTED.CU     : NEUTRON FROM GRN LOG [DEPTH SHFITED TO SNED]
NEUTWS.CU     : NEUTRON [NEUTED]
SNED  .OHMM   : SHORT NORMAL RESISTIVITY FROM IEL
SPRED .MV     : SPONTANEOUS POTENTIAL FROM IEL
SPWS  .MV     : SPONTANEOUS POTENTIAL [SPRED BASELINE 0 MV. PARTIALLY REVERSED IN PORTION OF DEEPER SECTION]
SRESWS.OHMM   : SHALLOW RESISTIVITY [SNED]
~Params ----------------------------------------------------
LMF .                     KB : LOG MEASURED FROM
DMF .                     KB : DRILLING MEASURED FROM
EKB .FT                 3425 : KELLY BUSHING
EGL .FT                 3413 : GROUND LEVEL
DATE.               03/24/59 : RUN DATE
RUN .                      2 : RUN NUMBER
DD  .FT                 8331 : DEPTH DRILLER
DL  .FT                 8338 : DEPTH LOGGER
BLI .FT                 8332 : BOTTOM LOG INTERVAL
TLI .FT                 5499 : TOP LOG INTERVAL
BS  .IN                    9 : BIT SIZE
BSD .FT                 8331 : BIT SIZE AT DEPTH
DFT .                    GEL : DRILLING FLUID TYPE
DFD .                   10.5 : DRILLING FLUID DENSITY
DFV .                    135 : DRILLING FLUID VISCOSITY
DFPH.                     10 : DRILLING FLUID PH
DFL .                    4.6 : DRILLING FLUID LOSS
RMS .OHMM                2.8 : RESISTIVITY MUD SAMPLE
MST .DEGF                 66 : MUD SAMPLE TEMPERATURE
RMF .OHMM                1.6 : RESISTIVITY MUD FILTRATE SAMPLE
MFST.DEGF                 82 : MUD FILTRATE SAMPLE TEMPERATURE
RMC .OHMM                2.5 : RESISTIVITY MUD CAKE
MCST.DEGF                 82 : MUD CAKE SAMPLE TEMPERATURE
RMB .OHMM                1.2 : RESISTIVITY MUD AT BHT
TCS .HRS                   3 : TIME CIRCULATED STOPPED
LUN .                   2742 : LOGGING UNIT NUMBER
LUL .                     SH : LOGGING UNIT LOCATION
ENGI.                  GOETZ : RECORDING ENGINEER
WITN.                  BEARD : WITNESSED BY
CLNT.                A2DTECH : CLIENT CODE
ORIG.            1" 5" PRINT : ORIGIN OF DATA
UWI .       100101506609W500 : UNIQUE WELL ID
DICO. A2D Technologies, Inc. : DIGITIZING COMPANY
~Other -----------------------------------------------------
~ASCII -----------------------------------------------------
# ...
 5250.00000    8.99030   96.53010   96.36330   10.37740    -999.25   40.32390   40.32390   10.37740    8.99030  259.06280  259.06280   13.68390  -47.59340  -15.34820   13.68390
 5300.00000    9.71660  268.04910  290.76530    3.43920    -999.25   52.40350   52.40350    3.43920    9.71660  133.65020  133.65020    5.21920  -49.83120  -21.02190    5.21920
 5350.00000    9.02210   72.07580   75.09710   13.31610    -999.25   41.78100   41.78100   13.31610    9.02210  378.75320  378.75320   17.80060  -46.46070  -25.90020   17.80060
 5400.00000    9.33310  212.80210  221.98540    4.50480    -999.25   53.63280   53.63280    4.50480    9.33310  102.17990  102.17990    7.32830  -30.25210  -17.94030    7.32830
 5450.00000    8.97660  181.50790  153.98590    6.49410    -999.25   33.42560   33.42610    6.49410    8.97660  372.75550  372.75550   15.60400  -29.69920  -16.96920   15.60390
 5500.00000    8.58260   26.41820   21.83560   45.79670    -999.25   22.60130   22.60130   45.79670    8.58260  616.64720  616.64720  109.00900 -173.70650 -158.55250  109.00900
 5550.00000    9.39390   17.51450   13.47010   74.23830    -999.25   23.15460   23.15460   74.23830    9.39390  645.26080  645.26080  112.71120 -127.79900 -110.20880  112.71120
 5600.00000    9.46650   17.32730   11.52640   86.75740    -999.25   22.96530   22.96530   86.75740    9.46650  600.93430  600.93430  134.27710 -104.95390  -84.92760  134.27710
 5650.00000    9.18660   17.80620   13.21070   75.69650    -999.25   22.61060   22.61060   75.69650    9.18660  584.99240  584.99240   81.49340 -100.30160  -77.83910   81.49340
 5700.00000    8.46450   37.69800   33.07520   30.23410    -999.25   24.28610   24.28560   30.23410    8.46450  586.96090  586.96100  116.69010 -210.58010 -185.66930  116.69010
 5750.00000    8.30950   35.94270   32.33150   30.92960    -999.25   21.75470   21.75470   30.92960    8.30950  585.42760  585.42760   99.56170 -187.20750 -159.87270   99.56170
 5800.00000    8.04800  118.17860  105.24650    9.50150    -999.25   22.94860   22.94860    9.50150    8.04800  461.50540  461.50540   59.35230 -197.81200 -168.04100   59.35230
 5850.00000    8.05870   64.60450   58.43650   17.11260    -999.25   23.50820   23.50820   17.11260    8.05870  509.00140  509.00140   83.78830 -214.90830 -182.70110   83.78830
 5900.00000    9.29260   12.45900    7.69560  129.94500    -999.25   23.20450   23.20450  129.94500    9.29260  649.14680  649.14680  130.95130 -157.06200 -122.41860  130.95130
 5950.00000    9.62790   19.18350   13.91910   71.84360    -999.25   22.99130   22.99080   71.84350    9.62790  589.73130  589.73140  103.35810 -146.38110 -109.28930  103.35810
 6000.00000    9.65960   23.71300   20.60800   48.52490    -999.25   22.98500   22.98500   48.52490    9.65960  564.36660  564.36660  102.78390 -161.88630 -122.37060  102.78390
 6050.00000    8.47010   26.40730   23.07560   43.33590    -999.25   22.25600   22.25600   43.33590    8.47010  563.94330  563.94330  121.42770 -225.23080 -183.27890  121.42770
 6100.00000    8.34410   66.68830   64.21330   15.57310    -999.25   23.30850   23.30850   15.57310    8.34410  513.65160  513.65160   75.44540 -229.14190 -184.75380   75.44540
 6150.00000    9.18850   11.32400    7.99920  125.01200    -999.25   24.27980   24.27980  125.01200    9.18850  431.27280  431.27280  143.80440 -181.21920 -134.39500  143.80440
 6200.00000    8.46300   34.07830   30.45230   32.83830    -999.25   24.04580   24.04640   32.83830    8.46300  407.86960  407.86960   82.36060 -159.51640 -110.24380   82.36060
 6250.00000    8.87240   33.67480   28.21380   35.44360    -999.25   27.63900   27.63900   35.44360    8.87240  431.22960  431.22960   96.28490 -130.39280  -78.69620   96.28490
 6300.00000    8.13680  437.81810  361.33690    2.76750    -999.25   30.50220   30.50220    2.76750    8.13680  312.19430  312.19430   25.82490 -189.08930 -134.95650   25.82490
 6350.00000    8.46150   22.77380   16.28190   61.41800    -999.25   26.99110   26.99110   61.41800    8.46150  408.27890  408.27890   90.30700 -171.41200 -114.84310   90.30700
 6400.00000    9.95550  126.57230  124.16190    8.05400    -999.25   34.51860   34.51860    8.05400    9.95550  259.74900  259.74900   12.45960 -110.11750  -51.11240   12.45960
 6450.00000   10.65350  154.43280  157.06350    6.36690    -999.25   33.45470   33.45420    6.36680   10.65350  161.01510  161.01510   10.86740  -91.16200  -29.70850   10.86750
 6500.00000    9.71800   12.08710    7.98270  125.27090    -999.25   29.67220   29.67220  125.27090    9.71800  607.73600  607.73600  140.08370  -86.67160  -23.06420  140.08370
 6550.00000    9.28640   25.49880   22.19840   45.04830    -999.25   29.00460   29.00460   45.04830    9.28640  513.60260  513.60260   55.43470  -94.93970  -30.82550   55.43470
 6600.00000    9.14890   34.58840   30.21730   33.09360    -999.25   32.78810   32.78810   33.09360    9.14890  409.21770  409.21770   44.97120  -77.16460  -12.54360   44.97120
 6650.00000    9.09130   29.56140   26.60110   37.59240    -999.25   30.77050   30.77050   37.59240    9.09130  549.74770  549.74770   42.10350  -82.32500  -17.19720   42.10350
 6700.00000    9.22700  158.42450  162.19680    6.16540    -999.25   47.45100   47.45100    6.16530    9.22700  208.33530  208.33530    9.80090  -70.35710   -4.71990    9.80100
 6750.00000   12.50420  181.18880  191.81340    5.21340    -999.25   48.12500   48.12500    5.21340   12.50420  152.10930  152.10930    7.16540  -84.17010  -15.63060    7.16540
 6800.00000   11.81330  321.25870  297.00030    3.36700    -999.25   56.14960   56.14960    3.36700   11.81330   72.81210   72.81210    5.29780  -74.74000   -2.69610    5.29780
 6850.00000   15.65910  322.99680  307.11590    3.25610    -999.25   50.05000   50.05000    3.25610   15.65910   18.78190   18.78190    4.36300  -71.02920    4.51900    4.36300
 6900.00000   15.86200  347.00040  314.83170    3.17630    -999.25   47.69650   47.69650    3.17630   15.86200   98.85340   98.85340    4.07360  -81.05200   -1.99940    4.07360
 6950.00000   15.93240  328.94740  308.08100    3.24590    -999.25   51.95630   51.95630    3.24590   15.93240   90.45640   90.45650    4.19310  -78.90140    3.67310    4.19310
 7000.00000   15.86400  331.43470  316.49580    3.15960    -999.25   52.89440   52.89440    3.15960   15.86400   94.47990   94.47990    4.17780  -87.40460   -1.34330    4.17780
 7050.00000   15.87690  309.33730  290.89220    3.43770    -999.25   44.24680   44.24680    3.43770   15.87690  120.45560  120.45560    4.61190  -82.31070    7.25500    4.61190
 7100.00000   15.91580  353.60860  325.17150    3.07530    -999.25   46.55980   46.55980    3.07530   15.91580  139.75760  139.75760    4.42970  -88.17570    4.89430    4.42970
 7150.00000   15.94030  340.24490  329.53270    3.03460    -999.25   51.67450   51.67450    3.03460   15.94030   86.11270   86.11270    4.17970  -83.08180   11.51440    4.17970
 7200.00000    9.19850   79.45920   74.74740   13.37840    -999.25   34.96900   34.96840   13.37840    9.19850  465.78400  465.78400   19.87940  -68.78750   26.22430   19.87940
 7250.00000    9.40050  123.55840  121.79670    8.21040    -999.25   38.54450   38.54450    8.21040    9.40050  308.62200  308.62200   12.33040  -70.96280   24.46040   12.33040
 7300.00000   12.56490  260.37530  258.54490    3.86780    -999.25   38.73380   38.73380    3.86780   12.56490   66.23030   66.23030    5.70690  -83.29790   12.53880    5.70690
 7350.00000   11.94170  188.90840  193.45730    5.16910    -999.25   41.13100   41.13100    5.16910   11.94170  199.26480  199.26480    7.53090  -81.47420   14.77590    7.53090
 7400.00000   15.60030  316.22060  293.40140    3.40830   68.27690   43.25260   43.25260    3.40830   15.60030   55.94250   55.94250    5.18110  -82.94730   13.39750    5.18110
 7450.00000    9.23050  101.15430   95.19640   10.50460   42.27260   36.67660   36.67610   10.50460    9.23050  347.17720  347.17720   15.74340  -76.11370   19.64520   15.74340
 7500.00000   10.49140  222.01730  224.06450    4.46300   47.92350   38.49460   38.49460    4.46300   10.49140  100.71360  100.71360    7.18680  -82.69500   12.48390    7.18680
