~Version ---------------------------------------------------
VERS.      2.0 : CWLS log ASCII Standard -VERSION 2.0
WRAP.       NO : One line per depth step
CREA. 10/26/17 : LAS Creation Date
~Well ------------------------------------------------------
STRT.FT                          1000.0 : START DEPTH
STOP.FT                          9700.0 : STOP DEPTH
STEP.FT                        50.00000 : STEP LENGTH
NULL.                           -999.25 : NULL VALUE
COMP.                      GUYER OIL CO : COMPANY
WELL. GUYER ET AL SAKWATAMAU 2-15-63-15 : WELL
FLD .                                WC : FIELD
LOC .                                   : LOCATION
CTRY.                            CANADA : COUNTRY
SRVC.                      Schlumberger : SERVICE COMPANY
DATE.                       13-Nov-1969 : LOGDATE
PROV.                           Alberta : PROVINCE
UWI .                  100021506315W500 : UNIQUE WELL ID
SLAT.WGS84                     54.44702 : SURFACE LATITUDE
SLON.WGS84                     -116.175 : SURFACE LONGITUDE
~Curve Information -----------------------------------------
DEPT    .FT    : Depth Curve
CALNED  .IN    : CALIPER FROM SNP LOG [ADJ. TO RESISTIVITY LOG]
CALSED  .IN    : CALIPER FROM SONIC LOG [ADJ. TO RESISTIVITY LOG]
CALWS   .IN    : CALIPER [CALSED]
CONDWS  .MMHO  : CONDUCTIVITY [1000/DRESWS]
DRESWS  .OHMM  : DEEP RESISTIVITY [ILDED]
DTED    .US/F  : DELTA TIME FROM SONIC LOG [ADJ. TO RESISTIVITY LOG]
DTWS    .US/F  : COMPRESSIONAL SONIC [DTED]
GRSED   .GAPI  : GAMMA RAY FROM SONIC LOG [ADJ. TO RESISTIVITY LOG]
GRWS    .GAPI  : GAMMA RAY [GRSED]
ILDED   .OHMM  : DEEP INDUCTION RESISTIVITY FROM RESISTIVITY LOG
ILMED   .OHMM  : MEDIUM INDUCTION RESISTIVITY FROM RESISTIVITY LOG
LL8ED   .OHMM  : LATEROLOG-8 RESISTIVITY FROM RESISTIVITY LOG
MRESWS  .OHMM  : MEDIUM RESISTIVITY [ILMED]
NPOLSWS .V/V   : NEUTRON POROSITY LIMESTONE [SNPLSED]
SNPLSED .V/V   : SIDEWALL NEUTRON POROSITY LIMESTONE FROM SNP LOG [ADJ. TO RESISTIVITY LOG]
SPHILSED.V/V   : SONIC POROSITY LIMESTONE [DTM=47.6, DTF=189] FROM SONIC LOG [ADJ. TO RESISTIVITY LOG]
SPHISSED.V/V   : SONIC POROSITY SANDSTONE [DTM=55.6, DTF=189] FROM SONIC LOG [ADJ. TO RESISTIVITY LOG]
SPOLSWS .V/V   : SONIC POROSITTY LIMESTONE [SPHISSED SPL. TO SPHILSED @ 5901']
SPRED   .MV    : SPONTANEOUS POTENTIAL FROM RESISTIVITY LOG
SPWS    .MV    : SPONTANEOUS POTENTIAL [BASELINE 0 MV, SPRED]
SRESWS  .OHMM  : SHALLOW RESISTIVITY [LL8ED]
~Params ----------------------------------------------------
PD  .                     GL : PERMANENT DATUM
EPD .FT                 3072 : ELEVATION PERMANENT DATUM
LMF .                     KB : LOG MEASURED FROM
DAPD.FT                   13 : FEET ABOVE PERMANENT DATUM
EKB .FT                 3085 : KELLY BUSHING
EGL .FT                 3072 : GROUND LEVEL
DATE.               11/13/69 : RUN DATE
RUN .                      1 : RUN NUMBER
DD  .FT                 9704 : DEPTH DRILLER
DL  .FT                 9705 : DEPTH LOGGER
BLI .FT                 9701 : BOTTOM LOG INTERVAL
TLI .FT                 1005 : TOP LOG INTERVAL
CBD .FT                 1005 : CASING BOTTOM DRILLER
CBL .FT                 1005 : CASING BOTTOM LOGGER
BS  .IN                7.875 : BIT SIZE
BSD .FT                 9704 : BIT SIZE AT DEPTH
DFT .                    GEL : DRILLING FLUID TYPE
DFD .                    9.1 : DRILLING FLUID DENSITY
DFV .                     70 : DRILLING FLUID VISCOSITY
DFPH.                    8.5 : DRILLING FLUID PH
DFL .                      9 : DRILLING FLUID LOSS
MSS .                DRILLER : MUD SAMPLE SOURCE
RMS .OHMM               2.61 : RESISTIVITY MUD SAMPLE
MST .DEGF                 74 : MUD SAMPLE TEMPERATURE
RMF .OHMM               2.12 : RESISTIVITY MUD FILTRATE SAMPLE
MFST.DEGF                 75 : MUD FILTRATE SAMPLE TEMPERATURE
RMC .OHMM               2.91 : RESISTIVITY MUD CAKE
MCST.DEGF                 75 : MUD CAKE SAMPLE TEMPERATURE
TCS .HRS                   6 : TIME CIRCULATED STOPPED
LUN .                   7501 : LOGGING UNIT NUMBER
LUL .                    EDM : LOGGING UNIT LOCATION
ENGI.                 EDGSON : RECORDING ENGINEER
WITN.              ZASEYBIDA : WITNESSED BY
CLNT.                A2DTECH : CLIENT CODE
ORIG.            2" 5" PRINT : ORIGIN OF DATA
UWI .       100021506315W500 : UNIQUE WELL ID
DICO. A2D Technologies, Inc. : DIGITIZING COMPANY
~Other -----------------------------------------------------
DLL-BCS-SNP LOG RUN
~ASCII -----------------------------------------------------
 1000.00000    -999.25    -999.25    -999.25    -999.25    -999.25  141.38920  141.38920   47.51910   47.51910    -999.25    -999.25    -999.25    -999.25    -999.25    -999.25    -999.25    -999.25    -999.25    -999.25    -999.25    -999.25
 1050.00000    -999.25   10.19490   10.19490  258.64520    3.86630  123.35940  123.35940   60.52770   60.52770    3.86630    3.55950    4.15500    3.55950    -999.25    -999.25    -999.25    -999.25    -999.25 -100.19420   -4.04780    4.15500
 1100.00000    -999.25    9.55140    9.55140  179.13760    5.58230  132.41750  132.41750   75.06480   75.06480    5.58230    4.47700    7.87730    4.47700    -999.25    -999.25    -999.25    -999.25    -999.25 -100.07160   -4.05030    7.87730
 1150.00000    -999.25   10.87310   10.87310  260.04420    3.84550  126.84870  126.84870   62.03480   62.03480    3.84550    3.35090    5.34930    3.35090    -999.25    -999.25    -999.25    -999.25    -999.25 -100.14720   -4.25020    5.34930
 1200.00000    -999.25   10.52320   10.52320  137.69280    7.26660  106.12470  106.12470   59.31260   59.31260    7.26660    6.42730    6.15340    6.42730    -999.25    -999.25    -999.25    -999.25    -999.25 -103.00860   -7.23670    6.15340
 1250.00000    -999.25   10.05220   10.05220  230.61670    4.33620  109.50410  109.50410   72.76800   72.76800    4.33620    3.48850    3.94270    3.48850    -999.25    -999.25    -999.25    -999.25    -999.25 -102.55240   -6.90480    3.94270
 1300.00000    -999.25    9.41640    9.41640  124.71630    8.01820  110.66750  110.66750   42.56460   42.56460    8.01820    8.91480    7.69710    8.91480    -999.25    -999.25    -999.25    -999.25    -999.25 -101.87870   -6.35540    7.69710
 1350.00000    -999.25    9.85050    9.85050  239.73920    4.17120  116.64950  116.64950   68.29880   68.29880    4.17120    3.64060    4.39320    3.64060    -999.25    -999.25    -999.25    -999.25    -999.25  -98.67560   -3.27750    4.39320
 1400.00000    -999.25    9.38520    9.38520  109.24540    9.15370  105.16090  105.16090   60.35930   60.35930    9.15370    8.09580    7.38470    8.09580    -999.25    -999.25    -999.25    -999.25    -999.25 -102.05710   -6.78330    7.38470
 1450.00000    -999.25   12.08230   12.08230  251.28760    3.97960  122.70240  122.70240   64.94300   64.94300    3.97960    3.42590    3.82300    3.42590    -999.25    -999.25    -999.25    -999.25    -999.25  -98.75710   -3.60840    3.82300
 1500.00000    -999.25   10.41260   10.41260  287.38110    3.47970  114.86680  114.86680   70.43410   70.43410    3.47970    2.91180    4.52600    2.91180    -999.25    -999.25    -999.25    -999.25    -999.25  -97.49670   -2.47230    4.52600
 1550.00000    -999.25   11.60370   11.60370  242.83040    4.11810  134.82990  134.82990   59.28840   59.28840    4.11810    3.68090    4.32180    3.68090    -999.25    -999.25    -999.25    -999.25    -999.25  -99.13820   -4.23810    4.32180
 1600.00000    -999.25   11.44940   11.44940  264.25660    3.78420  125.04220  125.04220   57.04250   57.04250    3.78420    3.38160    4.00380    3.38160    -999.25    -999.25    -999.25    -999.25    -999.25  -96.90950   -2.13450    4.00380
 1650.00000    -999.25   11.77560   11.77560  228.97970    4.36720  128.72610  128.72610   72.86780   72.86780    4.36720    3.83690    4.56940    3.83690    -999.25    -999.25    -999.25    -999.25    -999.25  -97.96540   -3.31470    4.56940
 1700.00000    -999.25   11.35350   11.35350  268.28090    3.73320  126.78710  126.78710   70.24140   70.24140    3.73320    3.23120    4.01860    3.23120    -999.25    -999.25    -999.25    -999.25    -999.25  -99.58970   -5.06410    4.01860
 1750.00000    -999.25    9.55300    9.55300  240.13060    4.16440  108.81720  108.81720   66.72280   66.72280    4.16440    3.75550    4.30620    3.75550    -999.25    -999.25    -999.25    -999.25    -999.25 -102.94850   -8.54720    4.30620
 1800.00000    -999.25    9.12560    9.12560  267.88110    3.73300  105.85020  105.85020   74.84150   74.84150    3.73300    3.34700    3.92590    3.34700    -999.25    -999.25    -999.25    -999.25    -999.25  -99.50250   -5.22550    3.92590
 1850.00000    -999.25    9.18290    9.18290  151.37070    6.60630   97.23350   97.23350   85.74170   85.74170    6.60630    6.30090    6.96940    6.30090    -999.25    -999.25    -999.25    -999.25    -999.25  -96.55930   -2.40750    6.96940
 1900.00000    -999.25    9.85980    9.85980  242.75380    4.11940  103.84230  103.84230   56.11640   56.11640    4.11940    3.73000    4.27140    3.73000    -999.25    -999.25    -999.25    -999.25    -999.25  -94.10580   -0.07830    4.27140
 1950.00000    -999.25    9.94590    9.94590  254.94820    3.92340  118.10430  118.10430   73.10940   73.10940    3.92340    3.38720    4.17690    3.38720    -999.25    -999.25    -999.25    -999.25    -999.25  -94.46510   -0.56270    4.17690
 2000.00000    -999.25    9.82850    9.82850  164.68770    6.07210  134.26420  134.26420   54.83680   54.83680    6.07210    5.61270    6.26700    5.61270    -999.25    -999.25    -999.25    -999.25    -999.25  -95.26940   -1.55220    6.26700
 2050.00000    -999.25    9.55150    9.55150  246.51790    4.05650  107.51890  107.51890   63.82160   63.82160    4.05650    3.77700    4.53070    3.77700    -999.25    -999.25    -999.25    -999.25    -999.25  -97.92860   -4.50100    4.53070
 2100.00000    -999.25   11.12190   11.12190  213.79400    4.67740  129.76130  129.76130   63.86240   63.86240    4.67740    4.27660    5.12550    4.27660    -999.25    -999.25    -999.25    -999.25    -999.25  -98.72460   -5.58850    5.12550
 2150.00000    -999.25    9.69460    9.69460  489.38040    2.04340  147.03980  147.03980   80.88800   80.88800    2.04340    1.85440    2.62880    1.85440    -999.25    -999.25    -999.25    -999.25    -999.25  -98.38680   -5.54040    2.62880
 2200.00000    -999.25    8.82000    8.82000  141.02690    7.09130   97.52800   97.52800   66.24630   66.24630    7.09130    6.34720    7.43280    6.34720    -999.25    -999.25    -999.25    -999.25    -999.25 -104.38820  -11.83330    7.43280
 2250.00000    -999.25    9.65860    9.65860  231.95400    4.31120  113.51880  113.51880   41.94080   41.94080    4.31120    3.69110    4.36740    3.69110    -999.25    -999.25    -999.25    -999.25    -999.25  -99.93190   -7.66660    4.36740
 2300.00000    -999.25    8.16120    8.16120   63.54450   15.73700  104.47900  104.47900   36.42090   36.42090   15.73700   14.72500   13.76140   14.72500    -999.25    -999.25    -999.25    -999.25    -999.25 -116.92440  -24.94870   13.76140
 2350.00000    -999.25    8.64970    8.64970  148.84050    6.71860  101.45610  101.45610   54.11720   54.11720    6.71860    5.91080    7.00900    5.91080    -999.25    -999.25    -999.25    -999.25    -999.25 -105.61510  -13.93090    7.00900
 2400.00000    -999.25    8.49200    8.49200   88.09870   11.35090   95.13800   95.13800   46.26860   46.26860   11.35090   10.75620   10.25180   10.75620    -999.25    -999.25    -999.25    -999.25    -999.25 -112.50750  -21.11300   10.25180
 2450.00000    -999.25   11.13940   11.13940  245.84150    4.06820  115.41920  115.41920   52.11370   52.11370    4.06820    3.65980    4.50960    3.65980    -999.25    -999.25    -999.25    -999.25    -999.25  -97.56100   -6.45800    4.50960
 2500.00000    -999.25    8.81760    8.81760  156.56310    6.38720   96.97700   96.97700   61.80200   61.80200    6.38720    5.99910    6.65060    5.99910    -999.25    -999.25    -999.25    -999.25    -999.25 -102.34030  -11.52690    6.65060
 2550.00000    -999.25    8.76730    8.76730  131.24390    7.61940   92.23980   92.23980   50.60370   50.60370    7.61940    6.60120    6.77560    6.60120    -999.25    -999.25    -999.25    -999.25    -999.25 -103.68700  -13.16320    6.77560
 2600.00000    -999.25    9.08650    9.08650  251.06700    3.98300   98.73210   98.73210   54.48820   54.48820    3.98300    3.72410    4.20190    3.72410    -999.25    -999.25    -999.25    -999.25    -999.25 -102.41810  -12.18590    4.20190
