~Version ---------------------------------------------------
VERS.      2.0 : CWLS log ASCII Standard -VERSION 2.0
WRAP.       NO : One line per depth step
CREA. 11/20/17 : LAS Creation Date
~Well ------------------------------------------------------
STRT.FT                          1100.0 : START DEPTH
STOP.FT                         10200.0 : STOP DEPTH
STEP.FT                        50.00000 : STEP LENGTH
NULL.                           -999.25 : NULL VALUE
COMP.          CHEVRON STANDARD LIMITED : COMPANY
WELL. CHEVRON GULF E KAYBOB 12-25-62-18 : WELL
FLD .                                   : FIELD
LOC .                                   : LOCATION
CTRY.                            CANADA : COUNTRY
SRVC.                      Schlumberger : SERVICE COMPANY
DATE.                       18-Aug-1973 : LOGDATE
PROV.                           Alberta : PROVINCE
UWI .                  100122506218W500 : UNIQUE WELL ID
SLAT.WGS84                     54.39495 : SURFACE LATITUDE
SLON.WGS84                    -116.5696 : SURFACE LONGITUDE
~Curve Information -----------------------------------------
DEPT  .FT    : Depth Curve
CALSED.IN    : CALIPER FROM SONIC LOG [ADJ. TO RESISTIVITY LOG]
CALWS .IN    : CALIPER [CALSED]
CONDWS.MMHO  : CONDUCTIVITY [1000/DRESWS]
DRESWS.OHMM  : DEEP RESISTIVITY [ILDED]
DTED  .US/F  : DELTA TIME FROM SONIC LOG [ADJ. TO RESISTIVITY LOG]
DTWS  .US/F  : COMPRESSIONAL SONIC [DTED]
GRSED .GAPI  : GAMMA RAY FROM SONIC LOG ADJ. TO RESISTIVITY LOG]
GRWS  .GAPI  : GAMMA RAY [GRSED]
ILDED .OHMM  : DEEP INDUCTION LOG RESISTIVITY FROM RESISTIVITY LOG
ILMED .OHMM  : MEDIUM INDUCTION LOG MEDIUM RESISTIVITY FROM RESISTIVITY LOG
LL8ED .OHMM  : 8 INCH LATEROLOG RESISTIVITY FROM RESISTIVITY LOG
MRESWS.OHMM  : MEDIUM RESISTIVITY [ILMED]
SPRED .MV    : SPONTANEOUS POTENTIAL FROM RESISTIVITY LOG
SPWS  .MV    : SPONTANEOUS POTENTIAL [BASELINE 0 MV SPRED]
SRESWS.OHMM  : SHALLOW RESISTIVITY [LL8ED]
~Params ----------------------------------------------------
PD  .                     GL : PERMANENT DATUM
EPD .FT               2847.5 : ELEVATION PERMANENT DATUM
LMF .                     KB : LOG MEASURED FROM
DAPD.FT                   14 : FEET ABOVE PERMANENT DATUM
EKB .FT               2861.5 : KELLY BUSHING
EGL .FT               2847.5 : GROUND LEVEL
DATE.               08/18/73 : RUN DATE
RUN .                      1 : RUN NUMBER
DD  .FT                10235 : DEPTH DRILLER
DL  .FT                10238 : DEPTH LOGGER
BLI .FT                10232 : BOTTOM LOG INTERVAL
TLI .FT                 1119 : TOP LOG INTERVAL
CBD .FT                 1119 : CASING BOTTOM DRILLER
CBL .FT                 1119 : CASING BOTTOM LOGGER
BS  .IN                 8.75 : BIT SIZE
BSD .FT                10235 : BIT SIZE AT DEPTH
DFT .              BENEX GEL : DRILLING FLUID TYPE
DFD .                    9.3 : DRILLING FLUID DENSITY
DFV .                    100 : DRILLING FLUID VISCOSITY
DFPH.                      9 : DRILLING FLUID PH
DFL .                    8.4 : DRILLING FLUID LOSS
MSS .                   CIRC : MUD SAMPLE SOURCE
RMS .OHMM               2.62 : RESISTIVITY MUD SAMPLE
MST .DEGF                 46 : MUD SAMPLE TEMPERATURE
RMF .OHMM                2.1 : RESISTIVITY MUD FILTRATE SAMPLE
MFST.DEGF                 56 : MUD FILTRATE SAMPLE TEMPERATURE
RMC .OHMM               1.99 : RESISTIVITY MUD CAKE
MCST.DEGF                 64 : MUD CAKE SAMPLE TEMPERATURE
RMB .OHMM               0.65 : RESISTIVITY MUD AT BHT
TCS .HRS                   3 : TIME CIRCULATED STOPPED
LUN .                   7636 : LOGGING UNIT NUMBER
LUL .                    EDM : LOGGING UNIT LOCATION
ENGI.                  IBSEN : RECORDING ENGINEER
WITN.                   GOLL : WITNESSED BY
CLNT.                A2DTECH : CLIENT CODE
ORIG.            2" 5" PRINT : ORIGIN OF DATA
UWI .       100122506218W500 : UNIQUE WELL ID
DICO. A2D Technologies, Inc. : DIGITIZING COMPANY
~Other -----------------------------------------------------
DIL-BHC LOG RUN
~ASCII -----------------------------------------------------
# ...
 5700.00000   11.66230   11.66230   86.83420   11.51620   77.44320   77.44320   63.97070   63.97070   11.51620   11.92210   16.49490   11.92210 -107.38470  -15.26370   16.49490
 5750.00000   15.02220   15.02220   73.60840   13.58540  164.46430  164.46430   24.16740   24.16740   13.58540   11.04730   94.54240   11.04730 -114.77040  -22.67140   94.54240
 5800.00000   11.78730   11.78730  157.73320    6.34000   70.57690   70.57690   55.68890   55.68890    6.34000    7.68760    9.79310    7.68760 -102.56120  -10.48410    9.79310
 5850.00000   10.58030   10.58030  120.84450    8.27510   74.41700   74.41700   86.56380   86.56380    8.27510    9.99080   12.21730    9.99080  -93.88380   -1.82880   12.21730
 5900.00000   10.84070   10.84070  115.41210    8.66460   72.55380   72.55380   69.89950   69.89950    8.66460    9.07280   11.07730    9.07280  -96.24980   -4.15340   11.07730
 5950.00000   11.29820   11.29820  131.20950    7.62140   74.30970   74.30970   88.91450   88.91450    7.62140    8.72090   10.83220    8.72090  -95.70900   -3.55830   10.83220
 6000.00000   11.10900   11.10900   90.37180   11.06540   72.66390   72.66390   73.36500   73.36500   11.06540   13.04160   14.85880   13.04160 -105.04230  -12.83720   14.85880
 6050.00000   10.46390   10.46390  127.62580    7.83560   72.48780   72.48780   41.89600   41.89600    7.83560   10.16390   15.75850   10.16390 -139.93530  -48.27420   15.75850
 6100.00000   10.64760   10.64760   93.10990   10.74000   70.68610   70.68610   76.42060   76.42060   10.74000   12.66790   14.81800   12.66790  -95.56180   -6.13280   14.81800
 6150.00000   14.65470   14.65470  343.27690    2.91310   94.89360   94.89360   91.88330   91.88330    2.91310    3.29060    4.14640    3.29060  -93.25320  -12.44400    4.14640
 6200.00000   13.41670   13.41670  347.56010    2.87720   88.41120   88.41120   83.40920   83.40920    2.87720    3.14610    3.97650    3.14610  -91.02790  -18.83860    3.97650
 6250.00000   10.76010   10.76010   19.83650   50.41200   95.72620   95.72620   89.59050   89.59050   50.41200   48.76570   72.36770   48.76570  -82.36030  -18.79080   72.36770
 6300.00000   12.81830   12.81830  162.49640    6.16380  100.31320  100.31320   83.18170   83.18170    6.16380    7.34810   10.13960    7.34810  -89.02440  -34.03160   10.13960
 6350.00000    9.28910    9.28910    4.76270  209.96280   59.71180   59.71180   37.08850   37.08850  209.96280  291.36490  325.78180  291.36490  -57.26020   -9.63690  325.78180
 6400.00000   10.38190   10.38190   77.90590   12.83600   65.81390   65.81390   65.30140   65.30140   12.83600   15.13310   18.17130   15.13310 -112.57620  -63.62350   18.17130
 6450.00000    8.85070    8.85070  125.74350    7.95270   68.41640   68.41640   63.55900   63.55900    7.95270   15.22650   33.25900   15.22650 -144.74180  -94.45960   33.25900
 6500.00000    9.26070    9.26070   77.14500   12.96260   49.67620   49.67620   30.30270   30.30270   12.96260   19.79850   90.93480   19.79850 -189.05670 -137.44510   90.93480
 6550.00000   10.22830   10.22830  109.47170    9.14180   64.18570   64.18570   70.03450   70.03450    9.14180   10.55650   15.29030   10.55650 -109.41200  -56.47760   15.29030
 6600.00000    9.94810    9.94810   53.45280   18.70810   59.64560   59.64560   76.39890   76.39890   18.70810   23.11780   33.72470   23.11780  -89.24650  -34.97590   33.72470
 6650.00000    9.72810    9.72810   18.22380   54.87320   49.44200   49.44200   22.79960   22.79960   54.87320  169.22070  357.65840  169.22070  -96.21130  -41.81960  357.65840
 6700.00000   10.13610   10.13610   17.48820   57.18150   52.95620   52.95620   23.92770   23.92770   57.18150   78.47910  404.41920   78.47910  -96.25650  -42.54920  404.41920
 6750.00000   10.04030   10.04030   61.57480   16.24040   55.30100   55.30100   36.70450   36.70450   16.24040   20.56690   50.23040   20.56690 -120.73360  -67.71070   50.23040
 6800.00000   10.20380   10.20380   12.11400   82.56140   51.47990   51.47990   19.18230   19.18230   82.56140   75.99980  187.67020   75.99980 -103.95010  -51.60820  187.67020
 6850.00000    9.71200    9.71200   35.75890   27.96510   51.72880   51.72880   11.63630   11.63630   27.96510   40.84090  180.64290   40.84090 -168.83830 -117.18430  180.64290
 6900.00000    9.38830    9.38830   49.81490   20.07430   54.92750   54.92750   13.25400   13.25400   20.07430   39.18980  168.82790   39.18980 -201.26420 -150.29460  168.82790
 6950.00000   10.03610   10.03610  531.85830    1.88020   67.67000   67.67000   72.71340   72.71340    1.88020    2.33750    4.43470    2.33750 -149.85730  -99.57210    4.43470
 7000.00000   10.24190   10.24190  524.43890    1.90680   68.00760   68.00760   71.14310   71.14310    1.90680    2.05850    3.09720    2.05850 -157.90460 -108.30380    3.09720
 7050.00000    9.62310    9.62310  274.66860    3.66690   57.70640   57.70640   51.04010   51.04010    3.66690    5.45810   12.72050    5.45810 -164.16010 -115.24030   12.72050
 7100.00000    9.80720    9.80720   79.67940   12.55030   58.13170   58.13170   73.23230   73.23230   12.55030   17.08040   29.62090   17.08040 -109.58840  -61.35640   29.62090
 7150.00000   10.44710   10.44710    8.45090  118.33050   51.59350   51.59350   24.35530   24.35530  118.33050  142.46190  192.59050  142.46190 -104.16840  -56.62090  192.59050
 7200.00000    9.53560    9.53560   20.41440   48.98500   53.96300   53.96300   30.79160   30.79160   48.98500   64.55590   70.49600   64.55590  -98.55450  -51.69140   70.49600
 7250.00000    9.58450    9.58450   26.08460   38.33680   56.05940   56.05940   43.68150   43.68150   38.33680   51.78470   61.86650   51.78470  -95.68290  -49.50420   61.86650
 7300.00000    8.98640    8.98640    4.21790  237.10110   52.27310   52.27310   34.39350   34.39350  237.10110  386.08350  403.49390  386.08350  -99.98680  -54.48910  403.49390
 7350.00000    9.24750    9.24750    6.44370  155.19000   53.51330   53.51330   25.79810   25.79810  155.19000  213.43020  289.28740  213.43020  -90.71390  -45.90400  289.28740
 7400.00000    9.02350    9.02350   11.39710   87.74190   53.84020   53.84020   40.63810   40.63810   87.74190  123.81120  181.99930  123.81120  -88.53180  -44.40630  181.99930
 7450.00000    8.94320    8.94320    2.86640  348.87400   52.01160   52.01160   39.80030   39.80030  348.87400  730.91850  810.65370  730.91850  -53.51580  -10.07470  810.65370
 7500.00000    9.43910    9.43910    8.38970  119.19370   60.64870   60.64870   65.24710   65.24710  119.19370  154.13680  181.37290  154.13680  -69.15110  -26.44500  181.37290
 7550.00000   10.00060   10.00060   74.92090   13.34930   59.15700   59.15700   92.71020   92.71020   13.34930   16.10370   17.85590   16.10370 -108.61400  -66.70860   17.85590
 7600.00000    9.73490    9.73490    3.24960  307.72740   49.13410   49.13410   16.30680   16.30680  307.72740  256.33930  498.95290  256.33930  -98.73380  -57.63710  498.95290
 7650.00000    9.85490    9.85490    1.32200  756.43320   49.13190   49.13190   23.79610   23.79610  756.43320  737.31430  956.39450  737.31430 -122.45820  -82.16620  956.39450
 7700.00000    9.73180    9.73180    0.82470 1212.51820   49.32620   49.32620   15.61990   15.61990 1212.51820 1244.00170 1519.66930 1244.00170 -132.24480  -92.75750 1519.66930
 7750.00000    9.64880    9.64880    8.72400  114.62680   50.80630   50.80630    9.96830    9.96830  114.62680  153.11990  162.62760  153.11990 -171.92670 -133.24410  162.62760
 7800.00000    9.72500    9.72500    2.61800  382.23170   50.79980   50.79980   23.83930   23.83930  382.23170  358.19070  380.60240  358.19070 -154.50460 -116.62270  380.60240
 7850.00000    9.53260    9.53260    1.12120  891.86820   50.65350   50.65350   20.75890   20.75890  891.86820 1221.07650  924.82170 1221.07650 -161.82590 -124.75280  924.82170
 7900.00000    8.99820    8.99820   18.06480   55.35640   50.76210   50.76210   21.93310   21.93310   55.35640   75.05290   98.03110   75.05290 -196.65820 -160.38980   98.03110
 7950.00000    9.56720    9.56720    2.61790  381.98270   49.29530   49.29530   24.02260   24.02260  381.98270  367.32410  703.48520  367.32410 -171.07430 -135.61060  703.48520
