~Version ---------------------------------------------------
VERS.      2.0 : CWLS log ASCII Standard -VERSION 2.0
WRAP.       NO : One line per depth step
CREA. 11/14/17 : LAS Creation Date
~Well ------------------------------------------------------
STRT.FT                       1050.0 : START DEPTH
STOP.FT                      10150.0 : STOP DEPTH
STEP.FT                     50.00000 : STEP LENGTH
NULL.                        -999.25 : NULL VALUE
COMP.           CHEVRON STANDARD LTD : COMPANY
WELL. CHEVRON GULF FOXCK 12-35-61-18 : WELL
FLD .                      FOX CREEK : FIELD
LOC .                                : LOCATION
CTRY.                         CANADA : COUNTRY
SRVC.                   Schlumberger : SERVICE COMPANY
DATE.                    30-Mar-1976 : LOGDATE
PROV.                        Alberta : PROVINCE
UWI .               100123506118W500 : UNIQUE WELL ID
SLAT.WGS84                  54.32239 : SURFACE LATITUDE
SLON.WGS84                 -116.5968 : SURFACE LONGITUDE
~Curve Information -----------------------------------------
DEPT    .FT    : Depth Curve
CALDED  .IN    : CALIPER FROM DENSITY LOG [ADJ. TO SONIC LOG]
CALSED  .IN    : CALIPER FROM SONIC LOG
CALWS   .IN    : CALIPER [CALSED]
CONDWS  .OHMM  : CONDUCTIVITY [1000/DRESWS]
DCORED  .G/C3  : DENSITY CORRECTION FROM DENSITY LOG [ADJ. TO SONIC LOG]
DCORWS  .G/C3  : DENSITY CORRECTION [DCORED]
DENWS   .G/C3  : FORMATION BULK DENSITY [RHOBED]
DPHILSED.V/V   : DENSITY POROSITY LIME FROM DENSITY LOG [ADJ. TO RHOBED]
DPHISSED.V/V   : DENSITY POROSITY SAND FROM DENSITY LOG [ADJ. TO RHOBED]
DPOWS   .V/V   : DENSITY POROSITY LIME [CALC. FROM DENWS M=2710, F=1000]
DRESWS  .OHMM  : DEEP RESISTIVITY [ILDED]
DTED    .US/F  : DELTA-T FROM SONIC LOG
DTWS    .US/F  : COMPRESSIONAL SONIC [DTED]
GRDED   .GAPI  : GAMMA RAY FROM DENSITY LOG [ADJ. TO SONIC LOG]
GRSED   .GAPI  : GAMMA RAY FROM SONIC LOG
GRWS    .GAPI  : GAMMA RAY [GRSED]
ILDED   .OHMM  : DEEP INDUCTION FROM RESISTIVITY LOG
ILMED   .OHMM  : MEDIUM INDUCTION FROM RESISTIVITY LOG
LL8ED   .OHMM  : LATEROLOG 8 FROM RESISTIVITY LOG
MRESWS  .OHMM  : MEDIUM RESISTIVITY [ILMED]
NPHILSED.V/V   : NEUTRON POROSITY LIME FROM DENSITY LOG [ADJ. TO RHOBED]
NPHISSED.V/V   : NEUTRON POROSITY SAND FROM DENSITY LOG [ADJ. TO RHOBED]
NPOWS   .V/V   : NEUTRON POROSITY LIME [SS MATRIX CONVERTED FOR LS, SPL. TO NPHISSED @ 6719']
RHOBED  .G/C3  : BULK DENSITY FROM DENSITY LOG [ADJ. TO SONIC LOG]
SPRED   .MV    : SPONTANEOUS POTENTIAL FROM RESISTIVITY LOG
SPWS    .MV    : SPONTANEOUS POTENTIAL [BASELINE 0 MV, SPRED]
SRESWS  .OHMM  : SHALLOW RESISTIVITY [LL8ED]
TENDED  .LBF   : TENSION FROM DENSITY LOG [ADJ. TO GRSED]
TENSED  .LBF   : TENSION FROM SONIC LOG
~Params ----------------------------------------------------
PD  .                     GL : PERMANENT DATUM
EPD .FT               2712.6 : ELEVATION PERMANENT DATUM
LMF .                     KB : LOG MEASURED FROM
DAPD.FT                 16.4 : FEET ABOVE PERMANENT DATUM
DMF .                     KB : DRILLING MEASURED FROM
EKB .FT                 2729 : KELLY BUSHING
EDF .FT               2712.6 : DRILLING FLOOR
DATE.               03/30/76 : RUN DATE
RUN .                      1 : RUN NUMBER
DD  .FT                10180 : DEPTH DRILLER
DL  .FT                10178 : DEPTH LOGGER
BLI .FT                10176 : BOTTOM LOG INTERVAL
TLI .FT                 1117 : TOP LOG INTERVAL
CBD .FT                 1117 : CASING BOTTOM DRILLER
CBL .FT              1116.91 : CASING BOTTOM LOGGER
BS  .IN                 8.75 : BIT SIZE
BSD .FT                10180 : BIT SIZE AT DEPTH
DFT .               GEL CHEM : DRILLING FLUID TYPE
DFD .                    9.6 : DRILLING FLUID DENSITY
DFV .                    110 : DRILLING FLUID VISCOSITY
DFPH.                   10.5 : DRILLING FLUID PH
DFL .                      9 : DRILLING FLUID LOSS
RMF .OHMM               1.22 : RESISTIVITY MUD FILTRATE SAMPLE
MFST.DEGF                 68 : MUD FILTRATE SAMPLE TEMPERATURE
TCS .HRS                   3 : TIME CIRCULATED STOPPED
LUN .                   7691 : LOGGING UNIT NUMBER
LUL .                    WCT : LOGGING UNIT LOCATION
ENGI.                 KOVACS : RECORDING ENGINEER
WITN.            WONG MCLEOD : WITNESSED BY
CLNT.                A2DTECH : CLIENT CODE
ORIG.            2" 5" PRINT : ORIGIN OF DATA
UWI .       100123506118W500 : UNIQUE WELL ID
DICO. A2D Technologies, Inc. : DIGITIZING COMPANY
~Other -----------------------------------------------------
~ASCII -----------------------------------------------------
# ...
 3550.00000    -999.25    9.60040    9.60040   83.37170    -999.25    -999.25    -999.25    -999.25    -999.25    -999.25   11.99520   81.39110   81.39110    -999.25  101.40850  101.40850   11.99520   12.81420   14.50860   12.81420    -999.25    -999.25    -999.25    -999.25 -104.40850   -7.24060   14.50860    -999.25 2204.71680
 3600.00000    -999.25    9.87320    9.87320  104.90320    -999.25    -999.25    -999.25    -999.25    -999.25    -999.25    9.53260   84.50260   84.50260    -999.25   94.26940   94.26940    9.53260   10.34590   10.82360   10.34590    -999.25    -999.25    -999.25    -999.25 -102.23800   -5.53320   10.82360    -999.25 3516.47500
 3650.00000    -999.25    9.92060    9.92060  131.91060    -999.25    -999.25    -999.25    -999.25    -999.25    -999.25    7.58090   88.37020   88.37020    -999.25   93.87430   93.87430    7.58090    7.81750    8.14240    7.81750    -999.25    -999.25    -999.25    -999.25 -103.82620   -7.57990    8.14240    -999.25 3216.83730
 3700.00000    -999.25   10.11110   10.11110  152.69970    -999.25    -999.25    -999.25    -999.25    -999.25    -999.25    6.54880   86.80150   86.80150    -999.25  101.93520  101.93520    6.54880    6.75220    7.13560    6.75220    -999.25    -999.25    -999.25    -999.25 -102.74210   -6.95900    7.13560    -999.25 3875.51810
 3750.00000    -999.25   10.06110   10.06110   98.94820    -999.25    -999.25    -999.25    -999.25    -999.25    -999.25   10.10630   81.56450   81.56450    -999.25   85.48050   85.48050   10.10630   10.44430   11.01480   10.44430    -999.25    -999.25    -999.25    -999.25 -103.36490   -8.04260   11.01480    -999.25 5407.98430
 3800.00000    -999.25   10.34010   10.34010   98.97750    -999.25    -999.25    -999.25    -999.25    -999.25    -999.25   10.10340   82.01380   82.01380    -999.25   74.74370   74.74370   10.10340   10.62280   10.09430   10.62280    -999.25    -999.25    -999.25    -999.25 -103.95040   -9.08660   10.09430    -999.25 6994.37530
 3850.00000    -999.25   10.15150   10.15150  130.19480    -999.25    -999.25    -999.25    -999.25    -999.25    -999.25    7.68080   85.41770   85.41770    -999.25   98.67970   98.67970    7.68080    7.92250    8.80500    7.92250    -999.25    -999.25    -999.25    -999.25 -101.43660   -7.03590    8.80500    -999.25  322.74910
 3900.00000    -999.25   11.10730   11.10730  150.82510    -999.25    -999.25    -999.25    -999.25    -999.25    -999.25    6.63030   87.37080   87.37080    -999.25  104.28520  104.28520    6.63030    6.83890    7.42120    6.83890    -999.25    -999.25    -999.25    -999.25 -101.22930   -7.28710    7.42120    -999.25  628.66430
 3950.00000    -999.25   11.09400   11.09400  165.53550    -999.25    -999.25    -999.25    -999.25    -999.25    -999.25    6.04100   89.15670   89.15670    -999.25  102.29380  102.29380    6.04100    6.25900    6.43570    6.25900    -999.25    -999.25    -999.25    -999.25 -101.67520   -8.19620    6.43570    -999.25 2553.16420
 4000.00000    -999.25   11.10100   11.10100  136.98250    -999.25    -999.25    -999.25    -999.25    -999.25    -999.25    7.30020   87.72100   87.72100    -999.25  101.34920  101.34920    7.30020    7.52820    7.53420    7.52820    -999.25    -999.25    -999.25    -999.25 -100.47800   -7.45980    7.53420    -999.25 4338.03430
 4050.00000    -999.25   10.48390   10.48390  142.60140    -999.25    -999.25    -999.25    -999.25    -999.25    -999.25    7.01290   87.60300   87.60300    -999.25  103.61460  103.61460    7.01290    7.23990    7.55800    7.23990    -999.25    -999.25    -999.25    -999.25 -100.13550   -7.57580    7.55800    -999.25 4305.49420
 4100.00000    -999.25   10.04430   10.04430  119.80350    -999.25    -999.25    -999.25    -999.25    -999.25    -999.25    8.34700   84.10840   84.10840    -999.25  102.81630  102.81630    8.34700    8.60650    8.92590    8.60650    -999.25    -999.25    -999.25    -999.25 -100.44190   -8.34530    8.92590    -999.25 7266.52620
 4150.00000    -999.25    9.19870    9.19870  125.50910    -999.25    -999.25    -999.25    -999.25    -999.25    -999.25    7.96760   88.29040   88.29040    -999.25  101.38900  101.38900    7.96760    8.25760    8.58970    8.25760    -999.25    -999.25    -999.25    -999.25  -99.61400   -7.97590    8.58970    -999.25  802.34480
 4200.00000    -999.25    9.57810    9.57810  130.38490    -999.25    -999.25    -999.25    -999.25    -999.25    -999.25    7.66960   87.04420   87.04420    -999.25   98.61250   98.61250    7.66960    7.90770    8.17650    7.90770    -999.25    -999.25    -999.25    -999.25  -97.58480   -6.40980    8.17650    -999.25 1002.75940
 4250.00000    -999.25    9.82890    9.82890  130.87810    -999.25    -999.25    -999.25    -999.25    -999.25    -999.25    7.64070   85.89790   85.89790    -999.25  105.12380  105.12380    7.64070    8.00310    8.89010    8.00310    -999.25    -999.25    -999.25    -999.25  -97.28950   -6.57540    8.89010    -999.25 2303.81750
 4300.00000    -999.25    9.73680    9.73680  151.06710    -999.25    -999.25    -999.25    -999.25    -999.25    -999.25    6.61960   85.76670   85.76670    -999.25  106.14040  106.14040    6.61960    6.82550    7.86700    6.82550    -999.25    -999.25    -999.25    -999.25  -95.74680   -5.49120    7.86700    -999.25 3311.32790
 4350.00000    -999.25   10.25480   10.25480  144.89390    -999.25    -999.25    -999.25    -999.25    -999.25    -999.25    6.90160   90.33050   90.33050    -999.25  106.83530  106.83530    6.90160    7.11830    8.28420    7.11830    -999.25    -999.25    -999.25    -999.25  -96.16530   -6.37280    8.28420    -999.25 6181.58410
 4400.00000    -999.25   10.11930   10.11930  119.19520    -999.25    -999.25    -999.25    -999.25    -999.25    -999.25    8.38960   92.21080   92.21080    -999.25  117.23390  117.23390    8.38960    8.64950    9.95070    8.64950    -999.25    -999.25    -999.25    -999.25  -96.03180   -6.69780    9.95070    -999.25 1578.53800
 4450.00000    -999.25   10.71590   10.71590  125.09540    -999.25    -999.25    -999.25    -999.25    -999.25    -999.25    7.99390   93.37660   93.37660    -999.25  116.44820  116.44820    7.99390    8.24150    9.79180    8.24150    -999.25    -999.25    -999.25    -999.25  -95.06100   -6.19010    9.79180    -999.25  245.88000
 4500.00000   10.23040    9.95810    9.95810  102.39400    0.00520    0.00520    2.50090    -999.25    0.09840    0.12230    9.76620   94.42270   94.42270  130.00210  131.47150  131.47150    9.76620   10.13320   12.86900   10.13320    -999.25    0.38050    0.33730    2.50090  -94.14300   -5.73290   12.86900 4620.00510  571.54170
 4550.00000   10.30110    9.50650    9.50650   81.59860    0.04170    0.04170    2.55270    -999.25    0.06780    0.09200   12.25730   86.68080   86.68080  134.90240  128.68070  128.68070   12.25730   12.74570   19.48350   12.74570    -999.25    0.32930    0.28540    2.55270  -93.63530   -5.68380   19.48350 2160.49070 2597.43190
 4600.00000    9.98750    9.26710    9.26710   66.60940    0.02550    0.02550    2.44220    -999.25    0.13640    0.15660   15.01290   99.30540   99.30540  160.91160  155.45100  155.45100   15.01290   16.26900   24.76340   16.26900    -999.25    0.40490    0.36210    2.44220  -92.18490   -4.69650   24.76340 2511.07160 1898.24240
 4650.00000   10.45810   10.40420   10.40420  149.00680    0.10930    0.10930    2.49790    -999.25    0.10130    0.12410    6.71150   94.67710   94.67710  115.63240  118.05910  118.05910    6.71150    6.92860    8.36230    6.92860    -999.25    0.40760    0.36490    2.49790  -91.55490   -4.52500    8.36230 3617.51080    0.00000
 4700.00000   10.81380   10.12110   10.12110  199.41370    0.17570    0.17570    2.28980    -999.25    0.21440    0.24570    5.01470   93.73100   93.73100  100.54090   96.27180   96.27180    5.01470    5.23000    5.64330    5.23000    -999.25    0.32010    0.27620    2.28980  -93.03940   -6.47260    5.64330 4117.00300  278.00960
 4750.00000   10.84850    9.98070    9.98070  169.48580    0.06930    0.06930    2.54600    -999.25    0.07280    0.09590    5.90020   84.24660   84.24660  103.91730  101.53510  101.53510    5.90020    6.08460    7.62320    6.08460    -999.25    0.30510    0.26110    2.54600  -90.97990   -4.87390    7.62320 4472.52210 1080.71060
