~Version ---------------------------------------------------
VERS.      2.0 : CWLS log ASCII Standard -VERSION 2.0
WRAP.       NO : One line per depth step
CREA. 12/21/17 : LAS Creation Date
~Well ------------------------------------------------------
STRT.FT                           300.0 : START DEPTH
STOP.FT                         10850.0 : STOP DEPTH
STEP.FT                        50.00000 : STEP LENGTH
NULL.                           -999.25 : NULL VALUE
COMP. HUDSONS BAY OIL & GAS COMPANY LTD : COMPANY
WELL.    H.B. UNION KAYBOB S 7-14-62-20 : WELL
FLD .                                   : FIELD
LOC .                                   : LOCATION
CTRY.                            CANADA : COUNTRY
SRVC.            Schlumberger of Canada : SERVICE COMPANY
DATE.                       27-Mar-1965 : LOGDATE
PROV.                           Alberta : PROVINCE
UWI .                  100071406220W500 : UNIQUE WELL ID
SLAT.WGS84                      54.3613 : SURFACE LATITUDE
SLON.WGS84                    -116.8845 : SURFACE LONGITUDE
~Curve Information -----------------------------------------
DEPT   .FT        : Depth Curve
CALSED .IN        : CALIPER FROM SONIC LOG
CALWS  .IN        : CALIPER [TOP MCALED 6870' CALSED TD]
CILDED .MMHO      : CONDUCTIVITY FROM IEL LOG
CONDWS .MMHO      : CONDUCTIVITY [1000/DRESWS]
DRESWS .OHMM      : DEEP RESISTIVITY [1000/CILDED IF ILDED<5, ILDED]
DTED   .US/F      : SHEAR SONIC FROM SONIC LOG
DTWS   .US/F      : COMPRESSIONAL  SONIC [DTED]
GRED   .GAPI      : GAMMA RAY FROM CBL LOG
GRSED  .GAPI      : GAMMA RAY FROM SONIC LOG
GRWS   .GAPI      : GAMMA RAY [GRED SPL. TO GRSED @ 7000']
ILDED  .OHMM      : DEEP INDUCTION FROM IEL LOG
MCALED .IN        : CALIPER FROM MICROLOG
RATIOED.UNITLESS  : RATIO FROM TDT LOG
SIGMAED.CU        : CAPTURE CROSS SECTION FROM TDT LOG
SNED   .OHMM      : 16 INCH SHORT NORMAL RESISTIVITY FROM IEL LOG
SPRED  .MV        : SPONTANEOUS POTENTIAL FROM IEL LOG
SPWS   .MV        : SPONTANEOUS POTENTIAL [BASELINE 0 MV, SPRED]
SRESWS .OHMM      : SHALLOW RESISTIVITY [SNED]
TENED  .LBF       : TENSION FROM CBL LOG
~Params ----------------------------------------------------
PD  .                     GL : PERMANENT DATUM
EPD .FT                 2833 : ELEVATION PERMANENT DATUM
LMF .                     KB : LOG MEASURED FROM
DAPD.FT                   16 : FEET ABOVE PERMANENT DATUM
EKB .FT                 2849 : KELLY BUSHING
EGL .FT                 2833 : GROUND LEVEL
DATE.               03/27/65 : RUN DATE
RUN .                      2 : RUN NUMBER
TCS .HRS                 3.5 : TIME CIRCULATED STOPPED
LUN .                   1576 : LOGGING UNIT NUMBER
LUL .                    WCT : LOGGING UNIT LOCATION
ENGI.              DEMETRICK : RECORDING ENGINEER
WITN.               HAMILTON : WITNESSED BY
CLNT.                A2DTECH : CLIENT CODE
ORIG.            2" 5" PRINT : ORIGIN OF DATA
UWI .       100071406220W500 : UNIQUE WELL ID
DICO. A2D Technologies, Inc. : DIGITIZING COMPANY
~Other -----------------------------------------------------
CALIPER-CBL-GR-IEL-ML-TDT-SONIC LOG RAN
EL: ALL CURVES HAVE BEEN VERIFIED FROM 1" SECTION @TOP-1146',3454'-4150',4398'-5498'.
MCAL HAS BEEN VERIFIED FROM 1" SECTION @TOP-1940',3450'-4140',4400'-5500'
~ASCII -----------------------------------------------------
# ...
 4000.00000    -999.25   11.00090   78.04030   83.86100   11.92450    -999.25    -999.25   64.66820    -999.25   64.66820   11.92450   11.00090    -999.25    -999.25    9.76800  -59.90470   -4.46950    9.76800 1897.76210
 4050.00000    -999.25   10.32530   75.59750   81.27370   12.30410    -999.25    -999.25   59.08350    -999.25   59.08350   12.30410   10.32530    -999.25    -999.25   10.36340  -60.54580   -4.81220   10.36340 1939.00620
 4100.00000    -999.25   11.57840  101.32020  107.04800    9.34160    -999.25    -999.25   65.10930    -999.25   65.10930    9.34160   11.57840    -999.25    -999.25    8.12490  -57.62120   -2.02040    8.12490 1909.59790
 4150.00000    -999.25   12.06440  119.30060  131.76620    7.58920    -999.25    -999.25   79.94090    -999.25   79.94090    7.58920   12.06440    -999.25    -999.25    7.20110  -59.08940   -3.91250    7.20110 1937.43600
 4200.00000    -999.25   12.44130  116.40980  128.42580    7.78660    -999.25    -999.25   68.63790    -999.25   68.63790    7.78660   12.44130    -999.25    -999.25    7.02490  -57.98680   -3.23550    7.02490 2003.53250
 4250.00000    -999.25   11.99280  100.33980  108.61540    9.20680    -999.25    -999.25   67.24510    -999.25   67.24510    9.20680   11.99280    -999.25    -999.25    7.86630  -58.30290   -3.97550    7.86630 1947.18270
 4300.00000    -999.25    9.28060   37.68880   42.12800   23.73720    -999.25    -999.25   32.02800    -999.25   32.02800   23.73720    9.28060    -999.25    -999.25   18.66860  -62.88760   -8.98420   18.66860 1980.25880
 4350.00000    -999.25   10.20670   87.27850   93.46840   10.69880    -999.25    -999.25   67.99340    -999.25   67.99340   10.69880   10.20670    -999.25    -999.25    9.68300  -57.52770   -4.05000    9.68300 1957.90130
 4400.00000    -999.25   10.88250   94.35850  100.09710    9.99030    -999.25    -999.25   72.11240    -999.25   72.11240    9.99030   10.88250    -999.25    -999.25    9.31140  -56.84570   -3.79180    9.31140 1986.60160
 4450.00000    -999.25   11.23140  101.66330  107.01600    9.34440    -999.25    -999.25   67.04360    -999.25   67.04360    9.34440   11.23140    -999.25    -999.25    8.60480  -56.98580   -4.35760    8.60480 1977.46120
 4500.00000    -999.25   11.31860   98.16180  103.43190    9.66820    -999.25    -999.25   75.59930    -999.25   75.59930    9.66820   11.31860    -999.25    -999.25    8.42280  -56.47380   -4.26960    8.42280 1992.02490
 4550.00000    -999.25   10.82000  121.69500  125.60130    7.96170    -999.25    -999.25   78.13090    -999.25   78.13090    7.96170   10.82000    -999.25    -999.25    7.38350  -55.61740   -3.83700    7.38350 2023.18260
 4600.00000    -999.25    9.94630  107.65180  111.38960    8.97750    -999.25    -999.25   80.89700    -999.25   80.89700    8.97750    9.94630    -999.25    -999.25    8.51110  -56.03700   -4.68230    8.51110 2022.81870
 4650.00000    -999.25    9.54510  111.25400  118.37540    8.44770    -999.25    -999.25   88.22390    -999.25   88.22390    8.44770    9.54510    -999.25    -999.25    8.08060  -54.25250   -3.50270    8.08060 2031.77390
 4700.00000    -999.25    9.55040   97.04750   93.29490   10.71870    -999.25    -999.25   91.33130    -999.25   91.33130   10.71870    9.55040    -999.25    -999.25    9.81780  -54.09360   -4.26410    9.81780 2049.75930
 4750.00000    -999.25    9.44490   97.09080   96.04210   10.41210    -999.25    -999.25   88.35970    -999.25   88.35970   10.41210    9.44490    -999.25    -999.25    9.87100  -53.48010   -4.56570    9.87100 2022.71500
 4800.00000    -999.25    9.35380   73.16170   77.71520   12.86750    -999.25    -999.25  106.73810    -999.25  106.73810   12.86750    9.35380    -999.25    -999.25   13.90130  -51.82730   -3.82810   13.90130 2056.13720
 4850.00000    -999.25    9.51170   89.93960   95.12390   10.51260    -999.25    -999.25   90.50730    -999.25   90.50730   10.51260    9.51170    -999.25    -999.25   11.35940  -53.31580   -6.23680   11.35940 2057.74020
 4900.00000    -999.25    9.25380   54.74810   58.86750   16.98730    -999.25    -999.25  109.84490    -999.25  109.84490   16.98730    9.25380    -999.25    -999.25   19.10740  -50.71670   -4.55280   19.10740 2075.50170
 4950.00000    -999.25    9.87940  112.27790  119.78630    8.34820    -999.25    -999.25   84.84860    -999.25   84.84860    8.34820    9.87940    -999.25    -999.25    9.29590  -52.53490   -7.19730    9.29590 2086.58670
 5000.00000    -999.25   10.02910  141.10620  157.57710    6.34610    -999.25    -999.25   79.12670    -999.25   79.12670    6.34610   10.02910    -999.25    -999.25    7.74860  -54.26400   -8.23040    7.74860 2100.63510
 5050.00000    -999.25   10.34770  139.23770  140.33910    7.12560    -999.25    -999.25   78.91620    -999.25   78.91620    7.12560   10.34770    -999.25    -999.25    6.80870  -54.81840   -6.97550    6.80870 2093.77750
 5100.00000    -999.25    9.22430  101.88510  105.52980    9.47600    -999.25    -999.25   77.65990    -999.25   77.65990    9.47600    9.22430    -999.25    -999.25    8.86610  -56.78190   -7.11840    8.86610 2117.77720
 5150.00000    -999.25    9.67450  117.05550  118.15160    8.46370    -999.25    -999.25   81.18610    -999.25   81.18610    8.46370    9.67450    -999.25    -999.25    7.81040  -57.90140   -6.42870    7.81040 2120.53150
 5200.00000    -999.25    9.50710  119.56170  119.61150    8.36040    -999.25    -999.25   84.34040    -999.25   84.34040    8.36040    9.50710    -999.25    -999.25    7.75350  -56.62790   -5.20220    7.75350 2140.75840
 5250.00000    -999.25   10.30030  131.15760  127.06960    7.86970    -999.25    -999.25   81.25150    -999.25   81.25150    7.86970   10.30030    -999.25    -999.25    7.11180  -55.97910   -4.70190    7.11180 2161.51660
 5300.00000    -999.25   10.87900  178.21880  195.26290    5.12130    -999.25    -999.25   81.66260    -999.25   81.66260    5.12130   10.87900    -999.25    -999.25    5.92780  -55.29870   -4.17010    5.92780 2139.38340
 5350.00000    -999.25   10.81440  142.68640  157.17830    6.36220    -999.25    -999.25   96.00230    -999.25   96.00230    6.36220   10.81440    -999.25    -999.25    7.33100  -55.63920   -4.66060    7.33100 2161.25750
 5400.00000    -999.25   10.89440  212.76920  212.76920    4.69990    -999.25    -999.25   98.24760    -999.25   98.24760    4.02640   10.89440    -999.25    -999.25    5.15580  -54.17670   -3.34660    5.15580 2180.45480
 5450.00000    -999.25   12.60310  302.50250  302.50250    3.30580    -999.25    -999.25   92.49790    -999.25   92.49790    2.57570   12.60310    -999.25    -999.25    3.72660  -54.67290   -3.99280    3.72660 2192.63460
 5500.00000    -999.25   11.42740  188.33730  188.33730    5.30960    -999.25    -999.25   77.24860    -999.25   77.24860    4.23140   11.42740    -999.25    -999.25    5.02220  -55.03180   -4.50020    5.02220 2207.38270
 5550.00000    -999.25    9.68620  132.83010  144.25430    6.93220    -999.25    -999.25   77.29540    -999.25   77.29540    6.93220    9.68620    -999.25    -999.25    7.58900  -54.95320   -4.57020    7.58900 2205.92190
 5600.00000    -999.25    9.25070   59.96480   64.73830   15.44680    -999.25    -999.25   67.53790    -999.25   67.53790   15.44680    9.25070    -999.25    -999.25   14.85880  -55.30430   -5.07130   14.85880 2216.27580
 5650.00000    -999.25   10.05140  125.05290  141.20300    7.08200    -999.25    -999.25   77.97060    -999.25   77.97060    7.08200   10.05140    -999.25    -999.25    7.90920  -54.11270   -4.10160    7.90920    6.37920
 5700.00000    -999.25    9.26850   77.78900   78.20440   12.78700    -999.25    -999.25   62.25500    -999.25   62.25500   12.78700    9.26850    -999.25    -999.25   12.29310  -56.15670   -6.61280   12.29310   21.80840
 5750.00000    -999.25    9.38990   72.28660   75.16650   13.30380    -999.25    -999.25   66.51830    -999.25   66.51830   13.30380    9.38990    -999.25    -999.25   12.90700  -56.51540   -7.62740   12.90700   21.46820
 5800.00000    -999.25    9.78720   99.91240  105.88170    9.44450    -999.25    -999.25   60.20500    -999.25   60.20500    9.44450    9.78720    -999.25    -999.25    9.76290  -71.48570  -23.03710    9.76290   41.66330
