~Version ---------------------------------------------------
VERS.      2.0 : CWLS log ASCII Standard -VERSION 2.0
WRAP.       NO : One line per depth step
CREA. 12/29/17 : LAS Creation Date
~Well ------------------------------------------------------
STRT.FT                        1050.0 : START DEPTH
STOP.FT                       10000.0 : STOP DEPTH
STEP.FT                      50.00000 : STEP LENGTH
NULL.                         -999.25 : NULL VALUE
COMP.        SKELLY OIL OF CANADA LTD : COMPANY
WELL. SKELLY B-1 TWO CREEK 11-9-62-16 : WELL
FLD .                                 : FIELD
LOC .                                 : LOCATION
CTRY.                          CANADA : COUNTRY
SRVC.                    Schlumberger : SERVICE COMPANY
DATE.                     07-Nov-1976 : LOGDATE
PROV.                         Alberta : PROVINCE
UWI .                100110906216W500 : UNIQUE WELL ID
SLAT.WGS84                   54.35197 : SURFACE LATITUDE
SLON.WGS84                  -116.3434 : SURFACE LONGITUDE
~Curve Information -----------------------------------------
DEPT    .FT    : Depth Curve
CALDED  .IN    : CALIPER  FROM DENSITY LOG [ADJ. TO RESISTIVITY LOG]
CALSED  .IN    : CALIPER FROM SONIC LOG
CALWS   .IN    : CALIPER [CALDED]
CILDED  .MMHO  : DEEP INDUCTION CONDUCTIVITY FROM RESISTIVITY LOG
CONDWS  .MMHO  : CONDUCTIVITY [1000/DRESWS]
DCORWS  .G/C3  : DENSITY CORRECTION [DRHOED]
DENWS   .G/C3  : FORMATION BULK DENSITY [CALC. FROM DPOLSWS,M=2.71 F=1.00]
DPHILSED.V/V   : DENSITY POROSITY LIMESTONE [M=2.71 F=1.00 ASSUMED] FROM DENSITY LOG
DPHISSED.V/V   : DENSITY POROSITY SANDSTONE [M=2.65 F=1.00 ASSUMED] FROM DENSITY LOG
DPOLSWS .V/V   : DENSITY POROSITY LIMESTONE [DPHISSED CONVERTED TO LIMESTONE MATRIX,M=2.71 F=1.00 & SPL. TO DPHILSED @ 6444']
DRESWS  .OHMM  : DEEP RESISTIVITY [ILDED] FROM START TO 1365.5' [1000/CILDED,IF ILDED<2,ELSE ILDED]
DRHOED  .G/C3  : DENSITY CORRECTION FROM DENSITY LOG
DTED    .US/F  : DELTA TIME FROM SONIC LOG
DTWS    .US/F  : COMPRESSIONAL SONIC [DTED]
GRDED   .GAPI  : GAMMA RAY FROM DENSITY LOG [ADJ. TO RESISTIVITY LOG]
GRSED   .GAPI  : GAMMA RAY FROM SONIC LOG
GRWS    .GAPI  : GAMMA RAY [GRSED SPL. TO GRDED @ 9980']
ILDED   .OHMM  : DEEP INDUCTION RESISTIVITY FROM RESISTIVITY LOG
ILMED   .OHMM  : MEDIUM INDUCTION RESISTIVITY FROM RESISTIVITY LOG
LL8ED   .OHMM  : LATEROLOG 8 FROM RESISTIVITY LOG
MRESWS  .OHMM  : MEDIUM RESISTIVITY [ILMED]
NEUTED  .NAPI  : NEUTRON FROM GRN LOG [ADJ. TO RESISTIVITY LOG]
NEUTWS  .NAPI  : NEUTRON [NEUTED]
NPHILSED.V/V   : NEUTRON POROSITY LIMESTONE FROM DENSITY LOG
NPHISSED.V/V   : NEUTRON POROSITY SANDSTONE FROM DENSITY LOG
NPOLSWS .V/V   : NEUTRON POROSITY LIMESTONE [NPHISSED MATRIX CONVERSION FOR LIMESTONE & SPL. TO NPHILSED @ 6446']
RHOBED  .G/C3  : BULK DENSITY FROM DENSITY LOG
SPRED   .MV    : SPONTANEOUS POTENTIAL FROM RESISTIVITY LOG
SPWS    .MV    : SPONTANEOUS POTENTIAL [BASELINE 0 MV,SPRED]
SRESWS  .OHMM  : SHALLOW RESISTIVITY [LL8ED]
~Params ----------------------------------------------------
PD  .                     GL : PERMANENT DATUM
EPD .FT                 2996 : ELEVATION PERMANENT DATUM
LMF .                     KB : LOG MEASURED FROM
DAPD.FT                   15 : FEET ABOVE PERMANENT DATUM
EKB .FT                 3011 : KELLY BUSHING
EGL .FT                 2996 : GROUND LEVEL
DATE.             11/07/1976 : RUN DATE
RUN .                      1 : RUN NUMBER
DD  .FT                10019 : DEPTH DRILLER
DL  .FT                10020 : DEPTH LOGGER
BLI .FT                10019 : BOTTOM LOG INTERVAL
TLI .FT                 5150 : TOP LOG INTERVAL
CBD .FT                 1041 : CASING BOTTOM DRILLER
CBL .FT                 1040 : CASING BOTTOM LOGGER
BS  .IN                7.875 : BIT SIZE
BSD .FT                10020 : BIT SIZE AT DEPTH
DFT .               GEL-CHEM : DRILLING FLUID TYPE
DFD .                    9.2 : DRILLING FLUID DENSITY
DFV .                     86 : DRILLING FLUID VISCOSITY
DFPH.                    9.0 : DRILLING FLUID PH
DFL .                    5.4 : DRILLING FLUID LOSS
RMS .OHMM               2.02 : RESISTIVITY MUD SAMPLE
MST .DEGF                 51 : MUD SAMPLE TEMPERATURE
RMF .OHMM               1.54 : RESISTIVITY MUD FILTRATE SAMPLE
MFST.DEGF                 65 : MUD FILTRATE SAMPLE TEMPERATURE
RMC .OHMM                2.1 : RESISTIVITY MUD CAKE
MCST.DEGF                 51 : MUD CAKE SAMPLE TEMPERATURE
RMB .OHMM               0.49 : RESISTIVITY MUD AT BHT
MRT .DEGF                206 : MAXIMUM RECORDED TEMPERATURE
LUN .                   7691 : LOGGING UNIT NUMBER
LUL .                    WCT : LOGGING UNIT LOCATION
ENGI.               ROCKFORD : RECORDING ENGINEER
WITN.                   BALL : WITNESSED BY
CLNT.                A2DTECH : CLIENT CODE
ORIG.               5" PRINT : ORIGIN OF DATA
UWI .       100110906216W500 : UNIQUE WELL ID
DICO. A2D Technologies, Inc. : DIGITIZING COMPANY
~Other -----------------------------------------------------
~ASCII -----------------------------------------------------
# ...
 9450.00000    7.90010    7.92890    7.92890    -999.25    0.77960    0.00720    2.57660    0.07800    -999.25    0.07800 1282.72070    0.00720   69.62140   69.62140  141.16800  136.53300  136.53300 1282.72070 1415.12170 1519.20730 1415.12170  539.18180  539.18180    0.15240    -999.25    0.15240    2.59500  -41.77730  -60.23670 1519.20730
 9500.00000    7.90080    7.92940    7.92940    -999.25   10.99140    0.01730    2.69240    0.01030    -999.25    0.01030   90.97990    0.01730   56.07800   56.07800   74.32370   62.95600   62.95600   90.97990   95.64830  170.11090   95.64830  613.36230  613.36230    0.05150    -999.25    0.05150    2.69910  -16.26280  -31.21660  170.11090
 9550.00000    8.04770    7.93780    7.93780    -999.25    7.80640    0.00180    2.63800    0.04210    -999.25    0.04210  128.10060    0.00180   58.19910   58.19910   50.86170   46.88200   46.88200  128.10060  187.28430  411.01330  187.28430  598.34160  598.34160    0.04630    -999.25    0.04630    2.63660  -13.49570  -24.94400  411.01330
 9600.00000    8.02570    7.93560    7.93560    -999.25    1.00020    0.01650    2.73190   -0.01280    -999.25   -0.01280  999.82320    0.01650   49.25470   49.25470   22.55780   21.48590   21.48590  999.82320 1392.31750 1501.80020 1392.31750  685.92880  685.92880    0.00710    -999.25    0.00710    2.71600  -73.90220  -83.59670 1501.80020
 9650.00000    8.09080    7.94230    7.94230    -999.25    1.64740    0.02070    2.72850   -0.01080    -999.25   -0.01080  607.03220    0.02070   48.31640   48.31640   13.35860   14.91670   14.91670  607.03220  916.84720  959.67800  916.84720  758.91930  758.91930   -0.00040    -999.25   -0.00040    2.71830  -90.20520  -98.66920  959.67800
 9700.00000    8.36170    8.00660    8.00660    -999.25    1.09850    0.14650    2.67430    0.02090    -999.25    0.02090  910.34420    0.14650   47.73780   47.73780   11.96550   10.63800   10.63800  910.34420 1433.01570 1516.37510 1433.01570  729.87400  729.87400    0.00200    -999.25    0.00200    2.64710 -103.93360 -111.16700 1516.37510
 9750.00000    7.92710    7.70900    7.70900    -999.25    3.34400    0.02110    2.72150   -0.00670    -999.25   -0.00670  299.03880    0.02110   48.56390   48.56390   14.87670   16.76910   16.76910  299.03880  761.59920  669.94960  761.59920  768.30520  768.30520    0.00320    -999.25    0.00320    2.70700 -114.56710 -120.57000  669.94960
 9800.00000    7.87020    7.83600    7.83600    -999.25   14.33230    0.01640    2.70420    0.00340    -999.25    0.00340   69.77270    0.01640   48.66080   48.66080    8.97990   10.06720   10.06720   69.77270   82.89280  193.29000   82.89280  765.75480  765.75480    0.00300    -999.25    0.00300    2.70410 -116.24680 -121.01910  193.29000
 9850.00000    7.89610    7.83580    7.83580    -999.25    6.95670    0.02180    2.74030   -0.01770    -999.25   -0.01770  143.74710    0.02180   48.15590   48.15590   11.28490   10.05070   10.05070  143.74710  154.69210  203.96810  154.69210  726.62550  726.62550    0.00360    -999.25    0.00360    2.73460  -99.09430 -102.63610  203.96810
 9900.00000    7.92350    7.87630    7.87630    -999.25    0.63230   -0.00220    2.66250    0.02780    -999.25    0.02780 1581.53230   -0.00220   48.84150   48.84150   16.87580   15.67330   15.67330 1581.53230 1456.49380 1525.87730 1456.49380  723.31730  723.31730    0.00270    -999.25    0.00270    2.66090 -103.53330 -105.84460 1525.87730
 9950.00000    7.84310    7.87490    7.87490    -999.25    8.90150   -0.01740    2.64420    0.03850    -999.25    0.03850  112.34060   -0.01740   50.65070   50.65070   12.95680   14.39020   14.39020  112.34060   89.75980  134.00620   89.75980    -999.25    -999.25    0.00720    -999.25    0.00720    2.65390 -111.31200 -112.39270  134.00620
 10000.00000    7.69480    7.44450    7.44450    -999.25  229.54210    0.10510    2.44990    0.15210    -999.25    0.15210    4.35650    0.10510   64.50570   64.50570    -999.25    -999.25    -999.25    4.35650    4.05370   30.71370    4.05370    -999.25    -999.25    0.04140    -999.25    0.04140    2.46180  -85.89690  -86.14010   30.71370
