~Version ---------------------------------------------------
VERS.      2.0 : CWLS log ASCII Standard -VERSION 2.0
WRAP.       NO : One line per depth step
CREA. 12/20/17 : LAS Creation Date
~Well ------------------------------------------------------
STRT.FT                   1000.0 : START DEPTH
STOP.FT                   9700.0 : STOP DEPTH
STEP.FT                 50.00000 : STEP LENGTH
NULL.                    -999.25 : NULL VALUE
COMP.     PACIFIC PETROLEUMS LTD : COMPANY
WELL. PACIFIC KAYBOB 12-35-64-19 : WELL
FLD .                            : FIELD
LOC .                            : LOCATION
CTRY.                     CANADA : COUNTRY
SRVC.         LANE-WELLS COMPANY : SERVICE COMPANY
DATE.                15-Nov-1962 : LOGDATE
PROV.                    Alberta : PROVINCE
UWI .           100123506419W500 : UNIQUE WELL ID
SLAT.WGS84              54.58331 : SURFACE LATITUDE
SLON.WGS84             -116.7693 : SURFACE LONGITUDE
~Curve Information -----------------------------------------
DEPT  .FT    : Depth Curve
CALWS .IN    : CALIPER [MCALED]
CILDED.MMHO  : DEEP INDUCTION CONDUCTIVITY FROM RESISTIVITY LOG
CONDWS.MMHO  : CONDUCTIVITY [1000/DRESWS]
DRESWS.OHMM  : DEEP RESISTIVITY [ILDED]
GR1ED .GAPI  : GAMMA RAY FROM CCL LOG
GRED  .GAPI  : GAMMA RAY FROM GR LOG
GRWS  .GAPI  : GAMMA RAY [GRED]
ILDED .OHMM  : DEEP INDUCTION RESISTIVITY FROM RESISTIVITY LOG
MCALED.IN    : MLT CALIPER FROM MICROLOG
SNED  .OHMM  : SHORT NORMAL RESISTIVITY FROM RESISTIVITY LOG
SPRED .MV    : SPONTANEOUS POTENTIAL FROM RESISTIVITY LOG
SPWS  .MV    : SPONTANEOUS POTENTIAL [BASELINE 0MV, SPRED]
SRESWS.OHMM  : SHALLOW RESISTIVITY [SNED]
~Params ----------------------------------------------------
PD  .                     CF : PERMANENT DATUM
EPD .FT                 2448 : ELEVATION PERMANENT DATUM
LMF .                     KB : LOG MEASURED FROM
DAPD.FT                   14 : FEET ABOVE PERMANENT DATUM
DMF .                     KB : DRILLING MEASURED FROM
EKB .FT                 2462 : KELLY BUSHING
EGL .FT               2446.9 : GROUND LEVEL
DATE.               11/15/62 : RUN DATE
RUN .                      1 : RUN NUMBER
DD  .FT                 9710 : DEPTH DRILLER
DL  .FT                 9706 : DEPTH LOGGER
BLI .FT                 9702 : BOTTOM LOG INTERVAL
TLI .FT                  984 : TOP LOG INTERVAL
CS  .IN                9.625 : CASING SIZE
CBD .FT                  970 : CASING BOTTOM DRILLER
CBL .FT                  984 : CASING BOTTOM LOGGER
BS  .IN                8.625 : BIT SIZE
BSD .FT                 9710 : BIT SIZE AT DEPTH
DFT .                MUD GEL : DRILLING FLUID TYPE
DFD .                   10.1 : DRILLING FLUID DENSITY
DFV .                     80 : DRILLING FLUID VISCOSITY
DFPH.                   10.2 : DRILLING FLUID PH
DFL .                    7.2 : DRILLING FLUID LOSS
RMS .OHMM                2.4 : RESISTIVITY MUD SAMPLE
MST .DEGF                 60 : MUD SAMPLE TEMPERATURE
RMF .OHMM                2.2 : RESISTIVITY MUD FILTRATE SAMPLE
MFST.DEGF                 58 : MUD FILTRATE SAMPLE TEMPERATURE
RMC .OHMM                2.4 : RESISTIVITY MUD CAKE
MCST.DEGF                 56 : MUD CAKE SAMPLE TEMPERATURE
MFSS.                   MEAS : MUD FILTRATE SAMPLE SOURCE
MCSS.                   MEAS : MUD CAKE SAMPLE SOURCE
RMB .OHMM               0.79 : RESISTIVITY MUD AT BHT
TCS .HRS                   4 : TIME CIRCULATED STOPPED
LUN .                   8035 : LOGGING UNIT NUMBER
LUL .                    EDM : LOGGING UNIT LOCATION
ENGI.          VASICEK BLAND : RECORDING ENGINEER
WITN.                    GEE : WITNESSED BY
CLNT.                A2DTECH : CLIENT CODE
ORIG.            2" 5" PRINT : ORIGIN OF DATA
UWI .       100123506419W500 : UNIQUE WELL ID
DICO. A2D Technologies, Inc. : DIGITIZING COMPANY
~Other -----------------------------------------------------
~ASCII -----------------------------------------------------
# ...
 3600.00000   12.98030  105.49610  111.72190    8.95080    -999.25    -999.25    -999.25    8.95080   12.98030    9.90350  -76.10290   -5.01760    9.90350
 3650.00000   12.36790  109.25110  119.41440    8.37420    -999.25    -999.25    -999.25    8.37420   12.36790   10.13790  -75.92720   -4.80930   10.13790
 3700.00000   11.48180  106.32310  116.55830    8.57940    -999.25    -999.25    -999.25    8.57940   11.48180   10.70450  -73.19580   -2.04490   10.70450
 3750.00000   10.13610  102.39580  117.93840    8.47900    -999.25    -999.25    -999.25    8.47900   10.13610   10.72780  -74.19500   -3.01150   10.72780
 3800.00000    9.03180   83.79860   93.74090   10.66770    -999.25    -999.25    -999.25   10.66770    9.03180   17.71960  -72.68580   -1.46970   17.71960
 3850.00000    9.06300   79.53080   93.24100   10.72490    -999.25    -999.25    -999.25   10.72490    9.06300   14.83620  -73.88720   -2.63830   14.83620
 3900.00000   10.55350  133.56560  150.10960    6.66180    -999.25    -999.25    -999.25    6.66180   10.55350    7.39990  -75.40050   -4.12670    7.39990
 3950.00000    9.59520   93.59550  102.73800    9.73350    -999.25    -999.25    -999.25    9.73350    9.59520   11.98170  -78.20630   -6.99810   11.98170
 4000.00000   10.59600  105.90420  115.13040    8.68580    -999.25    -999.25    -999.25    8.68580   10.59600    9.67350  -74.29510   -3.15210    9.67350
 4050.00000   10.28830  117.88970  124.52060    8.03080    -999.25    -999.25    -999.25    8.03080   10.28830    8.76670  -73.78910   -2.71120    8.76670
 4100.00000   12.26170  137.45490  139.65120    7.16070    -999.25    -999.25    -999.25    7.16070   12.26170    7.73670  -74.17350   -3.16130    7.73670
 4150.00000   10.74100  211.94880  192.56690    5.19300    -999.25    -999.25    -999.25    5.19300   10.74100    5.80170  -74.35360   -3.40650    5.80170
 4200.00000   11.85660  147.87070  150.70000    6.63570    -999.25    -999.25    -999.25    6.63570   11.85660    7.43400  -75.65910   -4.77760    7.43400
 4250.00000   12.99980  171.86320  161.60050    6.18810    -999.25    -999.25    -999.25    6.18810   12.99980    6.92760  -75.32390   -4.50750    6.92760
 4300.00000   10.85120  334.01900  268.39150    3.72590    -999.25    -999.25    -999.25    3.72590   10.85120    4.34400  -74.36290   -3.61170    4.34400
 4350.00000   10.19130  322.46020  274.71020    3.64020    -999.25    -999.25    -999.25    3.64020   10.19130    4.13200  -74.04350   -3.35790    4.13200
 4400.00000   10.88410  187.90500  150.91150    6.62640    -999.25    -999.25    -999.25    6.62640   10.88410    6.09500  -75.33330   -4.71290    6.09500
 4450.00000   12.31120  166.05160  132.50470    7.54690    -999.25    -999.25    -999.25    7.54690   12.31120    7.24690  -74.32280   -3.76800    7.24690
 4500.00000    9.47440  108.90880  102.80870    9.72680    -999.25    -999.25    -999.25    9.72680    9.47440   12.14560  -73.14950   -2.65990   12.14560
 4550.00000    8.76310  458.31780  280.93040    3.55960    -999.25    -999.25    -999.25    3.55960    8.76310    2.84900  -72.72130   -2.29950    2.84900
 4600.00000    8.79000   68.25050   66.50090   15.03740    -999.25    -999.25    -999.25   15.03740    8.79000   20.83720  -99.41700  -28.45530   20.83720
 4650.00000    9.37730   87.55720   84.94590   11.77220    -999.25    -999.25    -999.25   11.77220    9.37730   17.05220  -81.56690  -10.06880   17.05220
 4700.00000    9.61910   70.23940   65.10590   15.35960    -999.25    -999.25    -999.25   15.35960    9.61910   16.35740  -83.34940  -11.31120   16.35740
 4750.00000    9.18220   64.13750   62.38460   16.02960    -999.25    -999.25    -999.25   16.02960    9.18220   26.50620  -89.67660  -17.10200   26.50620
 4800.00000    9.13610   70.63550   71.50770   13.98450    -999.25    -999.25    -999.25   13.98450    9.13610   25.82380 -108.29040  -35.17940   25.82380
 4850.00000    9.69740   69.18960   68.79050   14.53690    -999.25    -999.25    -999.25   14.53690    9.69740   17.37930  -76.97460   -3.32370   17.37930
 4900.00000   10.95010   95.08930   96.00980   10.41560    -999.25    -999.25    -999.25   10.41560   10.95010   12.08900  -75.82490   -1.63760   12.08900
 4950.00000   10.95190   37.19950   34.35650   29.10660    -999.25    -999.25    -999.25   29.10660   10.95190   37.37390  -90.91480  -15.63750   37.37390
 5000.00000   10.04000   74.89480   75.80700   13.19140    -999.25    -999.25    -999.25   13.19140   10.04000   16.94640  -84.47620   -6.84490   16.94640
 5050.00000    9.95000  105.38390   92.31560   10.83240    -999.25    -999.25    -999.25   10.83240    9.95000   17.23800 -101.73810  -21.75270   17.23800
 5100.00000    8.40000  104.42120   99.98900   10.00110    -999.25    -999.25    -999.25   10.00110    8.40000   25.35270 -128.16340  -45.80850   25.35270
 5150.00000    9.37170  146.70600  133.88490    7.46910    -999.25    -999.25    -999.25    7.46910    9.37170   15.57500 -118.01920  -33.31020   15.57500
 5200.00000    9.59080   79.83240   78.41600   12.75250    -999.25    -999.25    -999.25   12.75250    9.59080   13.86910  -92.15910   -5.46620   13.86910
 5250.00000    9.37200   61.89480   61.73070   16.19940    -999.25    -999.25    -999.25   16.19940    9.37200   18.50830  -87.15320   -4.61860   18.50830
 5300.00000    9.95130   96.68860   95.22450   10.50150    -999.25    -999.25    -999.25   10.50150    9.95130   11.26170  -82.66480   -4.28850   11.26170
 5350.00000    9.45690   66.21480   68.77300   14.54060    -999.25    -999.25    -999.25   14.54060    9.45690   20.05050  -83.44830   -8.32760   20.05050
 5400.00000    8.69640   33.14060   32.44270   30.82360    -999.25    -999.25    -999.25   30.82360    8.69640   76.15290 -116.92150  -43.75010   76.15290
 5450.00000    8.96040   31.01630   32.35080   30.91110    -999.25    -999.25    -999.25   30.91110    8.96040   33.99990  -77.26720   -6.05800   33.99990
 5500.00000    9.08940  137.83520  118.23550    8.45770    -999.25    -999.25    -999.25    8.45770    9.08940   15.64380 -101.11240  -31.85260   15.64380
 5550.00000   16.26920  204.44050  159.09130    6.28570    -999.25    -999.25    -999.25    6.28570   16.26920    6.83590  -71.19330   -3.48070    6.83590
 5600.00000    -999.25  177.06670  135.38580    7.38630    -999.25    -999.25    -999.25    7.38630    -999.25    6.88050  -84.52050  -13.02250    6.88050
 5650.00000    9.40150   22.32910   16.94340   59.02010    -999.25    -999.25    -999.25   59.02010    9.40150   56.43820  -90.70700  -18.73840   56.43820
 5700.00000    9.80730   46.87670   40.77070   24.52740    -999.25    -999.25    -999.25   24.52740    9.80730   31.13370  -81.92700  -10.87760   31.13370
 5750.00000    9.08740    5.76770    2.28210  438.19960    -999.25    -999.25    -999.25  438.19960    9.08740  168.26490 -105.71220  -35.57600  168.26490
 5800.00000    9.55300   82.17920   75.26270   13.28680    -999.25    -999.25    -999.25   13.28680    9.55300   19.45470 -117.71850  -48.49550   19.45470
 5850.00000    9.43130   71.83340   67.72680   14.76520    -999.25    -999.25    -999.25   14.76520    9.43130   21.21830 -133.23700  -64.93310   21.21830
 5900.00000    9.43300   43.45690   41.00210   24.38900    -999.25    -999.25    -999.25   24.38900    9.43300   29.23930 -120.92980  -53.53910   29.23930
 5950.00000    8.87760   48.54920   45.05540   22.19490    -999.25    -999.25    -999.25   22.19490    8.87760   59.88810 -162.24340  -95.77190   59.88810
 6000.00000    9.56110   54.84690   50.99620   19.60930    -999.25    -999.25    -999.25   19.60930    9.56110   40.05230 -153.48490  -87.92660   40.05230
 6050.00000    9.35830   56.68960   54.10170   18.48370    -999.25    -999.25    -999.25   18.48370    9.35830   48.20770 -167.04120 -102.39600   48.20770
 6100.00000    9.58230   29.91660   26.64000   37.53750    -999.25    -999.25    -999.25   37.53750    9.58230   65.87300 -157.21330  -93.48730   65.87300
 6150.00000    9.23820   16.61060   11.14010   89.76620    -999.25    -999.25    -999.25   89.76620    9.23820  109.60960 -104.69130  -41.87850  109.60960
