~Version ---------------------------------------------------
VERS.      2.0 : CWLS log ASCII Standard -VERSION 2.0
WRAP.       NO : One line per depth step
CREA. 10/01/14 : LAS Creation Date
~Well ------------------------------------------------------
STRT.FT                                  935.9 : START DEPTH
STOP.FT                                 9375.9 : STOP DEPTH
STEP.FT                                0.50000 : STEP LENGTH
NULL.                                  -999.25 : NULL VALUE
COMP. THE BRITISH AMERICAN OIL COMPANY LIMITED : COMPANY
WELL.        B.A. EAST GOOSE RIVER 10-22-66-15 : WELL
FLD .                                          : FIELD
LOC .                                          : LOCATION
CTRY.                                   CANADA : COUNTRY
SRVC.                   Schlumberger of Canada : SERVICE COMPANY
DATE.                              16-Mar-1960 : LOGDATE
PROV.                                  Alberta : PROVINCE
UWI .                         100102206615W500 : UNIQUE WELL ID
SLAT.WGS84                            54.72873 : SURFACE LATITUDE
SLON.WGS84                           -116.1771 : SURFACE LONGITUDE
~Curve Information -----------------------------------------
DEPT.FT      : DEPTH FEET
CILD.MMHO    : CONDUCTIVITY FROM RESISTIVITY LOG
DT  .US/F    : DELTA-T FROM SONIC LOG
GRS .MG/TON  : GAMMA RAY FROM SONIC LOG
ILD .OHMM    : DEEP INDUCTION FROM RESISTIVITY LOG
MCAL.IN      : MLT CALIPER FROM MICRO LOG
SN  .OHMM    : SHORT NORMAL FROM RESISTIVITY LOG
SPR .MV      : SPONTANEOUS POTENTIAL FROM RESISTIVITY LOG
~Params ----------------------------------------------------
LMF .                     KB : LOG MEASURED FROM
DMF .                     KB : DRILLING MEASURED FROM
EKB .FT                 3222 : KELLY BUSHING
EGL .FT                 3205 : GROUND LEVEL
DATE.               03/16/60 : RUN DATE
RUN .                      2 : RUN NUMBER
DD  .FT                 9370 : DEPTH DRILLER
DL  .FT                 9378 : DEPTH LOGGER
BLI .FT                 9373 : BOTTOM LOG INTERVAL
TLI .FT                 5000 : TOP LOG INTERVAL
CBD .FT                  975 : CASING BOTTOM DRILLER
BS  .IN                    9 : BIT SIZE
BSD .FT                 9370 : BIT SIZE AT DEPTH
DFT .                    GEL : DRILLING FLUID TYPE
DFD .                     10 : DRILLING FLUID DENSITY
DFV .                    120 : DRILLING FLUID VISCOSITY
DFPH.                     10 : DRILLING FLUID PH
DFL .                    6.2 : DRILLING FLUID LOSS
RMS .OHMM                2.8 : RESISTIVITY MUD SAMPLE
MST .DEGF                 59 : MUD SAMPLE TEMPERATURE
RMF .OHMM               1.41 : RESISTIVITY MUD FILTRATE SAMPLE
MFST.DEGF                 68 : MUD FILTRATE SAMPLE TEMPERATURE
RMC .OHMM               2.56 : RESISTIVITY MUD CAKE
MCST.DEGF                 67 : MUD CAKE SAMPLE TEMPERATURE
RMB .OHMM               0.94 : RESISTIVITY MUD AT BHT
TCS .HRS                 4.5 : TIME CIRCULATED STOPPED
LUN .                  1573C : LOGGING UNIT NUMBER
LUL .                     WC : LOGGING UNIT LOCATION
ENGI.              HAUSEGGER : RECORDING ENGINEER
WITN.                   COTE : WITNESSED BY
CLNT.                A2DTECH : CLIENT CODE
ORIG.            2" 5" PRINT : ORIGIN OF DATA
UWI .       100102206615W500 : UNIQUE WELL ID
DICO. A2D Technologies, Inc. : DIGITIZING COMPANY
~Other -----------------------------------------------------
~ASCII -----------------------------------------------------
# ...
 8810.90000   64.90830   84.73910    4.34540   21.74690    9.12370   27.64460  -69.87410
 8811.40000   52.89220   86.01600    4.93870   26.68230    9.11200   32.35470  -70.29480
 8811.90000   41.61540   83.78490    6.35870   34.57860    9.10030   36.89870  -71.11610
 8812.40000   34.08670   79.94600    8.01860   42.49000    9.09670   40.21580  -72.21790
 8812.90000   28.28030   76.11910    8.89880   51.91580    9.09590   42.52920  -73.31020
 8813.40000   24.22860   74.80240    8.42640   56.62870    9.09540   43.28110  -73.87090
 8813.90000   22.67360   73.77510    6.45840   63.98240    9.09420   44.55760  -75.75140
 8814.40000   22.68610   73.95240    5.59150   63.97370    9.09370   44.46460  -76.59200
 8814.90000   23.93440   74.05340    3.92790   60.47260    9.09530   43.52900  -79.16180
 8815.40000   25.09360   73.51170    3.82320   57.23150    9.09660   42.77000  -80.06560
 8815.90000   29.84120   71.61320    3.81180   45.52650    9.10060   39.10440  -82.60850
 8816.40000   32.24120   71.80890    3.84450   41.29450    9.10190   37.93990  -83.65430
 8816.90000   40.58560   75.04540    3.91340   32.59140    9.10590   31.42950  -86.46930
 8817.40000   44.47540   77.19300    3.88570   29.69870    9.10730   29.24550  -87.33490
 8817.90000   59.53110   83.50800    3.67530   20.90920    9.14450   22.08990  -90.03580
 8818.40000   67.24830   87.03380    3.53300   18.19160    9.16410   19.75740  -90.77150
 8818.90000   89.11190   98.35180    3.18940   13.38910    9.22270   15.11900  -93.62640
 8819.40000   96.17980   99.63110    3.36670   12.34660    9.22750   13.78930  -94.91190
 8819.90000  116.90590   99.55050    4.78660   10.13850    9.18610   11.14960  -98.48910
 8820.40000  130.98720   97.55140    6.16980    9.04450   10.00000   10.18330 -100.36990
 8820.90000  147.86330   95.33710    7.03790    7.95050   10.54260    9.17370 -100.95770
 8821.40000  165.31910   91.43180    8.02320    7.13360   10.58160    8.60600 -101.29360
 8821.90000  180.22330   84.63310    8.10660    6.60410   10.45970    8.19550 -101.72350
 8822.40000  187.48160   83.20680    7.26510    6.30440   10.31660    8.03030 -102.30840
 8822.90000  192.52010   81.14000    6.80860    6.22640   10.39100    7.98020 -102.51440
 8823.40000  195.56360   81.03540    5.87510    6.06180   10.50980    7.77970 -103.50220
 8823.90000  195.39960   82.21260    5.97720    6.05510   10.35460    7.69290 -104.02360
 8824.40000  194.10260   81.99130    5.91300    6.11660    9.44380    7.55340 -105.83710
 8824.90000  193.40030   82.36220    5.83840    6.13620    9.68720    7.56100 -106.48480
 8825.40000  193.67020   83.32980    5.55560    6.05690   10.61670    7.49540 -108.50460
 8825.90000  194.87120   85.29190    5.44640    6.00710   10.57280    7.40920 -109.12170
 8826.40000  199.61080   83.66510    5.05300    5.85790   10.39220    7.24720 -110.65660
 8826.90000  200.38630   83.10000    4.90860    5.80380   10.29620    7.26870 -111.17850
 8827.40000  201.35990   83.76290    5.08220    5.80640   10.51920    7.29760 -113.00220
 8827.90000  201.66130   84.19540    5.26430    5.83990   10.58050    7.24750 -113.51810
 8828.40000  203.15120   85.94720    5.65760    5.78410   10.52960    7.10100 -115.10920
 8828.90000  203.82070   86.55960    5.72320    5.75110   10.42400    7.04000 -115.75480
 8829.40000  206.18810   87.66100    5.72040    5.66450   10.20590    6.89210 -117.42620
 8829.90000  207.56320   87.84980    5.70050    5.60040   10.33020    6.85690 -117.98820
 8830.40000  212.49890   88.54140    5.66140    5.40810   10.41080    6.73810 -120.71040
 8830.90000  215.89210   87.84230    5.65990    5.28000   10.51040    6.64370 -121.75010
 8831.40000  218.92230   87.52230    5.82060    5.18350   10.45050    6.55420 -123.11730
 8831.90000  220.10360   87.25510    5.93980    5.15740   10.36370    6.53200 -123.64770
 8832.40000  219.90970   87.16010    5.86200    5.13120   10.28770    6.53830 -125.10890
 8832.90000  218.96890   85.74800    5.96850    5.20980   10.59440    6.65860 -126.33970
 8833.40000  217.95110   84.99500    5.96570    5.25520   10.70140    6.71440 -126.75150
 8833.90000  216.10660   87.16480    5.88490    5.39120   11.01780    6.80720 -127.47510
 8834.40000  212.08920   86.44400    5.84190    5.43660   10.93800    6.82020 -127.59420
 8834.90000  207.25200   83.57810    5.79020    5.73230   10.66200    7.03220 -128.38760
 8835.40000  204.96300   82.99390    5.74280    5.80070   10.65230    7.13470 -128.54130
 8835.90000  198.82300   80.55840    5.58060    5.99310   10.52630    7.49040 -129.34410
 8836.40000  196.96590   79.30520    5.46450    6.05400   10.30130    7.57620 -129.92370
 8836.90000  192.59360   78.99000    5.63400    6.19840    9.87460    7.71130 -131.53650
 8837.40000  191.44330   77.55900    5.81390    6.23450    9.65580    7.70550 -132.09250
 8837.90000  189.39840   77.59140    5.95300    6.24600    9.77220    7.57400 -133.77230
 8838.40000  190.56840   78.70800    5.63610    6.20830    9.92760    7.46050 -134.29980
 8838.90000  195.51030   84.67130    4.75710    6.02610    9.72250    6.93770 -136.06760
 8839.40000  197.83840   87.60320    4.49090    5.91890    9.87600    6.80310 -136.76270
 8839.90000  205.39710   88.73180    4.19100    5.59520   10.54120    6.58880 -138.60540
 8840.40000  209.72930   89.71670    4.34610    5.48700   10.88990    6.56550 -138.91010
 8840.90000  219.65460   89.13530    4.91870    5.22220   11.39280    6.60080 -139.75050
 8841.40000  223.96290   87.12040    5.17940    5.15500   11.18440    6.72270 -140.31760
 8841.90000  223.53160   84.70390    5.77520    5.29480   10.97830    6.84500 -141.13930
 8842.40000  218.74510   83.83690    6.13610    5.42590   10.92550    6.88020 -141.86550
 8842.90000  211.84570   82.83930    6.04100    5.54350   10.34000    6.84780 -142.14840
 8843.40000  204.28690   85.29850    5.72640    5.74230   10.22360    6.84370 -142.37180
 8843.90000  201.08300   84.13770    5.64750    5.79380   10.22280    6.86110 -142.67050
 8844.40000  199.68880   85.19740    5.57960    5.92980    9.56080    6.92280 -143.85340
 8844.90000  198.29470   84.22470    5.58390    5.99770    9.66460    6.96780 -144.29770
 8845.40000  195.37660   81.25340    5.70540    6.20120    9.63750    7.15670 -145.09520
 8845.90000  194.30820   80.37420    5.80140    6.26910   10.01690    7.25410 -144.98150
 8846.40000  190.11620   81.17520    5.58380    6.47270   10.73600    7.54780 -144.61260
 8846.90000  187.59360   83.85270    5.28750    6.54050   10.64510    7.60860 -144.79530
 8847.40000  180.55100   80.02370    4.77110    6.74410   10.38740    7.80280 -145.39340
 8847.90000  178.22490   78.45270    4.90540    6.81200   10.51590    7.87680 -145.18460
 8848.40000  171.92070   80.48210    5.45250    7.00190   10.63780    7.96190 -144.87320
 8848.90000  170.71890   81.26110    5.48570    7.01120   10.10810    7.95710 -145.05260
 8849.40000  166.90970   78.99870    5.71900    7.19180    9.73620    8.18270 -145.67250
 8849.90000  166.22870   77.30840    5.83200    7.24750   10.20980    8.33000 -145.72130
 8850.40000  164.53680   80.29130    5.70760    7.33730   10.25210    8.35700 -146.02280
 8850.90000  163.72160   79.84220    5.01270    7.35450    9.62030    8.38030 -147.19650
 8851.40000  163.93690   74.84590    4.49400    7.35000   10.23310    8.50610 -148.46200
 8851.90000  163.39510   77.06440    5.00150    7.39580   10.09960    8.55120 -149.33620
 8852.40000  162.13710   80.78350    5.43270    7.45970    9.41370    8.52100 -150.16850
 8852.90000  160.26880   81.07930    5.55030    7.56720    9.28060    8.55940 -151.31190
 8853.40000  158.21810   79.20960    5.89170    7.62220   10.01810    8.66180 -151.98020
 8853.90000  157.85590   79.81880    6.03460    7.62560   10.40800    8.69540 -152.44160
 8854.40000  158.21040   81.81070    5.76300    7.59070   10.59180    8.70870 -152.20270
 8854.90000  160.06900   80.29000    4.72890    7.46960   11.26330    8.89370 -151.58490
 8855.40000  159.15810   79.06460    4.59870    7.47390   10.93020    9.02970 -151.37630
