~Version ---------------------------------------------------
VERS.      2.0 : CWLS log ASCII Standard -VERSION 2.0
WRAP.       NO : One line per depth step
CREA. 01/03/18 : LAS Creation Date
~Well ------------------------------------------------------
STRT.FT                   650.0 : START DEPTH
STOP.FT                  8800.0 : STOP DEPTH
STEP.FT                50.00000 : STEP LENGTH
NULL.                   -999.25 : NULL VALUE
COMP.        IPEX OIL & GAS LTD : COMPANY
WELL. IPEX IMP JUDY 11-36-64-12 : WELL
FLD .                           : FIELD
LOC .                           : LOCATION
CTRY.                    CANADA : COUNTRY
SRVC.              Schlumberger : SERVICE COMPANY
DATE.               13-Aug-1974 : LOGDATE
PROV.                   Alberta : PROVINCE
UWI .          100113606412W500 : UNIQUE WELL ID
SLAT.WGS84             54.58384 : SURFACE LATITUDE
SLON.WGS84            -115.6802 : SURFACE LONGITUDE
~Curve Information -----------------------------------------
DEPT  .FT    : Depth Curve
CALSED.IN    : CALIPER FROM SONIC LOG
CALWS .IN    : CALIPER [CALSED]
CILDED.MMHO  : CONDUCTIVITY FROM RESISTIVITY LOG
CONDWS.MMHO  : CONDUCTIVITY [1000/DRESWS]
DRESWS.OHMM  : DEEP RESISTIVITY [ILDED] IF ILDED<2;1000/CILDED;ELSE ILDED
DTED  .US/F  : DELTA TIME FROM SONIC LOG
DTWS  .US/F  : DELTA TIME [DTED]
GRSED .GAPI  : GAMMA RAY FROM SONIC LOG
GRWS  .GAPI  : GAMMA RAY [GRSED]
ILDED .OHMM  : INDUCTION LOG DEEP RESISTIVITY
LL8ED .OHMM  : 8 INCH LATEROLOG RESISTIVITY
SPRED .MV    : SPONTANEOUS POTENTIAL FROM RESISTIVITY LOG
SPWS  .MV    : SPONTANEOUS POTENTIAL [BASELINE 0 MV] [SPRED]
SRESWS.OHMM  : SHALLOW RESISTIVITY [LL8ED]
~Params ----------------------------------------------------
PD  .                     GL : PERMANENT DATUM
EPD .FT               3172.7 : ELEVATION PERMANENT DATUM
LMF .                     KB : LOG MEASURED FROM
DAPD.FT                 14.3 : FEET ABOVE PERMANENT DATUM
DMF .                        : DRILLING MEASURED FROM
EKB .FT                 3187 : KELLY BUSHING
EDF .FT                    0 : DRILLING FLOOR
EGL .FT               3172.7 : GROUND LEVEL
DATE.               08/13/74 : RUN DATE
RUN .                      1 : RUN NUMBER
DD  .FT                 8835 : DEPTH DRILLER
DL  .FT                 8843 : DEPTH LOGGER
BLI .FT                 8837 : BOTTOM LOG INTERVAL
TLI .FT                  610 : TOP LOG INTERVAL
CS  .IN                    0 : CASING SIZE
CBD .FT                  612 : CASING BOTTOM DRILLER
CBL .FT                  610 : CASING BOTTOM LOGGER
BS  .IN                7.875 : BIT SIZE
BSD .FT                 8835 : BIT SIZE AT DEPTH
DFT .                    GEL : DRILLING FLUID TYPE
DFD .                    9.5 : DRILLING FLUID DENSITY
DFV .                    8.2 : DRILLING FLUID VISCOSITY
DFPH.                        : DRILLING FLUID PH
DFL .                        : DRILLING FLUID LOSS
MSS .                        : MUD SAMPLE SOURCE
RMS .OHMM               2.63 : RESISTIVITY MUD SAMPLE
MST .DEGF                 61 : MUD SAMPLE TEMPERATURE
RMF .OHMM               2.31 : RESISTIVITY MUD FILTRATE SAMPLE
MFST.DEGF                 60 : MUD FILTRATE SAMPLE TEMPERATURE
RMC .OHMM                  0 : RESISTIVITY MUD CAKE
MCST.DEGF                  0 : MUD CAKE SAMPLE TEMPERATURE
MFSS.                        : MUD FILTRATE SAMPLE SOURCE
MCSS.                        : MUD CAKE SAMPLE SOURCE
RMB .OHMM                0.8 : RESISTIVITY MUD AT BHT
TCS .HRS                   4 : TIME CIRCULATED STOPPED
TLAB.HRS                   0 : TIME LOGGER AT BOTTOM
LUN .                   7690 : LOGGING UNIT NUMBER
LUL .                    EDM : LOGGING UNIT LOCATION
ENGI.                SIMPSON : RECORDING ENGINEER
WITN.                COULSON : WITNESSED BY
CLNT.                A2DTECH : CLIENT CODE
ORIG.            2" 5" PRINT : ORIGIN OF DATA
UWI .       100113606412W500 : UNIQUE WELL ID
DICO. A2D Technologies, Inc. : DIGITIZING COMPANY
OS  .                        : OTHER SERVICES
PWI .                        : PRIMARY WELL IDENTIFIER
R1  .                        : REMARKS 1
R2  .                        : REMARKS 2
LSRV.                        : LOG MNEMONIC
~Other -----------------------------------------------------
DIL-SONIC LOGS RUN
SPRED, ILDED, CILDED, LL8ED CURVES TOP-1354' DATA FROM 2" SCALE
DIL LOG DATA ALL CURVES 5885'-5915' NULL DUR TO TOLL STUCK
SONIC LOG DATA ALL CURVES 5030'-8330' NULL DUR TO TOLL STUCK
~ASCII -----------------------------------------------------
# ...
 3100.00000    -999.25    -999.25  112.26710  107.24670    9.32430    -999.25    -999.25    -999.25    -999.25    9.32430    8.19560 -130.70070  -14.19170    8.19560
 3150.00000    -999.25    -999.25  189.73400  189.68850    5.27180    -999.25    -999.25    -999.25    -999.25    5.27180    4.77170 -125.48030   -9.32990    4.77170
 3200.00000    -999.25    -999.25  151.37330  152.52970    6.55610    -999.25    -999.25    -999.25    -999.25    6.55610    5.26400 -127.59210  -11.80220    5.26400
 3250.00000    -999.25    -999.25  170.12770  172.52090    5.79640    -999.25    -999.25    -999.25    -999.25    5.79640    4.88900 -128.52530  -13.09210    4.88900
 3300.00000    -999.25    -999.25  229.41240  231.39580    4.32160    -999.25    -999.25    -999.25    -999.25    4.32160    3.67920 -126.12660  -11.05210    3.67920
 3350.00000    -999.25    -999.25  136.95960  135.47010    7.38170    -999.25    -999.25    -999.25    -999.25    7.38170    5.82080 -128.06920  -13.35330    5.82080
 3400.00000    -999.25    -999.25  169.34270  170.15770    5.87690    -999.25    -999.25    -999.25    -999.25    5.87690    4.99620 -124.53960  -10.18230    4.99620
 3450.00000    -999.25    -999.25  192.69260  185.47600    5.39370    -999.25    -999.25    -999.25    -999.25    5.39370    4.96080 -121.92080   -7.92390    4.96080
 3500.00000    -999.25    -999.25  214.88900  197.48410    5.06370    -999.25    -999.25    -999.25    -999.25    5.06370    4.75520 -118.18690   -4.54680    4.75520
 3550.00000    -999.25    -999.25  173.91660  174.15840    5.74190    -999.25    -999.25    -999.25    -999.25    5.74190    6.19780 -118.02750   -4.74600    6.19780
 3600.00000    -999.25    -999.25  183.07910  182.98260    5.46500    -999.25    -999.25    -999.25    -999.25    5.46500    6.02320 -116.16680   -3.24400    6.02320
 3650.00000    -999.25    -999.25  185.74070  182.23230    5.48750    -999.25    -999.25    -999.25    -999.25    5.48750    6.25270 -117.51700   -4.95280    6.25270
 3700.00000    -999.25    -999.25  135.58400  129.82690    7.70460    -999.25    -999.25    -999.25    -999.25    7.70460   10.80100 -115.63350   -3.42960   10.80100
 3750.00000    -999.25    -999.25  242.40680  240.40200    4.15970    -999.25    -999.25    -999.25    -999.25    4.15970    4.05990 -115.68470   -3.83770    4.05990
 3800.00000    -999.25    -999.25  167.16260  167.17940    5.98160    -999.25    -999.25    -999.25    -999.25    5.98160    6.28650 -120.29240   -8.80400    6.28650
 3850.00000    -999.25    -999.25  195.55000  195.67170    5.11060    -999.25    -999.25    -999.25    -999.25    5.11060    5.52240 -114.92570   -3.79590    5.52240
 3900.00000    -999.25    -999.25  271.37450  288.97560    3.46050    -999.25    -999.25    -999.25    -999.25    3.46050    4.06840 -115.64140   -4.87020    4.06840
 3950.00000    -999.25    -999.25  250.15240  288.17930    3.47010    -999.25    -999.25    -999.25    -999.25    3.47010    4.35870 -116.54720   -6.13650    4.35870
 4000.00000    -999.25    -999.25  283.32710  300.43560    3.32850    -999.25    -999.25    -999.25    -999.25    3.32850    3.82770 -115.97540   -5.92150    3.82770
 4050.00000    -999.25    -999.25  234.78760  240.86520    4.15170    -999.25    -999.25    -999.25    -999.25    4.15170    4.93290 -114.50360   -4.80830    4.93290
 4100.00000    -999.25    -999.25  526.92540  526.92540    1.89780    -999.25    -999.25    -999.25    -999.25    1.66610    2.22560 -111.10660   -1.76990    2.22560
 4150.00000    -999.25    -999.25  342.65510  375.62920    2.66220    -999.25    -999.25    -999.25    -999.25    2.66220    3.28960 -111.82270   -2.83950    3.28960
 4200.00000    9.55660    9.55660  270.63550  318.85670    3.13680   90.23770   90.23770   96.11440   96.11440    3.13680    3.98430 -115.70830   -7.07270    3.98430
 4250.00000    9.13790    9.13790  165.31320  171.45310    5.83250   87.05390   87.05390  140.87670  140.87670    5.83250    6.85610 -118.09710   -9.80560    6.85610
 4300.00000   11.00570   11.00570  343.41110  411.43800    2.43050   95.08690   95.08690   83.86160   83.86160    2.43050    3.00830 -113.49020   -5.54450    3.00830
 4350.00000   10.13150   10.13150  175.81580  184.34200    5.42470  119.71640  119.71640   81.87100   81.87100    5.42470    7.74000 -113.99990   -6.40010    7.74000
 4400.00000    9.11340    9.11340  158.60640  164.81800    6.06730   83.16110   83.16110   83.75030   83.75030    6.06730    6.83480 -117.63930  -10.38530    6.83480
 4450.00000    8.93740    8.93740  139.34680  144.11200    6.93910   80.79780   80.79780   85.24380   85.24380    6.93910    9.83610 -123.86900  -16.96260    9.83610
 4500.00000    9.45270    9.45270  252.58400  258.42460    3.86960   89.50420   89.50420   73.58540   73.58540    3.86960    4.35480 -114.50140   -7.93910    4.35480
 4550.00000    9.13110    9.13110   46.46900   32.32680   30.93410  129.41250  129.41250   55.26710   55.26710   30.93410   60.79590 -136.21470  -29.99820   60.79590
 4600.00000    9.12140    9.12140  251.75240  257.88480    3.87770   80.21480   80.21480   73.16600   73.16600    3.87770   10.76450 -158.34320  -52.47260   10.76450
 4650.00000    8.68090    8.68090  169.01910  175.15900    5.70910   79.65900   79.65900   57.95830   57.95830    5.70910   15.40960 -179.94280  -74.41800   15.40960
 4700.00000   10.00380   10.00380  243.88980  255.53140    3.91510   88.26550   88.26550   58.68140   58.68140    3.91510    8.48030 -157.24830  -52.07110    8.48030
 4750.00000   10.18010   10.18010  274.37770  291.57070    3.42970   81.84650   81.84650   60.06860   60.06860    3.42970    9.75920 -166.75440  -61.92130    9.75920
 4800.00000    8.76120    8.76120  249.25530  256.79220    3.89420   81.28950   81.28950   64.59390   64.59390    3.89420    6.60790 -134.45040  -29.96310    6.60790
 4850.00000    9.25370    9.25370  156.01240  164.73110    6.07050   81.63980   81.63980  100.76340  100.76340    6.07050    6.69450 -109.71700   -5.57560    6.69450
 4900.00000   11.52740   11.52740  306.42460  300.36340    3.32930  101.94940  101.94940   79.17340   79.17340    3.32930    4.13320 -110.15970   -6.36410    4.13320
 4950.00000    8.93320    8.93320  193.77770  202.14020    4.94930   93.86870   93.86870  101.81940  101.81940    4.94930    6.38350 -119.59610  -16.14810    6.38350
 5000.00000    8.66710    8.66710   47.38220   46.49070   21.50970   73.92610   73.92610   67.08820   67.08820   21.50970   30.58210 -123.73720  -20.63330   30.58210
 5050.00000    8.80930    8.80930  112.10980  118.72540    8.42280   74.74670   74.74670   71.17430   71.17430    8.42280    8.97710 -113.19590  -10.96060    8.97710
 5100.00000    7.94130    7.94130   15.10760   15.99950   62.50180   62.51460   62.51460   30.51400   30.51400   62.50180  107.89570 -107.19790   -7.48670  107.89570
 5150.00000    8.28360    8.28360   38.95750   44.50850   22.46760   54.45760   54.45760   48.40090   48.40090   22.46760   54.92530 -139.30990  -42.12280   54.92530
 5200.00000    8.59250    8.59250  225.60980  231.73020    4.31600   61.57110   61.57110   44.05590   44.05590    4.31600    7.66120 -124.13910  -29.48880    7.66120
 5250.00000    8.65580    8.65580    7.39750    7.16800  139.50970   51.73620   51.73620   13.64180   13.64180  139.50970  356.50180 -182.46800  -90.32920  356.50180
 5300.00000    8.38650    8.38650   35.57110   37.01250   27.01790   55.85200   55.85200   15.47300   15.47300   27.01790  200.56360 -232.27350 -142.65880  200.56360
 5350.00000    8.41390    8.41390   25.49240   26.54580   37.67070   58.90850   58.90850   12.94050   12.94050   37.67070  173.03420 -230.11230 -143.02170  173.03420
 5400.00000    8.53770    8.53770    6.30730    5.39570  185.33260   49.18080   49.18080   13.34540   13.34540  185.33260  236.75890 -165.02390  -80.45750  236.75890
 5450.00000    8.41020    8.41020  507.56130  507.56130    1.97020   69.92490   69.92490   54.31150   54.31150    1.78260    5.55500 -162.66360  -80.63400    5.55500
 5500.00000    8.52680    8.52680  335.36700  358.51290    2.78930   67.84060   67.84060   59.98530   59.98530    2.78930   10.88030 -176.87600  -97.35780   10.88030
