~Version ---------------------------------------------------
VERS. 2.0 : CWLS log ASCII Standard -VERSION 2.0
WRAP.  NO : ONE LINE PER DEPTH STEP
~Well ------------------------------------------------------
STRT.F                 1150.0 : START DEPTH
STOP.F                11250.0 : STOP DEPTH
STEP.F               50.00000 : STEP LENGTH
NULL.                 -999.25 : NULL VALUE
COMP.      ARC RESOURCES LTD. : COMPANY
WELL. ARC RES ANTE 2-23-66-25 : WELL
FLD .                      WC : FIELD
LOC .                         : LOCATION
CTRY.                  CANADA : COUNTRY
SRVC.            Schlumberger : SERVICE COMPANY
DATE.             03-Oct-1966 : LOGDATE
PROV.                 Alberta : PROVINCE
UWI .        100022306625W500 : UNIQUE WELL ID
SLAT.WGS84      54.7214917116 : SURFACE LATITUDE
SLON.WGS84    -117.6660237751 : SURFACE LONGITUDE
~Curve Information -----------------------------------------
DEPT.F    0   1   0  0 : 1 MEASURED DEPTH
GRS .GAPI 60 310 01 00 : GAMMA RAY FROM SONIC LOG
DT  .US/F 60 500 00 00 : DELTA-T (INTERVAL TRANSIT TIME)
CALS.IN   60 280 01 00 : CALIPER FROM SONIC LOG
CILD.MMHO 05 110 46 00 : INDUCTION DEEP CONDUCTIVITY
ILD .OHMM 05 120 46 00 : INDUCTION DEEP RESISTIVITY
SN  .OHMM 05 040 16 00 : SHORT NORMAL RESISTIVITY
SPR .MV   05 010 01 00 : SPONTANEOUS POTENTIAL FROM RESISTIVITY LOG
~Params ----------------------------------------------------
PD  .                     GL : PERMANENT DATUM
EPD .FT               2460.3 : ELEVATION PERMANENT DATUM
LMF .                     KB : LOG MEASURED FROM
DAPD.FT                 13.7 : FEET ABOVE PERMANENT DATUM
DMF .                     KB : DRILLING MEASURED FROM
EKB .FT                 2474 : KELLY BUSHING
EGL .FT               2460.3 : GROUND LEVEL
DATE.               10/03/66 : RUN DATE
RUN .                      1 : RUN NUMBER
DD  .FT                11270 : DEPTH DRILLER
DL  .FT                11270 : DEPTH LOGGER
BLI .FT                11269 : BOTTOM LOG INTERVAL
TLI .FT                 1156 : TOP LOG INTERVAL
CBD .FT                 1155 : CASING BOTTOM DRILLER
CBL .FT                 1156 : CASING BOTTOM LOGGER
BS  .IN                7.625 : BIT SIZE
BSD .FT                11270 : BIT SIZE AT DEPTH
DFT .                    GEL : DRILLING FLUID TYPE
DFD .                   10.1 : DRILLING FLUID DENSITY
DFV .                     75 : DRILLING FLUID VISCOSITY
DFPH.                      9 : DRILLING FLUID PH
DFL .                      8 : DRILLING FLUID LOSS
RMS .OHMM               2.75 : RESISTIVITY MUD SAMPLE
MST .DEGF                 62 : MUD SAMPLE TEMPERATURE
RMF .OHMM               2.53 : RESISTIVITY MUD FILTRATE SAMPLE
MFST.DEGF                 76 : MUD FILTRATE SAMPLE TEMPERATURE
RMC .OHMM               2.47 : RESISTIVITY MUD CAKE
MCST.DEGF                 68 : MUD CAKE SAMPLE TEMPERATURE
RMB .OHMM               0.93 : RESISTIVITY MUD AT BHT
TCS .HRS                   3 : TIME CIRCULATED STOPPED
LUN .                   3705 : LOGGING UNIT NUMBER
LUL .                    WCT : LOGGING UNIT LOCATION
ENGI.              DEMETRICK : RECORDING ENGINEER
WITN.            GOGOL BAHAN : WITNESSED BY
CLNT.                A2DTECH : CLIENT CODE
ORIG.            2" 5" PRINT : ORIGIN OF DATA
UWI .       100022306625W500 : UNIQUE WELL ID
DICO. A2D Technologies, Inc. : DIGITIZING COMPANY
~Other -----------------------------------------------------
~ASCII -----------------------------------------------------
 1150.00000   54.51170    -999.25    -999.25    -999.25    -999.25    -999.25    -999.25
 1200.00000   55.51970  137.18070   11.22230  272.26220    3.67690    4.07530  -81.92560
 1250.00000   70.52670  116.43160   11.50030  381.49690    3.04030    2.89600  -82.81870
 1300.00000   88.24420  113.75520   11.52630  410.71680    2.99520    2.74320  -81.36740
 1350.00000   61.46770   85.83340   11.41630  151.58720    6.67350    6.61830  -84.82480
 1400.00000   54.36350  109.75730   11.98020  258.14740    4.08110    3.52240  -82.29370
 1450.00000   67.46050  125.40940   12.24550  287.81030    3.73800    3.58900  -81.82410
 1500.00000   63.04070  109.37930   12.20790  116.92640    8.80570    7.29680  -82.98960
 1550.00000   49.04400  103.55320    9.97720   97.37200   10.30420    7.81430  -88.84000
 1600.00000   64.75720  107.57070   11.60680  287.47710    3.58380    3.34520  -82.89530
 1650.00000   39.24580  105.23330    9.59420   38.13110   25.86180   20.01860  -90.48650
 1700.00000   49.15770  102.70960   10.01080  274.88100    3.86020    4.04580  -83.44650
 1750.00000   56.62030  118.62190   12.12230   79.40730   12.69200    9.57880  -89.95740
 1800.00000   49.96030   99.25230   11.31570  210.72750    4.74100    4.69060  -83.23290
 1850.00000   54.76530  104.00610   11.48180  215.45460    4.81190    4.51690  -82.58550
 1900.00000   50.87540  121.17210   11.45010  244.55450    4.25180    3.80120  -82.65560
 1950.00000   51.72750  101.69640   11.26970  212.94860    4.67620    4.39120  -82.91970
 2000.00000   45.53030  135.84950   11.83730  206.93460    5.00870    4.81990  -81.60630
 2050.00000   55.10930  117.07990   12.40540  203.73780    4.90750    4.93780  -81.94150
 2100.00000   49.60300  130.40390   12.19700  210.52840    4.98010    4.40480  -82.27180
 2150.00000   44.74260   89.77020   10.79440   90.81720   11.22700   12.12960  -81.62740
 2200.00000   46.37560   97.67970   11.01350  176.46320    5.64810    5.67210  -82.59630
 2250.00000   48.59530  116.14200   11.63620  195.98880    5.10800    5.35160  -81.54820
 2300.00000   39.84430  107.18840    9.52570  112.96160    8.83090    8.67340  -86.86630
 2350.00000   49.37330  161.53810   11.81320  259.37840    4.07150    4.28540  -81.65210
 2400.00000   51.68820   93.96570    9.37690   64.07250   16.00550   12.76780  -82.96880
 2450.00000   54.06600   88.06240    9.90590  320.08360    3.50870    4.13010  -80.66790
 2500.00000   38.32870   92.73650    9.62710  100.50390    9.95670    9.27510  -84.20690
 2550.00000   53.63230   98.95170   10.95270  152.80400    6.54940    6.50100  -83.86540
 2600.00000   56.58100  100.39340   11.85510  208.00920    4.96220    4.75150  -82.53810
 2650.00000   56.56110   98.57110   11.89130  173.93200    5.93670    5.22470  -82.04450
 2700.00000   62.18080   87.38550   13.75590  123.12170    8.10980    7.74140  -83.03800
 2750.00000   71.20580   96.27290   13.03490   98.77970   10.12120    8.85220  -84.02700
 2800.00000   91.65450  100.67240   12.21870  119.27200    8.38880    9.05180  -83.34340
 2850.00000   87.01590   99.87230   13.70360   86.90240   11.50040   12.28110  -82.82490
 2900.00000   79.88840   96.05410   13.06420   95.49860   10.51290   11.08110  -82.99680
 2950.00000   76.73750   95.88090   12.51270  121.39940    8.37950    8.70980  -83.27000
 3000.00000   84.75350  105.95260   12.82050  131.83610    7.73900    7.44660  -84.42530
 3050.00000   65.29180   98.42270   12.99540  100.67080   10.10800    9.15300  -83.81420
 3100.00000   53.24450   84.48280   12.26270   72.67490   13.76340   12.34280  -84.35110
 3150.00000   72.76380   86.06020   11.78010   87.43850   11.66060    9.35570  -83.69250
 3200.00000   72.24220   96.59850   11.64950   99.03240   10.07810    8.54870  -84.42570
 3250.00000   78.29870  118.86890   10.60210  124.00640    8.27640    7.45160  -84.47920
 3300.00000   63.94420  110.35900   13.08070   82.67530   12.79320   10.76140  -84.08360
 3350.00000   72.46990   86.01410   11.79800   63.55810   15.73200   12.24700  -83.91070
 3400.00000   68.11670   84.55790   10.89530   55.23030   18.17030   13.30280  -83.65020
 3450.00000   70.06530   93.27690   11.56920   73.38930   13.70990    9.84010  -85.52310
 3500.00000   75.57370   86.93590   11.20280   95.72150   10.44670    9.50710  -86.88560
 3550.00000   75.53760   93.23840   10.72710  115.37440    8.69300    8.62460  -85.57650
 3600.00000   81.05700   86.78150   11.61870  119.17020    8.50320    9.01810  -84.95100
 3650.00000   89.83680   94.16480   11.44160  124.97960    8.25790    9.07500  -83.70700
 3700.00000   91.87330   95.63960   11.81970  107.41230    9.42090   10.12120  -83.58510
 3750.00000  100.28610   95.70520   11.66200  105.91230    9.43720   10.48840  -83.17390
 3800.00000   96.70930   97.34470   11.23680   89.51840   11.16840   12.30260  -83.60860
 3850.00000   86.52880   94.08240   11.15680  116.10560    8.90080   10.13690  -84.03660
 3900.00000   91.01650   93.41660   10.51910   96.30260   10.50380   12.28970  -83.86910
 3950.00000  117.48510  102.17420   10.39240   86.76330   11.80330   15.38750  -82.71860
 4000.00000   84.62890   93.63480   11.18410  128.26810    7.82130    9.39740  -82.92950
 4050.00000   91.97320   90.13270   10.35760   95.97830   10.42750   13.46930  -84.31420
 4100.00000   77.49290   95.86810   10.65300   92.25300   10.76530    9.99330  -85.56800
 4150.00000   78.36650   88.90390   10.80980  151.33400    6.60830    7.23170  -84.68520
 4200.00000   38.38870   75.69850    9.37070   70.68280   14.15380   19.78450 -103.56290
 4250.00000   85.18060   83.54580   10.23820  114.14110    8.75100   10.48310  -87.46980
 4300.00000   80.59080   88.50820   10.84140  143.18870    7.17830    7.48570  -86.10470
 4350.00000   85.58340   91.03510   11.56860  180.45860    5.62000    6.16330  -86.61960
 4400.00000   62.62570   83.09660   11.52960  117.74040    8.71800    8.49050  -86.68490
 4450.00000   82.77180   87.23110   11.68180  155.77860    6.52160    7.01090  -85.75510
 4500.00000   81.36890   87.35220   12.20070  147.40150    6.78410    7.53900  -85.89510
 4550.00000   82.14620   86.90100   12.74850  141.42230    7.13580    7.74690  -85.94010
 4600.00000   85.81060  100.78810   12.49920  286.28890    3.80310    4.39430  -86.57660
 4650.00000   78.65760  102.71280   12.24050  324.04150    3.57400    3.92180  -86.44120
 4700.00000   87.26050  112.52150   11.95110  311.79640    3.38690    3.69420  -85.82050
 4750.00000   69.66460   86.72770   12.65390  211.01410    4.91790    5.35490  -85.73300
 4800.00000   71.59280   88.32920   12.66720  206.41980    5.01510    5.30330  -85.69300
 4850.00000   98.98400   82.00620   11.64160  102.99430    9.70960   11.58620  -85.17840
 4900.00000   70.90430   78.83940   12.90320  253.27290    4.24690    5.35190  -84.95510
 4950.00000   63.27850   90.85760   13.11090  277.01250    3.94650    4.89150  -84.54980
 5000.00000   57.84770   82.40360   12.57590   66.53820   15.27840   16.44660  -91.09650
 5050.00000   66.60230   75.53520   11.65660   64.31390   16.04520   18.25680  -93.22220
 5100.00000   37.86920   90.86250   11.22350   48.41070   21.38380   22.07380  -91.90060
 5150.00000   63.42140   73.50910   11.72890   95.23790   10.84960   12.22450  -83.93490
 5200.00000   55.48110   65.04440   10.79900   52.85740   19.20470   23.01700  -91.48320
 5250.00000   59.52460   70.96060   10.31970   55.98240   17.84030   22.83280  -84.75680
 5300.00000   40.98330   76.95040   12.31530  105.31480    9.78790    9.71230  -84.73490
 5350.00000   68.67680   74.79320   11.64410   56.95170   18.73890   16.90970  -82.26480
 5400.00000   25.22370   76.01580   10.36870   60.88170   16.62880   32.01320 -121.47390
 5450.00000   67.63740   92.49850   11.83580   93.88840   11.07240   16.37750  -83.36180
 5500.00000   69.63650   76.01190   11.48910   73.56680   13.84090   15.89400  -82.51870
 5550.00000   51.48350   64.15120   11.87950   97.24790   10.69140   14.97420  -90.22980
 5600.00000   59.32400   74.97870   11.98170   91.58610   11.33170   11.89460  -88.26540
