~Version ---------------------------------------------------
VERS. 2.0 : CWLS log ASCII Standard -VERSION 2.0
WRAP.  NO : ONE LINE PER DEPTH STEP
~Well ------------------------------------------------------
STRT.M                             350.0 : START DEPTH
STOP.M                            2450.0 : STOP DEPTH
STEP.M                          50.00000 : STEP LENGTH
NULL.                            -999.25 : NULL VALUE
COMP. CALPINE CANADA NATURAL GAS COMPANY : COMPANY
WELL.       NORWICH TOGL TWIN 4-28-33-23 : WELL
FLD .                                    : FIELD
LOC .                                    : LOCATION
CTRY.                             CANADA : COUNTRY
SRVC.                                BPB : SERVICE COMPANY
DATE.                        21-Feb-1989 : LOGDATE
PROV.                            Alberta : PROVINCE
UWI .                   100042803323W400 : UNIQUE WELL ID
SLAT.WGS84                      51.85486 : SURFACE LATITUDE
SLON.WGS84                     -113.2132 : SURFACE LONGITUDE
~Curve Information -----------------------------------------
DEPT   .M     : 
SFE    .OHMM  : SHALLOW FOCUSED ELECTRIC RESISTIVITY LOG
SPR    .MV    : SPONTANEOUS POTENTIAL FROM RESISTIVITY LOG
ILD    .OHMM  : DEEP INDUCTION RESISTIVITY
ILM    .OHMM  : INDUCTION MEDIUM RESISTIVITY
GRR    .GAPI  : GAMMA RAY FROM RESISTIVITY LOG
GRS    .GAPI  : GAMMA RAY FROM SONIC LOG
CALS   .MM    : CALIPER FROM SONIC LOG
DT     .US/M  : DELTA TIME FROM SONIC LOG
TENS   .LB    : TENSION FROM SONIC LOG
GRD    .GAPI  : GAMMA RAY FROM DENSITY LOG
NPHI_SS.DEC   : NEUTRON POROSITY SANDSTONE
CALYD  .MM    : CALIPER  Y FROM DENSITY LOG
CALXD  .MM    : CALIPER X FROM DENSITY LOG
NPE    .B/E   : NEAR PHOTOELECTRIC
DPHI_SS.DEC   : DENSITY POROSITY SANDSTONE
TEND   .LB    : TENSION FROM DENSITY LOG
FPE    .B/E   : FAR PHOTOELECTRIC
NPHI_LS.DEC   : NEUTRON POROSITY LIMESTONE
DPHI_LS.DEC   : DENSITY POROSITY LIMESTONE
DCOR   .G/C3  : DENSITY CORRECTION
DEN    .G/C3  : DENSITY
~Params ----------------------------------------------------
PD  .                         GL : PERMANENT DATUM
EPD .M                    839.17 : ELEVATION PERMANENT DATUM
DAPD.M                      7.19 : FEET ABOVE PERMANENT DATUM
DMF .                         KB : DRILLING MEASURED FROM
EKB .M                    846.36 : KELLY BUSHING
EGL .M                    839.17 : GROUND LEVEL
DATE.                   02/21/89 : RUN DATE
RUN .                          1 : RUN NUMBER
DD  .M                      2455 : DEPTH DRILLER
DL  .M                    2457.3 : DEPTH LOGGER
BLI .M                      2457 : BOTTOM LOG INTERVAL
TLI .M                     396.3 : TOP LOG INTERVAL
CBD .M                       398 : CASING BOTTOM DRILLER
CBL .M                     396.3 : CASING BOTTOM LOGGER
BS  .MM                      222 : BIT SIZE
BSD .M                      2455 : BIT SIZE AT DEPTH
DFT .                   GEL CHEM : DRILLING FLUID TYPE
DFD .                       1150 : DRILLING FLUID DENSITY
DFV .                         75 : DRILLING FLUID VISCOSITY
DFPH.                       11.5 : DRILLING FLUID PH
DFL .                       10.4 : DRILLING FLUID LOSS
MSS .                   FLOWLINE : MUD SAMPLE SOURCE
RMS .OHMM                   0.48 : RESISTIVITY MUD SAMPLE
MST .DEGC                     20 : MUD SAMPLE TEMPERATURE
RMF .OHMM                   0.39 : RESISTIVITY MUD FILTRATE SAMPLE
MFST.DEGC                     20 : MUD FILTRATE SAMPLE TEMPERATURE
RMC .OHMM                   0.82 : RESISTIVITY MUD CAKE
MCST.DEGC                     20 : MUD CAKE SAMPLE TEMPERATURE
MFSS.                      PRESS : MUD FILTRATE SAMPLE SOURCE
MCSS.                      PRESS : MUD CAKE SAMPLE SOURCE
RMB .OHMM                   0.22 : RESISTIVITY MUD AT BHT
TCS .HRS                       9 : TIME CIRCULATED STOPPED
LUN .                     V 1024 : LOGGING UNIT NUMBER
LUL .                        GPR : LOGGING UNIT LOCATION
ENGI.                    TRACHUK : RECORDING ENGINEER
WITN.                   REICHERT : WITNESSED BY
CLNT.                    A2DTECH : CLIENT CODE
ORIG. 6.5"/100M 16.5"/100M PRINT : ORIGIN OF DATA
UWI .           100042803323W400 : UNIQUE WELL ID
DICO.     A2D Technologies, Inc. : DIGITIZING COMPANY
~Other -----------------------------------------------------
~ASCII -----------------------------------------------------
  350.00000    -999.25    -999.25    -999.25    -999.25   41.72700   40.12380    -999.25    -999.25    -999.25    -999.25    -999.25    -999.25    -999.25    -999.25    -999.25    -999.25    -999.25    -999.25    -999.25    -999.25    -999.25
  400.00000    4.83960  -96.12210    3.62430    2.41610   67.90410   66.63990  407.26780  419.27580  813.48990   75.10530    0.47930  410.13320  403.88080    2.03900    0.62890  917.83940    2.62810    -999.25    -999.25    0.18800    1.69930
  450.00000    5.38120  -90.57830    5.20010    4.54690   71.35370   69.72580  316.80860  317.46840  887.87570   72.55800    0.45870  318.59770  247.28140    2.32930    0.17700  882.28710    2.78770    -999.25    -999.25    0.10890    2.35690
  500.00000    7.21140  -92.95110    6.57580    7.07110   67.91160   70.33130  231.67810  289.42670  934.70140   55.55500    0.28140  231.35430  224.70010    2.16360    0.13670 1015.99640    2.50180    -999.25    -999.25    0.03490    2.42980
  550.00000    7.98130 -100.00920   10.61020    9.01540   60.63340   60.12000  228.99500  321.99590  925.40280   55.12950    0.32710  219.83120  218.03890    2.29680    0.21340  988.40660    2.49130    -999.25    -999.25    0.05330    2.30010
  600.00000    9.54020 -100.11590   10.09660    8.82270   54.53680   53.49980  240.34860  295.09230  994.17860   64.05130    0.31170  233.74890  229.70670    2.15960    0.15800 1000.78490    2.32430    -999.25    -999.25    0.05260    2.37970
  650.00000    3.18680  -90.32240    4.61790    3.28920   59.05080   60.40350  406.67110  398.51290 1055.35730   62.34450    0.50670  409.99980  286.31740    2.18370    0.44760 1147.09290    2.83060    -999.25    -999.25    0.15130    1.92440
  700.00000    4.65130  -91.10930    5.15820    4.46840   69.81370   69.95170  373.31630  322.53880 1056.64600   62.19410    0.46240  372.44010  264.47850    2.27350    0.19590 1251.34850    3.01840    -999.25    -999.25    0.12970    2.33800
  750.00000    6.34010  -90.36070    7.23580    6.21510   63.57160   68.20490  278.21960  320.73360 1108.36730   73.60350    0.37330  268.12680  245.24220    1.69090    0.22500 1160.45850    2.63180    -999.25    -999.25    0.24190    2.27040
  800.00000    4.64050  -88.30570    4.91410    4.08450   70.04890   73.84850  291.87230  323.69510 1130.77600   77.80120    0.43390  242.33350  252.49230    1.99840    0.17340 1223.11800    2.52880    -999.25    -999.25    0.21670    2.34960
  850.00000    7.27790  -83.69540    8.02680    7.09030   92.51120   91.19100  323.36770  299.55040 1196.38530   92.20550    0.36370  255.79590  300.18550    1.82470    0.25020 1270.40210    2.62960    -999.25    -999.25    0.34200    2.24900
  900.00000    8.00370  -87.18890    9.13140    7.15480   95.89460   94.04650  396.99010  296.31090 1205.15390   95.90020    0.49050  266.78160  325.54350    1.70400    0.40160 1294.16310    2.81380    -999.25    -999.25    0.28010    1.96600
  950.00000   10.51750  -83.01430    9.78330    8.95120  139.61070  135.98190  275.79770  314.45040 1213.08540  137.12450    0.40510  234.84340  259.09180    2.59420    0.11450 1298.84120    2.82830    -999.25    -999.25    0.13790    2.46250
 1000.00000    9.92510  -82.35810    8.05610    7.06130  120.24340  117.42110  304.74320  285.33740 1344.05350  105.16930    0.32920  261.51880  266.07320    1.49900    0.29100 1375.64170    2.53860    -999.25    -999.25    0.29860    2.14530
 1050.00000    8.25270  -78.10980    8.48380    7.35890  103.45380  104.46270  343.96940  293.07360 1399.43910  110.76610    0.32480  261.50420  304.98930    1.53030    0.27540 1489.57850    2.83340    -999.25    -999.25    0.30410    2.20600
 1100.00000    8.73590  -77.51440    8.33550    7.48780  107.78560  106.33810  361.30610  283.13390 1446.02310  106.29390    0.37400  232.98850  297.73890    1.39630    0.31580 1507.18740    2.53930    -999.25    -999.25    0.35430    2.12510
 1150.00000    7.18250  -74.56610    7.94110    6.58100  106.84020   98.19140  404.66360  294.19120 1449.20320  104.80200    0.44770  274.25840  346.75930    1.47320    0.46590 1550.23500    2.12590    -999.25    -999.25    0.22130    2.06050
 1200.00000    7.38470  -72.54590    6.63750    6.04920  112.22020  114.10210  343.57890  311.98100 1524.36230  112.88390    0.44850  260.08220  301.98640    1.50070    0.20530 1567.28410    2.37870    -999.25    -999.25    0.32970    2.31030
 1250.00000   13.05070  -67.60260    9.79410    9.42550  124.04400  124.88240  260.26480  300.46900 1521.72670  115.47820    0.34310  240.77340  250.45790    3.20310    0.04930 1558.04440    3.32310    -999.25    -999.25    0.01270    2.57560
 1300.00000    7.86790  -62.60460    6.00570    5.78770  201.80020  191.30260  288.10430  345.07090 1543.09740  191.81370    0.45620  240.60840  275.47660    2.30730    0.16050 1593.91170    3.01050    -999.25    -999.25    0.08950    2.39410
 1350.00000    3.62270  -61.22130    3.33320    2.72130   98.16660  101.45990  340.37320  329.67920 1646.49720   94.85880    0.44020  276.68860  313.10080    1.56270    0.29990 1698.97840    2.17440    -999.25    -999.25    0.31310    2.18900
 1400.00000    5.02410  -56.03860    4.89450    4.64490   92.77310   99.35900  378.96880  280.91250 1667.26140  106.32970    0.41670  267.70990  342.70870    1.42150    0.22120 1710.93040    2.33670    -999.25    -999.25    0.34670    2.30790
 1450.00000    8.91770  -68.58920    9.26350    8.68480   73.62690   77.99520  282.03280  252.84010 1683.41320   76.08720    0.31090  251.25010  276.01180    2.65330    0.03960 1710.69210    2.92540    -999.25    -999.25    0.02700    2.59240
 1500.00000   11.96620  -73.60970    9.94850    9.35150   72.98680   71.06670  281.35670  240.84410 1727.94810   71.28090    0.29460  270.67150  277.95950    2.77150    0.05060 1759.54240    2.58910    -999.25    -999.25    0.02720    2.62710
 1550.00000   11.91550  -27.90890   10.58710   10.91210   95.44670  100.71480  276.10770  245.47780 1720.48410   86.14090    0.29620  277.96260  265.73240    2.58390    0.04080 1821.72220    2.50670    -999.25    -999.25    0.02840    2.58210
 1600.00000   34.13180  -41.03970   27.17700   22.05530   44.89860   44.57630  290.51380  196.34850 1767.06490   50.84200    -999.25  289.70440  277.19070    2.96340    0.02920 1798.07350    3.02680    0.13010   -0.00380    0.18050    2.59800
 1650.00000   14.52350    -999.25   11.41270   11.93130   54.86200   54.96190  283.48540  220.40510 1882.11290   50.88260    -999.25  309.53990  284.22140    4.20960    -999.25 1870.96720    3.62630    0.20630    0.00560    0.02220    2.71210
 1700.00000   14.71360    -999.25   10.30910   10.63530   72.97600   72.84300  322.52480  230.11720 1890.25730   63.95550    -999.25  292.78030  308.30240    3.43250    -999.25 1948.28550    3.64770    0.19110    0.01750    0.10410    2.67300
 1750.00000  185.40200    -999.25   70.81800   50.30720   12.84310   12.99510  274.66740  179.54450 1942.22380   15.69750    -999.25  273.83930  279.22250    4.89420    -999.25 2020.88980    4.65950    0.06200   -0.12330    0.01700    2.92340
 1800.00000  239.86190    -999.25  146.59690   75.45230   15.36100   15.39310  281.81590  165.33250 1991.59660   16.20350    -999.25  275.57730  283.34840    4.43330    -999.25 2034.76830    3.95040    0.10810   -0.11830    0.02660    2.91540
 1850.00000  645.11420    -999.25   13.93170    4.31010   12.80830   12.92780  365.08190  199.24020 2057.24050   14.82810    -999.25  337.28450  347.70210    3.43330    -999.25 2089.23610    3.63120    0.20570    0.17580    0.11050    2.52150
 1900.00000  563.38050    -999.25  279.79320  116.88870   13.19890   13.14910  277.21270  167.83630 2065.35250   12.06910    -999.25  274.91080  262.29820    5.37340    -999.25 2077.46240    4.41150    0.01380   -0.15660    0.03670    2.98230
 1950.00000   69.45020    -999.25   37.52850   34.28880   25.05000   25.45570  293.00050  162.92100 2109.14790   25.91340    -999.25  274.01160  281.91140    3.48820    -999.25 2160.66480    3.18080    0.13890   -0.06160    0.02630    2.80250
