~Version ---------------------------------------------------
VERS.      2.0 : CWLS log ASCII Standard -VERSION 2.0
WRAP.       NO : One line per depth step
CREA. 08/31/17 : LAS Creation Date
~Well ------------------------------------------------------
STRT.FT                           950.0 : START DEPTH
STOP.FT                         10350.0 : STOP DEPTH
STEP.FT                        50.00000 : STEP LENGTH
NULL.                           -999.25 : NULL VALUE
COMP.     THE ATLANTIC REFINING COMPANY : COMPANY
WELL. ATLANTIC SOUTH KAYBOB 10-18-63-19 : WELL
FLD .                                wc : FIELD
LOC .                                   : LOCATION
CTRY.                            CANADA : COUNTRY
SRVC.                      Schlumberger : SERVICE COMPANY
DATE.                       29-Oct-1962 : LOGDATE
PROV.                           Alberta : PROVINCE
UWI .                  100101806319W500 : UNIQUE WELL ID
SLAT.WGS84                     54.45213 : SURFACE LATITUDE
SLON.WGS84                    -116.8583 : SURFACE LONGITUDE
~Curve Information -----------------------------------------
DEPT  .FT    : Depth Curve
CALSED.IN    : CALIPER FROM SL-GR-CAL LOG
CALWS .IN    : CALIPER [CALSED]
CILDED.MMHO  : DEEP INDUCTION CONDUCTIVITY FROM IEL LOG
CONDWS.OHMM  : CONDUCTIVITY [1000/DRESWS]
DRESWS.OHMM  : DEEP RESISTIVITY [ILDED]
DTED  .US/F  : DELTA-T (INTERVAL TRANSIT TIME)
DTWS  .US/F  : COMPRESSIONAL SONIC [DTED]
GRSED .GAPI  : GAMMA RAY FROM SL-GR-CAL LOG
GRWS  .GAPI  : GAMMA RAY [GRSED]
ILDED .OHMM  : DEEP INDUCTION RESISTIVITY FROM IEL LOG
SNED  .OHMM  : SHORT NORMAL RESISTIVITY FROM IEL LOG
SPRED .MV    : SPONTANEOUS POTENTIAL FROM IEL LOG
SPWS  .MV    : SPONTANEOUS POTENTIAL [SPRED]
SRESWS.OHMM  : SHALLOW RESISTIVITY [SNED]
~Params ----------------------------------------------------
PD  .                     GL : PERMANENT DATUM
LMF .                     KB : LOG MEASURED FROM
EKB .FT                 2596 : KELLY BUSHING
DATE.               10/29/62 : RUN DATE
RUN .                      1 : RUN NUMBER
DD  .FT                10362 : DEPTH DRILLER
DL  .FT                10367 : DEPTH LOGGER
BLI .FT                10366 : BOTTOM LOG INTERVAL
TLI .FT                 1039 : TOP LOG INTERVAL
CBD .FT                 1037 : CASING BOTTOM DRILLER
CBL .FT                 1039 : CASING BOTTOM LOGGER
BS  .IN                 8.75 : BIT SIZE
BSD .FT                10362 : BIT SIZE AT DEPTH
DFT .                    GEL : DRILLING FLUID TYPE
DFD .                   10.1 : DRILLING FLUID DENSITY
DFV .                     95 : DRILLING FLUID VISCOSITY
DFPH.                    9.8 : DRILLING FLUID PH
DFL .                    6.6 : DRILLING FLUID LOSS
RMS .OHMM               1.43 : RESISTIVITY MUD SAMPLE
MST .DEGF                 97 : MUD SAMPLE TEMPERATURE
RMF .OHMM               1.25 : RESISTIVITY MUD FILTRATE SAMPLE
MFST.DEGF                 70 : MUD FILTRATE SAMPLE TEMPERATURE
RMC .OHMM               2.43 : RESISTIVITY MUD CAKE
MCST.DEGF                 70 : MUD CAKE SAMPLE TEMPERATURE
RMB .OHMM               0.74 : RESISTIVITY MUD AT BHT
TCS .HRS                 3.5 : TIME CIRCULATED STOPPED
LUN .                   3534 : LOGGING UNIT NUMBER
LUL .                    WCT : LOGGING UNIT LOCATION
ENGI.              HAUSEGGER : RECORDING ENGINEER
WITN.                 STRACK : WITNESSED BY
CLNT.                A2DTECH : CLIENT CODE
ORIG.            2" 5" PRINT : ORIGIN OF DATA
UWI .       100101806319W500 : UNIQUE WELL ID
DICO. A2D Technologies, Inc. : DIGITIZING COMPANY
~Other -----------------------------------------------------
~ASCII -----------------------------------------------------
  950.00000    -999.25    -999.25    -999.25    -999.25    -999.25    -999.25    -999.25   62.47960   62.47960    -999.25    -999.25    -999.25    -999.25    -999.25
 1000.00000    -999.25    -999.25    -999.25    -999.25    -999.25    -999.25    -999.25   55.43720   55.43720    -999.25    -999.25    -999.25    -999.25    -999.25
 1050.00000    9.94750    9.94750    -999.25    -999.25    -999.25  132.06690  132.06690   90.40190   90.40190    -999.25    -999.25    -999.25    -999.25    -999.25
 1100.00000   11.27880   11.27880  244.48510  296.03320    3.37800  110.93970  110.93970   82.91030   82.91030    3.37800    3.11880 -129.07390   -0.74300    3.11880
 1150.00000   11.57910   11.57910  319.37560  352.50990    2.83680  102.68650  102.68650   76.79870   76.79870    2.83680    2.44820 -129.49130   -1.35560    2.44820
 1200.00000   13.35590   13.35590  262.38070  308.22340    3.24440  126.81190  126.81190   73.38230   73.38230    3.24440    3.05640 -128.41030   -0.47110    3.05640
 1250.00000   14.16350   14.16350  389.13730  531.43430    1.88170  105.76360  105.76360   69.45410   69.45410    1.88170    2.55920 -127.72840    0.01570    2.55920
 1300.00000   12.27610   12.27610  228.85720  273.12530    3.68580  102.25770  102.25770   78.62590   78.62590    3.68580    4.15680 -130.48830   -2.93940    4.15680
 1350.00000   14.90490   14.90490  310.80060  414.19870    2.41430  128.60020  128.60020   91.77590   91.77590    2.41430    2.75950 -127.76220   -0.40980    2.75950
 1400.00000   12.44900   12.44900  242.84900  296.27000    3.37530  106.33550  106.33550   87.21580   87.21580    3.37530    3.18070 -128.13220   -0.97500    3.18070
 1450.00000   10.99120   10.99120   90.38640   69.94720   14.29650   87.19940   87.19940   60.95750   60.95750   14.29650   12.20100 -137.67980  -10.71900   12.20100
 1500.00000   11.57360   11.57360  177.22260  189.14320    5.28700  103.50290  103.50290   80.15730   80.15730    5.28700    4.53870 -127.45180   -0.68620    4.53870
 1550.00000   11.45040   11.45040  210.69630  238.02200    4.20130  107.21500  107.21500   86.14660   86.14660    4.20130    3.41410 -126.22330    0.34710    3.41410
 1600.00000   11.54040   11.54040  192.34380  195.79050    5.10750  128.57430  128.57430   93.79370   93.79370    5.10750    4.15830 -126.68980   -0.31580    4.15830
 1650.00000   11.97750   11.97750   82.78660   76.91240   13.00180  102.40950  102.40950   75.15150   75.15150   13.00180    8.50190 -129.81580   -3.63700    8.50190
 1700.00000   12.95660   12.95660  151.34330  159.73420    6.26040  106.48450  106.48450   90.99690   90.99690    6.26040    4.74790 -129.77310   -3.79080    4.74790
 1750.00000   13.00960   13.00960  257.28450  254.03920    3.93640  103.57340  103.57340   78.59300   78.59300    3.93640    3.71720 -126.94110   -1.15390    3.71720
 1800.00000   12.55600   12.55600   66.07470   58.74320   17.03650  101.74430  101.74430   94.34090   94.34090   17.03650   10.15630 -131.47740   -5.88540   10.15630
 1850.00000   12.80200   12.80200  270.90300  301.49540    3.31680  118.18460  118.18460   88.81550   88.81550    3.31680    2.95370 -126.45470   -1.05920    2.95370
 1900.00000   12.86310   12.86310  329.58270  348.25000    2.87150  110.51710  110.51710   72.63550   72.63550    2.87150    2.71560 -126.88300   -1.68260    2.71560
 1950.00000   13.06600   13.06600  209.49300  230.16550    4.34470   96.07360   96.07360   66.90440   66.90440    4.34470    4.41760 -126.40850   -1.40460    4.41760
 2000.00000   13.77850   13.77850  252.04110  270.95130    3.69070  118.81080  118.81080   93.65880   93.65880    3.69070    3.17230 -126.40980   -1.60110    3.17230
 2050.00000   13.55390   13.55390   91.96880   92.17810   10.85190  103.71950  103.71950   85.23540   85.23540   10.85190    6.89980 -132.16870   -7.55510    6.89980
 2100.00000   12.05140   12.05140  241.56030  249.45120    4.00880  100.99670  100.99670   73.14220   73.14220    4.00880    3.70920 -126.52250   -2.10540    3.70920
 2150.00000   11.98630   11.98630  254.09190  258.45140    3.86920  105.24390  105.24390   67.39580   67.39580    3.86920    3.55020 -125.85300   -1.63110    3.55020
 2200.00000   11.34970   11.34970   29.92700   28.86650   34.64220   97.81180   97.81180   59.95860   59.95860   34.64220   21.99490 -129.66030   -5.63480   21.99490
 2250.00000   12.28810   12.28810  210.78650  225.58090    4.43300  103.51410  103.51410   78.64190   78.64190    4.43300    3.97450 -125.83730   -2.00700    3.97450
 2300.00000   12.90240   12.90240  234.63750  252.95050    3.95350   95.69760   95.69760   69.61920   69.61920    3.95350    3.78390 -125.98510   -2.35000    3.78390
 2350.00000   13.99540   13.99540  229.08520  261.34230    3.82640  115.11780  115.11780   73.00420   73.00420    3.82640    4.16310 -125.71490   -2.27630    4.16310
 2400.00000   12.46090   12.46090  275.60410  270.74590    3.69350  112.96490  112.96490   69.23060   69.23060    3.69350    3.45830 -126.18170   -2.93820    3.45830
 2450.00000   11.97640   11.97640   71.22880   73.95030   13.52260   97.31060   97.31060   63.60480   63.60480   13.52260   11.10360 -132.51260   -9.46560   11.10360
 2500.00000   13.37660   13.37660  236.39270  283.96180    3.52160   96.16040   96.16040   73.90700   73.90700    3.52160    3.97850 -125.54220   -2.69040    3.97850
 2550.00000   12.02740   12.02740  315.15330  359.12080    2.78460  121.75250  121.75250   61.64630   61.64630    2.78460    3.87840 -125.93730   -3.28060    3.87840
 2600.00000   12.41180   12.41180  242.29660  256.75260    3.89480  100.34010  100.34010   63.70670   63.70670    3.89480    3.71560 -125.06610   -2.60590    3.71560
 2650.00000   11.83600   11.83600   53.50320   52.58450   19.01700   93.82490   93.82490   60.96480   60.96480   19.01700   14.65320 -135.46690  -13.20190   14.65320
 2700.00000   11.37730   11.37730  246.91890  258.61850    3.86670  115.26830  115.26830   70.87220   70.87220    3.86670    3.69350 -124.79450   -2.72590    3.69350
 2750.00000   11.83980   11.83980  191.28900  197.23870    5.07000   90.71230   90.71230   71.25250   71.25250    5.07000    4.85370 -124.88350   -3.01010    4.85370
 2800.00000   10.55020   10.55020   44.23270   43.89600   22.78110   87.35780   87.35780   58.56110   58.56110   22.78110   17.73880 -132.87830  -11.20010   17.73880
 2850.00000   11.55350   11.55350  230.63200  236.53520    4.22770   86.65500   86.65500   77.20400   77.20400    4.22770    4.09180 -124.33770   -2.85590    4.09180
 2900.00000   11.10300   11.10300   51.15710   51.42020   19.44760   74.72620   74.72620   52.92080   52.92080   19.44760   19.10700 -140.41750  -19.13090   19.10700
 2950.00000   11.46640   11.46640  122.08940  125.51780    7.96700   90.35240   90.35240   62.10210   62.10210    7.96700    8.49420 -128.13290   -6.84760    8.49420
 3000.00000   11.36320   11.36320  165.89970  166.27870    6.01400   95.53860   95.53860   84.52960   84.52960    6.01400    6.34960 -124.78390   -3.49860    6.34960
 3050.00000   11.76690   11.76690  161.58960  160.55170    6.22950   89.68830   89.68830   85.93110   85.93110    6.22950    6.05110 -124.57250   -3.28720    6.05110
 3100.00000   11.63050   11.63050  127.15260  130.14560    7.68370   90.55200   90.55200   91.12520   91.12520    7.68370    7.21230 -124.98670   -3.70140    7.21230
 3150.00000   11.97340   11.97340  136.30820  140.08350    7.13860   91.38060   91.38060  108.55800  108.55800    7.13860    6.86610 -126.89060   -5.60530    6.86610
 3200.00000   12.23980   12.23980  134.87370  140.54020    7.11540   94.49780   94.49780   88.74080   88.74080    7.11540    6.88050 -126.37240   -5.08710    6.88050
 3250.00000   12.35280   12.35280  137.47450  142.32850    7.02600  105.14190  105.14190  108.45260  108.45260    7.02600    7.46660 -124.95920   -3.67390    7.46660
 3300.00000   12.17800   12.17800   81.65850   83.17970   12.02280   88.60810   88.60810  103.31070  103.31070   12.02280   13.14030 -128.25690   -6.97160   13.14030
 3350.00000   12.58320   12.58320  124.96090  128.82450    7.76250   94.31300   94.31300  108.53340  108.53340    7.76250    8.32460 -126.02520   -4.96070    8.32460
