~Version ---------------------------------------------------
VERS.      2.0 : CWLS log ASCII Standard -VERSION 2.0
WRAP.       NO : One line per depth step
CREA. 12/01/17 : LAS Creation Date
~Well ------------------------------------------------------
STRT.FT                              950.0 : START DEPTH
STOP.FT                             9000.0 : STOP DEPTH
STEP.FT                           50.00000 : STEP LENGTH
NULL.                              -999.25 : NULL VALUE
COMP.             CANADIAN KEWANEE LIMITED : COMPANY
WELL. KEWANEE MULE CREEK SMOKY 10-12-71-21 : WELL
FLD .                                      : FIELD
LOC .                                      : LOCATION
CTRY.                               CANADA : COUNTRY
SRVC.                         Schlumberger : SERVICE COMPANY
DATE.                          09-Sep-1964 : LOGDATE
PROV.                              Alberta : PROVINCE
UWI .                     100101207121W500 : UNIQUE WELL ID
SLAT.WGS84                        55.13667 : SURFACE LATITUDE
SLON.WGS84                       -117.0866 : SURFACE LONGITUDE
~Curve Information -----------------------------------------
DEPT  .FT    : Depth Curve
CALWS .IN    : CALIPER [MCALED]
CILDED.MMHO  : CONDUCTIVITY FROM RESISTIVITY LOG
CONDWS.MMHO  : CONDUCTIVITY [1000/DRESWS]
DRESWS.OHMM  : DEEP RESISTIVITY [1000/CILDED IF ILDED < 5, ILDED]
DTED  .US/F  : DELTA-T FROM SONIC LOG [ADJ. TO RESISTIVITY LOG]
DTWS  .US/F  : COMPRESSIONAL SONIC [DTED]
GRSED .GAPI  : GAMMA RAY FROM SONIC LOG
GRWS  .GAPI  : GAMMA RAY [GRSED]
ILDED .OHMM  : DEEP INDUCTION FROM RESISTIVITY LOG
MCALED.IN    : MLT CALIPER FROM ML LOG
SNED  .OHMM  : SHORT NORMAL FROM RESISTIVITY LOG
SPRED .MV    : SPONTANEOUS POTENTIAL FROM RESISTIVITY LOG
SPWS  .MV    : SPONTANEOUS POTENTIAL [BASELINE 0 MV, SPRED]
SRESWS.OHMM  : SHALLOW RESISTIVITY [SNED]
~Params ----------------------------------------------------
LMF .                     CM : LOG MEASURED FROM
DATE.               09/09/64 : RUN DATE
RUN .                      1 : RUN NUMBER
DD  .FT                 9050 : DEPTH DRILLER
DL  .FT                 9048 : DEPTH LOGGER
BLI .FT                 9047 : BOTTOM LOG INTERVAL
TLI .FT                  933 : TOP LOG INTERVAL
CBD .FT                  932 : CASING BOTTOM DRILLER
CBL .FT                  933 : CASING BOTTOM LOGGER
BS  .IN                7.875 : BIT SIZE
BSD .FT                 9050 : BIT SIZE AT DEPTH
DFT .                    GEL : DRILLING FLUID TYPE
DFD .                     10 : DRILLING FLUID DENSITY
DFV .                    110 : DRILLING FLUID VISCOSITY
DFPH.                    9.5 : DRILLING FLUID PH
DFL .                    4.1 : DRILLING FLUID LOSS
RMS .OHMM                  2 : RESISTIVITY MUD SAMPLE
MST .DEGF                 60 : MUD SAMPLE TEMPERATURE
RMF .OHMM                1.8 : RESISTIVITY MUD FILTRATE SAMPLE
MFST.DEGF                 64 : MUD FILTRATE SAMPLE TEMPERATURE
RMC .OHMM                2.1 : RESISTIVITY MUD CAKE
MCST.DEGF                 64 : MUD CAKE SAMPLE TEMPERATURE
TCS .HRS                 2.5 : TIME CIRCULATED STOPPED
LUN .                   3534 : LOGGING UNIT NUMBER
LUL .                     VV : LOGGING UNIT LOCATION
ENGI.               CHENOSKY : RECORDING ENGINEER
WITN.        DANIELS ZUEHLHE : WITNESSED BY
CLNT.                A2DTECH : CLIENT CODE
ORIG.            2" 5" PRINT : ORIGIN OF DATA
UWI .       100101207121W500 : UNIQUE WELL ID
DICO. A2D Technologies, Inc. : DIGITIZING COMPANY
~Other -----------------------------------------------------
IEL-BHC LOG RUN
~ASCII -----------------------------------------------------
# ...
 5850.00000    9.69430  237.55310  237.55310    4.20960   75.23930   75.23930   66.20400   66.20400    3.75370    9.69430    6.88870  -54.88660  -21.72180    6.88870
 5900.00000    8.24510   47.28470   42.95510   23.28010   59.89290   59.89290   38.58490   38.58490   23.28010    8.24510   36.41510  -33.64630   -0.11700   36.41510
 5950.00000    9.82040   19.52440   16.45200   60.80610   52.25550   52.25550   22.25960   22.25960   60.80610    9.82040   84.50240  -63.39210  -30.47520   84.50240
 6000.00000    8.47550   29.92740   25.20400   39.67630   57.44450   57.44450   37.82410   37.82410   39.67630    8.47550   51.74530  -83.96250  -51.78320   51.74530
 6050.00000    8.35510   60.12320   55.88090   17.89520   61.29320   61.29320   44.66380   44.66380   17.89520    8.35510   27.34900  -66.14530  -34.70730   27.34900
 6100.00000    8.65760   49.31120   45.33070   22.06010   60.33750   60.33750   48.25870   48.25870   22.06010    8.65760   26.96610  -66.86990  -36.17320   26.96610
 6150.00000    8.66460   52.03650   48.18790   20.75210   62.64380   62.64380   49.54800   49.54800   20.75210    8.66460   26.16780  -62.24770  -32.29230   26.16780
 6200.00000    8.36480   33.58620   28.88360   34.62370   59.58090   59.58090   41.11420   41.11420   34.62370    8.36480   41.67700  -66.29470  -37.08430   41.67700
 6250.00000    8.25310   26.92550   22.05150   45.34830   56.81220   56.81220   30.22030   30.22030   45.34830    8.25310   59.18620  -81.03550  -52.56270   59.18620
 6300.00000    8.26500   44.74390   39.06800   25.59640   61.26550   61.26550   40.02830   40.02830   25.59640    8.26500   40.16180  -74.45210  -46.72060   40.16180
 6350.00000    8.61200   55.19540   50.95230   19.62620   65.24210   65.24210   45.93420   45.93420   19.62620    8.61200   28.50150  -57.09650  -30.10630   28.50150
 6400.00000   13.99650  190.60250  190.60250    5.24650   91.36690   91.36690  108.09990  108.09990    4.87620   13.99650    8.35570  -94.85170  -68.60280    8.35570
 6450.00000   11.27670  165.30890  170.91280    5.87840  120.23080  120.23080  138.93000  138.93000    5.87840   11.27670    9.69810  -99.76520  -74.26130    9.69810
 6500.00000    8.58580    5.99190    3.47580  287.70110   52.45020   52.45020   18.86290   18.86290  287.70110    8.58580  159.26640 -141.06470 -116.29840  159.26640
 6550.00000    8.43820    6.49850    3.96610  252.13450   53.24280   53.24280   14.19230   14.19230  252.13450    8.43820  129.94550 -145.61460 -121.58960  129.94550
 6600.00000    8.95930    6.80050    4.31810  231.58090   51.89660   51.89660   18.00610   18.00610  231.58090    8.95930  151.24540 -122.67260  -99.38890  151.24540
 6650.00000    9.37080   10.45540    8.15740  122.58800   53.14680   53.14680   12.25400   12.25400  122.58800    9.37080  119.84320 -147.19820 -124.65590  119.84320
 6700.00000    8.93730    5.06910    3.39190  294.83780   51.80950   51.80950   18.02750   18.02750  294.83780    8.93730  149.96320 -127.11640 -105.31900  149.96320
 6750.00000    8.88280   38.57550   36.10120   27.69990   56.14320   56.14320   16.40480   16.40480   27.69990    8.88280   99.18400 -180.95590 -159.89620   99.18400
 6800.00000    8.64010   43.00710   39.79910   25.12620   53.33490   53.33490   13.92330   13.92330   25.12620    8.64010  105.45830 -169.76310 -149.44470  105.45830
 6850.00000    8.55860   61.39550   57.23740   17.47110   53.83320   53.83320   13.71120   13.71120   17.47110    8.55860   67.12080 -154.16080 -134.58370   67.12080
 6900.00000    9.16420    5.74870    2.70870  369.18230   49.99700   49.99700   12.45850   12.45850  369.18230    9.16420  221.85180 -122.20530 -103.36950  221.85180
 6950.00000    8.55770   12.43480   10.85380   92.13940   51.26240   51.26240   13.84010   13.84010   92.13940    8.55770  104.08650 -116.89420  -98.80340  104.08650
 7000.00000    8.92850    2.39780    1.63570  611.35740   50.96290   50.96290   13.88920   13.88920  611.35740    8.92850  193.36120 -116.34590  -98.99270  193.36120
 7050.00000    8.48250    9.11950    6.55570  152.54010   53.76570   53.76570   10.31270   10.31270  152.54010    8.48250  133.27800 -132.95120 -116.33930  133.27800
 7100.00000    9.06430    1.56850    1.61000  621.12740   49.54360   49.54360   16.69990   16.69990  621.12740    9.06430  254.10300 -142.45960 -126.58900  254.10300
 7150.00000    8.68630   18.53670   16.08240   62.17960   53.65100   53.65100   15.17320   15.17320   62.17960    8.68630  112.94700 -180.23220 -165.10290  112.94700
 7200.00000    8.79430   18.08110   15.73020   63.79680   49.11820   49.11820   18.84590   18.84590   63.79680    8.79430  137.47350 -178.21810 -163.83380  137.47350
 7250.00000    7.54730  187.92950  187.92950    5.32110   52.09490   52.09490   29.21690   29.21690    4.93590    7.54730   25.67800 -137.36900 -123.72230   25.67800
 7300.00000    8.02080   19.82310   16.78450   59.57890   48.89390   48.89390   25.81730   25.81730   59.57890    8.02080   98.96540 -153.14100 -140.23560   98.96540
 7350.00000    8.38770   81.32910   66.07640   15.13400   52.09390   52.09390   30.05840   30.05840   15.13400    8.38770   32.26040 -129.60170 -117.43770   32.26040
 7400.00000    7.99060   21.08190   17.37760   57.54530   51.36620   51.36620   30.82160   30.82160   57.54530    7.99060   75.05510  -79.90090  -68.47820   75.05510
 7450.00000    8.12470   33.15410   29.79460   33.57090   58.39380   58.39380   54.83910   54.83910   33.57090    8.12470   40.95230  -37.44450  -26.76680   40.95230
 7500.00000    8.05880   35.21820   31.56080   31.68490   56.23600   56.23600   17.41380   17.41380   31.68490    8.05880   56.78390  -99.63450  -89.69440   56.78390
 7550.00000    8.30800   51.45330   47.45180   21.07400   58.36120   58.36120   54.87280   54.87280   21.07400    8.30800   23.76040  -22.87770  -13.67890   23.76040
 7600.00000   11.13080  138.28900  143.00830    6.99260   75.12000   75.12000   72.81070   72.81070    6.99260   11.13080   11.64640  -28.38830  -18.26020   11.64640
 7650.00000   12.14720  199.59200  199.59200    5.01020   79.56080   79.56080   79.40560   79.40560    4.54610   12.14720    7.42690  -23.71510  -11.38330    7.42690
 7700.00000   13.81150  214.53100  214.53110    4.66330   85.12380   85.12380   81.73050   81.73050    4.22430   13.81150    5.98590  -61.81110  -45.09590    5.98590
 7750.00000   17.48150  223.03600  223.03600    4.48360   84.62770   84.62770   76.15220   76.15220    4.04620   17.48150    5.25550  -41.88700  -20.83200    5.25550
 7800.00000   17.69120  203.01740  203.01740    4.92570   77.50090   77.50090   70.30980   70.30980    4.56150   17.69120    5.08830  -63.79480  -38.37810    5.08830
 7850.00000   17.69620  208.88520  208.88520    4.78730   83.34360   83.34360   71.96610   71.96610    4.34200   17.69620    5.34030  -37.37870   -9.17060    5.34030
 7900.00000   17.69390  194.81530  194.81530    5.13310   75.57510   75.57510   70.89830   70.89830    4.53750   17.69390    5.65290  -41.41290  -13.20480    5.65290
 7950.00000   17.71050  174.63930  174.63930    5.72630   77.80000   77.80000   71.02250   71.02250    5.29840   17.71050    6.46120  -61.44120  -33.23310    6.46120
 8000.00000   17.24310  203.79180  203.79180    4.90700   76.77560   76.77560   74.70670   74.70670    4.44750   17.24310    5.75420  -59.31920  -31.11110    5.75420
 8050.00000   11.47530  145.93490  154.38530    6.47730   79.71460   79.71460   90.04470   90.04470    6.47730   11.47530   10.26590  -71.51710  -43.30900   10.26590
 8100.00000    8.30770   94.77750   93.10900   10.74010   69.57560   69.57560   59.29140   59.29140   10.74010    8.30770   16.64410  -50.72280  -22.51470   16.64410
 8150.00000    8.10250   72.09410   70.37150   14.21030   66.42230   66.42230   68.32390   68.32390   14.21030    8.10250   21.40520  -56.83140  -28.62330   21.40520
 8200.00000    8.36760   93.45590   91.75520   10.90140   62.14310   62.14310   71.71670   71.71670   10.90140    8.36760   15.70430  -67.19620  -38.98810   15.70430
 8250.00000    8.71400  113.42110  113.55760    8.80610   71.85760   71.85760   89.03780   89.03780    8.80610    8.71400   13.63210  -63.11060  -34.90250   13.63210
