~Version ---------------------------------------------------
VERS.      2.0 : CWLS log ASCII Standard -VERSION 2.0
WRAP.       NO : One line per depth step
CREA. 01/05/18 : LAS Creation Date
~Well ------------------------------------------------------
STRT.FT                      650.0 : START DEPTH
STOP.FT                    10650.0 : STOP DEPTH
STEP.FT                   50.00000 : STEP LENGTH
NULL.                      -999.25 : NULL VALUE
COMP.              SUN OIL COMPANY : COMPANY
WELL. SUN SHELL ROSEVEAR 6-6-55-14 : WELL
FLD .                              : FIELD
LOC .                              : LOCATION
CTRY.                       CANADA : COUNTRY
SRVC.       Schlumberger of Canada : SERVICE COMPANY
DATE.                  23-Jun-1971 : LOGDATE
PROV.                      Alberta : PROVINCE
UWI .             100060605514W500 : UNIQUE WELL ID
SLAT.WGS84                53.72017 : SURFACE LATITUDE
SLON.WGS84                -116.074 : SURFACE LONGITUDE
~Curve Information -----------------------------------------
DEPT    .FT    : Depth Curve
CALDED  .IN    : CALIPER FROM DENSITY LOG [ADJ. TO RESISTIVITY LOG]
CALNED  .IN    : CALIPER FROM SNP LOG [ADJ. TO RESISTIVITY LOG]
CALSED  .IN    : CALIPER FROM SONIC LOG [ADJ. TO RESISTIVITY LOG]
CALWS   .IN    : CALIPER [CALSED SPL. TO CALDED @ 10676']
CILDED  .MMHO  : CONDUCTIVITY FROM RESISTIVITY LOG
CONDWS  .MMHO  : CONDUCTIVITY [1000/DRESWS]
CORRED  .G/C3  : DENSITY CORRECTION FROM DENSITY LOG [ADJ. TO RESISTIVITY LOG]
DCORWS  .G/C3  : DENSITY CORRECTION [CORRED]
DENWS   .G/C3  : FORMATION BULK DENSITY  [RHOBED]
DPHILSED.V/V   : DENSITY POROSITY LIMESTONE [M=2.71 F=1.00] FROM DENSITY LOG [ADJ. TO RESISTIVITY LOG]
DPHISSED.V/V   : DENSITY POROSITY SANDSTONE [M=2.65 F=1.00] FROM DENSITY LOG [ADJ. TO RESISTIVITY LOG]
DPOLSWS .V/V   : DENSITY POROSITY LIMESTONE [CALC. FROM DENWS, M=2.71 F=1.00]
DRESWS  .OHMM  : DEEP RESISTIVITY [1000/CILDED IF ILDED<4, ILDED & SPL. TO ILDED @ 664'-3750' & 5083'-6070']
DTED    .US/F  : DELTA TIME FROM SONIC LOG [ADJ. TO RESISTIVITY LOG]
DTWS    .US/F  : COMPRESSIONAL SONIC [DTED]
GRNED   .GAPI  : GAMMA RAY FROM SNP LOG [ADJ. TO RESISTIVITY LOG]
GRSED   .GAPI  : GAMMA RAY FROM SONIC LOG [ADJ. TO RESISTIVITY LOG]
GRWS    .GAPI  : GAMMA RAY [GRSED SPL. TO GRNED @ 10658'] GRWS IN CSG. FROM 5023'-5078' ADDED 40 API
ILDED   .OHMM  : DEEP INDUCTIONRESISTIVITY FROM RESISTIVITY LOG
ILMED   .OHMM  : MEDIUM INDUCTIONRESISTIVITY FROM RESISTIVITY LOG
LL8ED   .OHMM  : 8 INCH LATEROLOG RESISTIVITY FROM RESISTIVITY LOG
MRESWS  .OHMM  : MEDIUM RESISTIVITY [ILMED]
NPOLSWS .V/V   : SIDEWALL NEUTRON POROSITY LIMESTONE [SNPLSED]
RHOBED  .G/C3  : FORMATION BULK DENSITY FROM DENSITY LOG [ADJ. TO RESISTIVITY LOG]
SNP1LSED.V/V   : SIDEWALL NEUTRON POROSITY FROM SNP LOG [ADJ. TO RESISTIVITY LOG]
SNPLSED .V/V   : SIDEWALL NEUTRON POROSITY LIMESTONE FROM SNP LOG [ADJ. TO RESISTIVITY LOG]
SPRED   .MV    : SPONTANEOUS POTENTIAL FROM RESISTIVITY LOG
SPWS    .MV    : SPONTANEOUS POTENTIAL  [BASELINE 0 MV. SPRED]
SRESWS  .OHMM  : SHALLOW RESISTIVITY [LL8ED]
~Params ----------------------------------------------------
PD  .                     GL : PERMANENT DATUM
EPD .FT                 2803 : ELEVATION PERMANENT DATUM
LMF .                     KB : LOG MEASURED FROM
DAPD.FT                   13 : FEET ABOVE PERMANENT DATUM
EKB .FT                 2816 : KELLY BUSHING
EGL .FT                 2803 : GROUND LEVEL
DATE.               07/14/71 : RUN DATE
RUN .                      2 : RUN NUMBER
DD  .FT                10687 : DEPTH DRILLER
DL  .FT                10692 : DEPTH LOGGER
BLI .FT                10686 : BOTTOM LOG INTERVAL
TLI .FT                 5078 : TOP LOG INTERVAL
CBD .FT                 5077 : CASING BOTTOM DRILLER
CBL .FT                 5078 : CASING BOTTOM LOGGER
BS  .IN                 8.75 : BIT SIZE
BSD .FT                10687 : BIT SIZE AT DEPTH
DFT .               GEL CHEM : DRILLING FLUID TYPE
DFD .                    9.8 : DRILLING FLUID DENSITY
DFV .                     80 : DRILLING FLUID VISCOSITY
DFPH.                     10 : DRILLING FLUID PH
DFL .                   10.2 : DRILLING FLUID LOSS
MSS .               FLOWLINE : MUD SAMPLE SOURCE
RMS .OHMM               2.12 : RESISTIVITY MUD SAMPLE
MST .DEGF                 76 : MUD SAMPLE TEMPERATURE
RMF .OHMM               1.66 : RESISTIVITY MUD FILTRATE SAMPLE
MFST.DEGF                 76 : MUD FILTRATE SAMPLE TEMPERATURE
RMB .OHMM               0.62 : RESISTIVITY MUD AT BHT
TCS .HRS                 3.5 : TIME CIRCULATED STOPPED
LUN .                   5628 : LOGGING UNIT NUMBER
LUL .                    EDM : LOGGING UNIT LOCATION
ENGI.                 HUTZAL : RECORDING ENGINEER
WITN.                   HERB : WITNESSED BY
CLNT.                A2DTECH : CLIENT CODE
ORIG.            2" 5" PRINT : ORIGIN OF DATA
UWI .       100060605514W500 : UNIQUE WELL ID
DICO. A2D Technologies, Inc. : DIGITIZING COMPANY
~Other -----------------------------------------------------
~ASCII -----------------------------------------------------
# ...
 5650.00000    -999.25    -999.25    9.75770    9.75770  116.07010  106.30160    -999.25    -999.25    -999.25    -999.25    -999.25    -999.25    9.40720   89.56290   89.56290    -999.25   88.45720   88.45720    9.40720    -999.25   13.58250    -999.25    -999.25    -999.25    -999.25    -999.25  -60.65610   -4.28450   13.58250
 5700.00000    -999.25    -999.25    9.89330    9.89330   82.52200   76.88110    -999.25    -999.25    -999.25    -999.25    -999.25    -999.25   13.00710   76.72230   76.72230    -999.25   82.31620   82.31620   13.00710    -999.25   15.55700    -999.25    -999.25    -999.25    -999.25    -999.25  -60.54470   -4.49500   15.55700
 5750.00000    -999.25    -999.25   10.76380   10.76380  133.97180  125.20190    -999.25    -999.25    -999.25    -999.25    -999.25    -999.25    7.98710   79.88930   79.88930    -999.25   78.60010   78.60010    7.98710    -999.25   10.17030    -999.25    -999.25    -999.25    -999.25    -999.25  -61.03410   -5.30410   10.17030
 5800.00000    -999.25    -999.25   10.07300   10.07300  166.97020  158.15280    -999.25    -999.25    -999.25    -999.25    -999.25    -999.25    6.32300   82.43160   82.43160    -999.25   91.06170   91.06170    6.32300    -999.25    8.33960    -999.25    -999.25    -999.25    -999.25    -999.25  -60.49880   -5.28480    8.33960
 5850.00000    -999.25    -999.25   10.74340   10.74340  168.65570  159.53540    -999.25    -999.25    -999.25    -999.25    -999.25    -999.25    6.26820   81.62520   81.62520    -999.25   86.79330   86.79330    6.26820    -999.25    8.33780    -999.25    -999.25    -999.25    -999.25    -999.25  -59.14390   -4.51290    8.33780
 5900.00000    -999.25    -999.25   10.52940   10.52940  146.21820  136.60640    -999.25    -999.25    -999.25    -999.25    -999.25    -999.25    7.32030   82.87910   82.87910    -999.25   86.10020   86.10020    7.32030    -999.25    9.40600    -999.25    -999.25    -999.25    -999.25    -999.25  -59.87570   -5.82390    9.40600
 5950.00000    -999.25    -999.25   11.24000   11.24000  161.41280  151.91330    -999.25    -999.25    -999.25    -999.25    -999.25    -999.25    6.58270   84.61210   84.61210    -999.25   85.08440   85.08440    6.58270    -999.25    8.76190    -999.25    -999.25    -999.25    -999.25    -999.25  -58.56890   -5.10020    8.76190
 6000.00000    -999.25    -999.25   10.58240   10.58240  203.87330  183.84720    -999.25    -999.25    -999.25    -999.25    -999.25    -999.25    5.43930   96.66530   96.66530    -999.25  123.55030  123.55030    5.43930    -999.25    7.39360    -999.25    -999.25    -999.25    -999.25    -999.25  -58.29280   -5.40330    7.39360
 6050.00000    -999.25   14.98180   11.64350   11.64350  292.54810  292.55160    -999.25    -999.25    -999.25    -999.25    -999.25    -999.25    3.41820  101.20990  101.20990    -999.25   75.55230   75.55230    3.53590    -999.25    5.19240    -999.25    -999.25    -999.25    -999.25    -999.25  -57.43620   -5.12590    5.19240
 6100.00000   13.36220   13.54870   10.77390   10.77390    -999.25  179.23070    0.15520    0.15520    1.90590    -999.25    0.44770    0.47020    5.57940   87.42900   87.42900   84.92980   89.89390   89.89390    5.57940    5.95540    7.20290    5.95540    0.50510    1.90590    -999.25    0.50510  -55.80370   -4.07640    7.20290
 6150.00000    8.96910    8.95880    9.20870    9.20870    -999.25   70.02070    0.13640    0.13640    2.49480    -999.25    0.10120    0.12580   14.28150   78.48890   78.48890   77.87440   81.18090   81.18090   14.28150   15.47390   16.08450   15.47390    0.22680    2.49480    -999.25    0.22680  -66.80280  -15.32870   16.08450
 6200.00000   11.15380   11.24720    9.14170    9.14170    -999.25   40.81530    0.22150    0.22150    2.49630    -999.25    0.08700    0.12500   24.50060   66.82980   66.82980   39.75660   37.83960   37.83960   24.50060   26.99050   32.22050   26.99050    0.12820    2.49630    -999.25    0.12820  -68.85770  -16.75010   32.22050
 6250.00000   10.60430   10.58390    9.89610    9.89610    -999.25   84.22680    0.24220    0.24220    2.28810    -999.25    0.21970    0.24670   11.87270   85.57210   85.57210   71.05360   72.64100   72.64100   11.87270   14.27500   12.90270   14.27500    0.29330    2.28810    -999.25    0.29330  -56.32820   -3.59120   12.90270
 6300.00000    9.68580    9.73840    9.40180    9.40180    -999.25   56.32600    0.06880    0.06880    2.66170    -999.25   -0.00160    0.02820   17.75380   63.63160   63.63160   38.60350   39.88830   39.88830   17.75380   20.41250   24.66250   20.41250    0.10130    2.66170    -999.25    0.10130  -67.09950  -15.73240   24.66250
 6350.00000    9.81830   10.00240    9.61230    9.61230    -999.25   79.87990    0.08800    0.08800    2.58390    -999.25    0.03670    0.07370   12.51880   68.39780   68.39780   62.28940   63.94640   63.94640   12.51880   13.66670   16.95210   13.66670    0.18290    2.58390    -999.25    0.18290  -59.27180   -9.33800   16.95210
 6400.00000    9.34690    9.49160    9.16280    9.16280    -999.25   69.75540    0.09850    0.09850    2.57550    -999.25    0.04190    0.07870   14.33580   67.05150   67.05150   62.79740   61.25820   61.25820   14.33580   15.72970   17.54210   15.72970    0.16350    2.57550    -999.25    0.16350  -68.86420  -20.35440   17.54210
 6450.00000    9.32280    9.47280    9.17890    9.17890    -999.25   64.92790    0.10590    0.10590    2.59300    -999.25    0.03910    0.06840   15.40170   71.07050   71.07050   64.15910   72.13840   72.13840   15.40170   17.57810   21.51210   17.57810    0.21530    2.59300    -999.25    0.21530  -57.54980  -10.47340   21.51210
 6500.00000   10.54660   10.24530    9.62780    9.62780    -999.25   70.44830    0.22910    0.22910    2.47050    -999.25    0.10840    0.14010   14.19480   73.43150   73.43150   74.87800   73.61210   73.61210   14.19480   15.04130   17.40660   15.04130    0.24400    2.47050    -999.25    0.24400  -56.49220  -10.83970   17.40660
 6550.00000    9.47680    9.55270    9.24040    9.24040    -999.25   55.54170    0.03940    0.03940    2.69060    -999.25   -0.03120    0.01130   18.00450   62.77230   62.77230   51.48690   48.79400   48.79400   18.00450   22.19750   29.87900   22.19750    0.11470    2.69060    -999.25    0.11470  -56.77180  -12.54330   29.87900
 6600.00000    9.30430    9.54440    9.37710    9.37710    -999.25   66.79710    0.03650    0.03650    2.67140    -999.25   -0.01910    0.02250   14.97070   64.63420   64.63420   43.13590   44.76160   44.76160   14.97070   17.34040   20.27750   17.34040    0.11000    2.67140    -999.25    0.11000  -56.77600  -13.98090   20.27750
 6650.00000    9.52670    9.57840    9.65380    9.65380    -999.25   98.97560    0.07410    0.07410    2.60270    -999.25    0.02330    0.06270   10.10350   69.60100   69.60100   53.12870   60.72980   60.72980   10.10350   10.84870   15.79720   10.84870    0.12130    2.60270    -999.25    0.12130  -57.27710  -15.90590   15.79720
 6700.00000    9.10790    9.41510    9.18350    9.18350    -999.25   50.54100    0.03020    0.03020    2.65650    -999.25   -0.01070    0.03130   19.78590   69.63260   69.63260   69.01980   71.03200   71.03200   19.78590   21.64790   24.09460   21.64790    0.14050    2.65650    -999.25    0.14050  -45.13900   -5.20120   24.09460
 6750.00000    9.63040    9.78360    9.41990    9.41990    -999.25   66.00310    0.07470    0.07470    2.65290    -999.25   -0.00460    0.03340   15.15080   71.12940   71.12940   73.34290   69.96730   69.96730   15.15080   16.04370   19.87350   16.04370    0.14610    2.65290    -999.25    0.14610  -44.85960   -6.34580   19.87350
 6800.00000    9.90220    9.75310    9.67650    9.67650    -999.25   73.23750    0.11090    0.11090    2.67480    -999.25   -0.02490    0.02060   13.65420   73.31040   73.31040   74.29440   74.75560   74.75560   13.65420   15.11110   17.25090   15.11110    0.16700    2.67480    -999.25    0.16700  -41.76420   -3.87230   17.25090
 6850.00000   10.61550   10.84640    9.51370    9.51370    -999.25   55.00610    0.22010    0.22010    2.72390    -999.25   -0.04190   -0.00820   18.17980   58.05100   58.05100   37.47360   47.14120   47.14120   18.17980   30.30100  162.46850   30.30100    0.09930    2.72390    -999.25    0.09930  -40.75780   -3.31750  162.46850
