~Version ---------------------------------------------------
VERS.      2.0 : CWLS log ASCII Standard -VERSION 2.0
WRAP.       NO : One line per depth step
CREA. 08/23/13 : LAS Creation Date
~Well ------------------------------------------------------
STRT.M                         400.0 : START DEPTH
STOP.M                        2600.0 : STOP DEPTH
STEP.M                      50.00000 : STEP LENGTH
NULL.                        -999.25 : NULL VALUE
COMP.            WESTCOAST PETROLEUM : COMPANY
WELL. WESTCOAST ET AL MCGOWAN 10-20- : WELL
FLD .                                : FIELD
LOC .                                : LOCATION
CTRY.                         CANADA : COUNTRY
SRVC.                        Unknown : SERVICE COMPANY
DATE.                    23-Mar-1982 : LOGDATE
PROV.                        Alberta : PROVINCE
UWI .               100102007016W500 : UNIQUE WELL ID
SLAT.WGS84                  55.07847 : SURFACE LATITUDE
SLON.WGS84                 -116.3983 : SURFACE LONGITUDE
~Curve Information -----------------------------------------
DEPT    .M      : DEPTH FEET
CALDED  .MM     : CALIPER FROM DENSITY LOG [ADJ. TO RESISTIVITY LOG]
CALWS   .MM     : CALIPER [CALDED]
CILDED  .MMHO   : CONDUCTIVITY  FROM RESISTIVITY LOG
CONDWS  .MMHO   : CONDUCTIVITY [1000/DRESWS]
DCORWS  .KG/M3  : DENSITY CORRECTION [DRHOED]
DENWS   .KG/M3  : FORMATION BULK DENSITY [CALC. FROM DPOLSWS M=2710,F=1000]
DPHILSED.V/V    : DENSITY POROSITY LIMESTONE [M=2710,F=1000] FROM DENSITY LOG [ADJ. TO RESISTIVITY LOG]
DPHISSED.V/V    : DENSITY POROSITY SANDSTONE [M=2650,F=1000] FROM DENSITY LOG [ADJ. TO RESISTIVITY LOG]
DPOLSWS .V/V    : DENSITY POROSITY LIMESTONE [DPHISSED CONVERTED TO LIMESTONE MATRIX, M=2710,F=1000, SPL. TO DPHILSED @ 1286M]
DRESWS  .OHMM   : DEEP RESISTIVITY [ILDED]
DRHOED  .KG/M3  : BULK DENSITY CORRECTION FROM DENSITY LOG [ADJ. TO RESISTIVITY LOG]
GRDED   .GAPI   : GAMMA RAY FROM DENSITY LOG [ADJ. TO RESISTIVITY LOG]
GRWS    .GAPI   : GAMMA RAY [GRDED]
ILDED   .OHMM   : DEEP  INDUCTION FROM RESISTIVITY LOG
ILMED   .OHMM   : MEDIUM INDUCTION FROM RESISTIVITY LOG
MRESWS  .OHMM   : MEDIUM RESISTIVITY [ILMED]
NPHILSED.V/V    : NEUTRON POROSITY LIMESTONE FROM DENSITY LOG [ADJ. TO RESISTIVITY LOG]
NPHISSED.V/V    : NEUTRON POROSITY SANDSTONE FROM DENSITY LOG [ADJ. TO RESISTIVITY LOG]
NPOLSWS .V/V    : NEUTRON POROSITY LIMESTONE [NPHISSED MATRIX CONVERSION FOR LIMESTONE FROM SLB ( CNL), SPL. TO NPHILSED @ 1292M]
RHOBED  .KG/M3  : BULK DENSITY FROM DENSITY LOG [ADJ. TO RESISTIVITY LOG/DPHILSED/DPHISSED]
SFLUED  .OHMM   : SHALLOW FOCUSED UNAVERAGED FROM RESISTIVITY LOG
SPRED   .MV     : SPONTANEOUS POTENTIAL FROM RESISTIVITY LOG
SPWS    .MV     : SPONTANEOUS POTENTIAL [BASELINE 0 MV, SPRED]
SRESWS  .OHMM   : SHALLOW RESISTIVITY [SFLUED]
~Params ----------------------------------------------------
PD  .                         GL : PERMANENT DATUM
EPD .M                     792.8 : ELEVATION PERMANENT DATUM
LMF .                         KB : LOG MEASURED FROM
DAPD.M                       4.5 : FEET ABOVE PERMANENT DATUM
DMF .                         KB : DRILLING MEASURED FROM
EKB .M                     797.3 : KELLY BUSHING
EGL .M                     792.8 : GROUND LEVEL
DATE.                   03/23/82 : RUN DATE
RUN .                          1 : RUN NUMBER
DD  .M                      2619 : DEPTH DRILLER
DL  .M                      2619 : DEPTH LOGGER
BLI .M                      2618 : BOTTOM LOG INTERVAL
TLI .M                       402 : TOP LOG INTERVAL
CS  .MM                      244 : CASING SIZE
CBD .M                       402 : CASING BOTTOM DRILLER
CBL .M                       402 : CASING BOTTOM LOGGER
BS  .MM                      222 : BIT SIZE
BSD .M                      2619 : BIT SIZE AT DEPTH
DFT .                   GEL CHEM : DRILLING FLUID TYPE
DFD .                       1185 : DRILLING FLUID DENSITY
DFV .                         59 : DRILLING FLUID VISCOSITY
DFPH.                          9 : DRILLING FLUID PH
DFL .                          8 : DRILLING FLUID LOSS
MSS .                   FLOWLINE : MUD SAMPLE SOURCE
RMS .OHMM                   1.22 : RESISTIVITY MUD SAMPLE
MST .DEGC                   28.8 : MUD SAMPLE TEMPERATURE
RMF .OHMM                    1.2 : RESISTIVITY MUD FILTRATE SAMPLE
MFST.DEGC                   23.3 : MUD FILTRATE SAMPLE TEMPERATURE
RMC .OHMM                  0.603 : RESISTIVITY MUD CAKE
MCST.DEGC                   67.7 : MUD CAKE SAMPLE TEMPERATURE
MFSS.                      PRESS : MUD FILTRATE SAMPLE SOURCE
MCSS.                      PRESS : MUD CAKE SAMPLE SOURCE
RMB .OHMM                  0.689 : RESISTIVITY MUD AT BHT
TCS .HRS                    1500 : TIME CIRCULATED STOPPED
TLAB.HRS                    2130 : TIME LOGGER AT BOTTOM
LUN .                       8196 : LOGGING UNIT NUMBER
LUL .                        EDM : LOGGING UNIT LOCATION
ENGI.                NIGHTINGALE : RECORDING ENGINEER
WITN.                      JONES : WITNESSED BY
CLNT.                    A2DTECH : CLIENT CODE
ORIG. 6.5"/100M 16.5"/100M PRINT : ORIGIN OF DATA
UWI .           100102007016W500 : UNIQUE WELL ID
DICO.     A2D Technologies, Inc. : DIGITIZING COMPANY
~Other -----------------------------------------------------
DIL-CNL-CDL LOG RUN
RHOB, DRHO FROM SMALL SCALE SECTION
NEUTRON CONVESION :Schlumberger
~ASCII -----------------------------------------------------
  400.00000    -999.25    -999.25    -999.25    -999.25    -999.25    -999.25    -999.25    -999.25    -999.25    -999.25    -999.25   33.33970   33.33970    -999.25    -999.25    -999.25    -999.25    0.50030    0.46050    -999.25    -999.25    -999.25    -999.25    -999.25
  450.00000  364.71970  364.71970    -999.25  224.78980   33.74240 2310.92500    -999.25    0.20550    0.23340    4.44860   33.74240   80.03420   80.03420    4.44860    4.29490    4.29490    -999.25    0.39380    0.35080 2312.03420    4.01160  -91.29400   -3.51670    4.01160
  500.00000  244.80650  244.80650    -999.25  174.49570   27.10130 2048.57500    -999.25    0.36450    0.38680    5.73080   27.10130   99.02800   99.02800    5.73080    5.07120    5.07120    -999.25    0.44670    0.40490 2047.92460    5.46830  -97.60790   -6.26000    5.46830
  550.00000  371.73060  371.73060    -999.25  175.68210   58.84500 1698.94000    -999.25    0.57640    0.59130    5.69210   58.84500   64.75500   64.75500    5.69210    4.83930    4.83930    -999.25    0.54990    0.51270 1682.74610    4.67310 -102.76090   -7.92910    4.67310
  600.00000  306.73100  306.73100    -999.25  176.89410   15.00520 1825.16500    -999.25    0.49990    0.51740    5.65310   15.00520   92.24440   92.24440    5.65310    5.01080    5.01080    -999.25    0.42140    0.37900 1818.66670    4.81050 -103.93810   -6.75160    4.81050
  650.00000  411.63350  411.63350    -999.25  179.72680   49.85170 1678.15000    -999.25    0.58900    0.60340    5.56400   49.85170   77.11030   77.11030    5.56400    4.72060    4.72060    -999.25    0.48310    0.44260 1699.42330    4.52440 -103.49000   -3.14690    4.52440
  700.00000  293.39190  293.39190    -999.25  190.39280  108.96230 2011.45000    -999.25    0.38700    0.40850    5.25230  108.96230   95.99370   95.99370    5.25230    4.82250    4.82250    -999.25    0.42830    0.38600 2008.71150    4.98690 -100.03000   -2.91700    4.98690
  750.00000  328.82120  328.82120    -999.25  195.62580  -11.56780 1672.87000    -999.25    0.59220    0.60650    5.11180  -11.56780   88.65510   88.65510    5.11180    4.93870    4.93870    -999.25    0.42550    0.38320 1832.18160    4.50360 -101.69200   -7.80910    4.50360
  800.00000  345.16020  345.16020    -999.25  302.35230  106.10640 1940.17000    -999.25    0.43020    0.45020    3.30740  106.10640   94.05440   94.05440    3.30740    3.22680    3.22680    -999.25    0.39700    0.35410 1941.98460    3.44900  -94.76420   -4.11130    3.44900
  850.00000  290.63130  290.63130    -999.25  260.00360  126.08900 2142.13000    -999.25    0.30780    0.33210    3.84610  126.08900   90.05230   90.05230    3.84610    3.70580    3.70580    -999.25    0.39620    0.35330 2135.98660    4.05710  -97.50010   -6.90990    4.05710
  900.00000  321.09960  321.09960    -999.25  331.32330  121.42120 2150.05000    -999.25    0.30300    0.32750    3.01820  121.42120   84.68890   84.68890    3.01820    2.81390    2.81390    -999.25    0.41990    0.37740 2148.15450    3.08340  -96.10870   -5.16620    3.08340
  950.00000  356.72720  356.72720    -999.25  583.09040   71.74690 1929.77500    -999.25    0.43650    0.45630    1.71500   71.74690   78.51070   78.51070    1.71500    1.75330    1.75330    -999.25    0.46620    0.42500 1935.00560    1.99450  -92.33940   -1.04440    1.99450
 1000.00000  238.00760  238.00760    -999.25  303.95140   -5.62010 2166.55000    -999.25    0.29300    0.31780    3.29000   -5.62010   49.07030   49.07030    3.29000    5.45810    5.45810    -999.25    0.31690    0.27300 2169.10160    7.25860 -152.73460  -61.08730    7.25860
 1050.00000  228.57830  228.57830    -999.25  504.33730   50.28620 2181.73000    -999.25    0.28380    0.30890    1.98280   50.28620   68.54840   68.54840    1.98280    2.42350    2.42350    -999.25    0.38470    0.34150 2182.96190    2.25420 -114.59200  -22.59180    2.25420
 1100.00000  222.71850  222.71850    -999.25  696.18490   24.46950 2170.51000    -999.25    0.29060    0.31550    1.43640   24.46950   53.34470   53.34470    1.43640    2.45290    2.45290    -999.25    0.30650    0.26250 2172.97780    5.74000 -172.38970  -80.03710    5.74000
 1150.00000  285.51230  285.51230    -999.25  287.45540   38.39790 2439.13000    -999.25    0.12780    0.15840    3.47880   38.39790   86.11360   86.11360    3.47880    3.59860    3.59860    -999.25    0.29220    0.24820 2438.69870    3.98980 -104.17600  -11.67690    3.98980
 1200.00000  299.94430  299.94430    -999.25  159.48200   30.45810 2510.74000    -999.25    0.08440    0.11650    6.27030   30.45810   86.58620   86.58620    6.27030    6.79270    6.79270    -999.25    0.21060    0.16700 2506.68650    7.26800 -106.70300  -15.00550    7.26800
 1250.00000  295.34920  295.34920    -999.25  103.95230   17.96930 2484.50500    -999.25    0.10030    0.13190    9.61980   17.96930   77.76180   77.76180    9.61980   10.48990   10.48990    -999.25    0.20550    0.16200 2484.39210   12.76880 -110.10450  -19.20990   12.76880
 1300.00000  249.85200  249.85200    -999.25   55.32630    1.92240 2571.66100    0.08090    0.04870    0.08090   18.07460    1.92240   46.26130   46.26130   18.07460   19.89500   19.89500    0.13870    0.13980    0.13870 2574.39790   27.35500 -117.97660  -27.77140   27.35500
 1350.00000  247.56430  247.56430    -999.25  114.11750   80.88490 2609.96500    0.05850    -999.25    0.05850    8.76290   80.88490   16.42960   16.42960    8.76290   13.48930   13.48930    0.17490    -999.25    0.17490 2606.18090   41.89320 -193.96320 -104.07480   41.89320
 1400.00000  268.57510  268.57510    -999.25   71.81740    4.58870 2640.06100    0.04090    -999.25    0.04090   13.92420    4.58870   74.87870   74.87870   13.92420   14.43760   14.43760    0.05140    -999.25    0.05140 2635.52200   18.16720  -94.31650   -4.74510   18.16720
 1450.00000  269.82230  269.82230    -999.25  195.81350   33.44940 2604.66400    0.06160    -999.25    0.06160    5.10690   33.44940   45.90120   45.90120    5.10690    5.25740    5.25740    0.15210    -999.25    0.15210 2597.95650    5.88700 -121.42820  -32.17370    5.88700
 1500.00000  245.53310  245.53310    -999.25  127.82170   30.97460 2519.33500    0.11150    -999.25    0.11150    7.82340   30.97460   21.04550   21.04550    7.82340   12.47340   12.47340    0.09020    -999.25    0.09020 2524.31050   44.34440 -187.57730  -99.08680   44.34440
 1550.00000  263.78160  263.78160    -999.25  267.37250   11.90940 2542.07800    0.09820    -999.25    0.09820    3.74010   11.90940   76.58250   76.58250    3.74010    4.22630    4.22630    0.11910    -999.25    0.11910 2555.46460   12.30950 -111.83600  -24.55110   12.30950
 1600.00000  245.72920  245.72920    -999.25  174.59320    7.57140 2596.79800    0.06620    -999.25    0.06620    5.72760    7.57140   44.94090   44.94090    5.72760    5.92880    5.92880    0.10060    -999.25    0.10060 2591.95000    7.23430 -107.83040  -21.75290    7.23430
 1650.00000  244.53820  244.53820    -999.25   97.30940   37.36080 2668.44700    0.02430    -999.25    0.02430   10.27650   37.36080   20.89190   20.89190   10.27650   11.74050   11.74050    0.04030    -999.25    0.04030 2668.54710   40.46410 -126.27620  -41.40440   40.46410
 1700.00000  237.93560  237.93560    -999.25   47.31870    8.62320 2663.31700    0.02730    -999.25    0.02730   21.13330    8.62320   29.56270   29.56270   21.13330   22.19010   22.19010    0.03310    -999.25    0.03310 2665.19700   31.54260  -98.81260  -15.14630   31.54260
 1750.00000  283.53840  283.53840    -999.25  173.90090   20.87860 2597.14000    0.06600    -999.25    0.06600    5.75040   20.87860   75.79500   75.79500    5.75040    5.97050    5.97050    0.10470    -999.25    0.10470 2591.59640    6.11790  -93.14460  -10.68400    6.11790
 1800.00000  264.49120  264.49120    -999.25    9.63660    6.76460 2702.30500    0.00450    -999.25    0.00450  103.77150    6.76460   15.07120   15.07120  103.77150   67.92240   67.92240    0.00080    -999.25    0.00080 2704.71660  110.61940 -126.25150  -44.24480  110.61940
