~Version ---------------------------------------------------
VERS.      2.0 : CWLS log ASCII Standard -VERSION 2.0
WRAP.       NO : One line per depth step
CREA. 01/05/18 : LAS Creation Date
~Well ------------------------------------------------------
STRT.FT                          300.0 : START DEPTH
STOP.FT                         9300.0 : STOP DEPTH
STEP.FT                       50.00000 : STEP LENGTH
NULL.                          -999.25 : NULL VALUE
COMP.     PAN AMERICAN PETROLEUM CORP. : COMPANY
WELL. PAN AM A-1 HOPE CREEK 6-36-62-13 : WELL
FLD .                                  : FIELD
LOC .                                  : LOCATION
CTRY.                           CANADA : COUNTRY
SRVC.                     Schlumberger : SERVICE COMPANY
DATE.                      21-Feb-1958 : LOGDATE
PROV.                          Alberta : PROVINCE
UWI .                 100063606213W500 : UNIQUE WELL ID
SLAT.WGS84                    54.40496 : SURFACE LATITUDE
SLON.WGS84                   -115.8159 : SURFACE LONGITUDE
~Curve Information -----------------------------------------
DEPT  .FT     : Depth Curve
CALMED.IN     : CALIPER FROM MLL
CALWS .IN     : CALIPER [SPL. MCALED<6136'>CALMED]
CILDED.MMHO   : CONDUCTIVITY FROM RESISTIVITY IEL LOG
CONDWS.MMHO   : CONDUCTIVITY [1000/DRESWS]
DRESWS.OHMM   : DEEP RESISTIVITY [SPL. ILDED/LNED]
GRED  .UR/HR  : GAMMA RAY FROM CBL LOG [DAJ. TO RESISTIVITY]
GRWS  .GAPI   : GAMMA RAY [GRED*10.4]
ILDED .OHMM   : DEEP INDUCTION FROM RESISTIVITY LOG
LL7ED .OHMM   : LATEROLOG 7 FROM RESISTIVITY LL LOG
LNED  .OHMM   : LONG NORMAL RESISTIVITY FROM EL
LT18ED.OHMM   : LATERAL 18' FROM EL
MCALED.IN     : MLT CALIPER FROM CALIPER LOG
MLLED .OHMM   : MICRO FOCUSED LATEROLOG FROM MLL
SN1ED .OHMM   : SHORT NORMAL FROM RESISTIVITY IEL
SNED  .OHMM   : SHORT NORMAL 18" FROM RESISTIVITY LOG
SPR1ED.MV     : SPONTANEOUS POTENTIAL FROM RESISTIVITY
SPRED .MV     : SPONTANEOUS POTENTIAL FROM EL LOG
SPWS  .MV     : SPONTANEOUS POTENTIAL [BASELINE 0 MV, SPRED]
SRESWS.OHMM   : SHALLOW RESISTIVITY [SNED]
~Params ----------------------------------------------------
LMF .                     KB : LOG MEASURED FROM
DMF .                     KB : DRILLING MEASURED FROM
EKB .FT                 3030 : KELLY BUSHING
DATE.               02/21/58 : RUN DATE
RUN .                      2 : RUN NUMBER
DD  .FT                 9350 : DEPTH DRILLER
DL  .FT                 9344 : DEPTH LOGGER
BLI .FT                 9343 : BOTTOM LOG INTERVAL
TLI .FT                 6108 : TOP LOG INTERVAL
BS  .IN                    9 : BIT SIZE
BSD .FT                 9350 : BIT SIZE AT DEPTH
DFT .                    GEL : DRILLING FLUID TYPE
DFD .                    9.9 : DRILLING FLUID DENSITY
DFV .                    102 : DRILLING FLUID VISCOSITY
DFPH.                    9.5 : DRILLING FLUID PH
DFL .                    5.1 : DRILLING FLUID LOSS
RMS .OHMM                3.1 : RESISTIVITY MUD SAMPLE
MST .DEGF                 60 : MUD SAMPLE TEMPERATURE
RMF .OHMM                1.8 : RESISTIVITY MUD FILTRATE SAMPLE
MFST.DEGF                 70 : MUD FILTRATE SAMPLE TEMPERATURE
RMC .OHMM                2.7 : RESISTIVITY MUD CAKE
MCST.DEGF                 71 : MUD CAKE SAMPLE TEMPERATURE
RMB .OHMM                1.1 : RESISTIVITY MUD AT BHT
TCS .HRS                 6.5 : TIME CIRCULATED STOPPED
LUN .                   1785 : LOGGING UNIT NUMBER
ENGI.                LAVERTY : RECORDING ENGINEER
WITN.                JACKSON : WITNESSED BY
CLNT.                A2DTECH : CLIENT CODE
ORIG.            2" 5" PRINT : ORIGIN OF DATA
UWI .       100063606213W500 : UNIQUE WELL ID
DICO. A2D Technologies, Inc. : DIGITIZING COMPANY
~Other -----------------------------------------------------
ALL CURVES APPEAR ON DEPTH ACCEPTED CBL LOG. MERGED LNED TO ILDED AROUND:5727'-5792' 5981'-5993', 6608'-7339', 8756'-8854', 9075'-9296'.
~ASCII -----------------------------------------------------
# ...
 4000.00000    -999.25   10.89990  184.45870  173.37330    5.76790    9.96670  103.65370    5.76790    -999.25    6.03340    8.84900   10.89990    -999.25    6.81550    7.44850  -91.49990  -65.93390   -6.12700    7.44850
 4050.00000    -999.25   11.31850  177.16660  167.46490    5.97140   10.46370  108.82250    5.97140    -999.25    7.33400    6.92290   11.31850    -999.25    7.58000    7.81080  -91.20740  -66.22620   -6.43940    7.81080
 4100.00000    -999.25   10.67060  172.02740  163.95590    6.09920    9.16980   95.36590    6.09920    -999.25    7.46590    7.96310   10.67060    -999.25    7.77930    8.16110  -90.12880  -66.40660   -6.63990    8.16110
 4150.00000    -999.25    9.75490  182.28350  177.61990    5.63000    9.62650  100.11560    5.63000    -999.25    7.24930    7.91770    9.75490    -999.25    7.58650    7.66010  -89.59950  -65.47490   -5.72830    7.66010
 4200.00000    -999.25    8.99750  103.28440   99.82330   10.01770   10.16670  105.73370   10.01770    -999.25    6.44310   26.16860    8.99750    -999.25   16.10470   16.66900  -90.77130  -68.03170   -8.30510   16.66900
 4250.00000    -999.25   11.17290  190.56290  173.58100    5.76100    7.52920   78.30370    5.76100    -999.25    8.49980    3.95090   11.17290    -999.25    7.23260    7.29340  -90.08640  -66.30280   -6.59630    7.29340
 4300.00000    -999.25   10.64500  198.29340  185.86320    5.38030    9.44380   98.21550    5.38030    -999.25    5.93210    7.47410   10.64500    -999.25    6.69550    6.61080  -89.36890  -64.40100   -4.71460    6.61080
 4350.00000    -999.25    8.41280  146.38930  140.54220    7.11530    6.88010   71.55300    7.11530    -999.25    7.37840    6.43840    8.41280    -999.25    8.57930    8.71770  -95.72850  -78.31850  -18.65220    8.71770
 4400.00000    -999.25    9.80570  197.68510  183.77620    5.44140    9.94660  103.44460    5.44140    -999.25    5.75060    6.34060    9.80570    -999.25    6.28910    6.27000  -89.10450  -63.38410   -3.73790    6.27000
 4450.00000    -999.25   10.14290  188.00620  179.60090    5.56790    9.38180   97.57070    5.56790    -999.25    6.61200    6.87580   10.14290    -999.25    7.00240    7.65940  -89.24260  -67.40330   -7.77720    7.65940
 4500.00000    -999.25   11.69360  259.12970  234.81900    4.25860    9.56710   99.49780    4.25860    -999.25    4.63860    5.49450   11.69360    -999.25    5.17180    5.18500  -87.47480  -67.05900   -7.45290    5.18500
 4550.00000    -999.25   12.41220  278.24780  255.30390    3.91690    9.02170   93.82570    3.91690    -999.25    4.62040    5.07080   12.41220    -999.25    4.97190    5.18810  -87.32690  -67.55040   -7.96440    5.18810
 4600.00000    -999.25   10.85010  403.70380  394.97590    2.53180   10.22100  106.29840    2.53180    -999.25    2.79490    3.81630   10.85010    -999.25    3.15790    3.16600  -85.82120  -64.05550   -4.48960    3.16600
 4650.00000    -999.25   12.87480  553.53110  545.43470    1.83340    8.99730   93.57190    1.83340    -999.25    2.35160    2.93410   12.87480    -999.25    2.62960    2.68350  -84.34230  -64.32010   -4.77430    2.68350
 4700.00000    -999.25   10.48250  305.29240  292.52600    3.41850    8.65460   90.00780    3.41850    -999.25    4.03990    4.07930   10.48250    -999.25    4.32140    4.30200  -85.44520  -64.19110   -4.66540    4.30200
 4750.00000    -999.25   10.79050  321.92230  311.05170    3.21490    9.50180   98.81870    3.21490    -999.25    3.78720    4.12290   10.79050    -999.25    4.12360    4.18330  -84.47980  -63.91260   -4.40700    4.18330
 4800.00000    -999.25    8.10500  130.96470  129.52360    7.72060    3.14860   32.74540    7.72060    -999.25    7.74730    6.97040    8.10500    -999.25   15.04750   17.26100 -132.20160 -129.39480  -69.90920   17.26100
 4850.00000    -999.25    8.23580   95.06090   92.43600   10.81830    3.78710   39.38580   10.81830    -999.25    7.92000    8.81550    8.23580    -999.25   16.93710   17.06500 -118.42790 -103.85790  -44.39240   17.06500
 4900.00000    -999.25    9.21440  215.69250  201.06160    4.97360    5.02850   52.29640    4.97360    -999.25    3.60990   23.52950    9.21440    -999.25    6.83960    6.26650  -89.97670  -70.69820  -11.25280    6.26650
 4950.00000    -999.25    9.24430  135.82600  131.32840    7.61450    6.17120   64.18050    7.61450    -999.25   10.34920    7.67100    9.24430    -999.25    9.36210    9.45570  -84.32860  -63.44820   -4.02290    9.45570
 5000.00000    -999.25    8.72520  121.67430  120.24720    8.31620    4.67690   48.63980    8.31620    -999.25   15.99530    2.29380    8.72520    -999.25   14.18260   13.24560 -103.87300  -86.65870  -27.25350   13.24560
 5050.00000    -999.25    8.69240  133.35340  128.12790    7.80470    6.42300   66.79920    7.80470    -999.25   11.95070   10.82580    8.69240    -999.25    9.88030    9.17090  -93.13350  -72.61560  -13.23050    9.17090
 5100.00000    -999.25   12.57750  158.03380  140.06390    7.13960    5.82380   60.56750    7.13960    -999.25   15.63380    7.66630   12.57750    -999.25   12.99270   12.81910  -84.27550  -62.85770   -3.49260   12.81910
 5150.00000    -999.25    8.39790   61.50200   58.31820   17.14730    5.12370   53.28650   17.14730    -999.25   13.24910   18.87810    8.39790    -999.25   31.18460   35.41160 -119.43180 -114.89140  -55.54640   35.41160
 5200.00000    -999.25    8.44650   85.95490   86.40800   11.57300    6.27700   65.28080   11.57300    -999.25   15.65850    3.61920    8.44650    -999.25   19.81050   15.86810 -110.07110 -107.85400  -48.52910   15.86810
 5250.00000    -999.25    8.59550  114.89350  110.37040    9.06040    5.00810   52.08420    9.06040    -999.25    8.29820    5.83300    8.59550    -999.25   16.72050   15.88350 -125.04980 -118.25910  -58.95430   15.88350
 5300.00000    -999.25    9.64000  165.72600  159.46930    6.27080    6.15340   63.99540    6.27080    -999.25    6.50340    3.25380    9.64000    -999.25   10.13000    8.00660 -100.09750  -85.61050  -26.32580    8.00660
 5350.00000    -999.25    9.41690  162.35550  155.66630    6.42400    7.62690   79.31980    6.42400    -999.25    6.90860    9.65710    9.41690    -999.25    7.85110    7.36190  -86.89570  -70.67560  -11.41100    7.36190
 5400.00000    -999.25    9.25800  130.80090  121.64410    8.22070    6.93100   72.08240    8.22070    -999.25    8.67250    7.52180    9.25800    -999.25   10.52530   10.33510  -83.76710  -64.78880   -5.54420   10.33510
 5450.00000    -999.25    9.38290  145.83970  139.95020    7.14540    7.17770   74.64810    7.14540    -999.25    7.11840    7.80900    9.38290    -999.25    8.45350    8.76130  -80.54360  -62.94920   -3.72470    8.76130
 5500.00000    -999.25    8.10910   89.86570   84.37390   11.85200    3.72210   38.70980   11.85200    -999.25    8.50680    4.19210    8.10910    -999.25   24.42110   26.11440 -120.89900 -132.33460  -73.13020   26.11440
 5550.00000    -999.25    9.43640   20.63470   12.40450   80.61570    2.11870   22.03450   80.61570    -999.25   57.91070   21.11160    9.43640    -999.25   62.61920   73.56220  -90.74100  -84.46050  -25.27620   73.56220
 5600.00000    -999.25    9.57370   90.71300   85.70740   11.66760    6.32060   65.73420   11.66760    -999.25   12.42760   22.93630    9.57370    -999.25   19.56010   21.95510  -89.37940  -85.46760  -26.30340   21.95510
 5650.00000    -999.25    9.34610   95.95910   88.17410   11.34120    5.50480   57.24990   11.34120    -999.25   15.49510   12.37310    9.34610    -999.25   14.44890   15.05860  -78.44930  -67.38650   -8.24240   15.05860
 5700.00000    -999.25    9.39350  160.99730  144.93170    6.89980    6.67560   69.42620    6.89980    -999.25    7.58560   10.01740    9.39350    -999.25    9.18340    9.54290  -77.93890  -68.11810   -8.99400    9.54290
 5750.00000    9.03240    9.26810    8.06760    1.53110  653.11250    3.10630   32.30550  260.04950  330.89940  653.11250 1297.20070    9.26810  996.64440  174.54590  219.53760  -90.51300  -92.98920  -33.88520  219.53760
 5800.00000    9.04680    9.31410   28.89700   21.38280   46.76660    6.69260   69.60300   46.76660  144.07020   38.18000  199.61130    9.31410   41.30500   50.07810   57.36500  -96.74760 -103.99120  -44.90730   57.36500
