~Version ---------------------------------------------------
VERS.      2.0 : CWLS log ASCII Standard -VERSION 2.0
WRAP.       NO : One line per depth step
CREA. 11/14/17 : LAS Creation Date
~Well ------------------------------------------------------
STRT.FT                           1100.0 : START DEPTH
STOP.FT                          10400.0 : STOP DEPTH
STEP.FT                         50.00000 : STEP LENGTH
NULL.                            -999.25 : NULL VALUE
COMP.               CHEVRON STANDARD LTD : COMPANY
WELL. CHEVRON GULF PASS CREEK 7-36-61-18 : WELL
FLD .                                    : FIELD
LOC .                                    : LOCATION
CTRY.                             CANADA : COUNTRY
SRVC.                       Schlumberger : SERVICE COMPANY
DATE.                        11-Jan-1976 : LOGDATE
PROV.                            Alberta : PROVINCE
UWI .                   100073606118W500 : UNIQUE WELL ID
SLAT.WGS84                      54.31663 : SURFACE LATITUDE
SLON.WGS84                      -116.558 : SURFACE LONGITUDE
~Curve Information -----------------------------------------
DEPT    .FT    : Depth Curve
CALDED  .IN    : CALIPER FROM DENSITY LOG
CALSED  .IN    : CALIPER FROM SONIC LOG [ADJ.TO GRDED]
CALWS   .IN    : CALIPER [CALSED]
CONDWS  .MMHO  : CONDUCTIVITY [1000/DRESWS]
DCORED  .G/C3  : DENSITY CORRECTION FROM DENSITY LOG
DCORWS  .G/C3  : DENSITY CORRECTION [DCORED]
DENWS   .G/C3  : FORMATION BULK DENSITY [RHOBED]
DPHILSED.V/V   : DENSITY POROSITY LIME [M=2.71, F=1.00,ADJ.TO RHOBED] FROM DENSITY LOG
DPHISSED.V/V   : DENSITY POROSITY SAND [M=2.65, F=1.00,ADJ.TO RHOBED] FROM DENSITY LOG
DPOLSWS .V/V   : DENSITY POROSITY LIME [CALC FROM DENWS, M=2.71, F=1.00]
DRESWS  .OHMM  : DEEP RESISTIVITY [ILDED]
DTED    .US/F  : DELTA-T FROM SONIC LOG [ADJ.TO GRDED]
DTWS    .US/F  : COMPRESSIONAL SONIC [DTED]
GRDED   .GAPI  : GAMMA RAY FROM DENSITY LOG
GRSED   .GAPI  : GAMMA RAY FROM SONIC LOG [ADJ.TO GRDED]
GRWS    .GAPI  : GAMMA RAY [GRSED SPL.TO GRDED @ 10379']
ILDED   .OHMM  : DEEP INDUCTION FROM RESISTIVITY LOG
ILMED   .OHMM  : MEDIUM INDUCTION FROM RESISTIVITY LOG
LL8ED   .OHMM  : LATEROLOG 8 FROM RESISTIVITY LOG
MRESWS  .OHMM  : MEDIUM RESISTIVITY [ILMED]
NPHILSED.V/V   : NEUTRON POROSITY LIME FROM DENSITY LOG [ADJ.TO RHOBED]
NPHISSED.V/V   : NEUTRON POROSITY SAND FROM DENSITY LOG [ADJ.TO RHOBED]
NPOLSWS .V/V   : NEUTRON POROSITY LIME [NPHISSED MATRIX CONVERTED TO LIME SPL.TO NPHILSED @ 6655']
RHOBED  .G/C3  : BULK DENSITY FROM DENSITY LOG
SPRED   .MV    : SPONTANEOUS POTENTIAL FROM RESISTIVITY LOG
SPWS    .MV    : SPONTANEOUS POTENTIAL [BASELINE 0 MV, SPRED]
SRESWS  .OHMM  : SHALLOW RESISTIVITY [LL8ED]
~Params ----------------------------------------------------
PD  .                     GL : PERMANENT DATUM
EPD .FT                 2874 : ELEVATION PERMANENT DATUM
LMF .                     KB : LOG MEASURED FROM
DAPD.FT                   15 : FEET ABOVE PERMANENT DATUM
EKB .FT                 2889 : KELLY BUSHING
EGL .FT                 2874 : GROUND LEVEL
DATE.               01/11/76 : RUN DATE
RUN .                      1 : RUN NUMBER
DD  .FT                10410 : DEPTH DRILLER
DL  .FT                10421 : DEPTH LOGGER
BLI .FT                10415 : BOTTOM LOG INTERVAL
TLI .FT                 1118 : TOP LOG INTERVAL
CBD .FT                 1118 : CASING BOTTOM DRILLER
CBL .FT                 1121 : CASING BOTTOM LOGGER
BS  .IN                 8.75 : BIT SIZE
BSD .FT                10410 : BIT SIZE AT DEPTH
DFT .               GEL CHEM : DRILLING FLUID TYPE
DFD .                    9.5 : DRILLING FLUID DENSITY
DFV .                    137 : DRILLING FLUID VISCOSITY
DFPH.                    9.5 : DRILLING FLUID PH
DFL .                      9 : DRILLING FLUID LOSS
MSS .               FLOWLINE : MUD SAMPLE SOURCE
RMS .OHMM               2.38 : RESISTIVITY MUD SAMPLE
MST .DEGF                 54 : MUD SAMPLE TEMPERATURE
RMF .OHMM               2.06 : RESISTIVITY MUD FILTRATE SAMPLE
MFST.DEGF                 60 : MUD FILTRATE SAMPLE TEMPERATURE
RMC .OHMM               1.88 : RESISTIVITY MUD CAKE
MCST.DEGF                 42 : MUD CAKE SAMPLE TEMPERATURE
RMB .OHMM               0.66 : RESISTIVITY MUD AT BHT
TCS .HRS                 5.5 : TIME CIRCULATED STOPPED
LUN .                   7657 : LOGGING UNIT NUMBER
ENGI.                STANDEN : RECORDING ENGINEER
WITN.                   WONG : WITNESSED BY
CLNT.                A2DTECH : CLIENT CODE
ORIG.            2" 5" PRINT : ORIGIN OF DATA
UWI .       100073606118W500 : UNIQUE WELL ID
DICO. A2D Technologies, Inc. : DIGITIZING COMPANY
~Other -----------------------------------------------------
~ASCII -----------------------------------------------------
# ...
 3700.00000   11.33680   11.14210   11.14210  108.81980    0.01150    0.01150    2.57830    -999.25    0.03890    0.07700    9.18950   85.46620   85.46620  112.80050  105.76240  105.76240    9.18950    9.76600   11.40820    9.76600    -999.25    0.28470    0.24070    2.57830 -125.49040   -4.83390   11.40820
 3750.00000   10.68590   10.93750   10.93750  118.97260    0.09040    0.09040    2.59170    -999.25    0.03080    0.06920    8.40530   85.86080   85.86080  112.77150  105.67650  105.67650    8.40530    8.67550    9.01010    8.67550    -999.25    0.28540    0.24140    2.59170 -127.15820   -6.57320    9.01010
 3800.00000   10.10630   10.52320   10.52320  123.68740    0.03650    0.03650    2.55180    -999.25    0.05820    0.09250    8.08490   86.17480   86.17480   99.23490   98.43260   98.43260    8.08490    8.33680    8.65030    8.33680    -999.25    0.35820    0.31470    2.55180 -129.69790   -8.56150    8.65030
 3850.00000   10.92240   10.42130   10.42130  163.44410    0.15290    0.15290    1.94800    -999.25    0.43430    0.44560    6.11830   91.94350   91.94350  105.20670  100.25090  100.25090    6.11830    6.62220    6.87110    6.62220    -999.25    0.39640    0.35350    1.94800 -131.48920   -9.79780    6.87110
 3900.00000   11.25710   10.09700   10.09700  124.86610    0.17270    0.17270    1.99750    -999.25    0.39620    0.41660    8.00960   80.87860   80.87860   90.53350   91.72980   91.72980    8.00960    8.28730    8.69980    8.28730    -999.25    0.37400    0.33060    1.99750 -131.80150   -9.55870    8.69980
 3950.00000   12.36550   10.16340   10.16340  108.56940    0.06470    0.06470    1.85660    -999.25    0.48080    0.49910    9.21070   83.21000   83.21000   93.18260   86.53460   86.53460    9.21070    9.79810    8.83960    9.79810    -999.25    0.33960    0.29590    1.85660 -132.01330   -9.21540    8.83960
 4000.00000   13.84950   10.61830   10.61830  154.81070    0.13740    0.13740    1.85400    -999.25    0.47010    0.50060    6.45950   86.29260   86.29260   97.60370   91.20450   91.20450    6.45950    6.66130    7.17650    6.66130    -999.25    0.45350    0.41180    1.85400 -130.96080   -7.61150    7.17650
 4050.00000   13.11100   10.58820   10.58820  150.13240    0.09530    0.09530    1.73110    -999.25    0.54850    0.57250    6.66080   88.33210   88.33210   99.11920  103.11190  103.11190    6.66080    6.86850    7.33750    6.86850    -999.25    0.43940    0.39740    1.73110 -131.92890   -8.02820    7.33750
 4100.00000   13.39830   10.56710   10.56710  174.11590    0.10390    0.10390    1.75630    -999.25    0.52450    0.55770    5.74330   90.77960   90.77960  107.86820  104.42890  104.42890    5.74330    5.92250    6.31020    5.92250    -999.25    0.39600    0.35300    1.75630 -133.29470   -8.83900    6.31020
 4150.00000   11.60510   10.47760   10.47760  132.24100    0.13160    0.13160    1.98660    -999.25    0.40020    0.42310    7.56190   86.26060   86.26060   90.85480  107.64000  107.64000    7.56190    7.79730    8.22240    7.79730    -999.25    0.43200    0.38990    1.98660 -133.58160   -8.57440    8.22240
 4200.00000   12.27670   11.12250   11.12250  166.45860    0.13740    0.13740    1.93040    -999.25    0.43560    0.45590    6.00750   98.90890   98.90890   91.78550   90.78760   90.78760    6.00750    6.44290    6.69010    6.44290    -999.25    0.46100    0.41930    1.93040 -133.83660   -8.27440    6.69010
 4250.00000   10.26690   10.22940   10.22940  119.21940    0.11530    0.11530    2.44610    -999.25    0.12420    0.15430    8.38790   82.00400   82.00400  102.41250  102.20110  102.20110    8.38790    8.78610    9.11730    8.78610    -999.25    0.35520    0.31160    2.44610 -131.05400   -4.94040    9.11730
 4300.00000    9.75720   10.06260   10.06260  107.66930    0.15570    0.15570    2.58540    -999.25    0.03260    0.07280    9.28770   80.11810   80.11810   97.06950  107.15000  107.15000    9.28770    9.57680   10.50520    9.57680    -999.25    0.32260    0.27870    2.58540 -131.20970   -4.54470   10.50520
 4350.00000   10.10570   10.74830   10.74830  135.66310    0.17370    0.17370    2.48940    -999.25    0.09260    0.12900    7.37120   72.95000   72.95000  104.15260   96.45710   96.45710    7.37120    7.63640    8.05640    7.63640    -999.25    0.33580    0.29200    2.48940 -133.72290   -7.45300    8.05640
 4400.00000   10.65310   10.95280   10.95280  120.56280    0.15480    0.15480    2.52850    -999.25    0.06970    0.10610    8.29540   82.70560   82.70560  103.18760  106.25340  106.25340    8.29540    8.58010    8.93650    8.58010    -999.25    0.30870    0.26480    2.52850 -132.87050   -7.05920    8.93650
 4450.00000   10.92070   11.16060   11.16060  149.59980    0.23000    0.23000    2.35970    -999.25    0.17340    0.20490    6.68450   90.32750   90.32750  102.43870  112.18340  112.18340    6.68450    7.15520    7.78920    7.15520    -999.25    0.41770    0.37520    2.35970 -131.64810   -6.29840    7.78920
 4500.00000   10.86230   10.60040   10.60040  156.27930    0.20590    0.20590    2.23260    -999.25    0.25740    0.27920    6.39880   94.27410   94.27410  108.96830  118.72700  118.72700    6.39880    6.90200    7.72950    6.90200    -999.25    0.40520    0.36240    2.23260 -129.75870   -4.86760    7.72950
 4550.00000   10.84190   10.23890   10.23890  116.90590    0.11760    0.11760    2.49880    -999.25    0.09730    0.12350    8.55400   91.63400   91.63400  121.77420  126.23860  126.23860    8.55400    8.94660   10.31280    8.94660    -999.25    0.35940    0.31590    2.49880 -130.68720   -6.25460   10.31280
 4600.00000   10.78190   10.80630   10.80630  126.54860    0.17830    0.17830    2.43070    -999.25    0.13870    0.16330    7.90210   91.98630   91.98630  111.36230  115.25650  115.25650    7.90210    8.34680   10.39400    8.34680    -999.25    0.38300    0.33980    2.43070 -129.94110   -5.97010   10.39400
 4650.00000   10.35650   10.40420   10.40420  103.59300    0.26440    0.26440    2.42090    -999.25    0.13820    0.16900    9.65330   93.28240   93.28240  126.88460  134.67870  134.67870    9.65330   10.03800   12.28260   10.03800    -999.25    0.38590    0.34270    2.42090 -127.08880   -3.57640   12.28260
 4700.00000    9.30410    9.96590    9.96590   91.22420    0.17780    0.17780    2.49950    -999.25    0.10400    0.12310   10.96200   87.25850   87.25850  126.63940  124.89880  124.89880   10.96200   11.36980   14.30520   11.36980    -999.25    0.33080    0.28700    2.49950 -125.80760   -2.75680   14.30520
 4750.00000   11.09780   10.94770   10.94770  140.56200    0.22340    0.22340    2.19970    -999.25    0.26840    0.29840    7.11430   90.58620   90.58620  112.08490  118.46990  118.46990    7.11430    7.77520    9.10230    7.77520    -999.25    0.36890    0.32550    2.19970 -125.65780   -3.06560    9.10230
 4800.00000    9.67400    9.92410    9.92410  104.40260    0.19790    0.19790    2.24030    -999.25    0.23920    0.27470    9.58330  101.40850  101.40850  150.23450  145.32720  145.32720    9.58330   10.92550   15.66370   10.92550    -999.25    0.40120    0.35840    2.24030 -129.87080   -7.73720   15.66370
 4850.00000   10.69890   10.21670   10.21670  129.81790    0.16620    0.16620    2.33690    -999.25    0.21400    0.21820    7.70310   78.27960   78.27960   78.27140   73.06090   73.06090    7.70310    8.01330    8.41020    8.01330    -999.25    0.25550    0.21160    2.33690 -139.09380  -17.23700    8.41020
 4900.00000   14.70400   11.65420   11.65420  206.20700    0.15080    0.15080    1.98230    -999.25    0.44950    0.42560    4.85110   91.46480   91.46480   95.94760   86.00720   86.00720    4.85110    5.22980    5.84270    5.22980    -999.25    0.21440    0.17080    1.98230 -135.80160  -14.20570    5.84270
 4950.00000   10.46870   10.15880   10.15880  141.80580    0.22310    0.22310    2.21640    -999.25    0.25250    0.28870    7.05190   80.00880   80.00880  108.89780   99.24740   99.24740    7.05190    7.62350   10.00470    7.62350    -999.25    0.27570    0.23170    2.21640 -136.01790  -14.68450   10.00470
