~Version ---------------------------------------------------
VERS.      2.0 : CWLS log ASCII Standard -VERSION 2.0
WRAP.       NO : One line per depth step
CREA. 01/05/18 : LAS Creation Date
~Well ------------------------------------------------------
STRT.FT                      950.0 : START DEPTH
STOP.FT                    10300.0 : STOP DEPTH
STEP.FT                   50.00000 : STEP LENGTH
NULL.                      -999.25 : NULL VALUE
COMP.         PETROFINA CANADA LTD : COMPANY
WELL. FINA ET AL KAYBOB 10-7-60-17 : WELL
FLD .                              : FIELD
LOC .                              : LOCATION
CTRY.                       CANADA : COUNTRY
SRVC.                 Schlumberger : SERVICE COMPANY
DATE.                  18-Jan-1976 : LOGDATE
PROV.                      Alberta : PROVINCE
UWI .             100100706017W500 : UNIQUE WELL ID
SLAT.WGS84                54.17689 : SURFACE LATITUDE
SLON.WGS84               -116.5329 : SURFACE LONGITUDE
~Curve Information -----------------------------------------
DEPT    .FT    : Depth Curve
CALDED  .IN    : CALIPER FROM DENSITY LOG [ADJ. TO RESISTIVITY LOG]
CALSED  .IN    : CALIPER FROM SONIC LOG
CALWS   .IN    : CALIPER [CALDED SPL. TO CALSED @ 1046']
CILDED  .MMHO  : CONDUCTIVITY FROM RESISTIVITY LOG
CONDWS  .MMHO  : CONDUCTIVITY [1000/DRESWS]
DCORED  .G/C3  : DENSITY CORRECTION FROM DENSITY LOG [ADJ. TO RESISTIVITY LOG]
DCORWS  .G/C3  : DENSITY CORRECTION [DCORED]
DENWS   .G/C3  : FORMATION BULK DENSITY [CALC. FROM DPOLSWS, M=M=2.71 F=1.00]
DPHILSED.V/V   : DENSITY POROSITY LIMESTONE [M=M=2.71 F=1.00] FROM DENSITY LOG [ADJ. TO RESISTIVITY LOG]
DPHISSED.V/V   : DENSITY POROSITY SANDSTONE [M=2.65 F=1.00] FROM DENSITY LOG [ADJ. TO RESISTIVITY LOG]
DPOLSWS .V/V   : DENSITY POROSITY LIMESTONE [DPHISSED CONVERTED TO LIMESTONE (M=2.71 F=1.00), SPL. TO DPHILSED @ 6847']
DRESWS  .OHMM  : DEEP RESISTIVITY [1000/CILDED, IF ILDED < 2, ILDED & SPL. TO ILDED @ 1043'-3980']
DTED    .US/F  : DELTA TIME FROM SONIC LOG
DTWS    .US/F  : COMPRESSIONAL SONIC [DTED]
GRDED   .GAPI  : GAMMA RAY FROM DENSITY LOG [ADJ. TO RESISTIVITY LOG]
GRSED   .GAPI  : GAMMA RAY FROM SONIC LOG
GRWS    .GAPI  : GAMMA RAY [GRSED]
ILDED   .OHMM  : DEEP  INDUCTION LOG RESISTIVITY FROM RESISTIVITY LOG
ILMED   .OHMM  : MEDIUM INDUCTION LOG RESISTIVITY FROM RESISTIVITY LOG
LL8ED   .OHMM  : 8 INCH LATEROLOG RESISTIVITY FROM RESISTIVITY LOG
MRESWS  .OHMM  : MEDIUM RESISTIVITY [ILMED]
NPHILSED.V/V   : NEUTRON POROSITY LIMESTONE FROM DENSITY LOG [ADJ. TO RESISTIVITY LOG]
NPHISSED.V/V   : NEUTRON POROSITY SANDSTONE FROM DENSITY LOG [ADJ. TO RESISTIVITY LOG]
NPOLSWS .V/V   : NEUTRON POROSITY LIMESTONE [NPHISSED MATRIX CONVERSION FOR LIMESTONE, SPL. TO NPHILSED @ 6847']
RHOBED  .G/C3  : BULK DENSITY FROM DENSITY LOG [ADJ. TO RESISTIVITY LOG]
SPRED   .MV    : SPONTANEOUS POTENTIAL FROM RESISTIVITY LOG
SPWS    .MV    : SPONTANEOUS POTENTIAL [BASELINE 0 MV, SPRED]
SRESWS  .OHMM  : SHALLOW RESISTIVITY [LL8ED]
~Params ----------------------------------------------------
PD  .                     GL : PERMANENT DATUM
EPD .FT              2627.65 : ELEVATION PERMANENT DATUM
LMF .                     KB : LOG MEASURED FROM
DAPD.FT                 14.2 : FEET ABOVE PERMANENT DATUM
EKB .FT              2641.85 : KELLY BUSHING
EGL .FT              2627.65 : GROUND LEVEL
DATE.               01/18/76 : RUN DATE
RUN .                      1 : RUN NUMBER
DD  .FT                10330 : DEPTH DRILLER
DL  .FT                10336 : DEPTH LOGGER
BLI .FT                10330 : BOTTOM LOG INTERVAL
TLI .FT                 1038 : TOP LOG INTERVAL
CBD .FT                 1039 : CASING BOTTOM DRILLER
CBL .FT                 1038 : CASING BOTTOM LOGGER
BS  .IN                 8.75 : BIT SIZE
BSD .FT                10330 : BIT SIZE AT DEPTH
DFT .            GEL CAUSTIC : DRILLING FLUID TYPE
DFD .                    9.1 : DRILLING FLUID DENSITY
DFV .                    220 : DRILLING FLUID VISCOSITY
DFPH.                   10.5 : DRILLING FLUID PH
DFL .                    9.5 : DRILLING FLUID LOSS
MSS .             CIRCULATED : MUD SAMPLE SOURCE
RMS .OHMM               2.67 : RESISTIVITY MUD SAMPLE
MST .DEGF                 52 : MUD SAMPLE TEMPERATURE
RMF .OHMM               2.43 : RESISTIVITY MUD FILTRATE SAMPLE
MFST.DEGF                 73 : MUD FILTRATE SAMPLE TEMPERATURE
RMB .OHMM               0.88 : RESISTIVITY MUD AT BHT
TCS .HRS                   4 : TIME CIRCULATED STOPPED
LUN .                   7667 : LOGGING UNIT NUMBER
LUL .                    EDM : LOGGING UNIT LOCATION
ENGI.                 DENNIS : RECORDING ENGINEER
WITN.                JOHNSON : WITNESSED BY
CLNT.                A2DTECH : CLIENT CODE
ORIG.            2" 5" PRINT : ORIGIN OF DATA
UWI .       100100706017W500 : UNIQUE WELL ID
DICO. A2D Technologies, Inc. : DIGITIZING COMPANY
~Other -----------------------------------------------------
~ASCII -----------------------------------------------------
# ...
 7200.00000    9.03150    8.83370    8.83370    -999.25   67.97910    0.02360    0.02360    2.74630   -0.02120    -999.25   -0.02120   14.71040   58.15620   58.15620   61.58860   55.18890   55.18890   14.71040   17.45770   21.34850   17.45770    0.09080    -999.25    0.09080    2.74590  -99.59100  -61.20030   21.34850
 7250.00000    9.16630    9.22600    9.22600    -999.25   41.09540    0.03220    0.03220    2.76060   -0.02960    -999.25   -0.02960   24.33360   57.54210   57.54210   55.70380   55.64620   55.64620   24.33360   27.20690   30.86230   27.20690    0.06970    -999.25    0.06970    2.75690  -80.69370  -42.27540   30.86230
 7300.00000    9.53530    9.54050    9.54050    -999.25    3.36550    0.13690    0.13690    2.73490   -0.01450    -999.25   -0.01450  297.39560   50.54640   50.54640   22.18920   24.03560   24.03560  297.39560  645.91790  554.09360  645.91790    0.01440    -999.25    0.01440    2.73540  -85.16200  -46.71610  554.09360
 7350.00000    9.27420    9.03770    9.03770    -999.25   25.83200    0.00020    0.00020    2.69460    0.00900    -999.25    0.00900   38.71170   57.00070   57.00070   54.67250   55.68540   55.68540   38.71170   45.17990   52.26790   45.17990    0.05530    -999.25    0.05530    2.69670  -75.66180  -37.18810   52.26790
 7400.00000   10.54880    9.71970    9.71970    -999.25   12.67090    0.15260    0.15260    2.70910    0.00050    -999.25    0.00050   78.92100   51.96110   51.96110   21.75100   19.39920   19.39920   78.92100  138.57700  199.10680  138.57700    0.01840    -999.25    0.01840    2.70750 -113.06490  -74.56360  199.10680
 7450.00000    8.96890    8.94560    8.94560    -999.25   16.51830    0.00020    0.00020    2.69460    0.00900    -999.25    0.00900   60.53880   54.83100   54.83100   39.99030   40.45680   40.45680   60.53880   73.50500   97.65750   73.50500    0.03460    -999.25    0.03460    2.70560  -73.11010  -34.58110   97.65750
 7500.00000    9.01780    9.12740    9.12740    -999.25   22.98080    0.01420    0.01420    2.71870   -0.00510    -999.25   -0.00510   43.51460   56.19740   56.19740   46.12490   45.89320   45.89320   43.51460   49.63280   51.77820   49.63280    0.05050    -999.25    0.05050    2.71960  -69.19860  -30.64200   51.77820
 7550.00000    9.04500    8.92840    8.92840    -999.25    7.46720    0.04930    0.04930    2.75530   -0.02650    -999.25   -0.02650  133.93030   53.62180   53.62180   32.56870   31.78470   31.78470  133.93030  189.99300  182.37330  189.99300    0.01710    -999.25    0.01710    2.76210  -87.28090  -48.69680  182.37330
 7600.00000    9.06290    8.93650    8.93650    -999.25   18.68330    0.00590    0.00590    2.69080    0.01120    -999.25    0.01120   53.52370   57.60350   57.60350   56.13080   57.14400   57.14400   53.52370   60.59140   70.04150   60.59140    0.04350    -999.25    0.04350    2.69990  -73.99140  -35.37950   70.04150
 7650.00000    9.04950    9.06180    9.06180    -999.25    8.78640    0.03530    0.03530    2.71360   -0.00210    -999.25   -0.00210  113.81240   45.29450   45.29450   73.82560   75.68610   75.68610  113.81240  158.43320  161.16400  158.43320    0.07080    -999.25    0.07080    2.70800  -69.77430  -31.13470  161.16400
 7700.00000    9.12380    8.98180    8.98180    -999.25   28.82740    0.02570    0.02570    2.70130    0.00510    -999.25    0.00510   34.68920   55.43960   55.43960   69.12010   63.97000   63.97000   34.68920   40.05260   69.58280   40.05260    0.07180    -999.25    0.07180    2.70760  -96.37270  -57.70550   69.58280
 7750.00000    9.26500    8.95210    8.95210    -999.25    6.39970    0.04640    0.04640    2.76130   -0.03000    -999.25   -0.03000  156.25620   51.79180   51.79180   39.58360   39.06000   39.06000  156.25620  178.93930  216.22880  178.93930    0.01510    -999.25    0.01510    2.76220  -89.82390  -51.12900  216.22880
 7800.00000   10.50970    9.49670    9.49670    -999.25    0.68020    0.25000    0.25000    2.64720    0.03670    -999.25    0.03670 1470.25710   49.01570   49.01570   16.62090   15.34760   15.34760 1470.25710 1397.92510  728.87400 1397.92510   -0.00080    -999.25   -0.00080    2.64920 -151.64260 -112.92020  728.87400
 7850.00000   10.48310    9.39240    9.39240    -999.25    0.67090    0.25000    0.25000    2.65250    0.03360    -999.25    0.03360 1490.59810   48.38060   48.38060   13.82680   16.30330   16.30330 1490.59810 1267.21120  705.54980 1267.21120   -0.00120    -999.25   -0.00120    2.66460 -140.53020 -101.78000  705.54980
 7900.00000   11.20420    9.61220    9.61220    -999.25    0.94240    0.25010    0.25010    2.60960    0.05870    -999.25    0.05870 1061.13790   49.31600   49.31600   12.34710   12.81420   12.81420 1061.13790 1508.60490  408.88780 1508.60490   -0.00030    -999.25   -0.00030    2.62020 -159.73020 -120.95240  408.88780
 7950.00000   12.36120    9.98110    9.98110    -999.25    3.83490    0.23650    0.23650    2.53880    0.10010    -999.25    0.10010  260.76180   53.46320   53.46320   11.13560   11.81820   11.81820  260.76180  220.08930  133.56650  220.08930    0.00610    -999.25    0.00610    2.53620 -163.46500 -124.65950  133.56650
 8000.00000   13.95450   11.55890   11.55890    -999.25    0.69120    0.19290    0.19290    2.49730    0.12440    -999.25    0.12440 1446.73080   51.35150   51.35150   15.53510   18.31040   18.31040 1446.73080  481.27240  388.39740  481.27240    0.00320    -999.25    0.00320    2.49920 -153.78440 -114.95120  388.39740
 8050.00000    9.72790    9.48170    9.48170    -999.25    5.07620    0.14420    0.14420    2.71560   -0.00330    -999.25   -0.00330  197.13610   48.31130   48.31130    9.60000    9.41400    9.41400  197.13610  165.40850  161.70620  165.40850    0.00090    -999.25    0.00090    2.72100 -171.42450 -132.56390  161.70620
 8100.00000   11.30800    9.58890    9.58890    -999.25    2.28550    0.16060    0.16060    2.63290    0.04510    -999.25    0.04510  437.53820   49.63250   49.63250   11.08430   12.74470   12.74470  437.53820  214.87020  213.38910  214.87020    0.00820    -999.25    0.00820    2.62840 -162.49810 -123.60960  213.38910
 8150.00000   10.93730   10.02190   10.02190    -999.25    1.25650    0.25000    0.25000    2.58840    0.07110    -999.25    0.07110  795.86350   50.47160   50.47160   12.24610   14.24730   14.24730  795.86350  778.53610  393.98220  778.53610   -0.00000    -999.25   -0.00000    2.59000 -159.56040 -120.64430  393.98220
 8200.00000   11.92200   10.16640   10.16640    -999.25    0.69900    0.15680    0.15680    2.61920    0.05310    -999.25    0.05310 1430.69130   56.31960   56.31960   15.43820   13.60250   13.60250 1430.69130 1024.31590  315.29150 1024.31590    0.01330    -999.25    0.01330    2.61900 -155.80290 -116.85910  315.29150
 8250.00000   12.50180   10.57580   10.57580    -999.25    0.68370    0.16320    0.16320    2.49080    0.12820    -999.25    0.12820 1462.58970   51.67890   51.67890   14.39910   17.18140   17.18140 1462.58970  419.41130  373.17050  419.41130    0.01810    -999.25    0.01810    2.49290 -151.94920 -112.97780  373.17050
 8300.00000   12.02500   10.59850   10.59850    -999.25    6.70810    0.19700    0.19700    2.48910    0.12920    -999.25    0.12920  149.37320   50.99270   50.99270   13.51190   12.61480   12.61480  149.37320  115.04930  120.69070  115.04930    0.01130    -999.25    0.01130    2.48990 -168.55520 -129.55620  120.69070
 8350.00000   11.76770   10.51360   10.51360    -999.25    2.28370    0.13970    0.13970    2.53810    0.10050    -999.25    0.10050  437.89390   52.04410   52.04410   13.01830   14.77180   14.77180  437.89390  379.51640  170.60640  379.51640    0.00940    -999.25    0.00940    2.55950 -164.42250 -125.39580  170.60640
 8400.00000   11.89890   10.29100   10.29100    -999.25    4.25790    0.23820    0.23820    2.61120    0.05780    -999.25    0.05780  234.85900   51.10940   51.10940   19.76970   21.16280   21.16280  234.85900  209.19710  151.49100  209.19710    0.00530    -999.25    0.00530    2.62000 -163.18800 -124.13360  151.49100
