~Version ---------------------------------------------------
VERS.      2.0 : CWLS log ASCII Standard -VERSION 2.0
WRAP.       NO : One line per depth step
CREA. 07/28/17 : LAS Creation Date
~Well ------------------------------------------------------
STRT.FT              650.0 : START DEPTH
STOP.FT             8250.0 : STOP DEPTH
STEP.FT           50.00000 : STEP LENGTH
NULL.              -999.25 : NULL VALUE
COMP.  GULF CANADA LIMITED : COMPANY
WELL. SACHS NO. 10-36-43-1 : WELL
FLD .              WILDCAT : FIELD
LOC .                      : LOCATION
CTRY.               CANADA : COUNTRY
SRVC.              Unknown : SERVICE COMPANY
DATE.          17-Jan-1956 : LOGDATE
PROV.              Alberta : PROVINCE
UWI .     100103604301W500 : UNIQUE WELL ID
SLAT.WGS84        52.75062 : SURFACE LATITUDE
SLON.WGS84       -114.0099 : SURFACE LONGITUDE
~Curve Information -----------------------------------------
DEPT  .FT    : Depth Curve
ASNED .OHMM  : AMPLIFIED SHORT NORMAL 16" FROM EL
CALWS .IN    : MLT (MICROLOG) CALIPER [MCALED]
CONDWS.MMHO  : CONDUCTIVITY [1000/DRESWS]
DRESWS.OHMM  : DEEP RESISTIVITY [LNED]
LLED  .OHMM  : LATEROLOG FROM LL LOG
LNED  .OHMM  : 64 INCH LONG NORMAL RESISTIVITY FROM EL
LT18ED.OHMM  : LATERAL 18' FROM EL
MCALED.IN    : MLT (MICROLOG) CALIPER LOG
SPR1ED.MV    : SPONTANEOUS POTENTIAL FROM MICRO LOG
SPRED .MV    : SPONTANEOUS POTENTIAL FROM EL
SPWS  .MV    : SPONTANEOUS POTENTIAL [BASELINE 0 MV] [SPRED]
SRESWS.OHMM  : SHALLOW RESISTIVITY [ASNED]
~Params ----------------------------------------------------
LMF .                     KB : LOG MEASURED FROM
DMF .                     KB : DRILLING MEASURED FROM
EKB .FT               3073.1 : KELLY BUSHING
DATE.               01/17/56 : RUN DATE
RUN .                      2 : RUN NUMBER
DD  .FT                 8290 : DEPTH DRILLER
DL  .FT                 8288 : DEPTH LOGGER
BLI .FT                 8287 : BOTTOM LOG INTERVAL
TLI .FT                 6100 : TOP LOG INTERVAL
CBD .FT                  611 : CASING BOTTOM DRILLER
CBL .FT                  612 : CASING BOTTOM LOGGER
BS  .IN                    9 : BIT SIZE
BSD .FT                 8290 : BIT SIZE AT DEPTH
DFT .              LIME BASE : DRILLING FLUID TYPE
DFD .                   10.5 : DRILLING FLUID DENSITY
DFV .                     85 : DRILLING FLUID VISCOSITY
DFPH.                     12 : DRILLING FLUID PH
DFL .                    4.4 : DRILLING FLUID LOSS
RMS .OHMM                1.4 : RESISTIVITY MUD SAMPLE
MST .DEGF                 50 : MUD SAMPLE TEMPERATURE
RMB .OHMM                0.5 : RESISTIVITY MUD AT BHT
TCS .HRS                   6 : TIME CIRCULATED STOPPED
LUN .                   1772 : LOGGING UNIT NUMBER
LUL .                     RD : LOGGING UNIT LOCATION
ENGI.               SHOQUIST : RECORDING ENGINEER
WITN.                 EDIGFF : WITNESSED BY
CLNT.                A2DTECH : CLIENT CODE
ORIG.            2" 5" PRINT : ORIGIN OF DATA
UWI .       100103604301W500 : UNIQUE WELL ID
DICO. A2D Technologies, Inc. : DIGITIZING COMPANY
LSRV.                     EL : LOG MNEMONIC
~Other -----------------------------------------------------
~ASCII -----------------------------------------------------
# ...
 3450.00000    6.03200   13.61470  144.59220    6.91600    5.54390    6.91600    7.84930   13.61470  -21.99730  -30.18710   -5.23780    6.03200
 3500.00000    8.20640   12.99240  105.58320    9.47120    5.91350    9.47120    8.10400   12.99240  -23.09490  -31.16460   -6.66540    8.20640
 3550.00000    8.41560   13.18200   98.59700   10.14230    -999.25   10.14230   11.54690   13.18200    -999.25  -28.87400   -4.39140    8.41560
 3600.00000    8.57770   12.90670   88.86440   11.25310    -999.25   11.25310   11.08310   12.90670    -999.25  -28.82480   -4.18870    8.57770
 3650.00000    9.07690   12.98990   82.58390   12.10890    -999.25   12.10890   13.41200   12.98990    -999.25  -31.51060   -6.72250    9.07690
 3700.00000    9.20150   11.58580   85.53370   11.69130    -999.25   11.69130   13.51720   11.58580    -999.25  -32.35630   -7.41460    9.20150
 3750.00000    9.73780   10.69980   85.43940   11.70420    -999.25   11.70420   12.49200   10.69980    -999.25  -32.50460   -7.41090    9.73780
 3800.00000    9.25920   12.69100   86.23070   11.59680    -999.25   11.59680   12.23890   12.69100    -999.25  -35.84080  -10.59440    9.25920
 3850.00000   14.03220    9.77090   60.03460   16.65700    -999.25   16.65700   12.97040    9.77090    -999.25  -36.87100  -11.47100   14.03220
 3900.00000   15.07820    9.49450   53.96190   18.53160    -999.25   18.53160   18.45990    9.49450    -999.25  -37.09300  -11.54100   15.07820
 3950.00000   14.34210    9.60940   61.89290   16.15690    -999.25   16.15690   16.74370    9.60940    -999.25  -34.18140   -8.47590   14.34210
 4000.00000   10.85440   11.27770   74.19990   13.47710    -999.25   13.47710   13.79860   11.27770    -999.25  -35.54460   -9.68710   10.85440
 4050.00000    9.11020   10.86980   94.92440   10.53470    -999.25   10.53470   13.62740   10.86980    -999.25  -36.08200  -10.07170    9.11020
 4100.00000    9.44370   11.67330   87.37820   11.44450    -999.25   11.44450   11.95570   11.67330    -999.25  -36.05370   -9.88990    9.44370
 4150.00000   10.09440   10.52250   91.44360   10.93570    -999.25   10.93570   14.01480   10.52250    -999.25  -37.49590  -11.18010   10.09440
 4200.00000    8.00320   12.59630  104.56200    9.56370    -999.25    9.56370   10.76400   12.59630    -999.25  -32.54970   -6.08040    8.00320
 4250.00000    8.43590   12.47200  104.82290    9.53990    -999.25    9.53990   10.16140   12.47200    -999.25  -34.37790   -7.75660    8.43590
 4300.00000   10.85280   11.32160   72.85550   13.72580    -999.25   13.72580    9.29560   11.32160    -999.25  -35.94620   -9.17210   10.85280
 4350.00000   10.01200   11.39350   88.64110   11.28140    -999.25   11.28140   12.91310   11.39350    -999.25  -35.24350   -8.31590   10.01200
 4400.00000   11.13160   11.98270   65.54970   15.25560    -999.25   15.25560   13.86850   11.98270    -999.25  -36.76860   -9.68900   11.13160
 4450.00000    8.99430   13.00380   82.99550   12.04890    -999.25   12.04890   12.94330   13.00380    -999.25  -33.99110   -6.75800    8.99430
 4500.00000    8.77950   11.81770   86.22470   11.59760    -999.25   11.59760   12.81040   11.81770    -999.25  -32.67550   -5.29030    8.77950
 4550.00000    9.14030   11.92470   83.72050   11.94450    -999.25   11.94450   14.01660   11.92470    -999.25  -34.12660   -6.58870    9.14030
 4600.00000    8.43460   12.36300  103.95930    9.61910    -999.25    9.61910   11.20830   12.36300    -999.25  -34.11580   -6.42440    8.43460
 4650.00000    8.85320   11.29950  103.54110    9.65800    -999.25    9.65800    9.27680   11.29950    -999.25  -32.48000   -4.63650    8.85320
 4700.00000   16.28210    9.24960   52.66210   18.98900    -999.25   18.98900   12.68470    9.24960    -999.25  -36.43380   -8.43680   16.28210
 4750.00000   13.69710    9.48780   63.67440   15.70490    -999.25   15.70490   18.51950    9.48780    -999.25  -36.09850   -7.94950   13.69710
 4800.00000   24.92290    9.28420   27.09780   36.90330    -999.25   36.90330   29.50960    9.28420    -999.25  -34.22320   -5.92140   24.92290
 4850.00000   12.59290   10.46790   64.96040   15.39400    -999.25   15.39400   16.64890   10.46790    -999.25  -32.48700   -4.03170   12.59290
 4900.00000   20.22830    9.14740   36.69460   27.25200    -999.25   27.25200   23.33360    9.14740    -999.25  -34.87850   -6.47530   20.22830
 4950.00000   16.72250    9.19270   53.18400   18.80260    -999.25   18.80260   21.93730    9.19270    -999.25  -34.72140   -6.56690   16.72250
 5000.00000   10.00870   11.29370   87.33780   11.44980    -999.25   11.44980   11.21500   11.29370    -999.25  -31.67810   -3.76970   10.00870
 5050.00000    6.14540    9.68240  177.41820    5.63640    -999.25    5.63640   10.77880    9.68240    -999.25  -35.27660   -7.61570    6.14540
 5100.00000    3.97440   15.09460  230.78430    4.33310    -999.25    4.33310    4.82830   15.09460    -999.25  -33.82920   -6.41690    3.97440
 5150.00000    5.12000   13.69670  179.20180    5.58030    -999.25    5.58030    5.13100   13.69670    -999.25  -34.55800   -7.39190    5.12000
 5200.00000   14.61750    9.66110   54.91620   18.20960    -999.25   18.20960   16.57240    9.66110    -999.25  -42.76510  -15.84770   14.61750
 5250.00000    4.89540   14.31740  199.00500    5.02500    -999.25    5.02500   17.88180   14.31740    -999.25  -31.43130   -4.76010    4.89540
 5300.00000    3.09690   15.11450  285.03020    3.50840    -999.25    3.50840    2.51010   15.11450    -999.25  -28.69900   -2.23850    3.09690
 5350.00000   12.39320    9.91570   54.27590   18.42440    -999.25   18.42440   11.77550    9.91570    -999.25  -43.69350  -17.14590   12.39320
 5400.00000   23.67510   10.57360   35.05950   28.52290    -999.25   28.52290   62.77660   10.57360    -999.25  -42.04740  -15.41370   23.67510
 5450.00000   20.97940   12.03050   21.41360   46.69930    -999.25   46.69930   60.84070   12.03050    -999.25  -44.93670  -18.21590   20.97940
 5500.00000   16.62050   13.40960   27.25150   36.69520    -999.25   36.69520   27.76330   13.40960    -999.25  -50.10000  -23.29310   16.62050
 5550.00000   19.50930   14.71740   23.50930   42.53640    -999.25   42.53640   89.18410   14.71740    -999.25  -29.56020   -2.66670   19.50930
 5600.00000   16.16170   12.21200   26.23580   38.11590    -999.25   38.11590   43.26310   12.21200    -999.25  -33.81390   -6.83330   16.16170
 5650.00000   15.13460   12.33160   33.22700   30.09600    -999.25   30.09600   23.79410   12.33160    -999.25  -27.73870   -0.67200   15.13460
 5700.00000   23.04160   10.64080   21.84220   45.78300    -999.25   45.78300   64.96250   10.64080    -999.25  -36.08880   -8.93500   23.04160
 5750.00000    9.24330   10.29480   53.45080   18.70880    -999.25   18.70880   10.94470   10.29480    -999.25  -44.13250  -16.89260    9.24330
 5800.00000   49.58110    9.96390    7.13790  140.09780    -999.25  140.09780  216.33910    9.96390    -999.25  -44.45800  -17.13150   49.58110
 5850.00000   38.65430   10.22630    8.89190  112.46250    -999.25  112.46250  395.25590   10.22630    -999.25  -34.81790   -7.40430   38.65430
 5900.00000   41.80180    9.04760   10.72670   93.22570    -999.25   93.22570  116.59100    9.04760    -999.25  -32.66190   -5.36500   41.80180
 5950.00000   45.32570    9.14600    9.84350  101.59020    -999.25  101.59020  113.07210    9.14600    -999.25  -38.89010  -13.35890   45.32570
 6000.00000   36.59370    9.13990   12.55560   79.64560    -999.25   79.64560  105.22390    9.13990    -999.25  -35.70270  -11.91980   36.59370
 6050.00000   59.37590    9.18090    7.14840  139.89150    -999.25  139.89150  125.33230    9.18090    -999.25  -30.23450   -8.20860   59.37590
 6100.00000   65.95060    9.22340    4.95070  201.99350  159.28120  201.99350  387.99760    9.22340  -56.92630  -27.12490   -6.86470   65.95060
 6150.00000   82.64940    9.08250    3.67170  272.35310  247.96390  272.35310    -999.25    9.08250  -53.08100  -21.25040   -2.73850   82.64940
 6200.00000   34.54660    9.05790   12.37500   80.80790   58.53960   80.80790  386.56720    9.05790  -49.90410  -17.17140   -0.42530   34.54660
