~Version ---------------------------------------------------
VERS.      2.0 : CWLS log ASCII Standard -VERSION 2.0
WRAP.       NO : One line per depth step
CREA. 12/20/17 : LAS Creation Date
~Well ------------------------------------------------------
STRT.FT                    1500.0 : START DEPTH
STOP.FT                    9800.0 : STOP DEPTH
STEP.FT                  50.00000 : STEP LENGTH
NULL.                     -999.25 : NULL VALUE
COMP.  PHILLIPS PETROLEUM COMPANY : COMPANY
WELL. PHILLIPS KAYBOB 12-15-64-19 : WELL
FLD .                             : FIELD
LOC .                             : LOCATION
CTRY.                      CANADA : COUNTRY
SRVC.                       Welex : SERVICE COMPANY
DATE.                 11-Jan-1958 : LOGDATE
PROV.                     Alberta : PROVINCE
UWI .            100121506419W500 : UNIQUE WELL ID
SLAT.WGS84               54.53978 : SURFACE LATITUDE
SLON.WGS84              -116.7947 : SURFACE LONGITUDE
~Curve Information -----------------------------------------
DEPT  .FT    : Depth Curve
CALIED.IN    : CALIPER FROM CALIPER LOG
CALWS .IN    : CALIPER [CALIED]
CONDWS.MMHO  : CONDUCTIVITY [1000/DRESWS]
DRESWS.OHMM  : DEEP RESISTIVITY [LT09ED]
GRNED .CPS   : GAMMA RAY FROM GRN LOG [ADJ. TO RESISTIVITY LOG]
GRWS  .CPS   : GAMMA RAY [GRNED]
LT09ED.OHMM  : 9 FOOT LATERAL [3iZ9'] RESSITIVITY FROM RESISTIVITY LOG
LT16ED.OHMM  : 16 FOOT LATERAL[3iZ16'] RESSITIVITY FROM RESISTIVITY LOG
NEUTED.CPS   : NEUTRON FROM GRN LOG [ADJ. TO RESISTIVITY LOG]
NEUTWS.CPS   : NEUTRON [NEUTED]
SNED  .OHMM  : 18 INCH  SHORT NORMAL [2Z18"] FROM RESISTIVITY LOG
SPRED .MV    : SPONTANEOUS POTENTIAL FROM RESISTIVITY LOG
SPWS  .MV    : SPONTANEOUS POTENTIAL [BASELINE 0 MV,SPRED]
SRESWS.OHMM  : SHALLOW RESISTIVITY [SNED]
~Params ----------------------------------------------------
PD  .                                        GL : PERMANENT DATUM
EPD .FT                                    2430 : ELEVATION PERMANENT DATUM
LMF .                                        KB : LOG MEASURED FROM
DMF .                                        KB : DRILLING MEASURED FROM
EKB .FT                                    2442 : KELLY BUSHING
EGL .FT                                    2430 : GROUND LEVEL
DATE.                                  01/11/58 : RUN DATE
RUN .                                         1 : RUN NUMBER
DD  .FT                                    9825 : DEPTH DRILLER
DL  .FT                                    9817 : DEPTH LOGGER
BLI .FT                                    9816 : BOTTOM LOG INTERVAL
TLI .FT                                    1514 : TOP LOG INTERVAL
CS  .IN                                  13.375 : CASING SIZE
CBD .FT                                 1513.95 : CASING BOTTOM DRILLER
CBL .FT                                    1514 : CASING BOTTOM LOGGER
BS  .IN                                       9 : BIT SIZE
BSD .FT                                    9825 : BIT SIZE AT DEPTH
DFT . OIL EMULSION CAUSTIC GEL DRISCOSE RAYFLOW : DRILLING FLUID TYPE
DFD .                                      10.9 : DRILLING FLUID DENSITY
DFV .                                        74 : DRILLING FLUID VISCOSITY
DFPH.                                         9 : DRILLING FLUID PH
MSS .                                CIRCULATED : MUD SAMPLE SOURCE
RMS .OHMM                                   3.3 : RESISTIVITY MUD SAMPLE
MST .DEGF                                    54 : MUD SAMPLE TEMPERATURE
RMF .OHMM                                  0.56 : RESISTIVITY MUD FILTRATE SAMPLE
MFST.DEGF                                   182 : MUD FILTRATE SAMPLE TEMPERATURE
RMC .OHMM                                  1.25 : RESISTIVITY MUD CAKE
MCST.DEGF                                   182 : MUD CAKE SAMPLE TEMPERATURE
RMB .OHMM                                  1.05 : RESISTIVITY MUD AT BHT
ENGI.                           EDWARDS CARBERT : RECORDING ENGINEER
WITN.                           TIBBETTS HUNTER : WITNESSED BY
CLNT.                                   A2DTECH : CLIENT CODE
ORIG.                               2" 5" PRINT : ORIGIN OF DATA
UWI .                          100121506419W500 : UNIQUE WELL ID
DICO.                    A2D Technologies, Inc. : DIGITIZING COMPANY
~Other -----------------------------------------------------
EL-GRN-CALIPER LOG RUN
ALL GRN DATA FROM TOP TO 4600' & ALL EL DATA FROM TOP TO 3350' & 3500' TO 4600' FROM 2" SCALE SECTION
~ASCII -----------------------------------------------------
# ...
 6400.00000    9.45340    9.45340   14.88660   67.17450   39.28100   39.28100   67.17450   29.13850  528.68150  528.68150   60.01440 -116.36450  -43.02450   60.01440
 6450.00000    9.45180    9.45180   30.03090   33.29900   63.21570   63.21570   33.29900   28.70950  471.37410  471.37410   33.82850 -114.31580  -38.10140   33.82850
 6500.00000   10.13830   10.13830    6.81790  146.67240   18.46380   18.46380  146.67240  155.82660  577.31860  577.31860  113.45400 -148.22690  -69.15680  113.45400
 6550.00000    9.40470    9.40470    4.32660  231.12940   22.63850   22.63850  231.12940  194.72190  565.37310  565.37310  113.86490 -239.95730 -158.03160  113.86490
 6600.00000    9.48060    9.48060    3.21290  311.24320   20.44210   20.44210  311.24320  382.18000  544.46310  544.46310  120.91830 -237.79280 -152.99270  120.91830
 6650.00000    9.84410    9.84410   48.16170   20.76340  102.50560  102.50560   20.76340   35.22120  343.66850  343.66850   11.12130  -94.81510   -7.15940   11.12130
 6700.00000   10.19440   10.19440  129.17890    7.74120   63.20320   63.20320    7.74120    9.51460  371.56860  371.56860    7.01220 -123.13380  -35.55060    7.01220
 6750.00000    9.45190    9.45190   69.59380   14.36910   68.76510   68.76510   14.36910   10.19710  411.92870  411.92870   26.81960 -156.51920  -70.26660   26.81960
 6800.00000    9.92470    9.92470   11.78840   84.82940   49.52450   49.52450   84.82940   74.86360  476.44540  476.44540   55.11550  -97.80930  -12.88740   55.11550
 6850.00000   10.29050   10.29050    6.31120  158.44820   24.99090   24.99090  158.44820   59.91160  491.53720  491.53720   84.37290 -146.22280  -62.64020   84.37290
 6900.00000    9.40080    9.40080   11.31310   88.39280   31.31860   31.31860   88.39280   70.93700  534.60640  534.60640  107.26000 -118.74560  -36.49370  107.26000
 6950.00000    9.18180    9.18180    3.30670  302.41230   40.04670   40.04670  302.41230  218.47430  437.20720  437.20720   77.83250 -157.38190  -76.46940   77.83250
 7000.00000    9.10850    9.10850   13.09500   76.36530   49.11950   49.11950   76.36530   49.01110  381.93180  381.93180   47.80810 -151.78890  -72.20700   47.80810
 7050.00000    9.10710    9.10710    9.08520  110.06860   55.85880   55.85880  110.06860  105.06600  467.01200  467.01200   60.30970 -152.40690  -74.15560   60.30970
 7100.00000    9.02670    9.02670    2.33550  428.17950   47.13530   47.13530  428.17950  565.07180  524.19830  524.19830  196.92850 -174.55110  -97.63920  196.92850
 7150.00000    9.04030    9.04030    2.58310  387.12550   34.23400   34.23400  387.12550  506.25450  531.25860  531.25860  225.10480 -164.63770  -89.05640  225.10480
 7200.00000    9.15390    9.15390    7.36940  135.69550   61.76460   61.76460  135.69550  120.37550  447.28090  447.28090   62.20500 -161.49500  -87.25310   62.20500
 7250.00000    9.66760    9.66760   13.01940   76.80850   47.87220   47.87220   76.80850   80.45360  352.65120  352.65120   80.92450 -162.34410  -89.43290   80.92450
 7300.00000    9.15110    9.15110   15.15850   65.96980   34.79110   34.79110   65.96980   41.24180  553.74060  553.74060  225.47680 -134.67830  -63.09770  225.47680
 7350.00000    9.27220    9.27220    1.66210  601.64980   21.16520   21.16520  601.64980 1463.28920  620.39500  620.39500  192.37300 -145.21080  -74.96960  192.37300
 7400.00000    9.88790    9.88790    2.20640  453.23080   26.37200   26.37200  453.23080  753.59110  591.08080  591.08080  206.51470  -93.95100  -25.04040  206.51470
 7450.00000    9.91640    9.91640    2.02000  495.04460   22.12760   22.12760  495.04460  837.68760  635.16310  635.16310  236.26780  -78.51680  -10.88600  236.26780
 7500.00000   10.12210   10.12210    2.35900  423.90630   20.73910   20.73910  423.90630  708.62390  554.26850  554.26850  160.25970  -78.74570  -12.17130  160.25970
 7550.00000   10.36230   10.36230    2.87030  348.39340   24.22160   24.22160  348.39340  634.42410  515.76350  515.76350  287.96350  -77.59270  -12.07470  287.96350
 7600.00000   11.07790   11.07790    2.85500  350.26560   19.62390   19.62390  350.26560  807.59590  466.92540  466.92540  221.84670  -93.28870  -28.83400  221.84670
 7650.00000   10.21860   10.21860    3.93160  254.34820   20.23140   20.23140  254.34820  479.11860  514.09470  514.09470   94.84220 -111.96550  -48.56720   94.84220
 7700.00000   10.25200   10.25200    2.83140  353.17810   19.67550   19.67550  353.17810  812.32970  470.54250  470.54250  221.89370 -106.06210  -43.72720  221.89370
 7750.00000    9.69880    9.69880    2.39750  417.10480   19.59730   19.59730  417.10480 1048.08020  580.51550  580.51550  121.94720 -119.07900  -57.80040  121.94720
 7800.00000   10.28420   10.28420    4.68130  213.61790   23.77560   23.77560  213.61790  444.00610  457.69630  457.69630  203.43750 -129.74940  -69.52720  203.43750
 7850.00000   10.23590   10.23590    1.76690  565.94790   26.00410   26.00410  565.94790 1432.34960  502.92050  502.92050  188.89110 -118.72150  -59.56270  188.89110
 7900.00000   10.01710   10.01710    4.32000  231.47990   16.76870   16.76870  231.47990  421.25870  552.69990  552.69990   84.23480 -116.47920  -58.37670   84.23480
 7950.00000    9.64800    9.64800    2.51560  397.52730   22.73810   22.73810  397.52730  580.00000  529.03040  529.03040  158.30200 -137.81440  -80.77530  158.30200
 8000.00000    9.55790    9.55790    3.29180  303.78650   23.19270   23.19270  303.78650  357.30940  407.31330  407.31330   76.57200 -127.22010  -71.23740   76.57200
 8050.00000    9.02880    9.02880    2.65960  376.00300   25.05560   25.05560  376.00300  635.92170  399.46870  399.46870   94.12390 -151.93200  -97.00560   94.12390
 8100.00000    9.53530    9.53530    3.55780  281.07640   34.63910   34.63910  281.07640  283.97470  357.93000  357.93000   83.73520 -194.36110 -140.49810   83.73520
 8150.00000    9.33120    9.33120    6.34360  157.63800   34.91040   34.91040  157.63800  189.53500  423.49730  423.49730   24.89930 -258.89940 -206.09270   24.89930
 8200.00000    9.40360    9.40360    1.90580  524.70320   32.40760   32.40760  524.70320  853.30620  564.81130  564.81130  230.39790 -191.33060 -139.58730  230.39790
 8250.00000    9.31720    9.31720    1.50760  663.31800   43.37660   43.37660  663.31800 1469.08840  483.55140  483.55140  184.69020 -158.57050 -107.88360  184.69020
 8300.00000    9.45870    9.45870    9.43450  105.99410   42.29170   42.29170  105.99410  128.44270  442.97320  442.97320   93.96560 -144.53620  -94.90560   93.96560
 8350.00000   10.10610   10.10610    4.85910  205.79740   24.38580   24.38580  205.79740  278.21400  464.37070  464.37070  161.03960 -146.69420  -98.12700  161.03960
 8400.00000    9.09010    9.09010    7.45930  134.06070   39.37760   39.37760  134.06070  134.48070  506.49070  506.49070   64.85700 -139.91880  -92.40800   64.85700
 8450.00000    9.09660    9.09660    4.89480  204.29770   44.06620   44.06620  204.29770  235.15920  495.11080  495.11080   81.89000 -124.55270  -78.10520   81.89000
 8500.00000    9.07940    9.07940   12.19030   82.03260   51.46600   51.46600   82.03260   72.61230  438.41170  438.41170   36.02080 -123.10400  -77.71290   36.02080
 8550.00000    9.03760    9.03760   33.33930   29.99460   56.46630   56.46630   29.99460   23.40280  393.67700  393.67700   21.27970  -98.88940  -54.55470   21.27970
 8600.00000    9.05130    9.05130   39.47670   25.33140   52.98220   52.98220   25.33140   20.99320  389.44310  389.44310   26.21490  -70.85960  -27.58820   26.21490
 8650.00000    9.05080    9.05080   17.28460   57.85490   43.51290   43.51290   57.85490   37.31200  429.37970  429.37970   50.36070  -51.69380   -9.47880   50.36070
 8700.00000   12.54430   12.54430  170.74750    5.85660   80.06640   80.06640    5.85660    4.62190  227.47830  227.47830    5.39850  -55.85930  -14.70760    5.39850
 8750.00000   13.10980   13.10980  152.10510    6.57440   77.02140   77.02140    6.57440    4.62980  214.40080  214.40080    5.59920  -56.48680  -11.29520    5.59920
 8800.00000   13.09150   13.09150  144.90230    6.90120   82.11190   82.11190    6.90120    3.99600  234.13680  234.13680    6.10430  -63.91870  -14.54940    6.10430
