~Version ---------------------------------------------------
VERS.      2.0 : CWLS log ASCII Standard -VERSION 2.0
WRAP.       NO : One line per depth step
CREA. 08/02/17 : LAS Creation Date
~Well ------------------------------------------------------
STRT.FT                            1100.0 : START DEPTH
STOP.FT                           10850.0 : STOP DEPTH
STEP.FT                          50.00000 : STEP LENGTH
NULL.                             -999.25 : NULL VALUE
COMP.        PAN AMERICAN PETROLEUM CORP. : COMPANY
WELL. PAN AM ET AL E-3 KAYBOBS 6-26-59-18 : WELL
FLD .                        KAYBOB SOUTH : FIELD
LOC .                                     : LOCATION
CTRY.                              CANADA : COUNTRY
SRVC.                        Schlumberger : SERVICE COMPANY
DATE.                         16-Jul-1969 : LOGDATE
PROV.                             Alberta : PROVINCE
UWI .                    100062605918W500 : UNIQUE WELL ID
SLAT.WGS84                       54.12901 : SURFACE LATITUDE
SLON.WGS84                       -116.593 : SURFACE LONGITUDE
~Curve Information -----------------------------------------
DEPT   .FT        : Depth Curve
CALSED .IN        : CALIPER FROM SONIC LOG [ADJ. TO RESISTIVITY LOG]
CALWS  .IN        : CALIPER [CALSED]
CONDWS .MMHO      : CONDUCTIVITY [1000/DRESWS]
DRESWS .OHMM      : DEEP RESISTIVITY [ILDED]
DTED   .US/F      : DELTA-T FROM SONIC LOG [ADJ. TO RESISTIVITY LOG]
DTWS   .US/F      : COMPRESSIONAL SONIC [DTED]
GRSED  .GAPI      : GAMMA RAY FROM SONIC LOG [ADJ. TO RESISTIVITY LOG]
GRTED  .GAPI      : THEORETICAL GAMMA RAY VALUE TDT FROM TDT LOG [ADJ. TO RESISTIVITY LOG]
GRWS   .GAPI      : GAMMA RAY [GRSED]
ILDED  .OHMM      : DEEP INDUCTION RESISTIVITY FROM RESISTIVITY LOG
ILMED  .OHMM      : MEDIUM INDUCTION RESISTIVITY FROM RESISTIVITY LOG
LL8ED  .OHMM      : LATEROLOG 8 FROM RESISTIVITY LOG
MRESWS .OHMM      : MEDIUM RESISTIVITY [ILMED]
RATIOED.UNITLESS  : RATIO FROM TDT LOG [ADJ. TO RESISTIVITY LOG]
SIGMAED.CU        : SIGMA FROM TDT LOG [ADJ. TO RESISTIVITY LOG]
SIGMED .CU        : SIGM FROM TDT LOG [ADJ. TO RESISTIVITY LOG]
SPRED  .MV        : SPONTANEOUS POTENTIAL FROM RESISTIVITY LOG
SPWS   .MV        : SPONTANEOUS POTENTIAL [BASELINE 0MV, SPRED]
SRESWS .OHMM      : SHALLOW RESISTIVITY [LL8ED]
TAUED  .us        : NEUTRON DECAY TIME FROM TDT LOG [ADJ. TO RESISTIVITY LOG]
TRATED .UNITLESS  : NEAR/FAR CAPTURE RATIO FROM TDT LOG [ADJ. TO RESISTIVITY LOG]
~Params ----------------------------------------------------
PD  .              2" OUTLET : PERMANENT DATUM
EPD .FT               2964.7 : ELEVATION PERMANENT DATUM
LMF .                     KB : LOG MEASURED FROM
DAPD.FT                 14.3 : FEET ABOVE PERMANENT DATUM
EKB .FT               2979.0 : KELLY BUSHING
EGL .FT               2964.7 : GROUND LEVEL
DATE.               07/16/69 : RUN DATE
RUN .                      1 : RUN NUMBER
DD  .FT                10855 : DEPTH DRILLER
DL  .FT                10862 : DEPTH LOGGER
BLI .FT                10858 : BOTTOM LOG INTERVAL
TLI .FT                 1104 : TOP LOG INTERVAL
CBD .FT                 1104 : CASING BOTTOM DRILLER
CBL .FT                 1104 : CASING BOTTOM LOGGER
BS  .IN                 8.75 : BIT SIZE
BSD .FT                10855 : BIT SIZE AT DEPTH
DFT .               GEL CHEM : DRILLING FLUID TYPE
DFD .                    9.3 : DRILLING FLUID DENSITY
DFV .                     90 : DRILLING FLUID VISCOSITY
DFPH.                    9.0 : DRILLING FLUID PH
DFL .                    9.2 : DRILLING FLUID LOSS
MSS .                   CIRC : MUD SAMPLE SOURCE
RMS .OHMM                1.6 : RESISTIVITY MUD SAMPLE
MST .DEGF                 62 : MUD SAMPLE TEMPERATURE
RMF .OHMM               1.29 : RESISTIVITY MUD FILTRATE SAMPLE
MFST.DEGF                 67 : MUD FILTRATE SAMPLE TEMPERATURE
RMC .OHMM               1.35 : RESISTIVITY MUD CAKE
MCST.DEGF                 62 : MUD CAKE SAMPLE TEMPERATURE
TCS .HRS                   2 : TIME CIRCULATED STOPPED
LUN .                   7502 : LOGGING UNIT NUMBER
LUL .                    EDM : LOGGING UNIT LOCATION
ENGI.                 EDGSON : RECORDING ENGINEER
WITN.                  REMUS : WITNESSED BY
CLNT.                A2DTECH : CLIENT CODE
ORIG.            2" 5" PRINT : ORIGIN OF DATA
UWI .       100062605918W500 : UNIQUE WELL ID
DICO. A2D Technologies, Inc. : DIGITIZING COMPANY
~Other -----------------------------------------------------
~ASCII -----------------------------------------------------
# ...
 9350.00000    9.61720    9.61720    2.40130  416.44820   51.67500   51.67500   27.98730    -999.25   27.98730  416.44820  457.55880  343.41410  457.55880    -999.25    -999.25    -999.25  -50.49040   -7.94450  343.41410    -999.25    -999.25
 9400.00000    9.55960    9.55960    5.43400  184.02640   52.35300   52.35300   26.82790    -999.25   26.82790  184.02640  189.78010  204.58680  189.78010    -999.25    -999.25    -999.25  -52.49610  -10.79150  204.58680    -999.25    -999.25
 9450.00000    9.02820    9.02820    7.35230  136.01140   53.55890   53.55890   25.75570    -999.25   25.75570  136.01140  120.10130  142.64920  120.10130    -999.25    -999.25    -999.25  -50.07810   -9.22030  142.64920    -999.25    -999.25
 9500.00000    9.01780    9.01780   10.13670   98.65150   54.03230   54.03230   29.77440    -999.25   29.77440   98.65150   92.38090  116.33790   92.38090    -999.25    -999.25    -999.25  -46.30180   -6.28530  116.33790    -999.25    -999.25
 9550.00000    9.25180    9.25180   33.90840   29.49560   57.82890   57.82890   42.28160    -999.25   42.28160   29.49560   32.79860   42.18150   32.79860    -999.25    -999.25    -999.25  -40.26270   -1.06540   42.18150    -999.25    -999.25
 9600.00000   10.84770   10.84770  102.59990    9.74660   69.04400   69.04400   63.43130    -999.25   63.43130    9.74660   10.78620   13.99480   10.78620    -999.25    -999.25    -999.25  -40.86070   -1.66340   13.99480    -999.25    -999.25
 9650.00000    9.29090    9.29090   64.14370   15.59000   65.56350   65.56350   61.48660    -999.25   61.48660   15.59000   17.13330   23.07510   17.13330    -999.25    -999.25    -999.25  -40.73720   -1.53990   23.07510    -999.25    -999.25
 9700.00000    9.11460    9.11460   55.75070   17.93700   63.14110   63.14110   65.49050    -999.25   65.49050   17.93700   19.93900   24.65070   19.93900    -999.25    -999.25    -999.25  -45.71280   -6.51550   24.65070    -999.25    -999.25
 9750.00000    9.14770    9.14770   52.35990   19.09860   68.86200   68.86200   86.82830    -999.25   86.82830   19.09860   19.51300   27.75530   19.51300    -999.25    -999.25    -999.25  -48.59210   -9.39480   27.75530    -999.25    -999.25
 9800.00000    9.53430    9.53430   74.79190   13.38550   66.40780   66.40780   60.42650    -999.25   60.42650   13.38550   15.05530   17.52500   15.05530    -999.25    -999.25    -999.25  -47.63460   -8.43730   17.52500    -999.25    -999.25
 9850.00000   10.17590   10.17590  121.02440    8.26280   74.90340   74.90340   75.53870    -999.25   75.53870    8.26280    8.65470   11.67330    8.65470    -999.25    -999.25    -999.25  -50.47880  -11.28150   11.67330    -999.25    -999.25
 9900.00000    9.20100    9.20100   55.29810   18.08380   66.51800   66.51800   74.02210    -999.25   74.02210   18.08380   21.21280   29.12210   21.21280    -999.25    -999.25    -999.25  -43.56820   -4.37090   29.12210    -999.25    -999.25
 9950.00000    9.13660    9.13660   55.58490   17.99050   64.81980   64.81980   63.07700    -999.25   63.07700   17.99050   20.57120   25.88790   20.57120    -999.25    -999.25    -999.25  -45.27010   -6.07280   25.88790    -999.25    -999.25
 10000.00000    9.10860    9.10860   65.58370   15.24770   65.36030   65.36030   87.61070    -999.25   87.61070   15.24770   17.28360   23.04370   17.28360    -999.25    -999.25    -999.25  -45.04710   -5.84980   23.04370    -999.25    -999.25
 10050.00000    9.19140    9.19140   88.79370   11.26340   68.60890   68.60890   95.94630    -999.25   95.94630   11.26340   12.39050   17.99260   12.39050    -999.25    -999.25    -999.25  -46.11650   -6.91920   17.99260    -999.25    -999.25
 10100.00000    9.33060    9.33060   83.91580   11.91670   67.99160   67.99160   73.01670    -999.25   73.01670   11.91670   13.21070   18.51700   13.21070    -999.25    -999.25    -999.25  -45.39940   -6.20210   18.51700    -999.25    -999.25
 10150.00000    9.11390    9.11390   90.35220   11.06780   66.63090   66.63090   79.95080    -999.25   79.95080   11.06780   13.16740   21.93830   13.16740    -999.25    -999.25    -999.25  -47.20220   -8.00490   21.93830    -999.25    -999.25
 10200.00000    8.97370    8.97370   30.60040   32.67930   56.89070   56.89070   45.01780    -999.25   45.01780   32.67930   43.53180   72.30840   43.53180    -999.25    -999.25    -999.25  -48.41750   -9.22020   72.30840    -999.25    -999.25
 10250.00000    8.91160    8.91160    0.68530 1459.12920   70.81190   70.81190  134.77640    -999.25  134.77640 1459.12920 1606.56760 2224.01610 1606.56760    -999.25    -999.25    -999.25  -68.19500  -28.99770 2224.01610    -999.25    -999.25
 10300.00000    8.91490    8.91490    0.65740 1521.14100   76.49680   76.49680  145.29060    -999.25  145.29060 1521.14100 1654.09450 2226.78750 1654.09450    -999.25    -999.25    -999.25  -63.66710  -24.46980 2226.78750    -999.25    -999.25
 10350.00000    9.01340    9.01340    0.69360 1441.74540   57.70400   57.70400   64.88470   62.58540   64.88470 1441.74540 1541.58440 2189.36870 1541.58440    3.28560   29.82820   28.43740  -51.90820  -12.71090 2189.36870  159.99290    2.99170
 10400.00000    9.35870    9.35870   37.45580   26.69810   77.42230   77.42230  106.43980   93.35050  106.43980   26.69810   28.78810   43.84990   28.78810    4.56050   45.61110   44.80430  -44.80940   -5.61210   43.84990  101.88440    4.06280
 10450.00000    8.83740    8.83740    0.66900 1494.82090   49.62930   49.62930   15.64240   28.38830   15.64240 1494.82090 1608.08970 2191.10860 1608.08970    1.30010   15.22430   15.10840  -91.44930  -52.25200 2191.10860  302.39110    1.34480
 10500.00000    8.63120    8.63120    0.67810 1474.64700   51.96960   51.96960   11.55250   24.53180   11.55250 1474.64700 1553.41250 2208.50100 1553.41250    1.39960   12.14110   11.72250 -132.66980  -93.47250 2208.50100  390.99190    1.30040
 10550.00000    8.62120    8.62120    0.68300 1464.15470   60.98760   60.98760    4.74470   20.47940    4.74470 1464.15470 1598.66270 2219.98900 1598.66270    1.67410   13.44790   12.01460 -166.57350 -127.37620 2219.98900  379.90930    1.46600
 10600.00000    8.39800    8.39800    0.68020 1470.16560   58.30480   58.30480    6.34480   18.00640    6.34480 1470.16560 1586.74070 2206.26420 1586.74070    1.64410   13.74240   11.88390 -181.09990 -141.90260 2206.26420  385.79860    1.49850
 10650.00000    8.45520    8.45520    0.67770 1475.68680   62.96410   62.96410    7.79030   21.84110    7.79030 1475.68680 1614.38400 2201.78710 1614.38400    1.68020   10.72120   10.49360 -182.71410 -143.51680 2201.78710  435.96760    1.34780
 10700.00000    8.53820    8.53820    0.68290 1464.32350   53.54840   53.54840    8.70810   29.22150    8.70810 1464.32350 1578.97400 2232.38670 1578.97400    1.69080   11.12220   14.37680 -184.04500 -144.84770 2232.38670  317.82450    1.72130
 10750.00000    8.38970    8.38970    0.71530 1397.99740   49.15110   49.15110   11.39330    -999.25   11.39330 1397.99740 1491.19810  441.98300 1491.19810    -999.25    -999.25    -999.25 -182.73050 -143.53320  441.98300    -999.25    -999.25
 10800.00000    8.75050    8.75050    6.21260  161.12060   47.43160   47.43160   13.12620    -999.25   13.12620  161.12060  180.55550  544.73810  180.55550    -999.25    -999.25    -999.25 -163.15080 -123.95350  544.73810    -999.25    -999.25
 10850.00000    -999.25    -999.25   16.40200   60.96830   66.23730   66.23730    -999.25    -999.25    -999.25   60.96830  100.40720  117.29410  100.40720    -999.25    -999.25    -999.25  -43.11900   -3.92170  117.29410    -999.25    -999.25
