~Version ---------------------------------------------------
VERS. 2.0 : CWLS log ASCII Standard -VERSION 2.0
WRAP.  NO : ONE LINE PER DEPTH STEP
~Well ------------------------------------------------------
STRT.F                        1300.0 : START DEPTH
STOP.F                       12650.0 : STOP DEPTH
STEP.F                      50.00000 : STEP LENGTH
NULL.                        -999.25 : NULL VALUE
COMP.           PETROFINA CANADA LTD : COMPANY
WELL. FINA AMOCO HB MAYBERNE 10-11-5 : WELL
FLD .                                : FIELD
LOC .                                : LOCATION
CTRY.                         CANADA : COUNTRY
SRVC.                   Schlumberger : SERVICE COMPANY
DATE.                    03-Apr-1977 : LOGDATE
PROV.                        Alberta : PROVINCE
UWI .               100101105718W500 : UNIQUE WELL ID
SLAT.WGS84                  53.91479 : SURFACE LATITUDE
SLON.WGS84                 -116.5629 : SURFACE LONGITUDE
~Curve Information -----------------------------------------
DEPT   .F                 : 
ILD    .OHMM              : DEEP INDUCTION RESISTIVITY
ILM    .OHMM              : INDUCTION MEDIUM RESISTIVITY
LL8    .OHMM              : LATEROLOG-8 RESISTIVITY
SPR    .MV                : SPONTANEOUS POTENTIAL FROM RESISTIVITY
CALD   .IN   07 280 30 00 : DIFFERENTIAL CALIPER
DCOR   .G/C3              : DENSITY CORRECTION
GRD    .GAPI 45 310 01 00 : GAMMA RAY FROM FDC
RHOB   .G/C3 45 350 01 00 : HRDD HIGH RESOLUTION FORMATION DENSITY
NPHI_LS.DEC               : NEUTRON POROSITY LIMESTONE
GRS    .GAPI 00 000 00 01 : GAMMA RAY FROM SONIC
SPHI   .DEC               : SONIC POROSITY
DT     .US/F 60 520 00 00 : ACOUSTIC TRANSIT TIME SLOWNESS, DELTA T
CALS   .IN   60 280 50 00 : CALIPER FROM SONIC LOG
DPHI_LS.DEC  45 890 10 00 : DENSITY POROSITY LIMESTONE
DPHI_SS.DEC  45 890 12 00 : DENSITY POROSITY SANDSTONE
NPOR_SS.DEC               : ENCHANCED THERMAL NEUTRON POROSITY IN SELECTED LITHOLOGY SANDSTONE
~Params ----------------------------------------------------
PD  .                     GL : PERMANENT DATUM
EPD .FT                 4315 : ELEVATION PERMANENT DATUM
LMF .                     KB : LOG MEASURED FROM
DAPD.FT                   17 : FEET ABOVE PERMANENT DATUM
EKB .FT                 4322 : KELLY BUSHING
EGL .FT                 4315 : GROUND LEVEL
DATE.               04/03/77 : RUN DATE
RUN .                      1 : RUN NUMBER
DD  .FT                12670 : DEPTH DRILLER
DL  .FT                12672 : DEPTH LOGGER
BLI .FT                12669 : BOTTOM LOG INTERVAL
TLI .FT                 1324 : TOP LOG INTERVAL
CBD .FT                 1327 : CASING BOTTOM DRILLER
CBL .FT                 1324 : CASING BOTTOM LOGGER
BS  .IN                 8.75 : BIT SIZE
BSD .FT                12670 : BIT SIZE AT DEPTH
DFT .               GEL CHEM : DRILLING FLUID TYPE
DFD .                      9 : DRILLING FLUID DENSITY
DFV .                    130 : DRILLING FLUID VISCOSITY
DFPH.                     10 : DRILLING FLUID PH
MSS .               FLOWLINE : MUD SAMPLE SOURCE
RMS .OHMM                3.2 : RESISTIVITY MUD SAMPLE
MST .DEGF                 56 : MUD SAMPLE TEMPERATURE
RMF .OHMM               2.94 : RESISTIVITY MUD FILTRATE SAMPLE
MFST.DEGF                 62 : MUD FILTRATE SAMPLE TEMPERATURE
RMB .OHMM               0.88 : RESISTIVITY MUD AT BHT
TCS .HRS                   4 : TIME CIRCULATED STOPPED
LUN .                   7667 : LOGGING UNIT NUMBER
LUL .                    EDM : LOGGING UNIT LOCATION
ENGI.          CAMPBELL BIGG : RECORDING ENGINEER
WITN.         SANDERS DAVIES : WITNESSED BY
CLNT.                A2DTECH : CLIENT CODE
ORIG.            2" 5" PRINT : ORIGIN OF DATA
UWI .       100101105718W500 : UNIQUE WELL ID
DICO. A2D Technologies, Inc. : DIGITIZING COMPANY
~Other -----------------------------------------------------
~ASCII -----------------------------------------------------
# ...
 3450.00000    1.42440    1.51450    2.02130  -29.25100    -999.25    -999.25    -999.25    -999.25    -999.25  120.22630    0.37970  108.27230   10.82700    -999.25    -999.25    -999.25
 3500.00000    4.00610    4.38140    4.62960  -27.93380    -999.25    -999.25    -999.25    -999.25    -999.25   93.88460    0.20710   83.90280   10.65900    -999.25    -999.25    -999.25
 3550.00000    3.24520    3.42680    3.83690  -24.69370    -999.25    -999.25    -999.25    -999.25    -999.25   98.20560    0.26060   90.85240   10.03730    -999.25    -999.25    -999.25
 3600.00000    4.04930    4.44570    4.78570  -25.94640    -999.25    -999.25    -999.25    -999.25    -999.25  110.50200    0.37280  105.61240    9.58430    -999.25    -999.25    -999.25
 3650.00000    6.97490    7.83860    6.07360  -30.46550    -999.25    -999.25    -999.25    -999.25    -999.25   48.56800    0.20320   83.65660    8.61410    -999.25    -999.25    -999.25
 3700.00000    3.24170    3.36600    3.55460  -26.45840    -999.25    -999.25    -999.25    -999.25    -999.25  110.08440    0.30260   97.48420    9.82340    -999.25    -999.25    -999.25
 3750.00000    5.55240    6.30730    5.92310  -24.86020    -999.25    -999.25    -999.25    -999.25    -999.25   86.95050    0.23900   88.33310    9.88450    -999.25    -999.25    -999.25
 3800.00000    3.18330    3.42250    3.57260  -26.60840    -999.25    -999.25    -999.25    -999.25    -999.25   87.58920    0.28990   94.00920    9.89660    -999.25    -999.25    -999.25
 3850.00000    9.25610   10.28380   10.75360  -29.94620    -999.25    -999.25    -999.25    -999.25    -999.25   63.13490    0.19580   82.43450    9.80950    -999.25    -999.25    -999.25
 3900.00000    3.59870    3.81170    4.75480  -24.62180    -999.25    -999.25    -999.25    -999.25    -999.25   97.46350    0.27270   93.00550    9.96310    -999.25    -999.25    -999.25
 3950.00000    8.02020    8.38810    8.99660  -23.25370   10.84540    0.15580  100.38430    2.21630    -999.25  107.84780    0.18560   80.58180    9.98880    -999.25    0.25560    0.34340
 4000.00000    3.73700    4.11060    4.03610  -23.40340   11.11710    0.14210   91.09130    1.86490    -999.25   98.49790    0.28370   94.40910    9.93730    -999.25    -999.25    0.39890
 4050.00000    3.87240    4.26450    4.58980  -24.05420   11.04760    0.13350   88.68130    2.05890    -999.25   90.88740    0.24940   89.96990    9.91700    -999.25    0.34570    0.35590
 4100.00000    3.69570    3.97710    4.28630  -25.39880   11.16190    0.13280   92.11980    2.10350    -999.25   94.36340    0.28040   93.88650    9.83040    -999.25    0.32150    0.40090
 4150.00000    6.32530    7.10840    7.95880  -26.23170   11.57790    0.18290   92.50790    2.03060    -999.25  104.38810    0.20940   84.23110   10.00670    -999.25    0.38950    0.31850
 4200.00000    4.18820    4.75050    4.55250  -24.36360   10.68650    0.19520  104.03500    2.02840    -999.25   90.38000    0.28240   94.59660    9.85000    -999.25    0.37970    0.41760
 4250.00000    4.91950    6.26320   14.75100  -25.87720   11.13060    0.10600   81.23690    2.18790    -999.25   99.84620    0.17900   79.48640   10.01790    -999.25    0.31190    0.33900
 4300.00000    4.12540    4.27910    4.57320  -26.89360   10.58240    0.17410   96.36030    1.94920    -999.25  109.37610    0.24920   89.10460    9.86690    -999.25    0.39990    0.37330
 4350.00000    5.93570    6.21370    6.69010  -26.32230   10.30540    0.17960   87.11440    1.94630    -999.25  100.19450    0.27190   92.13410    9.82970    -999.25    0.41220    0.38330
 4400.00000    4.84230    5.02850    4.51300  -24.44270   11.15740    0.16070   84.79370    1.80350    -999.25   86.98870    0.25840   90.63270    9.54130    -999.25    0.46270    0.40330
 4450.00000    2.68910    2.78880    2.55030  -22.97930   11.86090    0.08920  101.76260    1.55640    -999.25   99.23540    0.40840  110.39550    9.95220    -999.25    -999.25    0.48270
 4500.00000    3.21660    3.36000    3.43530  -23.48160   10.31630    0.11050   96.75540    1.94590    -999.25   99.87370    0.30510   96.96350    9.74830    -999.25    0.41440    0.41940
 4550.00000   12.33280   15.24950   17.87310  -29.55120   10.27110    0.13380   59.19460    2.28200    -999.25   59.61310    0.17160   78.96180    9.90450    -999.25    0.24010    0.31370
 4600.00000    2.79450    2.89220    2.98590  -24.26950   10.11510    0.17370  117.03610    1.95040    -999.25  111.78730    0.40870  109.83880    9.26520    -999.25    0.41560    0.43990
 4650.00000    8.52760    9.98940    8.31420  -26.49650    8.46320    0.12770   68.78180    2.15570    -999.25   69.72850    0.19970   82.73170    8.66090    -999.25    0.27990    0.32310
 4700.00000    3.86880    4.45910    4.45340  -22.77160    8.50960    0.00210   84.85050    2.06110    -999.25   79.41800    0.30290   96.27440    9.18750    -999.25    0.34560    0.34930
 4750.00000   17.80390   21.72100   20.07340  -37.45790    9.09830    0.03300   57.31330    2.38970    -999.25   64.48070    0.17760   79.59350    8.65230    -999.25    0.14910    0.33560
 4800.00000   13.22270   14.53350   13.57420  -34.10370    9.76090    0.02000   56.89620    2.33920    -999.25   55.03000    0.20000   82.77720    9.65710    -999.25    0.19830    0.33290
 4850.00000   20.12400   23.22150   24.02120  -27.63190   10.03090    0.00380   43.37420    2.45010    -999.25   44.96550    0.04990   62.79880    9.74580    -999.25    0.09500    0.15330
 4900.00000    6.10040    7.32880    6.75210  -21.63250   11.20760    0.02160   81.70440    2.25980    -999.25   70.17370    0.18800   81.60490    9.88120    -999.25    0.21430    0.30550
 4950.00000    4.62650    5.27940    4.72130  -19.54610   11.61400    0.10880   74.15080    2.09650    -999.25   73.23390    0.26290   90.01080   10.18930    -999.25    0.38100    0.39610
 5000.00000   13.56650   16.60690   15.90130  -23.47980   10.23060    0.08440   54.35920    2.39460    -999.25   63.85120    0.17690   79.86800    9.92960    -999.25    0.15460    0.28050
 5050.00000    5.25350    5.61560    5.81460  -20.77990   10.97090    0.20690   73.04690    2.21820    -999.25   68.20890    0.19170   81.42220    9.26020    -999.25    0.27210    0.33950
 5100.00000    5.10610    5.51910    5.70190  -19.92270    9.46510    0.15870   75.02770    1.92010    -999.25   68.67860    0.22810   86.31990    9.82430    -999.25    0.44080    0.46570
 5150.00000    6.11180    6.72700    6.29160  -20.07750   10.08910    0.16340   76.59690    1.93790    -999.25   73.88080    0.20340   82.98830    9.49810    -999.25    0.40360    0.39390
 5200.00000    4.94160    5.51420    4.48720  -19.90000    8.83320    0.17810   80.64640    2.34000    -999.25   72.51940    0.20830   85.78860    9.92590    -999.25    0.20000    0.42310
 5250.00000    5.27270    5.57750    4.71880  -20.83000   10.45770    0.08070   65.59340    2.39240    -999.25   64.16700    0.14410   75.72390    9.90020    -999.25    0.14470    0.34890
 5300.00000    5.74810    6.42110    5.12890  -24.62910   11.18880    0.05390   78.51470    2.39270    -999.25   57.10890    0.21740   86.17480    9.48520    -999.25    0.17080    0.39100
 5350.00000    6.39080    6.76850    6.05110  -20.71370   10.48060    0.05030   80.49440    2.42650    -999.25   63.85180    0.18540   80.50640   10.12590    -999.25    0.12160    0.36060
 5400.00000    6.40370    7.62380    8.14720  -23.68060   10.57020    0.03320   73.11820    2.42650    -999.25   51.80230    0.12420   72.67080    9.87980    -999.25    0.12120    0.33390
 5450.00000    6.55620    7.56440    7.05390  -22.60500   10.95590    0.02450   80.19260    2.43210    -999.25   72.83190    0.22250   85.83560   10.10890    -999.25    0.12870    0.33400
 5500.00000    9.69790   12.15380   14.41270  -27.96020   10.79290    0.01210   69.74570    2.46460    -999.25   73.95090    0.44730  126.36920   10.29640    -999.25    0.17780    0.37200
 5550.00000   11.22260   13.27800   11.00050  -37.05820   10.29130    0.02280   60.75630    2.44990    -999.25   53.50590    0.16240   77.75820    9.91400    -999.25    0.13190    0.27820
