~Version ---------------------------------------------------
VERS.      2.0 : CWLS log ASCII Standard -VERSION 2.0
WRAP.       NO : One line per depth step
CREA. 10/25/17 : LAS Creation Date
~Well ------------------------------------------------------
STRT.FT                 1200.0 : START DEPTH
STOP.FT                12350.0 : STOP DEPTH
STEP.FT               50.00000 : STEP LENGTH
NULL.                  -999.25 : NULL VALUE
COMP.     CHEVRON STANDARD LTD : COMPANY
WELL. CHEVRON EDSON 7-28-52-17 : WELL
FLD .                          : FIELD
LOC .                          : LOCATION
CTRY.                   CANADA : COUNTRY
SRVC.             Schlumberger : SERVICE COMPANY
DATE.              18-Oct-1968 : LOGDATE
PROV.                  Alberta : PROVINCE
UWI .         100072805217W500 : UNIQUE WELL ID
SLAT.WGS84             53.5164 : SURFACE LATITUDE
SLON.WGS84           -116.4412 : SURFACE LONGITUDE
~Curve Information -----------------------------------------
DEPT    .FT    : Depth Curve
CALDED  .IN    : CALIPER FROM FDC LOG [ADJ.TO RESISTIVITY LOG]
CALNED  .IN    : CALIPER FROM SNP LOG [ADJ.TO RESISTIVITY LOG]
CALSED  .IN    : CALIPER FROM SONIC LOG [ADJ. TO RESISTIVITY LOG]
CALWS   .IN    : CALIPER [CALSED]
CILDED  .MMHO  : DEEP CONDUCTIVITY FROM RESISTIVITY LOG
CONDWS  .MMHO  : CONDUCTIVITY [1000/DRESWS]
DCORED  .G/C3  : DENSITY CORRECTION FROM FDC LOG  [ADJ.TO RESISTIVITY LOG]
DCORWS  .G/C3  : DENSITY CORRECTION [DCORED]
DENWS   .G/C3  : FORMATION BULK DENSITY [RHOBED]
DPHILSED.V/V   : DENSITY POROSITY LIMESTONE [M=2.71, F=1.00] FROM FDC LOG [ADJ. TO RESISTIVITY LOG]
DPOLSWS .V/V   : DENSITY POROSITY LIMESTONE [DPHILSED]
DRESWS  .OHMM  : DEEP RESISTIVITY [ILDED]
DTED    .US/F  : DELTA TIME FROM SONIC LOG [ADJ. TO RESISTIVITY LOG]
DTWS    .US/F  : COMPRESSIONAL SONIC [DTED]
GRDED   .GAPI  : GAMMA RAY FROM SNP-FDC LOG [ADJ. TO RESISTIVITY LOG]
GRNED   .GAPI  : GAMMA RAY FROM SNP LOG  [ADJ. TO RESISTIVITY LOG]
GRSED   .GAPI  : GAMMA RAY FROM SONIC LOG [ADJ. TO RESISTIVITY LOG]
GRWS    .GAPI  : GAMMA RAY [GRSED SPL. TO GRDED @ 12330']
ILDED   .OHMM  : DEEP INDUCTION FROM RESISTIVITY LOG
NPOLSWS .V/V   : NEUTRON POROSITY LIMESONTE [SNPLSED]
RHOBED  .G/C3  : BULK DENSITY FROM FDC LOG [ADJ.TO RESISTIVITY LOG]
SNED    .OHMM  : SHORT NORMAL 16" FROM RESISTIVITY LOG
SNPLSED .V/V   : SIDEWALL NEUTRON POROSITY LIMESONTE FROM SNP LOG [ADJ.TO RESISTIVITY LOG]
SPRED   .MV    : SPONTANEOUS POTENTIAL FROM RESISTIVITY LOG
SPWS    .MV    : SPONTANEOUS POTENTIAL [BASELINE 0 MV, SPRED]
SRESWS  .OHMM  : SHALLOW RESISTIVITY [SNED]
~Params ----------------------------------------------------
PD  .                     GL : PERMANENT DATUM
EPD .FT                 3060 : ELEVATION PERMANENT DATUM
LMF .                     KB : LOG MEASURED FROM
DAPD.FT                   13 : FEET ABOVE PERMANENT DATUM
EKB .FT                 3073 : KELLY BUSHING
EGL .FT                 3060 : GROUND LEVEL
DATE.               10/18/68 : RUN DATE
RUN .                      1 : RUN NUMBER
DD  .FT                12360 : DEPTH DRILLER
DL  .FT                12367 : DEPTH LOGGER
BLI .FT                12366 : BOTTOM LOG INTERVAL
TLI .FT                 1258 : TOP LOG INTERVAL
CBD .FT                 1258 : CASING BOTTOM DRILLER
CBL .FT                 1258 : CASING BOTTOM LOGGER
BS  .IN                 8.75 : BIT SIZE
BSD .FT                12360 : BIT SIZE AT DEPTH
DFT .                    GEL : DRILLING FLUID TYPE
DFD .                    9.8 : DRILLING FLUID DENSITY
DFV .                     69 : DRILLING FLUID VISCOSITY
DFPH.                   10.5 : DRILLING FLUID PH
DFL .                    6.3 : DRILLING FLUID LOSS
RMF .OHMM               0.93 : RESISTIVITY MUD FILTRATE SAMPLE
MFST.DEGF                 63 : MUD FILTRATE SAMPLE TEMPERATURE
RMC .OHMM               1.94 : RESISTIVITY MUD CAKE
MCST.DEGF                 67 : MUD CAKE SAMPLE TEMPERATURE
TCS .HRS                   4 : TIME CIRCULATED STOPPED
LUN .                   7501 : LOGGING UNIT NUMBER
LUL .                    EDM : LOGGING UNIT LOCATION
ENGI.               CHADDOCK : RECORDING ENGINEER
WITN.                HOVDEBO : WITNESSED BY
CLNT.                A2DTECH : CLIENT CODE
ORIG.            2" 5" PRINT : ORIGIN OF DATA
UWI .       100072805217W500 : UNIQUE WELL ID
DICO. A2D Technologies, Inc. : DIGITIZING COMPANY
~Other -----------------------------------------------------
~ASCII -----------------------------------------------------
# ...
 9300.00000    8.41490    8.68140    9.87080    9.24100   26.15110   26.55160    0.05850    0.05850    2.63900    0.04770    0.04150   37.69090   54.52720   54.52720   80.67200   80.55170    6.79070    6.91410   37.69090    0.05020    2.63900   59.87000    0.05020 -171.10570  -62.46720   59.87000
 9350.00000    8.72070    9.03470    9.85700    9.52290   34.89870   36.53030    0.03040    0.03040    2.78630   -0.05100   -0.04460   27.37450   52.13310   52.13310  128.45330  128.54920   39.70370   49.05080   27.37450    -999.25    2.78630   30.63370    -999.25 -112.25050   -6.89420   30.63370
 9400.00000    -999.25    -999.25    9.44170    9.48350   60.73880   65.49560    -999.25    -999.25    -999.25    -999.25    -999.25   15.26820   56.36570   56.36570    -999.25    -999.25   54.97770   50.59760   15.26820    -999.25    -999.25   20.06650    -999.25 -112.78800  -17.81020   20.06650
 9450.00000    -999.25    -999.25    9.31440    9.31570   26.53510   26.59830    -999.25    -999.25    -999.25    -999.25    -999.25   37.59640   54.43190   54.43190    -999.25    -999.25   33.63770   43.41390   37.59640    -999.25    -999.25   48.91730    -999.25  -93.88150   -9.90940   48.91730
 9500.00000    -999.25    -999.25    9.78700    9.80150    4.19660    3.50090    -999.25    -999.25    -999.25    -999.25    -999.25  285.64350   51.20450   51.20450    -999.25    -999.25   16.02640   14.69070  285.64350    -999.25    -999.25  110.31490    -999.25  -90.58980  -11.35240  110.31490
 9550.00000    -999.25    -999.25    9.82960    9.91820   32.65700   33.61740    -999.25    -999.25    -999.25    -999.25    -999.25   29.75040   57.73620   57.73620    -999.25    -999.25   34.94380   37.18670   29.75040    -999.25    -999.25   35.73140    -999.25  -81.68350   -5.25710   35.73140
 9600.00000    -999.25    -999.25    9.70620    9.77020   41.89990   42.94790    -999.25    -999.25    -999.25    -999.25    -999.25   23.28400   60.35400   60.35400    -999.25    -999.25   48.72590   49.52820   23.28400    -999.25    -999.25   28.25000    -999.25  -88.57280  -13.32140   28.25000
 9650.00000    -999.25    -999.25    9.71460    9.69480   35.21010   36.03100    -999.25    -999.25    -999.25    -999.25    -999.25   27.75390   58.41720   58.41720    -999.25    -999.25   46.46990   45.05210   27.75390    -999.25    -999.25   31.41820    -999.25  -90.10250  -15.04240   31.41820
 9700.00000    -999.25    -999.25    9.50240    9.63080   34.62130   34.51610    -999.25    -999.25    -999.25    -999.25    -999.25   28.97200   58.36510   58.36510    -999.25    -999.25   45.78100   41.46870   28.97200    -999.25    -999.25   31.92750    -999.25  -93.97880  -19.11130   31.92750
 9750.00000    -999.25    -999.25    9.76440   10.26870   33.73620   34.02880    -999.25    -999.25    -999.25    -999.25    -999.25   29.38690   59.67920   59.67920    -999.25    -999.25   42.56750   46.52320   29.38690    -999.25    -999.25   30.10110    -999.25  -95.46540  -20.78930   30.10110
 9800.00000    -999.25    -999.25    9.16340    9.17610   18.32720   18.10800    -999.25    -999.25    -999.25    -999.25    -999.25   55.24230   56.46560   56.46560    -999.25    -999.25   29.34030   29.10620   55.24230    -999.25    -999.25   51.89270    -999.25 -102.96220  -28.47740   51.89270
 9850.00000    -999.25    -999.25    9.24340    9.24830   21.19870   21.47480    -999.25    -999.25    -999.25    -999.25    -999.25   46.56630   74.00970   74.00970    -999.25    -999.25  240.00000  240.00000   46.56630    -999.25    -999.25   59.89060    -999.25 -119.34890  -45.05670   59.89060
 9900.00000    -999.25    -999.25    9.42200    9.42200    3.26420    2.34630    -999.25    -999.25    -999.25    -999.25    -999.25  426.19600   49.56810   49.56810    -999.25    -999.25    9.49480    9.49480  426.19600    -999.25    -999.25  193.03250    -999.25 -124.51150  -50.41070  193.03250
 9950.00000    -999.25    -999.25   10.61050   10.56120    2.85460    1.82430    -999.25    -999.25    -999.25    -999.25    -999.25  548.14300   49.08760   49.08760    -999.25    -999.25   11.28320   12.19970  548.14300    -999.25    -999.25  172.31580    -999.25 -151.14760  -77.23940  172.31580
 10000.00000    -999.25    -999.25   10.26550   10.42730    3.42680    2.64840    -999.25    -999.25    -999.25    -999.25    -999.25  377.59230   49.61810   49.61810    -999.25    -999.25    9.86010    9.96710  377.59230    -999.25    -999.25  173.53940    -999.25 -171.74890  -98.03200  173.53940
 10050.00000    -999.25    -999.25   10.29660   10.26470    1.92660    1.84240    -999.25    -999.25    -999.25    -999.25    -999.25  542.76480   50.91300   50.91300    -999.25    -999.25    8.97480    9.19040  542.76480    -999.25    -999.25  141.40720    -999.25 -178.15690 -104.63140  141.40720
 10100.00000    -999.25    -999.25   10.24310   10.58890    6.13780    5.75830    -999.25    -999.25    -999.25    -999.25    -999.25  173.66190   50.80210   50.80210    -999.25    -999.25   10.97850    9.32640  173.66190    -999.25    -999.25  145.87860    -999.25 -171.79810  -98.46520  145.87860
 10150.00000    -999.25    -999.25   11.75190   12.35000    8.19390    7.84140    -999.25    -999.25    -999.25    -999.25    -999.25  127.52820   51.09010   51.09010    -999.25    -999.25   12.14760   12.15110  127.52820    -999.25    -999.25  134.37940    -999.25 -179.14930 -106.00770  134.37940
 10200.00000    -999.25    -999.25   10.31620   11.02290    5.44280    4.55010    -999.25    -999.25    -999.25    -999.25    -999.25  219.77690   50.42060   50.42060    -999.25    -999.25    8.24320    8.00070  219.77690    -999.25    -999.25   91.23550    -999.25 -201.92700 -128.97800   91.23550
 10250.00000    -999.25    -999.25    9.64340    9.60260   10.99950   11.13200    -999.25    -999.25    -999.25    -999.25    -999.25   89.83090   50.54670   50.54670    -999.25    -999.25    7.45690    6.92580   89.83090    -999.25    -999.25   95.12910    -999.25 -206.28200 -133.52440   95.12910
 10300.00000    -999.25    -999.25   10.71370   11.38270    6.95690    6.30590    -999.25    -999.25    -999.25    -999.25    -999.25  160.21120   50.17490   50.17490    -999.25    -999.25    9.70210    9.06880  160.21120    -999.25    -999.25  140.04550    -999.25 -205.21260 -132.64630  140.04550
 10350.00000    -999.25    -999.25   10.89110   11.01940    1.94480    1.82960    -999.25    -999.25    -999.25    -999.25    -999.25  546.56180   49.64700   49.64700    -999.25    -999.25    9.55080    9.59130  546.56180    -999.25    -999.25  134.39320    -999.25 -185.54010 -113.16640  134.39320
 10400.00000    -999.25   12.82490   11.22020   11.18330    4.02320    3.12850    -999.25    -999.25    -999.25    -999.25    -999.25  319.64010   52.56540   52.56540  154.06420  156.03170    9.16900    7.56400  319.64010    0.07630    -999.25  126.08570    0.07630 -176.71470 -104.53240  126.08570
 10450.00000   12.30150   12.39610   11.19190   11.16430    2.60770    2.23040    0.19170    0.19170    2.47610    0.12370    0.13680  448.34260   59.61300   59.61300  160.43270  160.53920   10.58910   11.27190  448.34260    0.12810    2.47610   85.29530    0.12810 -184.08800 -112.09830   85.29530
 10500.00000   11.65160   12.05840   11.71060   11.65970   24.17610   24.91110    0.10360    0.10360    2.55160    0.08180    0.09260   40.14270   51.53280   51.53280  157.59070  160.16630    9.77420   10.17020   40.14270    0.05470    2.55160  110.35250    0.05470 -176.39310 -104.59470  110.35250
 10550.00000   11.72530   11.78690   11.36620   11.33320   30.24730   28.62550    0.16240    0.16240    2.60690    0.05490    0.06030   36.65180   48.47570   48.47570  177.80480  177.13980   16.17690   13.99380   36.65180    0.08140    2.60690  101.82760    0.08140 -191.99030 -120.38330  101.82760
 10600.00000    8.68190    9.04110    9.71870    9.66490   30.02290   30.71360   -0.00040   -0.00040    2.84470   -0.08060   -0.07880   32.55890   47.84580   47.84580  212.46740  210.11080   27.09440   32.93930   32.55890    0.01560    2.84470  130.26010    0.01560 -147.84850  -76.43410  130.26010
