~Version ---------------------------------------------------
VERS.      2.0 : CWLS log ASCII Standard -VERSION 2.0
WRAP.       NO : One line per depth step
CREA. 12/01/17 : LAS Creation Date
~Well ------------------------------------------------------
STRT.FT                       650.0 : START DEPTH
STOP.FT                      6550.0 : STOP DEPTH
STEP.FT                    50.00000 : STEP LENGTH
NULL.                       -999.25 : NULL VALUE
COMP.    CANADIAN SUPERIOR OIL LTD. : COMPANY
WELL. CDN-SUP ET AL NIPISI 7-5-77-8 : WELL
FLD .                               : FIELD
LOC .                               : LOCATION
CTRY.                        CANADA : COUNTRY
SRVC.        Schlumberger of Canada : SERVICE COMPANY
DATE.                   23-Mar-1976 : LOGDATE
PROV.                       Alberta : PROVINCE
UWI .              100070507708W500 : UNIQUE WELL ID
SLAT.WGS84                 55.64085 : SURFACE LATITUDE
SLON.WGS84                -115.1982 : SURFACE LONGITUDE
~Curve Information -----------------------------------------
DEPT    .FT    : Depth Curve
CALDED  .IN    : CALIPER FROM DENSITY LOG
CALWS   .IN    : CALIPER [CALDED]
CONDWS  .MMHO  : CONDUCTIVITY [1000/DRESWS]
DCORWS  .G/C3  : DENSITY CORRECTION [DRHOED]
DENWS   .G/C3  : FROMATION BULK DENSITY [CALC. FROM DPOLSWS, M=2.71, F=1.00]
DPHILSED.V/V   : DENSITY POROSITY LIMESTONE [DPOLSWS, M=2.71, F=1.00] FROM DENSITY LOG
DPOLSWS .V/V   : DENSITY POROSITY LIMESTONE [DPHILSED SPL. TO CALC. FROM RHOBED M=2.71, F=1.00 AT SEVERAL INTERVAL]
DRESWS  .OHMM  : DEEP RESISTIVITY [ILDED]
DRHOED  .G/C3  : BULK DENSITY CORRECTION FROM DENSITY LOG
GRDED   .GAPI  : GAMMA RAY FROM DENSITY LOG
GRWS    .GAPI  : GAMMA RAY [GRDED]
ILDED   .OHMM  : DEEP INDUCTION RESISTIVITY FROM RESISTIVITY LOG
ILMED   .OHMM  : MEDIUM INDUCTION RESISTIVITY FROM RESISTIVITY LOG
LL8ED   .OHMM  : LATEROLOG 8 RESISTIVITY  FROM RESISTIVITY LOG
MRESWS  .OHMM  : MEDIUM RESISTIVITY [ILMED]
NPHILSED.V/V   : NEUTRON POROSITY LIMESTONE FROM DENSITY LOG
NPOLSWS .V/V   : NEUTRON POROSITY LIMESTONE [NPHILSED]
RHOBED  .G/C3  : BULK DENSITY FROM DENSITY LOG
SPRED   .MV    : SPONTANEOUS POTENTIAL FROM RESISTIVITY LOG
SPWS    .MV    : SPONTANEOUS POTENTIAL [BASELINE 0 MV,SPRED]
SRESWS  .OHMM  : SHALLOW RESISTIVITY [LL8ED]
~Params ----------------------------------------------------
PD  .                     GL : PERMANENT DATUM
EPD .FT                 2344 : ELEVATION PERMANENT DATUM
LMF .                     KB : LOG MEASURED FROM
DAPD.FT                   14 : FEET ABOVE PERMANENT DATUM
EKB .FT                 2358 : KELLY BUSHING
EGL .FT                 2344 : GROUND LEVEL
DATE.               03/23/76 : RUN DATE
RUN .                      1 : RUN NUMBER
DD  .FT                 6590 : DEPTH DRILLER
DL  .FT                 6592 : DEPTH LOGGER
BLI .FT                 6586 : BOTTOM LOG INTERVAL
TLI .FT                  646 : TOP LOG INTERVAL
CBD .FT                  646 : CASING BOTTOM DRILLER
CBL .FT                  646 : CASING BOTTOM LOGGER
BS  .IN                7.875 : BIT SIZE
BSD .FT                 6590 : BIT SIZE AT DEPTH
DFT .               GEL CHEM : DRILLING FLUID TYPE
DFD .                    9.9 : DRILLING FLUID DENSITY
DFV .                    120 : DRILLING FLUID VISCOSITY
DFPH.                     11 : DRILLING FLUID PH
DFL .                    9.6 : DRILLING FLUID LOSS
MSS .             CIRCULATED : MUD SAMPLE SOURCE
RMS .OHMM               0.76 : RESISTIVITY MUD SAMPLE
MST .DEGF                 42 : MUD SAMPLE TEMPERATURE
RMF .OHMM               0.46 : RESISTIVITY MUD FILTRATE SAMPLE
MFST.DEGF                 65 : MUD FILTRATE SAMPLE TEMPERATURE
TCS .HRS                   3 : TIME CIRCULATED STOPPED
LUN .                   7691 : LOGGING UNIT NUMBER
LUL .                    EDM : LOGGING UNIT LOCATION
ENGI.   CROCKFORD KREZANOSKI : RECORDING ENGINEER
WITN.            KELLY GLEEN : WITNESSED BY
CLNT.                A2DTECH : CLIENT CODE
ORIG.            2" 5" PRINT : ORIGIN OF DATA
UWI .       100070507708W500 : UNIQUE WELL ID
DICO. A2D Technologies, Inc. : DIGITIZING COMPANY
~Other -----------------------------------------------------
~ASCII -----------------------------------------------------
# ...
 5600.00000   12.91490   12.91490  238.57240    0.21390    2.35600    0.20700    0.20700    4.19160    0.21390   55.61000   55.61000    4.19160    4.54180    5.02520    4.54180    0.27210    0.27210    2.36640  -42.55380  -11.52250    5.02520
 5650.00000    9.25190    9.25190  102.08770    0.09450    2.61200    0.05730    0.05730    9.79550    0.09450   39.23640   39.23640    9.79550   10.96020   11.40190   10.96020    0.11230    0.11230    2.62030  -36.77820   -7.12300   11.40190
 5700.00000    9.11480    9.11480   93.26270    0.04480    2.67700    0.01930    0.01930   10.72240    0.04480   52.57920   52.57920   10.72240   11.33500   12.60550   11.33500    0.11850    0.11850    2.67940  -33.93530   -5.66510   12.60550
 5750.00000    9.06130    9.06130  101.82470    0.02520    2.69750    0.00730    0.00730    9.82080    0.02520   55.85360   55.85360    9.82080   11.14470   15.33980   11.14470    0.10670    0.10670    2.69210  -34.41790   -7.52370   15.33980
 5800.00000    8.97240    8.97240  117.40810    0.04040    2.69610    0.00810    0.00810    8.51730    0.04040   62.32800   62.32800    8.51730    8.86910   10.90080    8.86910    0.14070    0.14070    2.69860  -26.22450   -0.70630   10.90080
 5850.00000    9.53720    9.53720  184.42360    0.13160    2.53680    0.10130    0.10130    5.42230    0.13160   80.25710   80.25710    5.42230    5.75420    6.84750    5.75420    0.20000    0.20000    2.57110  -31.84790   -7.67870    6.84750
 5900.00000   10.66430   10.66430  205.15770    0.23400    2.52750    0.10670    0.10670    4.87430    0.23400   83.75900   83.75900    4.87430    5.08720    6.26100    5.08720    0.21370    0.21370    2.48950  -34.05390  -10.34600    6.26100
 5950.00000    8.46600    8.46600   55.19460    0.03190    2.67960    0.01780    0.01780   18.11770    0.03190   29.10140   29.10140   18.11770   20.44480   37.27830   20.44480    0.05530    0.05530    2.70270  -27.01140   -3.76780   37.27830
 6000.00000    8.33360    8.33360   98.42130    0.04930    2.68730    0.01330    0.01330   10.16040    0.04930   17.65570   17.65570   10.16040   11.52270   17.07910   11.52270    0.04500    0.04500    2.69190  -63.16410  -40.38170   17.07910
 6050.00000    9.85590    9.85590  353.08240    0.04390    2.49040    0.12840    0.12840    2.83220    0.04390  133.16180  133.16180    2.83220    3.19220    2.92120    3.19220    0.43980    0.43980    2.41320  -38.78310  -16.46200    2.92120
 6100.00000    9.19270    9.19270  291.97080    0.01730    2.50220    0.12150    0.12150    3.42500    0.01730  164.98030  164.98030    3.42500    3.80030    4.76770    3.80030    0.22530    0.22530    2.47880  -30.36150   -8.50470    4.76770
 6150.00000    9.04530    9.04530   71.48070    0.08670    2.78700   -0.04500   -0.04500   13.98980    0.08670   34.07240   34.07240   13.98980   15.52670   16.81500   15.52670    0.12830    0.12830    2.82840  -31.43490  -10.03930   16.81500
 6200.00000    8.50360    8.50360   70.01090   -0.00210    2.87950   -0.09910   -0.09910   14.28350   -0.00210   31.85430   31.85430   14.28350   15.13530   46.76050   15.13530    0.06930    0.06930    2.86040  -25.63030   -4.69900   46.76050
 6250.00000    8.40840    8.40840   56.03400    0.01790    2.75380   -0.02560   -0.02560   17.84630    0.01790   43.40250   43.40250   17.84630   21.45710   59.55800   21.45710    0.10500    0.10500    2.71740  -36.92470  -16.45470   59.55800
 6300.00000    8.36420    8.36420  347.00530    0.06920    2.48050    0.13420    0.13420    2.88180    0.06920  124.01100  124.01100    2.88180    3.31450    4.79110    3.31450    0.43960    0.43960    2.60120  -41.79180  -21.78300    4.79110
 6350.00000    8.52750    8.52750  379.06070    0.07660    2.66660    0.02540    0.02540    2.63810    0.07660  101.21600  101.21600    2.63810    2.82270    3.27860    2.82270    0.27620    0.27620    2.63310  -29.71430  -10.16980    3.27860
 6400.00000    8.24400    8.24400   69.02410    0.01380    2.72620   -0.00950   -0.00950   14.48770    0.01380   42.75130   42.75130   14.48770   16.20230   22.92110   16.20230    0.08930    0.08930    2.73760  -24.76830   -5.68510   22.92110
 6450.00000    8.12890    8.12890  392.35690    0.02440    2.59470    0.06740    0.06740    2.54870    0.02440  139.07880  139.07880    2.54870    2.78140    5.12280    2.78140    0.22890    0.22890    2.60230  -27.73050   -9.11160    5.12280
 6500.00000    8.04710    8.04710  125.82260    0.02900    2.60110    0.06370    0.06370    7.94770    0.02900  168.81900  168.81900    7.94770    8.59980   10.45870    8.59980    0.07300    0.07300    2.60300  -48.55800  -30.40030   10.45870
 6550.00000    7.97800    7.97800    4.42440    0.02140    2.69560    0.00840    0.00840  226.01980    0.02140  128.26580  128.26580  226.01980  254.85020  418.85170  254.85020    0.00520    0.00520    2.71010  -34.60150  -16.90510  418.85170
