~Version ---------------------------------------------------
VERS.      2.0 : CWLS log ASCII Standard -VERSION 2.0
WRAP.       NO : One line per depth step
CREA. 11/16/17 : LAS Creation Date
~Well ------------------------------------------------------
STRT.FT                       1100.0 : START DEPTH
STOP.FT                      10650.0 : STOP DEPTH
STEP.FT                     50.00000 : STEP LENGTH
NULL.                        -999.25 : NULL VALUE
COMP.           PETROFINA CANADA LTD : COMPANY
WELL. FINA AMOCO HB PASSCK 10-6-61-1 : WELL
FLD .                             WC : FIELD
LOC .                                : LOCATION
CTRY.                         CANADA : COUNTRY
SRVC.                   Schlumberger : SERVICE COMPANY
DATE.                    16-Nov-1976 : LOGDATE
PROV.                        Alberta : PROVINCE
UWI .               100100606117W500 : UNIQUE WELL ID
SLAT.WGS84                  54.24964 : SURFACE LATITUDE
SLON.WGS84                 -116.5333 : SURFACE LONGITUDE
~Curve Information -----------------------------------------
DEPT    .FT    : Depth Curve
CALDED  .IN    : CALIPER FROM DENSITY LOG
CALSED  .IN    : CALIPER FROM SONIC LOG [ADJ. TO GRDED]
CALWS   .IN    : CALIPER [CALSED SPL. TO CALDED @ 2270']
CILDED  .MMHO  : CONDUCTIVITY FROM RESISTIVITY LOG
CONDWS  .MMHO  : CONDUCTIVITY [1000/DRESWS]
DCORED  .G/C3  : DENSITY CORRECTION FROM DENSITY LOG
DCORWS  .G/C3  : DENSITY CORRECTION [DCORED]
DENWS   .G/C3  : FORMATION BULK DENSITY [RHOBED]
DPHILSED.V/V   : DENSITY POROSITY LIMESTONE [M=2.71, F=1.00] FROM DENSITY LOG [ADJ. TO RHOBED]
DPHISSED.V/V   : DENSITY POROSITY SANDSTONE [M=2.65, F=1.00] FROM DENSITY LOG [ADJ. TO RHOBED]
DPOLSWS .V/V   : DENSITY POROSITY LIMESTONE [CALC FROM DENWS, M=2.71, F=1.00]
DRESWS  .OHMM  : DEEP RESISTIVITY [1000/CILDED IF ILDED<=1.9, ILDED & SPL. TO ILDED @ 2250']
DTED    .US/F  : DELTA TIME FROM SONIC LOG [ADJ. TO GRDED]
DTWS    .US/F  : COMPRESSIONAL SONIC [DTED]
GRDED   .GAPI  : GAMMA RAY FROM DENSITY LOG
GRSED   .GAPI  : GAMMA RAY FROM SONIC LOG [ADJ. TO GRDED]
GRWS    .GAPI  : GAMMA RAY [GRSED SPL. TO GRDED @ 2276']
ILDED   .OHMM  : DEEP INDUCTION RESISTIVITY FROM RESISTIVITY LOG
ILMED   .OHMM  : MEDIUM INDUCTION RESISTIVITY FROM RESISTIVITY LOG
LL8ED   .OHMM  : 8 INCH LATEROLOG RESISTIVITY FROM RESISTIVITY LOG
MRESWS  .OHMM  : MEDIUM RESISTIVITY [ILMED]
NPHILSED.V/V   : NEUTRON POROSITY LIMESTONE FROM DENSITY LOG [ADJ. TO RHOBED]
NPHISSED.V/V   : NEUTRON POROSITY SANDSTONE FROM DENSITY LOG [ADJ. TO RHOBED]
NPOLSWS .V/V   : NEUTRON POROSITY LIMESTONE [SS CONVERTED TO  LS & SPL. TO NPHILSED @ 6854.5']
RHOBED  .G/C3  : BULK DENSITY FROM DENSITY LOG
SPRED   .MV    : SPONTANEOUS POTENTIAL FROM RESISTIVITY LOG
SPWS    .MV    : SPONTANEOUS POTENTIAL [BASELINE 0 MV, SPRED]
SRESWS  .OHMM  : SHALLOW RESISTIVITY [LL8ED]
~Params ----------------------------------------------------
PD  .                     GL : PERMANENT DATUM
EPD .FT                 3080 : ELEVATION PERMANENT DATUM
LMF .                     KB : LOG MEASURED FROM
DAPD.FT                   16 : FEET ABOVE PERMANENT DATUM
EKB .FT                 3096 : KELLY BUSHING
EGL .FT                 3080 : GROUND LEVEL
DATE.               11/16/76 : RUN DATE
RUN .                      2 : RUN NUMBER
DD  .FT                10680 : DEPTH DRILLER
DL  .FT                10679 : DEPTH LOGGER
BLI .FT                10673 : BOTTOM LOG INTERVAL
TLI .FT                 7468 : TOP LOG INTERVAL
CBD .FT                 1102 : CASING BOTTOM DRILLER
CBL .FT                 1102 : CASING BOTTOM LOGGER
BS  .IN                 8.75 : BIT SIZE
BSD .FT                10680 : BIT SIZE AT DEPTH
DFT .                    GEL : DRILLING FLUID TYPE
DFD .                    9.2 : DRILLING FLUID DENSITY
DFV .                     94 : DRILLING FLUID VISCOSITY
DFPH.                     10 : DRILLING FLUID PH
DFL .                    8.2 : DRILLING FLUID LOSS
MSS .               FLOWLINE : MUD SAMPLE SOURCE
RMS .OHMM               1.57 : RESISTIVITY MUD SAMPLE
MST .DEGF                 65 : MUD SAMPLE TEMPERATURE
RMF .OHMM               1.76 : RESISTIVITY MUD FILTRATE SAMPLE
MFST.DEGF                 68 : MUD FILTRATE SAMPLE TEMPERATURE
TCS .HRS                 2.5 : TIME CIRCULATED STOPPED
LUN .                   7800 : LOGGING UNIT NUMBER
LUL .                    EDM : LOGGING UNIT LOCATION
ENGI.     ROBELLI LEDUG BIGG : RECORDING ENGINEER
WITN.                CHARLES : WITNESSED BY
CLNT.                A2DTECH : CLIENT CODE
ORIG.            2" 5" PRINT : ORIGIN OF DATA
UWI .       100100606117W500 : UNIQUE WELL ID
DICO. A2D Technologies, Inc. : DIGITIZING COMPANY
~Other -----------------------------------------------------
~ASCII -----------------------------------------------------
# ...
 7350.00000    8.81670    8.75610    8.81670    -999.25   49.64310    0.01730    0.01730    2.71520   -0.00080    -999.25   -0.00300   20.14380   49.44780   49.44780   16.03630   16.19190   16.03630   20.14380   22.04190   47.78410   22.04190    0.02150    -999.25    0.02150    2.71520  -41.19080  -60.76390   47.78410
 7400.00000    8.77210    8.80030    8.77210    -999.25   45.49500    0.02180    0.02180    2.65470    0.03440    -999.25    0.03230   22.11480   52.18200   52.18200    8.48810   12.18950    8.48810   22.11480   24.44100   64.11020   24.44100    0.02650    -999.25    0.02650    2.65470  -66.30520  -78.36650   64.11020
 7450.00000    8.66540    8.65930    8.66540    -999.25  149.12460    0.09940    0.09940    2.76760   -0.04260    -999.25   -0.03370    6.70580   61.93870   61.93870   78.23380   87.00670   78.23380    6.70580    7.03480    9.73120    7.03480    0.12030    -999.25    0.12030    2.76760  -26.20290  -33.75520    9.73120
 7500.00000    9.54210    9.57640    9.54210    -999.25   65.89460   -0.00910   -0.00910    2.66720    0.03110    -999.25    0.02510   15.18370   59.58740   59.58740   76.64380   80.45670   76.64380   15.18370   14.38580   22.72250   14.38580    0.12620    -999.25    0.12620    2.66720    0.63500   -9.27670   22.72250
 7550.00000    9.58670    9.49140    9.58670    -999.25   35.16770    0.00340    0.00340    2.69440   -0.00030    -999.25    0.00910   28.81820   56.67030   56.67030   42.46090   39.02670   42.46090   28.81820   19.03810  177.48430   19.03810    0.04110    -999.25    0.04110    2.69440  -10.83350  -23.10470  177.48430
 7600.00000    9.61740    9.48400    9.61740    -999.25   12.14680   -0.01530   -0.01530    2.70250   -0.00210    -999.25    0.00440   82.32610   56.09560   56.09560   40.85320   49.57870   40.85320   82.32610   76.48530   88.16440   76.48530    0.04040    -999.25    0.04040    2.70250   -6.41270  -21.05880   88.16440
 7650.00000    9.50270    9.51970    9.50270    -999.25   14.00170   -0.00370   -0.00370    2.70470    0.00250    -999.25    0.00310   71.42110   57.86610   57.86610   41.53030   44.88140   41.53030   71.42110   84.65350   83.03550   84.65350    0.03160    -999.25    0.03160    2.70470  -10.48580  -27.49130   83.03550
 7700.00000    9.41090    9.24420    9.41090    -999.25    5.40020    0.00520    0.00520    2.68570    0.02510    -999.25    0.01420  185.17880   54.69900   54.69900   29.36580   28.24880   29.36580  185.17880  196.37550  144.00870  196.37550    0.02620    -999.25    0.02620    2.68570   -9.97960  -29.36010  144.00870
 7750.00000    9.45860    9.12970    9.45860    -999.25    7.38450    0.01110    0.01110    2.69630    0.00270    -999.25    0.00800  135.46060   54.61630   54.61630   26.67650   25.90860   26.67650  135.46060  132.51440  121.11520  132.51440    0.02180    -999.25    0.02180    2.69630  -11.99640  -33.73630  121.11520
 7800.00000    9.55490    9.45930    9.55490    -999.25   20.99560   -0.00440   -0.00440    2.69630    0.00240    -999.25    0.00800   47.62950   58.08780   58.08780   45.75080   52.32780   45.75080   47.62950   44.47460   52.80170   44.47460    0.04310    -999.25    0.04310    2.69630    8.13860  -14.40840   52.80170
 7850.00000    9.41430    9.05600    9.41430    -999.25    0.81130   -0.01190   -0.01190    2.67230    0.02510    -999.25    0.02200 1232.63400   54.79410   54.79410   28.67150   31.00690   28.67150 1232.63400  689.67880  342.45680  689.67880    0.02610    -999.25    0.02610    2.67230   -1.54120  -22.69310  342.45680
 7900.00000    9.42720    9.18560    9.42720    -999.25    2.25350   -0.01420   -0.01420    2.67340    0.01430    -999.25    0.02140  443.78790   55.09380   55.09380   36.79220   36.01240   36.79220  443.78790  369.52750  342.01880  369.52750    0.02590    -999.25    0.02590    2.67340   -8.11150  -27.87740  342.01880
 7950.00000    9.39070    8.97430    9.39070    -999.25    1.10870   -0.00620   -0.00620    2.65350    0.03220    -999.25    0.03300  901.93630   57.65100   57.65100   53.76610   58.69270   53.76610  901.93630  507.45180  216.27200  507.45180    0.04020    -999.25    0.04020    2.65350   -4.00040  -22.37120  216.27200
 8000.00000    9.49260    9.29190    9.49260    -999.25    5.70790    0.00550    0.00550    2.71140   -0.01200    -999.25   -0.00090  193.58590   55.13450   55.13450   41.27870   39.49520   41.27870  193.58590  954.56140  602.42190  954.56140    0.03470    -999.25    0.03470    2.71140  -21.19880  -38.18360  602.42190
 8050.00000    9.64520    9.21250    9.64520    -999.25    0.69780   -0.00560   -0.00560    2.70410   -0.00140    -999.25    0.00340 1433.11230   51.85960   51.85960   26.67700   24.73880   26.67700 1433.11230 1526.33260  471.36090 1526.33260    0.01020    -999.25    0.01020    2.70410  -13.01590  -28.69900  471.36090
 8100.00000    9.90880    9.39810    9.90880    -999.25    0.66520   -0.01100   -0.01100    2.67560    0.01520    -999.25    0.02010 1503.29310   51.29320   51.29320   13.39480   13.35980   13.39480 1503.29310 1588.99580 1417.74060 1588.99580    0.01250    -999.25    0.01250    2.67560  -66.70820  -81.14130 1417.74060
 8150.00000    9.75710    9.34800    9.75710    -999.25    0.68040   -0.01960   -0.01960    2.68790    0.01710    -999.25    0.01290 1469.81510   50.78380   50.78380   12.67050   10.81710   12.67050 1469.81510 1553.63740  450.20560 1553.63740    0.00230    -999.25    0.00230    2.68790  -51.03720  -64.22850  450.20560
 8200.00000   10.59660    9.62330   10.59660    -999.25    0.67620    0.11670    0.11670    2.65850    0.01580    -999.25    0.03010 1478.81070   50.86130   50.86130   10.92060   10.88490   10.92060 1478.81070 1562.86450 1449.67970 1562.86450    0.00440    -999.25    0.00440    2.65850  -66.63600  -78.57730 1449.67970
 8250.00000   11.40050    9.57350   11.40050    -999.25    1.55660    0.18020    0.18020    2.66910    0.03500    -999.25    0.02390  922.04030   51.09640   51.09640   10.89650   11.49890   10.89650  922.04030 1516.38110  270.90560 1516.38110    0.02200    -999.25    0.02200    2.66910  -63.66000  -74.35940  270.90560
 8300.00000   11.94180    9.60680   11.94180    -999.25    1.11090    0.12770    0.12770    2.54480    0.09500    -999.25    0.09670  914.82740   50.73640   50.73640   14.65290   14.33520   14.65290  914.82740 1588.07850  562.50840 1588.07850    0.00570    -999.25    0.00570    2.54480  -88.77310  -98.23070  562.50840
 8350.00000    9.45640    9.26750    9.45640    -999.25    4.99410    0.00250    0.00250    2.68730    0.00970    -999.25    0.01330  200.23790   50.52120   50.52120    6.67330    8.70460    6.67330  200.23790  256.73120  260.52370  256.73120    0.00750    -999.25    0.00750    2.68730  -95.98730 -104.19490  260.52370
 8400.00000   11.60410    9.73980   11.60410    -999.25    3.77790    0.20790    0.20790    2.53030    0.10600    -999.25    0.10510  332.05640   50.97800   50.97800   14.02520   13.04190   14.02520  332.05640  137.45800  121.43480  137.45800    0.01110    -999.25    0.01110    2.53030  -90.36210  -97.32780  121.43480
 8450.00000   11.91260    9.84340   11.91260    -999.25    0.69320    0.15560    0.15560    2.49950    0.12920    -999.25    0.12310 1442.58230   51.68170   51.68170   12.88990   10.11930   12.88990 1442.58230 1520.28520  265.94660 1520.28520    0.00910    -999.25    0.00910    2.49950  -94.90230 -100.61800  265.94660
 8500.00000   12.01590    9.75640   12.01590    -999.25    0.69420    0.23390    0.23390    2.49760    0.12230    -999.25    0.12420 1441.22390   50.77840   50.77840   12.59480   15.31340   12.59480 1441.22390 1648.29340  648.06680 1648.29340    0.01320    -999.25    0.01320    2.49760  -92.72000  -97.19390  648.06680
 8550.00000   12.55000    9.86310   12.55000    -999.25    1.83460    0.18780    0.18780    2.39970    0.19200    -999.25    0.18150  545.11090   50.81970   50.81970   12.57710   15.32890   12.57710  545.11090 1680.10560  434.37550 1680.10560    0.01850    -999.25    0.01850    2.39970  -85.60690  -88.83890  434.37550
