~Version ---------------------------------------------------
VERS. 2.0 : CWLS log ASCII Standard -VERSION 2.0
WRAP.  NO : ONE LINE PER DEPTH STEP
~Well ------------------------------------------------------
STRT.M                            400.0 : START DEPTH
STOP.M                           2800.0 : STOP DEPTH
STEP.M                         50.00000 : STEP LENGTH
NULL.                           -999.25 : NULL VALUE
COMP.      HUSKY OIL OPERATIONS LIMITED : COMPANY
WELL. HUSKY ET AL VALLEYVIEW 14-3-70-21 : WELL
FLD .                                   : FIELD
LOC .                                   : LOCATION
CTRY.                            CANADA : COUNTRY
SRVC.                           Unknown : SERVICE COMPANY
DATE.                       23-Feb-1984 : LOGDATE
PROV.                           Alberta : PROVINCE
UWI .                  100140307021W500 : UNIQUE WELL ID
SLAT.WGS84                     55.03659 : SURFACE LATITUDE
SLON.WGS84                    -117.1192 : SURFACE LONGITUDE
~Curve Information -----------------------------------------
DEPT   .M    0   1   0  0 : 1 MEASURED DEPTH
GRS    .GAPI 60 310 01 00 : GAMMA RAY FROM SONIC LOG
DT     .US/M 60 500 00 00 : DELTA-T (INTERVAL TRANSIT TIME)
CALS   .MM   60 280 50 00 : CALIPER FROM SONIC LOG
ILD    .OHMM 07 120 46 00 : INDUCTION DEEP RESISTIVITY
ILM    .OHMM 07 120 44 00 : INDUCTION MEDIUM RESISTIVITY
SFLU   .OHMM 07 220 01 00 : SHALLOW FOCUSED RESISTIVITY (UNAVERAGED)
SPR_1  .MV   07 010 01 00 : SPONTANEOUS POTENTIAL FROM RESISTIVITY
LLD    .OHMM 11 220 10 00 : LATEROLOG DEEP RESISTIVITY
LLS    .OHMM 11 220 09 00 : LATEROLOG SHALLOW RESISTIVITY
SPR    .MV   11 010 01 00 : SPONTANEOUS POTENTIAL FROM RESISTIVITY LOG
CALR   .MM   11 280 01 00 : CALIPER FROM RESISTIVITY LOG
MSFL   .OHMM 11 270 04 00 : MICRO SPHERICALLY FOCUSED RESISTIVITY
GRD    .GAPI 45 310 01 00 : GAMMA RAY FROM DENSITY LOG
NPHI_SS.DEC  42 890 03 00 : NEUTRON POROSITY SANDSTONE
DPHI_SS.DEC  45 890 12 00 : DENSITY POROSITY SANDSTONE
CALD   .MM   45 280 60 00 : CALIPER FROM DENSITY LOG
NPHI_LS.DEC  42 890 01 00 : NEUTRON POROSITY LIMESTONE
DPHI_LS.DEC  45 890 10 00 : DENSITY POROSITY LIMESTONE
DRHO   .K/M3 45 356 01 00 : BULK DENSITY CORRECTION
DRHO_1 .K/M3 45 356 01 00 : BULK DENSITY CORRECTION
RHOB   .K/M3 45 350 01 00 : BULK DENSITY
~Params ----------------------------------------------------
PD  .                         GL : PERMANENT DATUM
EPD .M                     645.8 : ELEVATION PERMANENT DATUM
LMF .                         KB : LOG MEASURED FROM
DAPD.M                      6.45 : FEET ABOVE PERMANENT DATUM
DMF .                         KB : DRILLING MEASURED FROM
EKB .M                    652.25 : KELLY BUSHING
EDF .M                    651.95 : DRILLING FLOOR
EGL .M                     645.8 : GROUND LEVEL
DATE.                   02/23/84 : RUN DATE
RUN .                          1 : RUN NUMBER
DD  .M                      2835 : DEPTH DRILLER
DL  .M                      2829 : DEPTH LOGGER
BLI .M                      2828 : BOTTOM LOG INTERVAL
TLI .M                      2780 : TOP LOG INTERVAL
CS  .MM                      244 : CASING SIZE
CBD .M                       432 : CASING BOTTOM DRILLER
CBL .M                       434 : CASING BOTTOM LOGGER
BS  .MM                      222 : BIT SIZE
BSD .M                      2835 : BIT SIZE AT DEPTH
DFT .                   GEL CHEM : DRILLING FLUID TYPE
DFD .                       1110 : DRILLING FLUID DENSITY
DFV .                         64 : DRILLING FLUID VISCOSITY
DFPH.                       11.5 : DRILLING FLUID PH
DFL .                          9 : DRILLING FLUID LOSS
MSS .                   FLOWLINE : MUD SAMPLE SOURCE
RMS .OHMM                   2.67 : RESISTIVITY MUD SAMPLE
MST .DEGC                     18 : MUD SAMPLE TEMPERATURE
RMF .OHMM                   2.76 : RESISTIVITY MUD FILTRATE SAMPLE
MFST.DEGC                   17.8 : MUD FILTRATE SAMPLE TEMPERATURE
MFSS.                      PRESS : MUD FILTRATE SAMPLE SOURCE
MCSS.                      PRESS : MUD CAKE SAMPLE SOURCE
RMB .OHMM                  1.008 : RESISTIVITY MUD AT BHT
TCS .HRS                    1500 : TIME CIRCULATED STOPPED
TLAB.HRS                      30 : TIME LOGGER AT BOTTOM
LUN .                       8208 : LOGGING UNIT NUMBER
LUL .                        EDM : LOGGING UNIT LOCATION
ENGI.                     SMILEY : RECORDING ENGINEER
WITN.                    KENNEDY : WITNESSED BY
CLNT.                    A2DTECH : CLIENT CODE
ORIG. 6.5"/100M 16.5"/100M PRINT : ORIGIN OF DATA
UWI .           100140307021W500 : UNIQUE WELL ID
DICO.     A2D Technologies, Inc. : DIGITIZING COMPANY
~Other -----------------------------------------------------
~ASCII -----------------------------------------------------
  400.00000   52.17190    -999.25    -999.25    -999.25    -999.25    -999.25    -999.25    -999.25    -999.25    -999.25    -999.25    -999.25    -999.25    -999.25    -999.25    -999.25    -999.25    -999.25    -999.25    -999.25    -999.25
  450.00000  102.27660  404.91790  265.58960    -999.25    -999.25    -999.25    -999.25    9.19080    7.16900  -33.61640  232.87220    6.43510   90.78510    0.53830    0.32980  263.67300    -999.25    -999.25   22.66940    -999.25 2099.17580
  500.00000   88.90120  370.38170  280.23920    -999.25    -999.25    -999.25    -999.25   10.12260    7.92360  -32.83830  226.25520    7.17570   77.78260    0.45090    0.30670  262.45220    -999.25    -999.25   39.07680    -999.25 2116.16870
  550.00000   80.82130  334.07590  341.88680    -999.25    -999.25    -999.25    -999.25   10.23330    8.01300  -37.25520  226.06850    5.57760   68.91990    0.49970    0.41260  284.45310    -999.25    -999.25   49.82160    -999.25 1965.09620
  600.00000   85.55680  330.54690  346.41800    -999.25    -999.25    -999.25    -999.25    9.65930    7.70800  -36.73960  240.21430    7.96100   75.12430    0.42860    0.32480  307.70550    -999.25    -999.25   70.21000    -999.25 2015.84400
  650.00000   96.53310  398.77320  286.92410    -999.25    -999.25    -999.25    -999.25    8.31790    7.04370  -36.90500  252.61390    5.24040   84.53770    0.51000    0.46030  316.99080    -999.25    -999.25   17.26490    -999.25 1888.20390
  700.00000  116.40860  360.33760  248.32680    -999.25    -999.25    -999.25    -999.25   10.75020   10.10350  -33.84570  218.46860   12.32240  102.55330    0.42060    0.16690  247.35340    -999.25    -999.25   94.58850    -999.25 2358.66160
  750.00000   89.04180  338.11460  291.82680    -999.25    -999.25    -999.25    -999.25    6.39930    5.54660  -35.94760  215.90430    4.94360   77.50400    0.51230    0.40700  267.66130    -999.25    -999.25   73.30650    -999.25 1994.19970
  800.00000  100.48550  308.16640  264.30430    -999.25    -999.25    -999.25    -999.25    7.00500    5.90570  -34.29740  221.88550    7.22940   88.97200    0.39530    0.58440  359.01420    -999.25    -999.25   27.34610    -999.25 1712.23240
  850.00000   94.48160  333.59740  275.91760    -999.25    -999.25    -999.25    -999.25    4.46830    4.16290  -36.07550  212.24860    3.88130   83.74680    0.51720    0.24440  365.85560    -999.25    -999.25   18.54390    -999.25 2245.68410
  900.00000   85.36460  352.97120  313.17130    -999.25    -999.25    -999.25    -999.25    3.67710    3.24620  -34.43860  250.33360    2.83770   75.98750    0.50370    0.39140  308.52870    -999.25    -999.25  128.96600    -999.25 1998.05590
  950.00000   91.12000  338.22320  311.63730    -999.25    -999.25    -999.25    -999.25    4.76240    4.34960  -41.11020  226.46730    3.41350   79.11050    0.45860    0.32160  287.37450    -999.25    -999.25   70.37590    -999.25 2106.72730
 1000.00000   71.76780  340.61050  271.32340    -999.25    -999.25    -999.25    -999.25    3.37400    3.21100  -39.19400  254.93120    2.61470   63.22260    0.56170    0.40980  310.51140    -999.25    -999.25   75.08600    -999.25 1971.47850
 1050.00000   52.30890  252.50310  223.04120    -999.25    -999.25    -999.25    -999.25   16.19510   21.47980  -83.36420  211.25080   38.07340   46.17590    0.29280    0.16950  216.62550    -999.25    -999.25   31.69970    -999.25 2385.06150
 1100.00000   85.19260  315.47180  281.35080    -999.25    -999.25    -999.25    -999.25    4.30190    3.97100  -42.75960  255.41130    5.05780   74.67040    0.44460    0.48730  332.84050    -999.25    -999.25   61.46390    -999.25 1859.09200
 1150.00000   60.44680  289.13720  232.55060    -999.25    -999.25    -999.25    -999.25   11.18900   14.60250  -91.07490  206.48180   20.69940   54.71310    0.33540    0.20200  219.28210    -999.25    -999.25   30.87320    -999.25 2314.33330
 1200.00000   88.77130  285.23530  250.74900    -999.25    -999.25    -999.25    -999.25    6.06150    6.34340  -44.68210  242.00970    8.83020   78.01010    0.31700    0.11150  250.66420    -999.25    -999.25    6.98960    -999.25 2467.35330
 1250.00000   84.79210  282.93380  249.80700    -999.25    -999.25    -999.25    -999.25    6.15220    6.41320  -43.68210  243.12930    7.95270   75.11530    0.32990    0.09700  244.30310    -999.25    -999.25   -1.37220    -999.25 2487.32890
 1300.00000   84.46280  284.66490  281.96750    -999.25    -999.25    -999.25    -999.25    6.84660    6.65840  -38.88670  253.36660    7.36330   73.93130    0.42670    0.38390  278.09200    -999.25    -999.25   59.61420    -999.25 2032.27990
 1350.00000   87.20200  301.25830  346.76180    -999.25    -999.25    -999.25    -999.25    4.46840    4.25390  -36.79140  293.79910    4.28240   76.28550    0.46990    0.30470  319.82920    -999.25    -999.25  126.44940    -999.25 2148.37300
 1400.00000  299.85200  253.30880  230.55980    -999.25    -999.25    -999.25    -999.25  775.04690  942.58990  -45.71760  223.98770 1536.01400  273.74620    0.27510    0.16430  229.57690    -999.25    -999.25    6.22010    -999.25 2363.59570
 1450.00000   64.22930  234.54140  255.45020    -999.25    -999.25    -999.25    -999.25    9.14010   12.06360  -80.33980  242.53460   24.93430   58.31070    0.20760    0.12640  258.33240    -999.25    -999.25    4.70510    -999.25 2435.67870
 1500.00000   34.12100  207.80460  246.10350    -999.25    -999.25    -999.25    -999.25   16.74720   25.65760 -106.69610  231.36720   43.14610   30.32230    0.24210    0.02930  240.25350    0.17760    0.07980    -999.25   64.70980 2572.41140
 1550.00000   28.76950  262.57010  242.72940    -999.25    -999.25    -999.25    -999.25    7.19320   12.07440 -128.00570  223.37820   17.38550   25.23790    -999.25    -999.25  246.99390    0.34590    0.23490    -999.25   42.70880 2311.61820
 1600.00000   22.59440  176.20070  253.73080    -999.25    -999.25    -999.25    -999.25   72.37550  133.97760 -114.50490  229.80480  165.92000   19.33060    -999.25    -999.25  251.73860    0.06990    0.02970    -999.25  -19.37780 2657.69140
 1650.00000  112.56710  227.50950  274.15520    -999.25    -999.25    -999.25    -999.25    9.20950   14.91260  -41.89380  251.37920   36.18090  100.47530    -999.25    -999.25  279.07320    0.11030    0.05510    -999.25   10.47670 2624.89230
 1700.00000   32.03400  194.15580  288.08670    -999.25    -999.25    -999.25    -999.25    5.76490    7.17760  -77.03110  263.83940   45.47490   27.83200    -999.25    -999.25  272.85120    0.10000    0.06770    -999.25  -20.52850 2596.46220
 1750.00000   36.40050  180.44520  262.41290    -999.25    -999.25    -999.25    -999.25   31.89250   46.48870  -47.94570  247.89270   54.20510   31.68290    -999.25    -999.25  255.24500    0.03250    0.04100    -999.25   -2.28120 2636.66820
 1800.00000   16.47340  167.09830  270.03540    -999.25    -999.25    -999.25    -999.25   74.48680  108.66060  -98.21320  248.01100  162.49480   15.43190    -999.25    -999.25  260.71960    0.00640    0.01880    -999.25    4.23610 2677.38280
 1850.00000   34.69080  220.89900  279.58160    -999.25    -999.25    -999.25    -999.25    6.99940   10.46910  -46.66140  257.78520    7.91890   29.94060    -999.25    -999.25  277.36960    0.12050    0.03790    -999.25   -3.67650 2638.94650
 1900.00000   26.80120  176.14050  250.09490    -999.25    -999.25    -999.25    -999.25   66.96660   72.17290  -57.48400  242.73520   98.32620   23.93850    -999.25    -999.25  246.36200    0.02010    0.02200    -999.25    8.04350 2671.46630
 1950.00000   36.87020  184.13500  241.02220    -999.25    -999.25    -999.25    -999.25   43.21930   45.67880  -30.28320  234.56070   69.49210   33.51750    -999.25    -999.25  236.09460    0.03490    0.02120    -999.25    8.49230 2679.98510
 2000.00000   46.16780  194.02280  249.61600    -999.25    -999.25    -999.25    -999.25   36.87870   44.74700  -17.61750  241.81520   59.66610   39.06030    -999.25    -999.25  241.54180    0.05190    0.03730    -999.25  -14.44690 2646.28220
