~Version ---------------------------------------------------
VERS. 2.0 : CWLS log ASCII Standard -VERSION 2.0
WRAP.  NO : ONE LINE PER DEPTH STEP
~Well ------------------------------------------------------
STRT.M                         300.0 : START DEPTH
STOP.M                        1800.0 : STOP DEPTH
STEP.M                      50.00000 : STEP LENGTH
NULL.                        -999.25 : NULL VALUE
COMP. RUPERTSLAND RESOURCES CO. LTD. : COMPANY
WELL.  RUPERTS ET AL NIPISI 6-8-78-8 : WELL
FLD .                                : FIELD
LOC .                                : LOCATION
CTRY.                         CANADA : COUNTRY
SRVC.                   Schlumberger : SERVICE COMPANY
DATE.                    05-Mar-1991 : LOGDATE
PROV.                        Alberta : PROVINCE
UWI .               100060807808W500 : UNIQUE WELL ID
SLAT.WGS84                  55.74224 : SURFACE LATITUDE
SLON.WGS84                 -115.2078 : SURFACE LONGITUDE
~Curve Information -----------------------------------------
DEPT    .M                                                                                                                    : DEPTH METERS
CALSED  .MM                                                                                                                   : CALIPER FROM SONIC LOG [DEPTH SHIFTED TO RES.]
CALWS   .MM                                                                                                                   : CALIPER [CALSED]
CONDWS  .MMHO                                                                                                                 : CONDUCTIVITY [1000/DRESWS]
DCORED  .KG/M3                                                                                                                : DENSITY CORRECTION FROM DENSITY LOG [DEPTH SHIFTED TO RES.]
DCORWS  .KG/M3                                                                                                                : DENSITY CORRECTION [DCORED]
DENWS   .KG/M3                                                                                                                : BULK DENSITY [CONVERTED TO M=2710 F=1000] [CALCULATED FROM DPOWS] *INFILLED WITH RHOBED*
DPHIDLED.V/V                                                                                                                  : DENSITY POROSITY DOLOMITE [M=2870 F=1000] FROM DENSITY LOG [DEPTH SHIFTED TO RES.]
DPHILSED.V/V                                                                                                                  : DENSITY POROSITY LIMESTONE [M=2710 F=1000] FROM DENSITY LOG [DEPTH SHIFTED TO RES.]
DPHISSED.V/V                                                                                                                  : DENSITY POROSITY SANDSTONE [M=2650 F=1000] FROM DENSITY LOG [DEPTH SHIFTED TO RES.]
DPOLSWS .V/V                                                                                                                  : DENSITY POROSITY LIMESTON [MERGED DPHISSED/DPHIDLED/DPHISSED AT 617/1433.9 CONVERTED TO M=2710 F=1000]
DRESWS  .OHMM                                                                                                                 : DEEP RESISTIVITY [ILDED]
DTED    .US/M                                                                                                                 : DELTA-T FROM SONIC LOG [DEPTH SHIFTED TO RES.]
DTWS    .US/M                                                                                                                 : DELTA-T FROM SONIC LOG [DTED]
GRED    .CPS                                                                                                                  : GAMMA RAY FROM PLUG LOG [DEPTH SHIFTED TO RES. NOT USED FOR GRWS. SEE OTHER INFORMATION SECTION]
GRSED   .GAPI                                                                                                                 : GAMMA RAY FROM SONIC LOG [DEPTH SHIFTED TO RES.]
GRWS    .GAPI                                                                                                                 : GAMMA RAY [GRSED]
ILDED   .OHMM                                                                                                                 : INDUCTION LOG DEEP RESISTIVITY
ILMED   .OHMM                                                                                                                 : INDUCTION LOG MEDIUM RESISTIVITY
MRESWS  .OHMM                                                                                                                 : MEDIUM RESISTIVITY [ILMED]
NPHIDLED.V/V                                                                                                                  : NEUTRON POROSITY DOLOMITE FROM DENSITY LOG [DEPTH SHIFTED TO RES.]
NPHILSED.V/V                                                                                                                  : NEUTRON POROSITY LIMESTONE FROM DENSITY LOG [DEPTH SHIFTED TO RES.]
NPHISSED.V/V                                                                                                                  : NEUTRON POROSITY SANDSTONE FROM DENSITY LOG [DEPTH SHIFTED TO RES.]
NPOLSWS .V/V :   NEUTRON POROSITY LIMESTONE MERGED NPHISSED/NPHIDLED/NPHILSED AT 611/1433.8 [CONVERTED FROM NPHISSED/NPHIDLED : CO.=CNL(NPHI). SIGMAIN=4.6/4.7 SIGMAOUT=7.1]
RHOBED  .KG/M3                                                                                                                : BULK DENSITY FROM DENSITY LOG [DEP ADJ TO DPHIED]
SFLED   .OHMM                                                                                                                 : SPHERICALLY FOCUSED LOG RESISTIVITY
SPRED   .MV                                                                                                                   : SPONTANEOUS POTENTIAL FROM RESISTIVITY LOG
SPWS    .MV                                                                                                                   : SPONTANEOUS POTENTIAL [BASELINE 0 MV] [SPRED]
SRESWS  .OHMM                                                                                                                 : SHALLOW RESISTIVITY [SFLED]
~Params ----------------------------------------------------
DATE.                   03/05/91 : RUN DATE
RUN .                          1 : RUN NUMBER
BLI .M                      1802 : BOTTOM LOG INTERVAL
TLI .M                       204 : TOP LOG INTERVAL
DFT .                       CHEM : DRILLING FLUID TYPE
MSS .                   FLOWLINE : MUD SAMPLE SOURCE
CLNT.                    A2DTECH : CLIENT CODE
ORIG. 6.5"/100M 16.5"/100M PRINT : ORIGIN OF DATA
UWI .           100060807808W500 : UNIQUE WELL ID
DICO.     A2D Technologies, Inc. : DIGITIZING COMPANY
~Other -----------------------------------------------------
1. GR FROM PLUG LOG IS IN COUNTS PER SECOND AND CANNOT BE CONVERTED TO GAPI WITH DATA AT HAND, SO WAS NOT USED FOR GRWS; IT WAS DEPTH SHIFTED TO GRSED FOR CLIENT'S FURTHER USE.
~ASCII -----------------------------------------------------
  300.00000  327.17910  327.17910  195.69470   19.52530   19.52530 2032.07500    -999.25    -999.25    0.37450    0.39640    5.11000  357.43850  357.43850    -999.25   74.81880   74.81880    5.11000    4.32970    4.32970    -999.25    -999.25    0.59530    0.55360 2026.46550    4.38510  -26.54320   -3.22320    4.38510
  350.00000  273.65520  273.65520  284.23630  103.17280  103.17280 2327.09500    -999.25    -999.25    0.19570    0.22390    3.51820  268.54360  268.54360    -999.25   93.83150   93.83150    3.51820    3.37290    3.37290    -999.25    -999.25    0.49940    0.45770 2345.13990    3.57340  -25.30860   -2.58170    3.57340
  400.00000  194.69580  194.69580  187.34310   48.30730   48.30730 2223.80490    -999.25    -999.25    0.25830    0.28430    5.33780  242.11810  242.11810    -999.25   71.39570   71.39570    5.33780    6.82640    6.82640    -999.25    -999.25    0.50550    0.46380 2234.14480    6.64040  -35.18520  -13.11300    6.64040
  450.00000  194.56080  194.56080  155.96240   98.86570   98.86570 2217.70000    -999.25    -999.25    0.26200    0.28790    6.41180  235.78550  235.78550    -999.25   64.98190   64.98190    6.41180    6.82640    6.82640    -999.25    -999.25    0.44010    0.39810 2218.80100    9.70010  -37.03750  -15.66150    9.70010
  500.00000  198.81760  198.81760  222.34080   91.50200   91.50200 2146.58500    -999.25    -999.25    0.30510    0.32950    4.49760  247.51190  247.51190    -999.25   66.70520   66.70520    4.49760    5.51450    5.51450    -999.25    -999.25    0.49990    0.45820 2145.86550    5.86840  -39.81480  -19.13500    5.86840
  550.00000  238.28640  238.28640  177.07890  234.69530  234.69530 2463.38500    0.23450    -999.25    0.11310    0.14420    5.64720  206.37170  206.37170    -999.25   72.34940   72.34940    5.64720    5.87910    5.87910    0.31260    -999.25    0.40770    0.36500 2471.63430    8.61360  -31.09660  -11.11300    8.61360
  600.00000  202.89710  202.89710    2.06140  141.68120  141.68120 2408.27490    0.22180    -999.25    0.14650    0.17640  485.09700  174.61190  174.61190    -999.25   13.47360   13.47360  485.09700 1137.96800 1137.96800    0.14380    -999.25    0.28690    0.24290 2405.88920 1353.63260  -55.09250  -35.80510 1353.63260
  650.00000  233.36790  233.36790  104.66600  154.49990  154.49990 2327.51290    0.29010    -999.25    -999.25    0.22370    9.55420  238.48020  238.48020    -999.25   40.04460   40.04460    9.55420    9.47240    9.47240    0.09760    -999.25    -999.25    0.17320 2313.02370   11.85980  -28.08640   -9.49520   11.85980
  700.00000  234.23280  234.23280  277.29250   71.67670   71.67670 2590.80910    0.14930    -999.25    -999.25    0.06970    3.60630  272.62970  272.62970    -999.25   48.56980   48.56980    3.60630    3.72140    3.72140    0.14550    -999.25    -999.25    0.22130 2572.07960    3.69740  -26.54310   -8.64810    3.69740
  750.00000  213.54560  213.54560   81.21890   62.40910   62.40910 2663.92600    0.11020    -999.25    -999.25    0.02690   12.31240  218.58550  218.58550    -999.25   26.70550   26.70550   12.31240   12.58630   12.58630    0.04720    -999.25    -999.25    0.11350 2660.63840   12.49150  -21.45060   -4.89470   12.49150
  800.00000  205.78300  205.78300   49.36880   24.90430   24.90430 2664.67410    0.10980    -999.25    -999.25    0.02650   20.25570  190.25250  190.25250    -999.25   18.95960   18.95960   20.25570   21.19270   21.19270    0.02560    -999.25    -999.25    0.08070 2654.29640   32.76670  -32.09880  -16.55860   32.76670
  850.00000  213.44340  213.44340  103.62910   63.12690   63.12690 2671.59300    0.10610    -999.25    -999.25    0.02250    9.64980  233.74110  233.74110    -999.25   43.21320   43.21320    9.64980   10.64330   10.64330    0.05110    -999.25    -999.25    0.11890 2652.25610   12.55350  -19.75310   -3.94980   12.55350
  900.00000  197.28300  197.28300   36.44200  124.23820  124.23820 2652.51900    0.11630    -999.25    -999.25    0.03360   27.44090  193.48830  193.48830    -999.25   27.16230   27.16230   27.44090   47.26750   47.26750    0.04890    -999.25    -999.25    0.11590 2647.39500   81.37550  -52.93210  -36.86570   81.37550
  950.00000  198.98760  198.98760   64.57400   60.35310   60.35310 2544.43310    0.17410    -999.25    -999.25    0.09680   15.48610  199.79130  199.79130    -999.25   27.68680   27.68680   15.48610   30.38380   30.38380    0.06800    -999.25    -999.25    0.14060 2545.53640   83.12910  -61.30030  -44.97080   83.12910
 1000.00000  199.25160  199.25160  101.81640   77.72400   77.72400 2671.21900    0.10630    -999.25    -999.25    0.02270    9.82160  193.26910  193.26910    -999.25   19.55090   19.55090    9.82160   18.09070   18.09070    0.06230    -999.25    -999.25    0.13340 2663.37160   61.13860  -60.21670  -43.62410   61.13860
 1050.00000  201.15580  201.15580   30.23730   51.81600   51.81600 2720.02590    0.08020    -999.25    -999.25   -0.00590   33.07170  176.35340  176.35340    -999.25   12.90900   12.90900   33.07170   34.56370   34.56370    0.02220    -999.25    -999.25    0.07480 2711.29000   47.41610  -44.73680  -27.88110   47.41610
 1100.00000  200.51870  200.51870   44.13300   47.82280   47.82280 2678.32500    0.10250    -999.25    -999.25    0.01850   22.65880  176.96030  176.96030   16.19960   13.75180   13.75180   22.65880   28.72700   28.72700    0.02120    -999.25    -999.25    0.07300 2677.72070   80.79930  -53.07620  -35.95740   80.79930
 1150.00000  192.28300  192.28300  114.15790  113.84220  113.84220 2565.18990    0.16300    -999.25    -999.25    0.08470    8.75980  217.83260  217.83260   35.90300   38.04430   38.04430    8.75980   13.81790   13.81790    0.13430    -999.25    -999.25    0.21050 2559.74410   19.14010  -55.90660  -38.52470   19.14010
 1200.00000  198.05600  198.05600   94.02120   79.27070   79.27070 2746.39310    0.06610    -999.25    -999.25   -0.02130   10.63590  187.81110  187.81110    -999.25   28.62530   28.62530   10.63590   10.94740   10.94740    0.09370    -999.25    -999.25    0.16910 2724.30250   17.78280  -41.24060  -23.59560   17.78280
 1250.00000  209.51260  209.51260  204.19830  187.81310  187.81310 2568.74290    0.16110    -999.25    -999.25    0.08260    4.89720  259.19240  259.19240    -999.25   67.63320   67.63320    4.89720    5.00850    5.00850    0.18840    -999.25    -999.25    0.26060 2564.12940    5.74460  -23.16350   -5.41490    5.74460
 1300.00000  264.22240  264.22240  420.18570  239.66170  239.66170 2261.12790    0.32560    -999.25    -999.25    0.26250    2.37990  327.00210  327.00210    -999.25   90.20810   90.20810    2.37990    2.48360    2.48360    0.40920    -999.25    -999.25    0.43650 2262.08520    2.66640  -24.70700   -8.20000    2.66640
 1350.00000  238.72690  238.72690  345.13700  170.50120  170.50120 2605.95610    0.14120    -999.25    -999.25    0.06080    2.89740  306.93760  306.93760    -999.25   80.20190   80.20190    2.89740    2.99090    2.99090    0.31330    -999.25    -999.25    0.36530 2592.05590    3.23040  -24.65080   -9.38550    3.23040
 1400.00000  230.29070  230.29070  392.12610  155.82540  155.82540 2332.00100    0.28770    -999.25    -999.25    0.22110    2.55020  317.42230  317.42230    -999.25   90.48870   90.48870    2.55020    2.48280    2.48280    0.38760    -999.25    -999.25    0.42110 2333.59200    2.85600  -21.70580   -7.68210    2.85600
 1450.00000  205.61070  205.61070   49.43760   53.21510   53.21510 2774.80910    -999.25   -0.03790    -999.25   -0.03790   20.22750  175.27800  175.27800    -999.25   28.89810   28.89810   20.22750   30.84510   30.84510    -999.25    0.04410    -999.25    0.04410 2741.03440   51.63710  -17.51860   -4.71800   51.63710
 1500.00000  185.76220  185.76220  108.62600   64.31130   64.31130 2706.06690    -999.25    0.00230    -999.25    0.00230    9.20590  225.25620  225.25620    -999.25   53.78400   53.78400    9.20590    9.40380    9.40380    -999.25    0.15780    -999.25    0.15780 2700.83080   11.12490  -13.35970   -1.72580   11.12490
