~Version ---------------------------------------------------
VERS.      2.0 : CWLS log ASCII Standard -VERSION 2.0
WRAP.       NO : One line per depth step
CREA. 09/03/13 : LAS Creation Date
~Well ------------------------------------------------------
STRT.M                       300.0 : START DEPTH
STOP.M                      3650.0 : STOP DEPTH
STEP.M                    50.00000 : STEP LENGTH
NULL.                      -999.25 : NULL VALUE
COMP.       FOREST OIL CORPORATION : COMPANY
WELL. FOREST ET AL ANTE 3-30-67-26 : WELL
FLD .                           WC : FIELD
LOC .                              : LOCATION
CTRY.                       CANADA : COUNTRY
SRVC.                 Schlumberger : SERVICE COMPANY
DATE.                  18-Feb-1981 : LOGDATE
PROV.                      Alberta : PROVINCE
UWI .             100033006726W500 : UNIQUE WELL ID
SLAT.WGS84                54.82301 : SURFACE LATITUDE
SLON.WGS84               -117.9545 : SURFACE LONGITUDE
~Curve Information -----------------------------------------
DEPT    .M      : DEPTH METER
CALDED  .MM     : CALIPER FROM DENSITY LOG [ADJ.  TO RESISTIVITY LOG]
CALSED  .MM     : CALIPER FROM SONIC LOG
CALWS   .MM     : CALIPER [CALDED]
CONDWS  .MMHO   : CONDUCTIVITY [1000/DRESWS]
CORRED  .KG/M3  : DENSITY CORRECTION FROM DENSITY LOG [ADJ.  TO RESISTIVITY LOG]
DCORWS  .KG/M3  : DENSITY CORRECTION [CORRED]
DENWS   .KG/M3  : FORMATION BULK DENSITY [CAL. FROM DPOLSWS, M=2710, M=1000]
DPHILSED.V/V    : DENSITY POROSITY LIMESTONE
DPHISSED.V/V    : DENSITY POROSITY SANDSTONE [M=2650, F=1000] FROM DENSITY LOG
DPOLSWS .V/V    : DENSITY POROSITY LIMESTONE [DPHISSED CONVERTED TO LIMESTONE MATRIX, M=2710, F=1000, SPL. TO DPHILSED @ 2027.29M]
DRESWS  .OHMM   : DEEP RESISTIVITY [ILDED SPL.TO LLD @ 2077.13 M]
DTED    .US/M   : INTERVAL TRANSIT TIME FROM SONIC LOG
DTWS    .US/M   : COMPRESSIONAL SONIC [DTED]
GRDED   .GAPI   : GAMMA RAY FROM DENSITY LOG [ADJ. TO RESISTIVITY LOG]
GRRED   .GAPI   : GAMMA RAY FROM RESISTIVITY  LOG
GRSED   .GAPI   : GAMMA RAY FROM SONIC LOG [ADJ.  TO RESISTIVITY LOG]
GRWS    .GAPI   : GAMMA RAY [GRSED]
ILDED   .OHMM   : DEEP INDUCTION LOG RESISTIVITY FROM RESISTIVITY LOG
ILMED   .OHMM   : MEDIUM INDUCTION LOG RESISTIVITY FROM RESISTIVITY LOG
LLDED   .OHMM   : DEEP LATEROLOG LOG RESISTIVITY FROM RESISTIVITY LOG
LLSED   .OHMM   : SHALLOW LATEROLOG LOG RESISTIVITY FROM RESISTIVITY LOG
MRESWS  .OHMM   : MEDIUM RESISTIVITY [ILMED]
MSFLED  .OHMM   : MICROSPHERICALLY FOCUSED RESISTIVITY FROM RESISTIVITY LOG
NPHILSED.V/V    : NEUTRON POROSITY LIMESTONE FROM DENSITY LOG [ADJ. TO RESISTIVITY LOG]
NPHISSED.V/V    : NEUTRON POROSITY SANDSTONE FROM DENSITY LOG [ADJ. TO RESISTIVITY LOG]
NPOLSWS .V/V    : NEUTRON POROSITY LIMESTONE [NPHISSED MATRIX CONVERSION FOR LIMESTONE , SPL. TO NPHILSED @1994 M ]
RHOBED  .KG/M3  : BULK DENSITY  FROM DENSITY LOG [ADJ.  TO RESISTIVITY LOG]
SFLED   .OHMM   : SPHERICALLY FOCUSED RESISTIVITY FROM RESISTIVITY LOG
SPR1ED  .MV     : SPONTANEOUS POTENTIAL   FROM RESISTIVITY LOG
SPRED   .MV     : SPONTANEOUS POTENTIAL FROM RESISTIVITY LOG
SPWS    .MV     : SPONTANEOUS POTENTIAL [BASELINE 0 MV, SPRED, SPRED SPL. TO SPRIED@207 6M]
SRESWS  .OHMM   : SHALLOW RESISTIVITY [SFLED SPL. TO LLSED @2075M]
TENDED  .N      : TENSION FROM DENSITY LOG  [ADJ.  TO RESISTIVITY LOG]
TENSED  .N      : TENSION FROM SONIC LOG
~Params ----------------------------------------------------
PD  .                       GL : PERMANENT DATUM
EPD .M                   756.8 : ELEVATION PERMANENT DATUM
LMF .                       KB : LOG MEASURED FROM
DAPD.M                     5.4 : FEET ABOVE PERMANENT DATUM
DMF .                       KB : DRILLING MEASURED FROM
EKB .M                   762.2 : KELLY BUSHING
EGL .M                   756.8 : GROUND LEVEL
DATE.                 02/18/81 : RUN DATE
RUN .                        2 : RUN NUMBER
DD  .M                    3673 : DEPTH DRILLER
DL  .M                  3672.5 : DEPTH LOGGER
BLI .M                  3588.5 : BOTTOM LOG INTERVAL
TLI .M                    2076 : TOP LOG INTERVAL
CS  .MM                    244 : CASING SIZE
CBD .M                    2076 : CASING BOTTOM DRILLER
CBL .M                    2076 : CASING BOTTOM LOGGER
BS  .MM                    216 : BIT SIZE
BSD .M                    3673 : BIT SIZE AT DEPTH
DFT .                GEL BENEX : DRILLING FLUID TYPE
DFD .                     1100 : DRILLING FLUID DENSITY
DFV .                       85 : DRILLING FLUID VISCOSITY
DFPH.                       10 : DRILLING FLUID PH
DFL .                     12.5 : DRILLING FLUID LOSS
MSS .                 FLOWLINE : MUD SAMPLE SOURCE
RMS .OHMM                 3.38 : RESISTIVITY MUD SAMPLE
MST .DEGC                   23 : MUD SAMPLE TEMPERATURE
RMF .OHMM                0.714 : RESISTIVITY MUD FILTRATE SAMPLE
MFST.DEGC                 16.7 : MUD FILTRATE SAMPLE TEMPERATURE
RMB .OHMM                 0.22 : RESISTIVITY MUD AT BHT
TCS .HRS                   900 : TIME CIRCULATED STOPPED
TLAB.HRS                   330 : TIME LOGGER AT BOTTOM
LUN .                     8157 : LOGGING UNIT NUMBER
LUL .                       GP : LOGGING UNIT LOCATION
ENGI.                    JONES : RECORDING ENGINEER
WITN.        NORQUAY MCCAFFREY : WITNESSED BY
CLNT.                  A2DTECH : CLIENT CODE
ORIG. 6"/100M 16.5"/100M PRINT : ORIGIN OF DATA
UWI .         100033006726W500 : UNIQUE WELL ID
DICO.   A2D Technologies, Inc. : DIGITIZING COMPANY
~Other -----------------------------------------------------
DLL-MSFL-DISFL-FDC-CNL-BHC LOG RAN
BHC RAN IN COMBINATION WITH DLL-MSFL
RHOB ARE FROM SMALL SCALE SECTION
~ASCII -----------------------------------------------------
# ...
 1350.00000  360.07420  336.70900  360.07420  114.89230  109.13570  109.13570 2491.27000    -999.25    0.09620    0.12790    8.70380  268.14110  268.14110   93.78480    -999.25   81.85200   81.85200    8.70380    9.13400    -999.25    -999.25    9.13400    -999.25    -999.25    0.33920    0.29550 2532.10380    8.90290    -999.25  -50.10340   -4.37300    8.90290 8512.63580 8920.37100
 1400.00000  394.64540  349.86510  394.64540  260.10510  198.70120  198.70120 2400.85000    -999.25    0.15100    0.18080    3.84460  322.79330  322.79330  102.33120    -999.25   82.61240   82.61240    3.84460    3.96840    -999.25    -999.25    3.96840    -999.25    -999.25    0.44610    0.40430 2409.47440    4.46600    -999.25  -45.83110   -0.42430    4.46600 8628.32510 9268.61030
 1450.00000  455.84600  370.45950  455.84600  187.96290  134.35560  134.35560 2395.07500    -999.25    0.15450    0.18420    5.32020  282.12330  282.12330   84.39090    -999.25   70.49850   70.49850    5.32020    4.94150    -999.25    -999.25    4.94150    -999.25    -999.25    0.39490    0.35190 2388.16020    5.63990    -999.25  -46.44630   -1.36310    5.63990 8870.33100 9422.26070
 1500.00000  333.53080  337.78840  333.53080   58.88350   23.17840   23.17840 2541.59500    -999.25    0.06570    0.09850   16.98270  235.79570  235.79570   65.64490    -999.25   57.78420   57.78420   16.98270   18.21490    -999.25    -999.25   18.21490    -999.25    -999.25    0.22290    0.17920 2557.80880   19.72570    -999.25  -54.67700  -10.97080   19.72570 9073.91560 9656.27040
 1550.00000  362.66780  349.62050  362.66780   71.31900   52.80280   52.80280 2552.81500    -999.25    0.05890    0.09190   14.02150  247.70340  247.70340   86.27820    -999.25   71.60990   71.60990   14.02150   14.30370    -999.25    -999.25   14.30370    -999.25    -999.25    0.24400    0.20010 2553.83500   15.45960    -999.25  -55.89050  -15.05910   15.45960 9222.53170 9824.01830
 1600.00000  352.48000  352.67170  352.48000  113.57310  149.39860  149.39860 2351.84500    -999.25    0.18070    0.20940    8.80490  313.38180  313.38180   80.81690    -999.25   63.88830   63.88830    8.80490    9.37880    -999.25    -999.25    9.37880    -999.25    -999.25    0.46100    0.41960 2346.55000    7.12420    -999.25  -49.50500  -10.61760    7.12420 9457.18770 10045.01540
 1650.00000  355.05020  349.09570  355.05020   87.84720    2.00900    2.00900 2508.92500    -999.25    0.08550    0.11760   11.38340  237.85670  237.85670   59.16850    -999.25   44.40220   44.40220   11.38340   12.13080    -999.25    -999.25   12.13080    -999.25    -999.25    0.24190    0.19800 2510.33420   12.83600    -999.25  -43.41680   -6.47340   12.83600 9548.53230 10154.19780
 1700.00000  404.56720  370.25680  404.56720  113.10040   17.59140   17.59140 2452.49500    -999.25    0.11970    0.15060    8.84170  243.88500  243.88500   59.80420    -999.25   48.03670   48.03670    8.84170   10.34910    -999.25    -999.25   10.34910    -999.25    -999.25    0.27920    0.23520 2459.28910   16.30190    -999.25  -81.67090  -46.67160   16.30190 9788.65040 10236.62140
 1750.00000  360.49920  353.79380  360.49920   89.53030    8.33910    8.33910 2573.11000    -999.25    0.04660    0.08010   11.16940  252.32720  252.32720   78.13110    -999.25   67.36310   67.36310   11.16940   11.41650    -999.25    -999.25   11.41650    -999.25    -999.25    0.31200    0.26810 2571.77120   11.75760    -999.25  -46.76470  -14.63540   11.75760 10053.40520 10645.31300
 1800.00000  346.51680  345.18140  346.51680   61.76420    2.57860    2.57860 2552.81500    -999.25    0.05890    0.09190   16.19060  239.35050  239.35050   76.49580    -999.25   69.71510   69.71510   16.19060   16.55140    -999.25    -999.25   16.55140    -999.25    -999.25    0.27470    0.23070 2546.97170   17.58810    -999.25  -42.10310  -14.15440   17.58810 10328.18970 10864.18350
 1850.00000  356.29190  352.39220  356.29190   62.85040   11.52100   11.52100 2519.98000    -999.25    0.07880    0.11110   15.91080  228.70650  228.70650   46.55230    -999.25   36.74770   36.74770   15.91080   17.26720    -999.25    -999.25   17.26720    -999.25    -999.25    0.19130    0.14800 2521.17330   21.03890    -999.25  -74.58130  -50.81320   21.03890 10459.09080 11013.29250
 1900.00000  325.46310  333.43700  325.46310   77.79560   12.87720   12.87720 2581.52500    -999.25    0.04150    0.07510   12.85420  225.80570  225.80570   80.84380    -999.25   64.68360   64.68360   12.85420   14.00860    -999.25    -999.25   14.00860    -999.25    -999.25    0.22520    0.18150 2567.09590   14.80370    -999.25  -51.18100  -30.25230   14.80370 10760.08430 11286.14530
 1950.00000  303.96330  321.36070  303.96330  497.24030   41.40300   41.40300 2307.95500    -999.25    0.20730    0.23510    2.01110  264.38570  264.38570   27.29300    -999.25   22.98120   22.98120    2.01110    2.74150    -999.25    -999.25    2.74150    -999.25    -999.25    0.27880    0.23480 2304.90060   11.26300    -999.25 -150.57440 -128.54590   11.26300 10998.79730 11573.45050
 2000.00000  493.75740  358.72600  493.75740  275.80880  197.95170  197.95170 2347.22500    0.21190    0.18350    0.21210    3.62570  300.51930  300.51930   86.51740    -999.25   68.94520   68.94520    3.62570    3.90080    -999.25    -999.25    3.90080    -999.25    0.42080    0.54470    0.42080 2333.70480    4.33590    -999.25  -34.99660  -12.14540    4.33590 11190.21430 11520.58510
 2050.00000  310.49940  325.70830  310.49940  297.95600   39.40720   39.40720 2503.77400    0.12060    -999.25    0.12060    3.35620  216.31180  216.31180   71.73340    -999.25   62.90170   62.90170    3.35620    4.38980    -999.25    -999.25    4.38980    -999.25    0.14780    -999.25    0.14780 2518.91550   19.38120    -999.25 -127.94370 -105.09250   19.38120 11111.60570 11881.34410
 2100.00000  265.39260  265.49620  265.39260   41.59420    3.16060    3.16060 2578.50100    0.07690    -999.25    0.07690   24.04180  210.36390  210.36390   84.48610   82.80550   82.22420   82.22420    -999.25    -999.25   24.04180   25.09270    -999.25   37.08980    0.09300    -999.25    0.09300 2578.47140    -999.25  -62.60790    -999.25    -999.25   25.09270 11779.19450 12131.34890
 2150.00000  249.53250  256.12820  249.53250   25.23210   -8.48280   -8.48280 2640.23200    0.04080    -999.25    0.04080   39.63200  198.39950  198.39950   66.97040   86.38970   83.57970   83.57970    -999.25    -999.25   39.63200   37.34490    -999.25   38.37180    0.07260    -999.25    0.07260 2639.36600    -999.25  -55.50770    -999.25    -999.25   37.34490 11992.47480 12398.07680
 2200.00000  264.99560  275.92140  264.99560   19.79900   -3.82390   -3.82390 2631.51100    0.04590    -999.25    0.04590   50.50770  214.63350  214.63350  111.62410  110.22400  109.52050  109.52050    -999.25    -999.25   50.50770   46.95390    -999.25  105.16660    0.12840    -999.25    0.12840 2632.71120    -999.25  -44.93880    -999.25    -999.25   46.95390 12044.84280 12673.42930
 2250.00000  214.08560  219.70560  214.08560  109.84180   55.00670   55.00670 2588.24800    0.07120    -999.25    0.07120    9.10400  198.92700  198.92700   65.80140   71.77750   72.30780   72.30780    -999.25    -999.25    9.10400   13.19790    -999.25    9.98120    0.19920    -999.25    0.19920 2590.18410    -999.25 -124.82150    -999.25    -999.25   13.19790 12116.81240 12711.19910
 2300.00000  231.25830  241.70750  231.25830    8.25910    6.47500    6.47500 2819.78200   -0.06420    -999.25   -0.06420  121.07880  167.25440  167.25440   51.86350   50.75070   50.71930   50.71930    -999.25    -999.25  121.07880   91.56300    -999.25   57.22940    0.03830    -999.25    0.03830 2837.00950    -999.25  -74.75600    -999.25    -999.25   91.56300 12556.05460 12991.50360
 2350.00000  306.60880  266.15920  306.60880    5.45280  107.90440  107.90440 2567.04400    0.08360    -999.25    0.08360  183.39090  191.89450  191.89450   19.84200   22.55020   22.41920   22.41920    -999.25    -999.25  183.39090   92.25890    -999.25   63.30850    0.09750    -999.25    0.09750 2565.28370    -999.25 -121.13110    -999.25    -999.25   92.25890 12598.04770 13360.71690
