~Version ---------------------------------------------------
VERS. 2.0 : CWLS log ASCII Standard -VERSION 2.0
WRAP.  NO : ONE LINE PER DEPTH STEP
~Well ------------------------------------------------------
STRT.M                      550.0 : START DEPTH
STOP.M                     3350.0 : STOP DEPTH
STEP.M                   50.00000 : STEP LENGTH
NULL.                     -999.25 : NULL VALUE
COMP.   GULF CANADA RESOURCES INC : COMPANY
WELL. GULF AEC STURLS 16-34-68-26 : WELL
FLD .                             : FIELD
LOC .                             : LOCATION
CTRY.                      CANADA : COUNTRY
SRVC.      Schlumberger of Canada : SERVICE COMPANY
DATE.                 04-May-1982 : LOGDATE
PROV.                     Alberta : PROVINCE
UWI .            100163406826W500 : UNIQUE WELL ID
SLAT.WGS84               54.93441 : SURFACE LATITUDE
SLON.WGS84              -117.8699 : SURFACE LONGITUDE
~Curve Information -----------------------------------------
DEPT    .M      : DEPTH METERS
C1ED    .MM     : CALIPER 1 FROM FDC/CNL LOG
C2ED    .MM     : CALIPER 2 FROM FDC/CNL LOG
CALSED  .MM     : CALIPER FROM BCSL LOG
CALWS   .MM     : CALIPER [CALSED]
CONDWS  .MMHO   : CONDUCTIVITY [1000/DRESWS]
DCORED  .KG/M3  : DENSITY CORRECTION FROM FDC/CNL LOG
DCORWS  .KG/M3  : DENSITY CORRECTION [DCORED]
DENWS   .KG/M3  : BULK DENSITY [M=2650,2710 F=1000] [RHOBED]
DPHILSED.V/V    : DENSITY POROSITY LIMESTONE FROM FDC/CNL LOG
DPHISSED.V/V    : DENSITY POROSITY SANDSTONE FROM FDC/CNL LOG
DPOLSWS .V/V    : DENSITY POROSITY [M=2710 F=1000] [CALCULATED FROM DENWS]
DRESWS  .OHMM   : DEEP RESISTIVITY [RILDED]
DTED    .US/M   : DELTA TIME FROM BCSL LOG
DTWS    .US/M   : DELTA TIME [DTED]
GRDED   .GAPI   : GAMMA RAY FROM FDC/CNL LOG
GRRED   .GAPI   : GAMMA RAY FROM DISFL LOG
GRSED   .GAPI   : GAMMA RAY FROM BCSL LOG
GRWS    .GAPI   : GAMMA RAY [537 GRSED 586 GRRED] CSG < 611 M
ILMED   .OHMM   : INDUCTION LOG MEDIUM RESISTIVITY FROM DISFL LOG
MRESWS  .OHMM   : MEDIUM RESISTIVITY [ILMED]
NPHILSED.V/V    : NEUTRON POROSITY LIMESTONE FROM FDC/CNL LOG
NPHISSED.V/V    : NEUTRON POROSITY SANDSTONE FROM FDC/CNL LOG
NPOLSWS .V/V    : NEUTRON POROSITY [MERGED NPHISSED CONVERTED TO LS/NPHILSED at 1777.2]
RHOBED  .KG/M3  : BULK DENSITY FROM FDC/CNL LOG
RILDED  .OHMM   : INDUCTION LOG DEEP RESISTIVITY FROM DISFL LOG
SFLUED  .OHMM   : SPHERICALLY FOCUSED LOG RESISTIVITY FROM DISFL LOG
SPRED   .MV     : SPONTANEOUS POTENTIAL FROM FROM DISFL LOG
SRESWS  .OHMM   : SHALLOW RESISTIVITY [SFLUED]
TENRED  .LBF    : TENSION FROM DISFL LOG
TENSED  .LBF    : TENSION FROM BCSL LOG
~Params ----------------------------------------------------
PD  .                         GL : PERMANENT DATUM
EPD .M                     675.5 : ELEVATION PERMANENT DATUM
LMF .                         KB : LOG MEASURED FROM
DAPD.M                       6.4 : FEET ABOVE PERMANENT DATUM
DMF .                         KB : DRILLING MEASURED FROM
EKB .M                     681.9 : KELLY BUSHING
EDF .M                     681.5 : DRILLING FLOOR
EGL .M                     675.5 : GROUND LEVEL
DATE.                   05/07/82 : RUN DATE
RUN .                          1 : RUN NUMBER
DD  .M                      3359 : DEPTH DRILLER
DL  .M                    3359.2 : DEPTH LOGGER
BLI .M                      3357 : BOTTOM LOG INTERVAL
TLI .M                       611 : TOP LOG INTERVAL
CS  .MM                      244 : CASING SIZE
CBD .M                       611 : CASING BOTTOM DRILLER
CBL .M                       611 : CASING BOTTOM LOGGER
BS  .MM                      222 : BIT SIZE
BSD .M                      3359 : BIT SIZE AT DEPTH
DFT .                        GEL : DRILLING FLUID TYPE
DFD .                       1120 : DRILLING FLUID DENSITY
DFV .                         91 : DRILLING FLUID VISCOSITY
DFPH.                        9.5 : DRILLING FLUID PH
DFL .                        7.6 : DRILLING FLUID LOSS
MSS .                   FLOWLINE : MUD SAMPLE SOURCE
RMS .OHMM                    1.6 : RESISTIVITY MUD SAMPLE
MST .DEGC                   10.5 : MUD SAMPLE TEMPERATURE
RMF .OHMM                   0.58 : RESISTIVITY MUD FILTRATE SAMPLE
MFST.DEGC                   22.2 : MUD FILTRATE SAMPLE TEMPERATURE
RMC .OHMM                  0.255 : RESISTIVITY MUD CAKE
MCST.DEGC                   77.7 : MUD CAKE SAMPLE TEMPERATURE
MFSS.                      PRESS : MUD FILTRATE SAMPLE SOURCE
RMB .OHMM                  0.343 : RESISTIVITY MUD AT BHT
TCS .HRS                    2000 : TIME CIRCULATED STOPPED
TLAB.HRS                     300 : TIME LOGGER AT BOTTOM
LUN .                       8100 : LOGGING UNIT NUMBER
LUL .                         GP : LOGGING UNIT LOCATION
ENGI.         MACMILLAN ABISSERA : RECORDING ENGINEER
WITN.             GHORASHI ZADEH : WITNESSED BY
CLNT.                    A2DTECH : CLIENT CODE
ORIG. 6.5"/100M 16.5"/100M PRINT : ORIGIN OF DATA
UWI .           100163406826W500 : UNIQUE WELL ID
DICO.     A2D Technologies, Inc. : DIGITIZING COMPANY
~Other -----------------------------------------------------
1. NPOLSWS: CO. SCHLUMBERGER , TOOL=CNC(NPHI) SIGM IN=4.6, SIGMOUT=7.1
2. DID NOT CREATE SPWS DUE TO EXCESSIVE SP DRIFT
~ASCII -----------------------------------------------------
  550.00000    -999.25    -999.25    -999.25    -999.25    -999.25    -999.25    -999.25    -999.25    -999.25    -999.25    -999.25    -999.25    -999.25    -999.25    -999.25    -999.25   28.15730   28.15730    -999.25    -999.25    -999.25    -999.25    -999.25    -999.25    -999.25    -999.25    -999.25    -999.25    -999.25    -999.25
  600.00000    -999.25    -999.25    -999.25    -999.25    -999.25    -999.25    -999.25    -999.25    -999.25    -999.25    -999.25    -999.25    -999.25    -999.25    -999.25   66.31080   58.85040   66.31080    -999.25    -999.25    -999.25    -999.25    -999.25    -999.25    -999.25    -999.25    -999.25    -999.25    -999.25    -999.25
  650.00000  256.92710  382.86250  286.97790  286.97790  103.99660  114.82780  114.82780 2323.92940    -999.25    0.19960    0.22580    9.61570  399.54040  399.54040  112.90080  140.67700  126.05600  140.67700    8.09070    8.09070    -999.25    0.50310    0.46140 2323.92940    9.61570   10.17720  -13.22970   10.17720 19126.45510 18661.12890
  700.00000  216.31330  381.28970  242.28330  242.28330  105.56320   83.55050   83.55050 2289.17630    -999.25    0.21450    0.24610    9.47300  296.03430  296.03430   83.08720   92.56400   87.08020   92.56400    7.67660    7.67660    -999.25    0.47090    0.42920 2289.17630    9.47300    8.90790  -13.78270    8.90790 19082.94140 18614.97070
  750.00000  214.48410  359.32090  241.59800  241.59800  131.87920   64.87900   64.87900 2263.85890    -999.25    0.23810    0.26090    7.58270  342.92960  342.92960   99.42420  104.95370   98.54580  104.95370    6.16770    6.16770    -999.25    0.48810    0.44640 2263.85890    7.58270    6.46570  -15.27010    6.46570 19014.29100 18562.95310
  800.00000  299.02830  201.32400  243.53520  243.53520   78.76680  131.45610  131.45610 2530.07420    -999.25    0.07260    0.10520   12.69570  306.18890  306.18890   91.00610  106.32660   96.02360  106.32660   10.79160   10.79160    -999.25    0.35070    0.30710 2530.07420   12.69570   12.08270  -17.06130   12.08270 18998.55270 18560.09380
  850.00000  321.47880  215.22990  264.39390  264.39390  104.40700   74.35970   74.35970 2465.21700    -999.25    0.10720    0.14310    9.57790  307.61400  307.61400   98.35740  116.42710  104.29990  116.42710    8.07810    8.07810    -999.25    0.39370    0.35070 2465.21700    9.57790    9.04710  -16.87890    9.04710 18939.79690 18442.38480
  900.00000  295.56390  266.49320  295.75640  295.75640  122.95130   24.03450   24.03450 2482.29710    -999.25    0.10000    0.13320    8.13330  346.79800  346.79800  107.42460  118.13230   98.39670  118.13230    7.24880    7.24880    -999.25    0.47800    0.43630 2482.29710    8.13330    8.57560  -15.88830    8.57560 18835.37500 18392.41800
  950.00000  280.06160  341.36310  293.50880  293.50880  101.00190   65.13640   65.13640 2485.85500    -999.25    0.11630    0.13110    9.90080  323.39690  323.39690   91.56030  112.78830   91.73490  112.78830    8.98640    8.98640    -999.25    0.48230    0.44060 2485.85500    9.90080    9.19650  -16.40930    9.19650 18825.15040 18350.63670
 1000.00000  267.63400  299.20250  272.28740  272.28740  142.09190   84.55980   84.55980 2490.03880    -999.25    0.09640    0.12860    7.03770  301.48900  301.48900  100.53120  109.96500  109.29160  109.96500    6.53750    6.53750    -999.25    0.38860    0.34550 2490.03880    7.03770    6.42560  -15.23810    6.42560 18741.35160 18304.75590
 1050.00000  217.91840  240.66160  228.43120  228.43120  103.50890   50.39030   50.39030 2467.75590    -999.25    0.11020    0.14170    9.66100  268.68770  268.68770   66.17160   69.39930   74.43270   69.39930    8.95380    8.95380    -999.25    0.30290    0.25890 2467.75590    9.66100    9.40520  -18.37380    9.40520 18693.81450 18200.63090
 1100.00000  217.56990  253.01700  232.72290  232.72290  118.62400   40.32540   40.32540 2511.49510    -999.25    0.08510    0.11610    8.43000  275.88290  275.88290   93.67550  108.02820   96.36670  108.02820    8.10430    8.10430    -999.25    0.35500    0.31140 2511.49510    8.43000    8.91140  -12.82360    8.91140 18631.78120 18169.42580
 1150.00000  263.73740  259.92080  255.57770  255.57770  134.20840   76.72440   76.72440 2472.12670    -999.25    0.11210    0.13910    7.45110  286.45010  286.45010   94.00750  103.29390   85.66060  103.29390    6.95480    6.95480    -999.25    0.38100    0.33780 2472.12670    7.45110    7.71610  -10.43940    7.71610 18554.00200 18152.96290
 1200.00000  324.52420  236.55330  263.68700  263.68700  308.09050  139.30170  139.30170 2396.30400    -999.25    0.14800    0.18340    3.24580  312.38340  312.38340   99.46790  116.27790   95.35190  116.27790    2.94220    2.94220    -999.25    0.43400    0.39190 2396.30400    3.24580    3.42360   -8.45320    3.42360 18487.60740 18039.47460
 1250.00000  226.16720  316.11480  239.50910  239.50910  159.88230  118.56070  118.56070 2219.52710    -999.25    0.25840    0.28680    6.25460  294.34740  294.34740   97.64870  103.32590   99.72940  103.32590    5.82510    5.82510    -999.25    0.42740    0.38510 2219.52710    6.25460    6.06400   -8.92530    6.06400 18481.25980 17961.33980
 1300.00000  254.81160  261.62120  256.65610  256.65610  183.42570  204.32040  204.32040 2511.12920    -999.25    0.08380    0.11630    5.45180  283.75930  283.75930   91.80660   96.77420   88.89690   96.77420    5.20110    5.20110    -999.25    0.42740    0.38510 2511.12920    5.45180    5.30040   -5.87970    5.30040 18400.39650 17907.59960
 1350.00000  236.97650  240.64870  239.71220  239.71220  121.02870   23.51880   23.51880 2520.89110    -999.25    0.08190    0.11060    8.26250  262.12180  262.12180   73.27130   66.84170   80.31800   66.84170    7.91210    7.91210    -999.25    0.28800    0.24400 2520.89110    8.26250    8.88890   -9.42290    8.88890 18334.14650 17821.32620
 1400.00000  271.17190  226.83750  245.18830  245.18830  111.56480   13.89110   13.89110 2535.45000    -999.25    0.06910    0.10210    8.96340  269.14580  269.14580   72.55590   84.25020   81.06830   84.25020    8.11800    8.11800    -999.25    0.31260    0.26870 2535.45000    8.96340    9.21980   -5.35000    9.21980 18305.49410 17822.15620
 1450.00000  267.24080  250.71030  248.22220  248.22220  122.21200  -27.32990  -27.32990 2054.64180    -999.25    0.36080    0.38330    8.18250  249.52370  249.52370   80.16450   79.75650   67.41260   79.75650    9.03520    9.03520    -999.25    0.34040    0.29670 2054.64180    8.18250    8.30380  -19.72990    8.30380 18235.05080 17726.04300
 1500.00000  257.50680  258.86130  256.34970  256.34970   85.02970    7.65360    7.65360 2496.22340    -999.25    0.09040    0.12500   11.76060  240.28790  240.28790   65.21330   65.57240   60.11610   65.57240   11.33790   11.33790    -999.25    0.25680    0.21290 2496.22340   11.76060   23.62730   -5.98680   23.62730 18169.28120 17709.62890
 1550.00000  259.51640  303.15030  273.38750  273.38750   85.11650   11.73750   11.73750 2491.39330    -999.25    0.09750    0.12780   11.74860  241.59750  241.59750   57.41710   57.78540   55.39500   57.78540   11.36960   11.36960    -999.25    0.29650    0.25250 2491.39330   11.74860   14.20240  -22.31350   14.20240 18137.58980 17705.11910
 1600.00000  312.14240  310.34170  307.38640  307.38640  185.92200  193.26810  193.26810 2394.53560    -999.25    0.15050    0.18450    5.37860  298.50320  298.50320   84.67630   91.77840   84.75760   91.77840    5.16470    5.16470    -999.25    0.46100    0.41930 2394.53560    5.37860    5.22130   -5.73590    5.22130 18049.99610 17629.44140
 1650.00000  264.50970  311.25090  280.83340  280.83340   53.95810   91.32990   91.32990 2560.30740    -999.25    0.05650    0.08750   18.53290  231.16540  231.16540   65.72890   71.57900   56.45830   71.57900   17.71480   17.71480    -999.25    0.22330    0.17960 2560.30740   18.53290   34.73330    0.92120   34.73330 18001.23050 17524.28320
 1700.00000  254.33810  315.06000  271.99340  271.99340   74.64640   43.90500   43.90500 2514.98140    -999.25    0.07570    0.11400   13.39650  277.24010  277.24010  105.21350  114.68580  105.65080  114.68580   11.64720   11.64720    -999.25    0.29030    0.24630 2514.98140   13.39650   20.11470    3.38460   20.11470 17911.81050 17483.15040
