~Version ---------------------------------------------------
VERS.      2.0 : CWLS log ASCII Standard -VERSION 2.0
WRAP.       NO : One line per depth step
CREA. 08/04/17 : LAS Creation Date
~Well ------------------------------------------------------
STRT.FT                       1050.0 : START DEPTH
STOP.FT                      11000.0 : STOP DEPTH
STEP.FT                     50.00000 : STEP LENGTH
NULL.                        -999.25 : NULL VALUE
COMP.           PETROFINA CANADA LTD : COMPANY
WELL. FINA AMOCO HB GROAT 10-9-58-16 : WELL
FLD .                             WC : FIELD
LOC .                                : LOCATION
CTRY.                         CANADA : COUNTRY
SRVC.         Schlumberger of Canada : SERVICE COMPANY
DATE.                    08-Apr-1977 : LOGDATE
PROV.                        Alberta : PROVINCE
UWI .               100100905816W500 : UNIQUE WELL ID
SLAT.WGS84                  54.00097 : SURFACE LATITUDE
SLON.WGS84                 -116.3132 : SURFACE LONGITUDE
~Curve Information -----------------------------------------
DEPT    .FT    : Depth Curve
CALDED  .IN    : CALIPER FROM COMPENSATED NEUTRON FORMATION DENSITY LOG
CALSED  .IN    : CALIPER FROM BOREHOLE COMPENSATED SONIC LOG [ADJ. TO ILDED/CALDED]
CALWS   .IN    : CALIPER [CALSED SPL. TO CALDED @ 6213']
CONDWS  .MMHO  : CONDUCTIVITY [1000/DRESWS]
DCORED  .G/C3  : DENSITY CORRECTION FROM COMPENSATED NEUTRON FORMATION DENSITY LOG
DCORWS  .G/C3  : DENSITY CORRECTION [DCORED]
DENWS   .G/C3  : FORMATION BULK DENSITY [RHOBED]
DPHILSED.V/V   : DENSITY POROSITY LIMESTONE [M=2.71 F=1.0] FROM COMPENSATED NEUTRON FORMATION DENSITY LOG [ADJ. TO RHOBED]
DPHISSED.V/V   : DENSITY POROSITY SANDSTONE [M=2.65 F=1.0] FROM COMPENSATED NEUTRON FORMATION DENSITY LOG [ADJ. TO RHOBED]
DPOLSWS .V/V   : DENSITY POROSITY LIMESTONE [M=2.71 F=1.0 CALCULATED FROM DENWS]
DRESWS  .OHMM  : DEEP RESISTIVITY [ILDED]
DTED    .US/F  : DELTA-T (INTERVAL TRANSIT TIME)  FROM BOREHOLE COMPENSATED SONIC LOG [ADJ. TO ILDED]
DTWS    .US/F  : COMPRESSIONAL SONIC [DTED]
GRDED   .GAPI  : GAMMA RAY FROM COMPENSATED NEUTRON FORMATION DENSITY LOG
GRSED   .GAPI  : GAMMA RAY  FROM BOREHOLE COMPENSATED SONIC LOG [GRSED IN CASING FROM 1045 - 1158.5'] [ADJ. TO ILDED]
GRWS    .GAPI  : GAMMA RAY [GRSED]
ILDED   .OHMM  : DEEP INDUCTION RESISTIVITY  FROM DUAL INDUCTION-LATEROLOG
ILMED   .OHMM  : MEDIUM INDUCTION RESISTIVITY  FROM DUAL INDUCTION-LATEROLOG
LL8ED   .OHMM  : LATEROLOG 8 FROM DUAL INDUCTION-LATEROLOG
MRESWS  .OHMM  : MEDIUM RESISTIVITY [ILMED]
NPHILSED.V/V   : NEUTRON POROSITY LIMESTONE FROM COMPENSATED NEUTRON FORMATION DENSITY LOG [ADJ. TO RHOBED]
NPHISSED.V/V   : NEUTRON POROSITY SANDSTONE FROM COMPENSATED NEUTRON FORMATION DENSITY LOG [ADJ. TO RHOBED]
NPOLSWS .V/V   : NEUTRON POROSITY LIMESTONE [NPHISSED MATRIX CONVERTED TO LIMESTONE AND SPL. TO NPHILSED FROM 2478 - 7249']
RHOBED  .G/C3  : FORMATION BULK DENSITY FROM COMPENSATED NEUTRON FORMATION DENSITY LOG
SPRED   .MV    : SPONTANEOUS POTENTIAL FROM DUAL INDUCTION-LATEROLOG
SPWS    .MV    : SPONTANEOUS POTENTIAL [BASELINE 0 MV, SPRED]
SRESWS  .OHMM  : SHALLOW RESISTIVITY [LL8ED]
~Params ----------------------------------------------------
PD  .                     GL : PERMANENT DATUM
EPD .FT               3310.2 : ELEVATION PERMANENT DATUM
LMF .                     KB : LOG MEASURED FROM
DAPD.FT                 13.5 : FEET ABOVE PERMANENT DATUM
EKB .FT                 3324 : KELLY BUSHING
EGL .FT               3310.2 : GROUND LEVEL
DATE.               04/08/77 : RUN DATE
RUN .                      1 : RUN NUMBER
DD  .FT                11000 : DEPTH DRILLER
DL  .FT                11005 : DEPTH LOGGER
BLI .FT                10999 : BOTTOM LOG INTERVAL
TLI .FT                 1159 : TOP LOG INTERVAL
CBD .FT                 1159 : CASING BOTTOM DRILLER
CBL .FT                 1159 : CASING BOTTOM LOGGER
BS  .IN                 8.75 : BIT SIZE
BSD .FT                11000 : BIT SIZE AT DEPTH
DFT .                    GEL : DRILLING FLUID TYPE
DFD .                    9.2 : DRILLING FLUID DENSITY
DFV .                    245 : DRILLING FLUID VISCOSITY
DFPH.                     10 : DRILLING FLUID PH
DFL .                    7.2 : DRILLING FLUID LOSS
MSS .               FLOWLINE : MUD SAMPLE SOURCE
RMS .OHMM               2.52 : RESISTIVITY MUD SAMPLE
MST .DEGF                 56 : MUD SAMPLE TEMPERATURE
RMF .OHMM               2.35 : RESISTIVITY MUD FILTRATE SAMPLE
MFST.DEGF                 50 : MUD FILTRATE SAMPLE TEMPERATURE
TCS .HRS                 3.5 : TIME CIRCULATED STOPPED
LUN .                   7809 : LOGGING UNIT NUMBER
LUL .                    EDM : LOGGING UNIT LOCATION
ENGI.               BERNISKY : RECORDING ENGINEER
WITN.                 HALKOW : WITNESSED BY
CLNT.                A2DTECH : CLIENT CODE
ORIG.            2" 5" PRINT : ORIGIN OF DATA
UWI .       100100905816W500 : UNIQUE WELL ID
DICO. A2D Technologies, Inc. : DIGITIZING COMPANY
~Other -----------------------------------------------------
~ASCII -----------------------------------------------------
# ...
 7550.00000   10.03970    9.09390   10.03970   42.38470    0.23440    0.23440    2.78300   -0.04660    -999.25   -0.04270   23.59340   51.87110   51.87110   44.15760   48.34310   48.34310   23.59340   26.82480   29.85980   26.82480    0.10700    -999.25    0.10700    2.78300 -111.88910  -67.42720   29.85980
 7600.00000   10.01560    9.26150   10.01560   21.26240    0.25030    0.25030    2.71880   -0.01700    -999.25   -0.00510   47.03140   46.80010   46.80010   42.05840   37.78500   37.78500   47.03140   59.88850  287.86110   59.88850    0.02960    -999.25    0.02960    2.71880  -88.46840  -44.71450  287.86110
 7650.00000   13.25460   10.22530   13.25460    0.66300    0.25100    0.25100    2.57560    0.07750    -999.25    0.07860 1508.22900   53.30780   53.30780    9.73290    9.86430    9.86430 1508.22900  501.67210  297.83280  501.67210    0.03130    -999.25    0.03130    2.57560 -129.14070  -86.09480  297.83280
 7700.00000   11.85640    9.75700   11.85640   10.99230    0.18850    0.18850    2.63570    0.06090    -999.25    0.04350   91.02000   48.18170   48.18170    9.73010    9.29220    9.29220   91.02000  114.83310  186.71350  114.83310    0.01550    -999.25    0.01550    2.63570 -148.28720 -105.95280  186.71350
 7750.00000    9.25090    9.17240    9.25090  146.81490    0.06620    0.06620    2.69350    0.01160    -999.25    0.00960    6.81130   56.25280   56.25280   61.65110   60.17760   60.17760    6.81130    7.60970   26.19720    7.60970    0.05460    -999.25    0.05460    2.69350  -76.38090  -34.75100   26.19720
 7800.00000    9.11650    8.91350    9.11650   84.75940    0.03010    0.03010    2.65540    0.03980    -999.25    0.03190   11.79810   57.68120   57.68120   57.28830   56.41880   56.41880   11.79810   13.79760   21.51820   13.79760    0.10280    -999.25    0.10280    2.65540  -82.50970  -41.58780   21.51820
 7850.00000    9.19720    9.06850    9.19720  123.86050    0.02850    0.02850    2.68920    0.00630    -999.25    0.01220    8.07360   55.44970   55.44970   50.61030   49.41140   49.41140    8.07360    9.10180   13.85260    9.10180    0.07590    -999.25    0.07590    2.68920  -81.39530  -41.18140   13.85260
 7900.00000    9.32170    9.18130    9.32170   25.16900    0.02880    0.02880    2.69510    0.00620    -999.25    0.00870   39.73140   48.88890   48.88890   11.82840   27.51860   27.51860   39.73140   46.43520   74.60220   46.43520    0.06870    -999.25    0.06870    2.69510  -52.31770  -12.81180   74.60220
 7950.00000    9.22520    9.24460    9.22520    6.26210    0.03190    0.03190    2.73530   -0.01790    -999.25   -0.01480  159.70660   50.67920   50.67920   22.81170   22.40240   22.40240  159.70660  192.23950  206.81660  192.23950    0.02330    -999.25    0.02330    2.73530  -71.67880  -32.88450  206.81660
 8000.00000    9.28540    9.20580    9.28540   16.44110    0.12140    0.12140    2.76430   -0.04160    -999.25   -0.03180   60.82310   51.37470   51.37470   22.37620   25.56240   25.56240   60.82310   77.85800  126.06310   77.85800    0.02930    -999.25    0.02930    2.76430  -44.83710   -6.62630  126.06310
 8050.00000    8.99920    9.04700    8.99920   22.63630    0.02140    0.02140    2.69180    0.01200    -999.25    0.01060   44.17690   53.76090   53.76090   43.12540   40.71070   40.71070   44.17690   46.77110   65.14920   46.77110    0.04990    -999.25    0.04990    2.69180  -55.37300  -17.29450   65.14920
 8100.00000    8.84320    8.91340    8.84320    5.19790    0.05530    0.05530    2.69300    0.00950    -999.25    0.00990  192.38560   52.66950   52.66950   28.62040   24.36100   24.36100  192.38560  264.03780  314.75280  264.03780    0.02970    -999.25    0.02970    2.69300  -73.04170  -35.09550  314.75280
 8150.00000    8.85810    9.02000    8.85810   15.20500    0.00980    0.00980    2.64890    0.04110    -999.25    0.03570   65.76780   55.44240   55.44240   42.71270   43.67680   43.67680   65.76780   74.87920   87.40910   74.87920    0.05920    -999.25    0.05920    2.64890  -57.44320  -19.62930   87.40910
 8200.00000    8.89240    9.05210    8.89240   35.97030    0.00990    0.00990    2.66710    0.02550    -999.25    0.02510   27.80360   57.33890   57.33890   57.47080   56.34320   56.34320   27.80360   30.67790   46.27330   30.67790    0.08240    -999.25    0.08240    2.66710  -51.61730  -13.93640   46.27330
 8250.00000    8.80240    8.85320    8.80240    2.35150    0.02680    0.02680    2.68540    0.01960    -999.25    0.01440  425.26070   55.93590   55.93590   56.27360   57.01500   57.01500  425.26070 1329.54930  917.36430 1329.54930    0.08020    -999.25    0.08020    2.68540  -72.31130  -34.76200  917.36430
 8300.00000    8.80790    8.88320    8.80790   22.56450   -0.00350   -0.00350    2.69220    0.01430    -999.25    0.01040   44.31740   54.58520   54.58520   48.68070   45.83720   45.83720   44.31740   50.67670   52.15100   50.67670    0.08790    -999.25    0.08790    2.69220  -81.17430  -43.75730   52.15100
 8350.00000    8.94260    8.73090    8.94260    3.44300    0.01550    0.01550    2.69330    0.03060    -999.25    0.00980  290.44100   49.76110   49.76110   36.07230   35.17390   35.17390  290.44100  423.32920  400.90140  423.32920    0.06110    -999.25    0.06110    2.69330  -95.99730  -58.71260  400.90140
 8400.00000   10.11350    9.31690   10.11350    0.73960    0.24980    0.24980    2.76910   -0.03800    -999.25   -0.03460 1352.08460   47.36870   47.36870   11.78680   11.98410   11.98410 1352.08460 1549.94730 1500.80860 1549.94730    0.01960    -999.25    0.01960    2.76910 -133.20320  -96.05080 1500.80860
 8450.00000   10.31750    9.39070   10.31750    0.65770    0.23570    0.23570    2.56120    0.09550    -999.25    0.08700 1520.46840   47.79640   47.79640   11.40580   11.52060   11.52060 1520.46840 1322.24160 1186.44880 1322.24160    0.01100    -999.25    0.01100    2.56120 -155.23070 -118.21130 1186.44880
 8500.00000   10.39880    9.41510   10.39880    2.49500    0.18420    0.18420    2.59530    0.07650    -999.25    0.06710  400.80700   46.01870   46.01870    7.30640   12.30710   12.30710  400.80700  192.78100  309.29790  192.78100    0.00410    -999.25    0.00410    2.59530 -157.98190 -121.09410  309.29790
 8550.00000   11.50930    9.43350   11.50930    3.72660    0.18620    0.18620    2.53960    0.09480    -999.25    0.09960  268.34310   50.93430   50.93430   12.16440   14.79910   14.79910  268.34310  284.20840  360.57480  284.20840    0.02250    -999.25    0.02250    2.53960 -137.62040 -100.86490  360.57480
 8600.00000   11.99240   10.03540   11.99240    0.63930    0.15970    0.15970    2.46370    0.15060    -999.25    0.14400 1564.22330   51.54050   51.54050   10.97500   16.14270   16.14270 1564.22330 1354.40690 1490.86900 1354.40690    0.01680    -999.25    0.01680    2.46370 -163.20180 -126.57860 1490.86900
 8650.00000    8.86070    9.05100    8.86070   11.31680    0.02270    0.02270    2.63770    0.04470    -999.25    0.04230   88.36420   47.68610   47.68610    5.87330   10.37180   10.37180   88.36420   95.11720  297.76560   95.11720    0.00640    -999.25    0.00640    2.63770 -150.86010 -114.36920  297.76560
 8700.00000   11.62620    9.58220   11.62620    3.73360    0.24250    0.24250    2.55610    0.08390    -999.25    0.09000  271.46910   49.54540   49.54540   12.12330   12.58230   12.58230  271.46910  818.58890  457.02320  818.58890    0.01700    -999.25    0.01700    2.55610 -147.82340 -111.46550  457.02320
 8750.00000   11.48460    9.40290   11.48460    2.11100    0.21620    0.21620    2.57130    0.09400    -999.25    0.08110  473.70950   49.29410   49.29410   13.29300   14.28530   14.28530  473.70950  391.87370  362.98060  391.87370    0.00990    -999.25    0.00990    2.57130 -150.16230 -113.93610  362.98060
 8800.00000   10.15330    9.27010   10.15330    8.80080    0.19590    0.19590    2.72400   -0.00520    -999.25   -0.00820  113.62650   48.28520   48.28520   11.40810    9.22200    9.22200  113.62650  119.20390  144.06840  119.20390    0.01290    -999.25    0.01290    2.72400 -146.72870 -110.63480  144.06840
