~Version ---------------------------------------------------
VERS. 2.0 : CWLS log ASCII Standard -VERSION 2.0
WRAP.  NO : ONE LINE PER DEPTH STEP
~Well ------------------------------------------------------
STRT.F                             1100.0 : START DEPTH
STOP.F                            10550.0 : STOP DEPTH
STEP.F                           50.00000 : STEP LENGTH
NULL.                             -999.25 : NULL VALUE
COMP.                CHEVRON STANDARD LTD : COMPANY
WELL. CHEVRON GULF SHININGBANK 3-13-56-15 : WELL
FLD .                                     : FIELD
LOC .                                     : LOCATION
CTRY.                              CANADA : COUNTRY
SRVC.              Schlumberger of Canada : SERVICE COMPANY
DATE.                         25-Oct-1976 : LOGDATE
PROV.                             Alberta : PROVINCE
UWI .                    100031305615W500 : UNIQUE WELL ID
SLAT.WGS84                       53.83559 : SURFACE LATITUDE
SLON.WGS84                      -116.0977 : SURFACE LONGITUDE
~Curve Information -----------------------------------------
DEPT   .F    0   1   0  0 : 1 MEASURED DEPTH
GRS    .GAPI 60 310 01 00 : GAMMA RAY FROM SONIC LOG
DT     .US/F 60 500 00 00 : DELTA-T (INTERVAL TRANSIT TIME)
CALS   .IN   60 280 50 00 : CALIPER FROM SONIC LOG
TENS   .LB   60 635 00 00 : TENSION FROM SONIC LOG
SPR    .MV   07 010 01 00 : SPONTANEOUS POTENTIAL FROM RESISTIVITY LOG
ILD    .OHMM 07 120 46 00 : INDUCTION DEEP RESISTIVITY
ILM    .OHMM 07 120 44 00 : INDUCTION MEDIUM RESISTIVITY
LL8    .OHMM 07 220 08 00 : LATEROLOG 8
TEND   .LB   45 635 00 00 : TENSION FROM DENSITY LOG
RHOB   .G/C3 45 350 01 00 : BULK DENSITY
DCOR   .G/C3 45 356 01 00 : DENSITY CORRECTION
GRD    .GAPI 45 310 01 00 : GAMMA RAY FROM DENSITY LOG
NPHI_SS.DEC  42 890 03 00 : NEUTRON POROSITY SANDSTONE
CALD   .IN   45 280 60 00 : CALIPER FROM DENSITY LOG
DPHI_SS.DEC  45 890 12 00 : DENSITY POROSITY SANDSTONE
NPHI_LS.DEC  42 890 01 00 : NEUTRON POROSITY LIMESTONE
DPHI_LS.DEC  45 890 10 00 : DENSITY POROSITY LIMESTONE
~Params ----------------------------------------------------
EKB .FT               2889.7 : KELLY BUSHING
EGL .FT               2873.6 : GROUND LEVEL
DATE.               10/25/76 : RUN DATE
RUN .                      1 : RUN NUMBER
DD  .FT                10595 : DEPTH DRILLER
DL  .FT                10593 : DEPTH LOGGER
BLI .FT                10592 : BOTTOM LOG INTERVAL
TLI .FT                 1094 : TOP LOG INTERVAL
CBD .FT               1094.6 : CASING BOTTOM DRILLER
CBL .FT                 1094 : CASING BOTTOM LOGGER
BS  .IN                 8.75 : BIT SIZE
BSD .FT                10595 : BIT SIZE AT DEPTH
DFT .               GEL CHEM : DRILLING FLUID TYPE
DFD .                    9.5 : DRILLING FLUID DENSITY
DFV .                    124 : DRILLING FLUID VISCOSITY
DFPH.                   10.5 : DRILLING FLUID PH
DFL .                     10 : DRILLING FLUID LOSS
RMC .OHMM               2.04 : RESISTIVITY MUD CAKE
MCST.DEGF                 56 : MUD CAKE SAMPLE TEMPERATURE
RMB .OHMM               0.41 : RESISTIVITY MUD AT BHT
TCS .HRS                   5 : TIME CIRCULATED STOPPED
LUN .                   7691 : LOGGING UNIT NUMBER
LUL .                    WCT : LOGGING UNIT LOCATION
ENGI.              CROCKFORD : RECORDING ENGINEER
WITN.        WONG RICHARDSON : WITNESSED BY
CLNT.                A2DTECH : CLIENT CODE
ORIG.            2" 5" PRINT : ORIGIN OF DATA
UWI .       100031305615W500 : UNIQUE WELL ID
DICO. A2D Technologies, Inc. : DIGITIZING COMPANY
~Other -----------------------------------------------------
~ASCII -----------------------------------------------------
# ...
 3150.00000   60.62110   93.43960   10.90510 1558.14160  -33.09330    4.67300    4.30780    6.00460    -999.25    -999.25    -999.25    -999.25    -999.25    -999.25    -999.25    -999.25    -999.25
 3200.00000   49.28880   83.03410   10.98710 1625.06560  -33.16240    8.20680    7.82390   10.17570    -999.25    -999.25    -999.25    -999.25    -999.25    -999.25    -999.25    -999.25    -999.25
 3250.00000   65.89270  104.53500   10.74090 2148.70290  -32.56470    4.83530    4.72270    4.35390    -999.25    -999.25    -999.25    -999.25    -999.25    -999.25    -999.25    -999.25    -999.25
 3300.00000   52.46300  114.60700   11.19060 2113.58060  -30.75200    5.13380    4.54290   10.00210    -999.25    -999.25    -999.25    -999.25    -999.25    -999.25    -999.25    -999.25    -999.25
 3350.00000   60.87550   90.71660   11.60540 1978.40600  -32.11910    5.55330    4.55770    5.51870    -999.25    -999.25    -999.25    -999.25    -999.25    -999.25    -999.25    -999.25    -999.25
 3400.00000   46.83740   81.15640   11.45160 2325.06840  -34.92240   11.85890   10.23620   12.12070    -999.25    -999.25    -999.25    -999.25    -999.25    -999.25    -999.25    -999.25    -999.25
 3450.00000   41.65140   68.85300   10.49220 2490.08790  -47.31440   24.94960   23.25960   30.82950    -999.25    -999.25    -999.25    -999.25    -999.25    -999.25    -999.25    -999.25    -999.25
 3500.00000   62.57940   91.93310   11.63390 1614.64900  -32.13330    4.78790    4.32890    4.69130    -999.25    -999.25    -999.25    -999.25    -999.25    -999.25    -999.25    -999.25    -999.25
 3550.00000   67.13270   87.98530   11.45110 2048.44360  -32.85510    5.18490    4.86350    5.44400    -999.25    -999.25    -999.25    -999.25    -999.25    -999.25    -999.25    -999.25    -999.25
 3600.00000   48.58250   81.49530   10.53050 1715.28700  -48.24950   13.47680   12.96350   13.55580    -999.25    -999.25    -999.25    -999.25    -999.25    -999.25    -999.25    -999.25    -999.25
 3650.00000   63.28210   85.47140   11.05570 2064.22410  -33.92060    7.19840    7.01430    6.19300    -999.25    -999.25    -999.25    -999.25    -999.25    -999.25    -999.25    -999.25    -999.25
 3700.00000   54.86030   85.16470   10.20590 2579.91280  -31.27970    6.23150    5.43330    5.91660    -999.25    -999.25    -999.25    -999.25    -999.25    -999.25    -999.25    -999.25    -999.25
 3750.00000   55.68500   94.50470   11.41200 1602.35190  -32.58450    6.08710    5.08870    4.79010    -999.25    -999.25    -999.25    -999.25    -999.25    -999.25    -999.25    -999.25    -999.25
 3800.00000   54.95560   93.42040   12.31770 1548.67930  -33.13740    6.37640    4.97800    5.49230    -999.25    -999.25    -999.25    -999.25    -999.25    -999.25    -999.25    -999.25    -999.25
 3850.00000   39.14080   78.59040    9.13860 1234.97470  -69.84330   15.24140   14.39410   16.73850    -999.25    -999.25    -999.25    -999.25    -999.25    -999.25    -999.25    -999.25    -999.25
 3900.00000   40.19040   75.73630   10.17950 1605.39140  -38.77870   11.10790   10.19390   13.92840    -999.25    -999.25    -999.25    -999.25    -999.25    -999.25    -999.25    -999.25    -999.25
 3950.00000   67.70020   83.38130   10.12790 1597.54870  -31.76150    7.10620    6.45570    7.18000    -999.25    -999.25    -999.25    -999.25    -999.25    -999.25    -999.25    -999.25    -999.25
 4000.00000   72.18970   90.32650   10.13370 1805.48820  -30.00480    5.18640    4.81310    5.69420    -999.25    -999.25    -999.25    -999.25    -999.25    -999.25    -999.25    -999.25    -999.25
 4050.00000   94.58780   86.48900   10.95210 1916.43430  -35.28080    7.84510    6.65880    7.30710    -999.25    -999.25    -999.25    -999.25    -999.25    -999.25    -999.25    -999.25    -999.25
 4100.00000   90.03390   86.23410   10.27830 1610.98060  -34.04110    8.11830    7.32340    7.94030    -999.25    -999.25    -999.25    -999.25    -999.25    -999.25    -999.25    -999.25    -999.25
 4150.00000   91.18780   85.17200   10.97680 1723.07570  -35.58250    8.20860    7.11290    7.81110    -999.25    -999.25    -999.25    -999.25    -999.25    -999.25    -999.25    -999.25    -999.25
 4200.00000  104.56280   88.45810   11.02010  832.53250  -32.98690    8.54800    8.09650    9.68850    -999.25    -999.25    -999.25    -999.25    -999.25    -999.25    -999.25    -999.25    -999.25
 4250.00000   96.75570   87.04760   10.81520 1348.79600  -33.63440    7.32810    6.67910    7.70460    -999.25    -999.25    -999.25    -999.25    -999.25    -999.25    -999.25    -999.25    -999.25
 4300.00000  145.27680   92.85630    9.94140 1258.71310  -31.34540    7.91150    7.61490   12.52250    -999.25    -999.25    -999.25    -999.25    -999.25    -999.25    -999.25    -999.25    -999.25
 4350.00000  100.53570   87.90020   10.95250 1443.44420  -33.01610    9.16170    8.19070   10.37530    -999.25    -999.25    -999.25    -999.25    -999.25    -999.25    -999.25    -999.25    -999.25
 4400.00000  108.16120   92.19810   11.40680 1414.35280  -33.92700    7.99240    7.16780    8.64450    -999.25    -999.25    -999.25    -999.25    -999.25    -999.25    -999.25    -999.25    -999.25
 4450.00000   96.88850   88.07430   11.73410 1565.02820  -34.90090    6.52750    5.98010    6.70030    -999.25    -999.25    -999.25    -999.25    -999.25    -999.25    -999.25    -999.25    -999.25
 4500.00000   94.18020   84.74870   11.04980 1585.78310  -34.82810    7.92020    7.04830    8.18560    -999.25    -999.25    -999.25    -999.25    -999.25    -999.25    -999.25    -999.25    -999.25
 4550.00000   95.21030   80.21700   10.82960 1789.96660  -33.73370    8.06580    6.85970    7.63010    -999.25    -999.25    -999.25    -999.25    -999.25    -999.25    -999.25    -999.25    -999.25
 4600.00000   86.47190   82.18170   10.30720 1928.26170  -33.19290    8.12260    7.72160    8.58080    -999.25    -999.25    -999.25    -999.25    -999.25    -999.25    -999.25    -999.25    -999.25
 4650.00000   97.34230   84.88270   10.02770 1999.22220  -32.12880    8.16680    7.67010    8.96570    -999.25    -999.25    -999.25    -999.25    -999.25    -999.25    -999.25    -999.25    -999.25
 4700.00000   96.26430   85.47080   10.51270 2331.38280  -31.53140    7.51620    7.15150    8.38630    -999.25    -999.25    -999.25    -999.25    -999.25    -999.25    -999.25    -999.25    -999.25
 4750.00000   89.16420   88.12260   10.76280 1973.35850  -32.27170    7.00310    6.67600    8.00320 1568.98380    2.00900    0.12530   99.08520    0.37390   12.73300    0.37500    -999.25    -999.25
 4800.00000   86.47840   87.92530   11.04570 2263.85570  -30.51950    6.68190    6.01530    6.84990  614.27570    1.83240    0.13110   95.15580    0.37240   13.05320    0.46720    -999.25    -999.25
 4850.00000   93.33650   85.60230   10.74740 1146.82240  -32.20870    7.49280    6.56790    7.01290  679.13710    1.86370    0.16120   91.26160    0.36160   14.05550    0.51080    -999.25    -999.25
 4900.00000   85.34050   78.78010   10.44140 1819.98010  -31.19260   10.01720    9.67020   11.01240 1157.42650    2.08160    0.22390   92.08700    0.22670   10.39810    0.31990    -999.25    -999.25
 4950.00000   85.37040   77.36250   10.18720 1418.37430  -31.79920    8.97480    8.15300    9.13190 1380.03320    2.04590    0.14950   85.27700    0.25270   11.96210    0.38150    -999.25    -999.25
 5000.00000   91.53710   81.73680   10.24210 1597.81420  -31.58270    8.13070    7.50980    9.09050 1108.36950    2.05810    0.19280  100.31000    0.32900   11.67330    0.35990    -999.25    -999.25
 5050.00000   98.45790   82.89100   10.88280 1562.14330  -31.02120    7.95990    7.49250    8.38510 1372.51920    2.15260    0.15760  100.52880    0.31720   11.99180    0.31510    -999.25    -999.25
 5100.00000   97.92130   85.26070   11.13480 1106.89090  -29.63760    7.39330    6.98180    8.34090 1463.13750    1.95540    0.16510  101.90310    0.35530   12.26480    0.42260    -999.25    -999.25
 5150.00000  102.97220   92.19020   10.43680 1165.91640  -27.41950    6.22750    5.80640    7.09030 1629.74040    2.06500    0.16880  108.19220    0.36850   12.23390    0.32020    -999.25    -999.25
