~Version ---------------------------------------------------
VERS.      2.0 : CWLS log ASCII Standard -VERSION 2.0
WRAP.       NO : One line per depth step
CREA. 11/08/17 : LAS Creation Date
~Well ------------------------------------------------------
STRT.FT                      650.0 : START DEPTH
STOP.FT                     5600.0 : STOP DEPTH
STEP.FT                   50.00000 : STEP LENGTH
NULL.                      -999.25 : NULL VALUE
COMP.     BP CANADA ENERGY COMPANY : COMPANY
WELL. AMOCO J-11 NIPISI 10-27-80-9 : WELL
FLD .                       NIPISI : FIELD
LOC .                              : LOCATION
CTRY.                       CANADA : COUNTRY
SRVC.                Dresser Atlas : SERVICE COMPANY
DATE.                  21-Dec-1969 : LOGDATE
PROV.                      Alberta : PROVINCE
UWI .             100102708009W500 : UNIQUE WELL ID
SLAT.WGS84           55.9647865295 : SURFACE LATITUDE
SLON.WGS84         -115.3164901733 : SURFACE LONGITUDE
~Curve Information -----------------------------------------
DEPT  .FT    : Depth Curve
ACED  .US/F  : DELTA TIME (ACOUSTIC) FROM SONIC LOG
CALSED.IN    : CALIPER FROM SONIC LOG
CALWS .IN    : CALIPER [CALSED]
CILDED.MMHO  : CONDUCTIVITY FROM IEL LOG
CONDWS.MMHO  : CONDUCTIVITY [CILDED]
DRESWS.OHMM  : DEEP RESISTIVITY [ILDED]
DTWS  .US/F  : DELTA TIME [ACED]
GRSED .GAPI  : GAMMA RAY FROM SONIC LOG
GRWS  .GAPI  : GAMMA RAY [GRSED]
ILDED .OHMM  : INDUCTION LOG DEEP RESISTIVITY
SNED  .OHMM  : 16 INCH SHORT NORMAL RESISTIVITY FROM IEL LOG
SPRED .MV    : SPONTANEOUS POTENTIAL FROM IEL LOG
SPWS  .MV    : SPONTANEOUS POTENTIAL [BASELINE 0 MV] [SPRED]
SRESWS.OHMM  : SHALLOW RESISTIVITY [SNED]
~Params ----------------------------------------------------
PD  .                     GL : PERMANENT DATUM
EPD .FT                 2120 : ELEVATION PERMANENT DATUM
LMF .                     KB : LOG MEASURED FROM
DAPD.FT                 13.2 : FEET ABOVE PERMANENT DATUM
DMF .                     KB : DRILLING MEASURED FROM
EKB .FT               2133.2 : KELLY BUSHING
EGL .FT                 2120 : GROUND LEVEL
DATE.               12/21/69 : RUN DATE
RUN .                      1 : RUN NUMBER
DD  .FT                 5650 : DEPTH DRILLER
DL  .FT                 5650 : DEPTH LOGGER
BLI .FT                 5646 : BOTTOM LOG INTERVAL
TLI .FT                  629 : TOP LOG INTERVAL
CS  .IN                8.625 : CASING SIZE
CBD .FT                  631 : CASING BOTTOM DRILLER
CBL .FT                  629 : CASING BOTTOM LOGGER
BS  .IN                7.875 : BIT SIZE
BSD .FT                 5650 : BIT SIZE AT DEPTH
DFT .                    GEL : DRILLING FLUID TYPE
DFD .                    9.4 : DRILLING FLUID DENSITY
DFV .                     85 : DRILLING FLUID VISCOSITY
DFPH.                      9 : DRILLING FLUID PH
DFL .                     11 : DRILLING FLUID LOSS
MSS .                   CIRC : MUD SAMPLE SOURCE
RMS .OHMM                1.5 : RESISTIVITY MUD SAMPLE
MST .DEGF                 63 : MUD SAMPLE TEMPERATURE
RMF .OHMM                1.2 : RESISTIVITY MUD FILTRATE SAMPLE
MFST.DEGF                 63 : MUD FILTRATE SAMPLE TEMPERATURE
RMC .OHMM                1.1 : RESISTIVITY MUD CAKE
MCST.DEGF                 63 : MUD CAKE SAMPLE TEMPERATURE
MFSS.                      M : MUD FILTRATE SAMPLE SOURCE
MCSS.                      M : MUD CAKE SAMPLE SOURCE
RMB .OHMM               0.86 : RESISTIVITY MUD AT BHT
TCS .HRS                   3 : TIME CIRCULATED STOPPED
LUN .                   6000 : LOGGING UNIT NUMBER
LUL .                    EDM : LOGGING UNIT LOCATION
ENGI.                  MANLY : RECORDING ENGINEER
WITN.                CHRAPKO : WITNESSED BY
CLNT.                A2DTECH : CLIENT CODE
ORIG.            2" 5" PRINT : ORIGIN OF DATA
UWI .       100102708009W500 : UNIQUE WELL ID
DICO. A2D Technologies, Inc. : DIGITIZING COMPANY
~Other -----------------------------------------------------
~ASCII -----------------------------------------------------
  650.00000  154.32030    9.76740    9.76740  167.89800  167.89800    5.44860  154.32030   59.34980   59.34980    5.44860    7.77720  -61.82720  -10.00720    7.77720
  700.00000  133.74770   12.99440   12.99440  129.13420  129.13420    7.69480  133.74770   52.55330   52.55330    7.69480    6.97350  -43.41580   -1.28070    6.97350
  750.00000  146.84460   10.00630   10.00630  150.98360  150.98360    6.13890  146.84460   77.01010   77.01010    6.13890    7.33920  -39.35490   -6.85630    7.33920
  800.00000  239.86650   11.82950   11.82950  154.63150  154.63150    6.40590  239.86650   41.74510   41.74510    6.40590    5.74350  -28.73790    1.16960    5.74350
  850.00000  154.57400   10.19580   10.19580  371.96430  371.96430    2.32970  154.57400   69.12710   69.12710    2.32970    4.04110  -42.55810  -13.53750    4.04110
  900.00000  152.96050   13.87490   13.87490  303.02190  303.02190    2.84670  152.96050   66.89220   66.89220    2.84670    4.42680  -27.51770    0.62920    4.42680
  950.00000  144.78880   12.30090   12.30090  271.11400  271.11400    3.22010  144.78880   68.43430   68.43430    3.22010    4.95350  -27.24720    0.01720    4.95350
 1000.00000  142.18310   11.05130   11.05130  241.68660  241.68660    3.80070  142.18310   61.39130   61.39130    3.80070    5.11610  -26.94900   -0.55830    5.11610
 1050.00000  117.14820    8.13600    8.13600  135.91300  135.91300    7.35140  117.14820   45.97260   45.97260    7.35140    6.80350  -45.23420  -18.54140    6.80350
 1100.00000  238.65720   13.14540   13.14540  418.43490  418.43490    1.77990  238.65720   35.12130   35.12130    1.77990    3.51240  -28.99200   -1.94910    3.51240
 1150.00000  132.29820    7.76310    7.76310  232.47340  232.47340    3.82480  132.29820   43.43980   43.43980    3.82480    6.88970  -44.95540  -17.56760    6.88970
 1200.00000  131.55680   12.75310   12.75310  254.85580  254.85580    3.38670  131.55680   45.75490   45.75490    3.38670    4.79600  -30.24100   -2.50470    4.79600
 1250.00000  162.08420   13.06170   13.06170  293.06830  293.06830    2.82500  162.08420   42.72970   42.72970    2.82500    4.94710  -49.14650  -21.06530    4.94710
 1300.00000  126.50190    9.69830    9.69830  234.45680  234.45680    3.89420  126.50190   65.18890   65.18890    3.89420    5.85070  -47.94950  -14.38200    5.85070
 1350.00000  121.97500    8.16490    8.16490  106.39830  106.39830    8.87870  121.97500   43.59680   43.59680    8.87870   15.59520  -64.91830  -23.68690   15.59520
 1400.00000  125.84250   10.05290   10.05290  204.69980  204.69980    4.78990  125.84250   55.92500   55.92500    4.78990    6.51050  -51.78040   -3.68970    6.51050
 1450.00000  124.97310    8.03650    8.03650  165.76260  165.76260    5.74530  124.97310   55.16290   55.16290    5.74530    8.07190  -63.63290  -18.59530    8.07190
 1500.00000  121.72380    9.61580    9.61580  172.76160  172.76160    5.54780  121.72380   58.84160   58.84160    5.54780    7.10550  -56.34860  -14.33400    7.10550
 1550.00000  116.39370   11.39310   11.39310  138.58550  138.58550    6.87810  116.39370   55.76440   55.76440    6.87810    8.39460  -51.48340  -12.49160    8.39460
 1600.00000  186.96500   12.80050   12.80050  218.85690  218.85690    4.17080  186.96500   54.13420   54.13420    4.17080    5.66810  -43.47470   -7.55130    5.66810
 1650.00000  142.07190    9.70690    9.70690  174.25650  174.25650    4.90880  142.07190   53.26490   53.26490    4.90880    6.06260  -36.50400   -3.60350    6.06260
 1700.00000  113.05830    9.44370    9.44370  165.51690  165.51690    5.64540  113.05830   51.67200   51.67200    5.64540    7.41030  -39.45430   -8.20270    7.41030
 1750.00000  126.45670   13.76340   13.76340  184.88230  184.88230    4.77100  126.45670   42.96870   42.96870    4.77100    5.60510  -35.18610   -5.45500    5.60510
 1800.00000   73.75680    7.82800    7.82800   17.26950   17.26950   72.76330   73.75680   14.69590   14.69590   72.76330  102.17900  -49.79870  -21.58800  102.17900
 1850.00000   61.32140    8.13300    8.13300   51.51580   51.51580   21.01070   61.32140   21.33260   21.33260   21.01070   26.81860  -31.52860   -4.86130   26.81860
 1900.00000   93.63080   11.59450   11.59450  286.82340  286.82340    3.06990   93.63080   37.50700   37.50700    3.06990    5.40540  -42.76030  -17.26350    5.40540
 1950.00000  115.06450    9.85110    9.85110  138.36420  138.36420    6.96320  115.06450   45.46480   45.46480    6.96320   11.39910  -37.94660  -13.11730   11.39910
 2000.00000   86.18270   10.21870   10.21870  142.48400  142.48400    6.18520   86.18270   40.43730   40.43730    6.18520   12.24440  -40.09630  -15.92770   12.24440
 2050.00000   79.52870    9.65870    9.65870  148.48000  148.48000    6.27320   79.52870   21.43580   21.43580    6.27320   11.09220  -45.20690  -21.69920   11.09220
 2100.00000   71.44030    8.38780    8.38780   82.62340   82.62340   12.24120   71.44030   19.68280   19.68280   12.24120   14.03670  -36.35570  -13.51870   14.03670
 2150.00000   84.73080   10.31430   10.31430  173.31830  173.31830    5.39180   84.73080   34.17680   34.17680    5.39180    7.55740  -39.69060  -17.51450    7.55740
 2200.00000   92.43820    9.41500    9.41500   77.59230   77.59230   12.34380   92.43820   20.88240   20.88240   12.34380   14.65820  -33.70530  -12.19660   14.65820
 2250.00000   75.94850    7.65740    7.65740   36.40910   36.40910   27.68320   75.94850   25.35390   25.35390   27.68320   32.83540  -42.95240  -22.10450   32.83540
 2300.00000   56.38270    8.26070    8.26070   34.60310   34.60310   29.32530   56.38270   20.03080   20.03080   29.32530   36.21570  -33.23310  -12.88240   36.21570
 2350.00000   95.50480    9.65810    9.65810   92.88160   92.88160   10.43070   95.50480   28.40780   28.40780   10.43070   12.20940  -24.22550   -3.57340   12.20940
 2400.00000   74.55230    8.61880    8.61880   81.33240   81.33240   11.80790   74.55230   26.85640   26.85640   11.80790   13.87740  -30.96510  -10.01610   13.87740
 2450.00000   71.88300    9.24680    9.24680   94.93620   94.93620   10.83190   71.88300   20.90540   20.90540   10.83190   11.53560  -26.96490   -5.71590   11.53560
 2500.00000  132.34590   11.92190   11.92190  312.14470  312.14470    3.00780  132.34590   35.99990   35.99990    3.00780    4.88740  -24.52780   -2.98180    4.88740
 2550.00000   64.93660    8.65240    8.65240   49.54740   49.54740   19.35540   64.93660   20.28850   20.28850   19.35540   23.44490  -34.47770  -12.63480   23.44490
 2600.00000   89.57810    9.91870    9.91870  156.56720  156.56720    5.85170   89.57810   36.47510   36.47510    5.85170    8.34810  -24.74510   -2.60080    8.34810
 2650.00000   70.56280    8.68920    8.68920   62.90810   62.90810   15.42670   70.56280   24.51140   24.51140   15.42670   19.88640  -36.82950  -13.57980   19.88640
 2700.00000   82.53810    9.67110    9.67110   93.06280   93.06280   10.03090   82.53810   30.64700   30.64700   10.03090   13.12830  -26.84380   -2.42520   13.12830
 2750.00000   99.96830    9.31490    9.31490  182.96360  182.96360    6.93160   99.96830  167.21380  167.21380    6.93160   12.45140  -35.15350   -9.56930   12.45140
 2800.00000   59.53820    8.33020    8.33020   33.55810   33.55810   28.65110   59.53820   19.56590   19.56590   28.65110   69.30520  -88.54660  -61.71840   69.30520
 2850.00000   52.92540    8.39250    8.39250   24.56380   24.56380   40.12130   52.92540   14.92320   14.92320   40.12130   49.69630  -63.07900  -34.98800   49.69630
 2900.00000   52.51880    8.13800    8.13800   22.79010   22.79010   42.85050   52.51880   18.03400   18.03400   42.85050   73.38100  -66.72010  -37.38510   73.38100
 2950.00000   54.04950    7.60520    7.60520   27.59630   27.59630   35.19960   54.04950   10.83180   10.83180   35.19960   69.45980  -82.79530  -52.20390   69.45980
 3000.00000   61.30550    7.80920    7.80920   39.56840   39.56840   24.25280   61.30550   14.39740   14.39740   24.25280   60.22750 -102.59690  -70.76140   60.22750
 3050.00000   57.63510    7.50700    7.50700   29.22810   29.22810   33.28430   57.63510   16.02480   16.02480   33.28430   86.47510 -109.45760  -76.37820   86.47510
