~Version ---------------------------------------------------
VERS.      2.0 : CWLS log ASCII Standard -VERSION 2.0
WRAP.       NO : One line per depth step
CREA. 10/03/17 : LAS Creation Date
~Well ------------------------------------------------------
STRT.FT                              1000.0 : START DEPTH
STOP.FT                             10700.0 : STOP DEPTH
STEP.FT                            50.00000 : STEP LENGTH
NULL.                               -999.25 : NULL VALUE
COMP. HUDSONS BAY OIL & GAS COMPANY LIMITED : COMPANY
WELL.        H.B. UNION KAYBOBS 11-27-62-20 : WELL
FLD .                                       : FIELD
LOC .                                       : LOCATION
CTRY.                                CANADA : COUNTRY
SRVC.                Schlumberger of Canada : SERVICE COMPANY
DATE.                           19-Sep-1961 : LOGDATE
PROV.                               Alberta : PROVINCE
UWI .                      100112706220W500 : UNIQUE WELL ID
SLAT.WGS84                          54.3942 : SURFACE LATITUDE
SLON.WGS84                        -116.9147 : SURFACE LONGITUDE
~Curve Information -----------------------------------------
DEPT  .FT         : Depth Curve
CALWS .IN         : CALIPER [MCALED]
CILDED.MMHO       : DEEP INDUCTION CONDUCTIVITY FROM RESISTIVITY LOG
CONDWS.MMHO       : CONDUCTIVITY [1000/DRESWS]
DRESWS.OHMM       : DEEP RESISTIVITY [CILDED/1000.IF ILDED <=5,ILDED]
DTED  .US/F       : DELTA-T FROM SONIC LOG [ADJ. TO RESISTIVITY LOG]
DTWS  .US/F       : COMPRESSIONAL SONIC [DTED]
GRNED .GAPI       : GAMMA RAY FROM GRN LOG [ADJ. TO RESISTIVITY LOG]
GRSED .UgRa-Eq/T  : GAMMA RAY FROM SONIC LOG [ADJ. TO RESISTIVITY LOG]
GRWS  .GAPI       : GAMMA RAY [GRSED*16.5]
ILDED .OHMM       : DEEP INDUCTION RESISTIVITY FROM RESISTIVITY LOG
MCALED.IN         : CALIPER FROM MICROLOG
NEUTED.NAPI       : NEUTRON FROM GRN LOG [ADJ. TO RESISTIVITY LOG]
NEUTWS.NAPI       : NEUTRON [NEUTED]
SNED  .OHMM       : SHORT NORMAL RESISTIVITY FROM RESISTIVITY LOG
SPRED .MV         : SPONTANEOUS POTENTIAL FROM RESISTIVITY LOG
SPWS  .MV         : SPONTANEOUS POTENTIAL [BASELINE 0 MV,SPRED]
SRESWS.OHMM       : SHALLOW RESISTIVITY [SNED]
~Params ----------------------------------------------------
PD  .                    CBF : PERMANENT DATUM
EPD .FT                 2733 : ELEVATION PERMANENT DATUM
LMF .                     KB : LOG MEASURED FROM
DAPD.FT                 15.6 : FEET ABOVE PERMANENT DATUM
EKB .FT               2748.6 : KELLY BUSHING
EDF .FT                 2733 : DRILLING FLOOR
EGL .FT                 2733 : GROUND LEVEL
DATE.               09/19/61 : RUN DATE
RUN .                      1 : RUN NUMBER
DD  .FT                10742 : DEPTH DRILLER
DL  .FT                10737 : DEPTH LOGGER
BLI .FT                10736 : BOTTOM LOG INTERVAL
TLI .FT                 1078 : TOP LOG INTERVAL
CBD .FT                 1078 : CASING BOTTOM DRILLER
CBL .FT                 1078 : CASING BOTTOM LOGGER
BS  .IN                    9 : BIT SIZE
BSD .FT                10742 : BIT SIZE AT DEPTH
DFT .                    GEL : DRILLING FLUID TYPE
DFD .                    9.8 : DRILLING FLUID DENSITY
DFV .                     90 : DRILLING FLUID VISCOSITY
DFPH.                      9 : DRILLING FLUID PH
DFL .                    7.8 : DRILLING FLUID LOSS
RMS .OHMM                1.7 : RESISTIVITY MUD SAMPLE
MST .DEGF                 74 : MUD SAMPLE TEMPERATURE
RMF .OHMM               1.42 : RESISTIVITY MUD FILTRATE SAMPLE
MFST.DEGF                 76 : MUD FILTRATE SAMPLE TEMPERATURE
RMC .OHMM               1.65 : RESISTIVITY MUD CAKE
MCST.DEGF                 77 : MUD CAKE SAMPLE TEMPERATURE
RMB .OHMM                0.6 : RESISTIVITY MUD AT BHT
TCS .HRS                 500 : TIME CIRCULATED STOPPED
LUN .                   1574 : LOGGING UNIT NUMBER
ENGI.                 BENNER : RECORDING ENGINEER
WITN.         BRITTON WALKER : WITNESSED BY
CLNT.                A2DTECH : CLIENT CODE
ORIG.            2" 5" PRINT : ORIGIN OF DATA
UWI .       100112706220W500 : UNIQUE WELL ID
DICO. A2D Technologies, Inc. : DIGITIZING COMPANY
~Other -----------------------------------------------------
IEL/GRN/SONIC LOG RAN
~ASCII -----------------------------------------------------
# ...
 7150.00000   10.35080   19.05830    8.44320  118.43810   51.60670   51.60670    -999.25    1.63730   27.01550  118.43810   10.35080    -999.25    -999.25  122.95240 -120.49070  -59.50430  122.95240
 7200.00000   13.10270   20.45980    6.07200  164.69120   50.98250   50.98250    -999.25    2.10290   34.69790  164.69120   13.10270    -999.25    -999.25   91.95630  -63.73050   -4.21120   91.95630
 7250.00000   10.69060  162.79050  189.35450    5.28110   60.26920   60.26920    -999.25    2.05510   33.90830    5.28110   10.69060    -999.25    -999.25   22.72250 -175.91420 -117.40920   22.72250
 7300.00000   11.47020   80.44010   89.62230   11.18660   59.28840   59.28840    -999.25    1.81160   29.89140   11.18660   11.47020    -999.25    -999.25   30.66260 -127.79100  -70.27570   30.66260
 7350.00000   13.23030   36.74940   43.22190   23.13640   54.95240   54.95240    -999.25    2.31030   38.11990   23.13640   13.23030    -999.25    -999.25   38.33930 -104.54670  -48.02760   38.33930
 7400.00000   13.99700   14.15790    6.89270  145.08000   50.80780   50.80780    -999.25    1.65470   27.30260  145.08000   13.99700    -999.25    -999.25  142.06960 -103.30350  -47.77410  142.06960
 7450.00000   10.70410   32.05950   38.15730   26.20730   52.82660   52.82660    -999.25    1.74190   28.74140   26.20730   10.70410    -999.25    -999.25   86.17490 -179.88470 -125.35150   86.17490
 7500.00000   11.50460   18.99520   22.89300   43.68150   51.98950   51.98950    -999.25    1.28970   21.27920   43.68150   11.50460    -999.25    -999.25  100.34930 -162.40980 -108.86630  100.34930
 7550.00000   10.17570  123.14400  154.35480    6.49340   62.47550   62.47550    -999.25    3.80090   62.71480    6.49340   10.17570    -999.25    -999.25   13.67610  -68.93520  -16.36410   13.67610
 7600.00000    9.93970   89.11680  105.95470    9.43800   60.74100   60.74100    -999.25    3.77570   62.29900    9.43800    9.93970    -999.25    -999.25   12.64970  -79.62830  -27.52400   12.64970
 7650.00000   10.47410  118.03670  136.02670    7.35150   64.93470   64.93470    -999.25    3.63590   59.99150    7.35150   10.47410    -999.25    -999.25   13.83760  -67.29000  -15.64950   13.83760
 7700.00000   11.69530   41.79460   47.83040   20.90720   59.83820   59.83820    -999.25    3.43550   56.68660   20.90720   11.69530    -999.25    -999.25   38.02330  -60.87360   -9.69990   38.02330
 7750.00000   12.34270   11.80900   13.67370   73.13330   55.49340   55.49340    -999.25    2.00530   33.08750   73.13330   12.34270    -999.25    -999.25   65.27960  -65.01180  -14.30190   65.27960
 7800.00000    9.56150   17.56040   20.27190   49.47550   58.15060   58.15060    -999.25    2.12870   35.12360   49.47550    9.56150    -999.25    -999.25   66.19940  -54.30650   -4.33240   66.19940
 7850.00000    9.53120    6.08360    6.56140  152.40550   54.66860   54.66860    -999.25    2.17310   35.85620  152.40550    9.53120    -999.25    -999.25  120.83760  -69.81200  -22.61610  120.83760
 7900.00000    9.21270    6.10890    6.76220  147.88000   54.02020   54.02020    -999.25    2.23180   36.82470  147.88000    9.21270    -999.25    -999.25  121.09250  -72.79120  -28.35550  121.09250
 7950.00000    9.32690    5.22060    5.27230  189.67070   55.69820   55.69820    -999.25    2.55720   42.19380  189.67070    9.32690    -999.25    -999.25  145.09310  -61.98360  -20.32610  145.09310
 8000.00000    9.28910   17.87430   21.94460   45.56920   60.24760   60.24760    -999.25    2.99350   49.39270   45.56920    9.28910    -999.25    -999.25   59.98510  -46.03140   -7.13410   59.98510
 8050.00000    9.16360    4.80710    4.29190  232.99820   53.89830   53.89830    -999.25    2.30150   37.97480  232.99820    9.16360    -999.25    -999.25  190.90450  -45.60280   -9.46560  190.90450
 8100.00000    9.16230   15.12620   17.51640   57.08920   58.46060   58.46060    -999.25    3.13560   51.73660   57.08920    9.16230    -999.25    -999.25   63.81310  -48.43080  -14.11080   63.81310
 8150.00000    9.57470   52.10150   65.21160   15.33470   81.74890   81.74890    -999.25   10.69840  176.52360   15.33470    9.57470    -999.25    -999.25   23.89970  -57.10130  -22.73230   23.89970
 8200.00000   12.32380    2.14980    2.88660  346.42900   49.70070   49.70070    -999.25    2.05990   33.98750  346.42900   12.32380    -999.25    -999.25  225.27650  -89.98000  -55.56170  225.27650
 8250.00000   12.37560    4.21470    4.39890  227.33100   49.31570   49.31570    -999.25    1.71470   28.29340  227.33100   12.37560    -999.25    -999.25  178.40920 -112.17430  -77.70690  178.40920
 8300.00000   10.90890    3.16480    2.92710  341.64140   48.41940   48.41940    -999.25    1.98060   32.67990  341.64140   10.90890    -999.25    -999.25  206.27920 -114.03410  -79.51770  206.27920
 8350.00000   10.88510    4.24800    2.88980  346.04480   49.36170   49.36170    -999.25    1.71310   28.26620  346.04480   10.88510    -999.25    -999.25  206.96620 -141.87080 -107.30510  206.96620
 8400.00000   11.92960    2.75170    3.44870  289.96340   49.49680   49.49680    -999.25    1.53970   25.40510  289.96340   11.92960    -999.25    -999.25  155.79220 -156.62540 -122.01060  155.79220
 8450.00000   12.42340    4.44100    3.85660  259.29480   55.33910   55.33910    -999.25    1.76730   29.16050  259.29480   12.42340    -999.25    -999.25  197.88440 -167.34900 -132.68490  197.88440
 8500.00000   11.07700    7.84670    7.85120  127.36970   54.10720   54.10720    -999.25    1.71480   28.29420  127.36970   11.07700    -999.25    -999.25  113.26230 -179.43340 -144.72030  113.26230
 8550.00000   13.25200    3.52670    3.77380  265.01900   50.50040   50.50040    -999.25    2.21530   36.55330  265.01900   13.25200    -999.25    -999.25  147.46420 -170.27240 -135.51020  147.46420
 8600.00000   12.83720    2.48270    2.72150  367.44390   49.54290   49.54290    -999.25    2.08270   34.36460  367.44390   12.83720    -999.25    -999.25  187.44560 -159.66280 -124.85130  187.44560
 8650.00000   11.87560    5.53180    3.50260  285.49890   55.95440   55.95440    -999.25    1.80370   29.76110  285.49890   11.87560    -999.25    -999.25  139.31140 -154.81500 -119.95450  139.31140
 8700.00000   13.35400    4.37710    2.68800  372.01740   50.95400   50.95400    -999.25    2.08350   34.37860  372.01740   13.35400    -999.25    -999.25  182.21030 -149.19910 -114.28920  182.21030
 8750.00000   12.27290    6.46510    3.60660  277.27260   50.32720   50.32720    -999.25    2.05820   33.96030  277.27260   12.27290    -999.25    -999.25  135.14120 -155.81790 -120.85900  135.14120
 8800.00000   12.29230   10.98100    9.63250  103.84820   51.18460   51.18460    -999.25    1.85770   30.65120  103.84820   12.29230    -999.25    -999.25   75.66920 -166.39950 -131.39160   75.66920
 8850.00000   11.48440   14.10290   11.64100   85.90330   51.18690   51.18690    -999.25    1.95120   32.19400   85.90330   11.48440    -999.25    -999.25   68.60180 -176.21830 -141.16100   68.60180
 8900.00000   10.35700   10.98860    9.70200  103.07150   48.87320   48.87320    -999.25    2.12430   35.05010  103.07150   10.35700    -999.25    -999.25   77.54420 -152.68430 -117.57800   77.54420
 8950.00000    9.23810    5.61350    4.41130  226.68840   48.87300   48.87300    -999.25    1.85200   30.55800  226.68840    9.23810    -999.25    -999.25  132.90940 -149.89390 -114.73830  132.90940
 9000.00000   12.42280    8.60250    6.77120  147.68480   50.91370   50.91370    -999.25    2.48000   40.92000  147.68480   12.42280    -999.25    -999.25   77.43070 -155.99320 -120.78850   77.43070
 9050.00000   11.33610   18.79680   15.40840   64.99550   53.24760   53.24760    -999.25    2.97540   49.09330   64.99550   11.33610    -999.25    -999.25   50.16110 -137.68550 -102.43180   50.16110
 9100.00000   11.42170   17.08380   16.20690   61.70200   51.54410   51.54410    -999.25    2.63990   43.55830   61.70200   11.42170    -999.25    -999.25   54.03420 -120.36120  -85.05820   54.03420
 9150.00000   10.95790   24.70240   18.95950   52.74410   51.74260   51.74260    -999.25    3.11940   51.47010   52.74410   10.95790    -999.25    -999.25   62.73390 -106.44600  -71.09400   62.73390
