~Version ---------------------------------------------------
VERS.      2.0 : CWLS log ASCII Standard -VERSION 2.0
WRAP.       NO : One line per depth step
CREA. 11/17/17 : LAS Creation Date
~Well ------------------------------------------------------
STRT.FT                        950.0 : START DEPTH
STOP.FT                       9050.0 : STOP DEPTH
STEP.FT                     50.00000 : STEP LENGTH
NULL.                        -999.25 : NULL VALUE
COMP.    SAMEDAN OIL OF CANADA, INC. : COMPANY
WELL. SAMEDAN ET AL SUNSET 1-1-70-20 : WELL
FLD .                                : FIELD
LOC .                                : LOCATION
CTRY.                         CANADA : COUNTRY
SRVC.                   Schlumberger : SERVICE COMPANY
DATE.                    01-Apr-1971 : LOGDATE
PROV.                        Alberta : PROVINCE
UWI .               100010107020W500 : UNIQUE WELL ID
SLAT.WGS84                  55.02795 : SURFACE LATITUDE
SLON.WGS84                 -116.9023 : SURFACE LONGITUDE
~Curve Information -----------------------------------------
DEPT  .FT    : Depth Curve
CALSED.IN    : CALIPER FROM SONIC LOG
CALWS .IN    : CALIPER [CALSED]
CONDWS.MMHO  : CONDUCTIVITY [1000/DRESWS]
DRESWS.OHMM  : DEEP RESISTIVITY [ILDED]
DTED  .US/F  : DELTA TIME FROM SONIC LOG
DTWS  .US/F  : COMPRESSIONAL SONIC [DTED]
GRSED .GAPI  : GAMMA RAY FROM SONIC LOG
GRWS  .GAPI  : GAMMA RAY [GRSED]
ILDED .OHMM  : DEEP INDUCTION FROM RESISTIVITY LOG
ILMED .OHMM  : MEDIUM INDUCTION FROM RESISTIVITY LOG
LL8ED .OHMM  : 8 INCH LATEROLOG RESISTIVITY FROM RESISTIVITY LOG
MRESWS.OHMM  : MEDIUM RESISTIVITY [ILMED]
SPRED .MV    : SPONTANEOUS POTENTIAL FROM RESISTIVITY LOG
SPWS  .MV    : SPONTANEOUS POTENTIAL [BASELINE 0 MV, SPRED]
SRESWS.OHMM  : SHALLOW RESISTIVITY [LL8ED]
~Params ----------------------------------------------------
PD  .                     GL : PERMANENT DATUM
EPD .FT               2286.6 : ELEVATION PERMANENT DATUM
LMF .                     KB : LOG MEASURED FROM
DAPD.FT                 13.5 : FEET ABOVE PERMANENT DATUM
EKB .FT               2300.1 : KELLY BUSHING
EGL .FT               2286.6 : GROUND LEVEL
DATE.               04/01/71 : RUN DATE
RUN .                      1 : RUN NUMBER
DD  .FT                 9080 : DEPTH DRILLER
DL  .FT                 9075 : DEPTH LOGGER
BLI .FT                 9069 : BOTTOM LOG INTERVAL
TLI .FT                  902 : TOP LOG INTERVAL
CBD .FT                  902 : CASING BOTTOM DRILLER
CBL .FT                  902 : CASING BOTTOM LOGGER
BS  .IN                7.875 : BIT SIZE
BSD .FT                 9080 : BIT SIZE AT DEPTH
DFT .               GEL CHEM : DRILLING FLUID TYPE
DFD .                    9.4 : DRILLING FLUID DENSITY
DFV .                     93 : DRILLING FLUID VISCOSITY
DFPH.                      9 : DRILLING FLUID PH
DFL .                    8.6 : DRILLING FLUID LOSS
RMS .OHMM               2.92 : RESISTIVITY MUD SAMPLE
MST .DEGF                 61 : MUD SAMPLE TEMPERATURE
RMF .OHMM               2.52 : RESISTIVITY MUD FILTRATE SAMPLE
MFST.DEGF                 60 : MUD FILTRATE SAMPLE TEMPERATURE
RMC .OHMM               2.91 : RESISTIVITY MUD CAKE
MCST.DEGF                 60 : MUD CAKE SAMPLE TEMPERATURE
RMB .OHMM                1.0 : RESISTIVITY MUD AT BHT
TCS .HRS                   3 : TIME CIRCULATED STOPPED
LUN .                   7004 : LOGGING UNIT NUMBER
LUL .                    EDM : LOGGING UNIT LOCATION
ENGI.                 BUFTON : RECORDING ENGINEER
WITN.             MASON GOSS : WITNESSED BY
CLNT.                A2DTECH : CLIENT CODE
ORIG.            2" 5" PRINT : ORIGIN OF DATA
UWI .       100010107020W500 : UNIQUE WELL ID
DICO. A2D Technologies, Inc. : DIGITIZING COMPANY
~Other -----------------------------------------------------
DIL-BCS LOG RUN
ALL CURVES HAVE BEEN VERIFIED FROM 2" SECTION @TOP-2990'
~ASCII -----------------------------------------------------
  950.00000    9.69260    9.69260  230.24330    4.34330  140.00000  140.00000    -999.25    -999.25    4.34330    4.03380    3.52340    4.03380  -48.73710   -2.85710    3.52340
 1000.00000    8.33850    8.33850   67.47270   14.82080  140.00000  140.00000    -999.25    -999.25   14.82080   11.26190    9.35230   11.26190  -58.35780  -12.85790    9.35230
 1050.00000    9.46620    9.46620  170.13460    5.87770    -999.25    -999.25    -999.25    -999.25    5.87770    5.73020    4.49450    5.73020  -47.14090   -2.02300    4.49450
 1100.00000   10.60050   10.60050  234.48860    4.26460    -999.25    -999.25    -999.25    -999.25    4.26460    4.04960    3.67080    4.04960  -48.42330   -3.68740    3.67080
 1150.00000   11.30210   11.30210  194.51470    5.14100    -999.25    -999.25    -999.25    -999.25    5.14100    4.87780    4.28720    4.87780  -48.31830   -3.96430    4.28720
 1200.00000   11.51020   11.51020  266.27720    3.75550    -999.25    -999.25    -999.25    -999.25    3.75550    3.51970    4.34700    3.51970  -46.79870   -2.79690    4.34700
 1250.00000    8.84180    8.84180   71.59430   13.96760    -999.25    -999.25    -999.25    -999.25   13.96760   13.53390   12.29550   13.53390  -64.31760  -20.12270   12.29550
 1300.00000    8.78960    8.78960   79.88110   12.51860    -999.25    -999.25    -999.25    -999.25   12.51860   11.56310   10.61550   11.56310  -60.68250  -16.29360   10.61550
 1350.00000    9.67980    9.67980  219.10120    4.56410    -999.25    -999.25    -999.25    -999.25    4.56410    4.32370    3.99990    4.32370  -48.06460   -3.48160    3.99990
 1400.00000    8.95670    8.95670  138.12150    7.24000    -999.25    -999.25    -999.25    -999.25    7.24000    5.88830    5.18390    5.88830  -48.85690   -4.07980    5.18390
 1450.00000    9.11850    9.11850  251.30230    3.97930    -999.25    -999.25    -999.25    -999.25    3.97930    3.81230    4.40430    3.81230  -46.85810   -1.92950    4.40430
 1500.00000    9.40840    9.40840  234.65370    4.26160    -999.25    -999.25    -999.25    -999.25    4.26160    4.12520    4.84520    4.12520  -49.33580   -4.59100    4.84520
 1550.00000   14.45470   14.45470  167.09550    5.98460    -999.25    -999.25    -999.25    -999.25    5.98460    5.63450    6.72250    5.63450  -49.76020   -5.20020    6.72250
 1600.00000   15.06500   15.06500  163.73850    6.10730    -999.25    -999.25    -999.25    -999.25    6.10730    5.60190    6.91060    5.60190  -50.49480   -6.11950    6.91060
 1650.00000   14.87590   14.87590  157.04750    6.36750    -999.25    -999.25    -999.25    -999.25    6.36750    5.61960    6.71700    5.61960  -50.52260   -6.33200    6.71700
 1700.00000   11.48320   11.48320  131.26300    7.61960    -999.25    -999.25    -999.25    -999.25    7.61960    6.79800    8.27130    6.79800  -53.89000   -9.88510    8.27130
 1750.00000   14.74720   14.74720  163.62860    6.11140    -999.25    -999.25    -999.25    -999.25    6.11140    5.40770    6.77110    5.40770  -51.22670   -7.40560    6.77110
 1800.00000   15.06390   15.06390  174.81600    5.72030    -999.25    -999.25    -999.25    -999.25    5.72030    5.24810    6.57620    5.24810  -54.88780  -11.25140    6.57620
 1850.00000   10.30140   10.30140   90.73830   11.02070    -999.25    -999.25    -999.25    -999.25   11.02070    9.66080   10.22780    9.66080  -63.11500  -19.66330   10.22780
 1900.00000   15.03220   15.03220  181.00200    5.52480    -999.25    -999.25    -999.25    -999.25    5.52480    4.97570    6.78860    4.97570  -55.02490  -11.75800    6.78860
 1950.00000   10.11670   10.11670  160.11770    6.24990    -999.25    -999.25    -999.25    -999.25    6.24990    6.76160    8.53560    6.76160  -57.53320  -14.45200    8.53560
 2000.00000   14.01400   14.01400  184.16550    5.42990    -999.25    -999.25    -999.25    -999.25    5.42990    5.80060    6.63840    5.80060  -56.65580  -13.75830    6.63840
 2050.00000   11.90460   11.90460  150.63640    6.63850    -999.25    -999.25    -999.25    -999.25    6.63850    7.06830    7.78640    7.06830  -55.51780  -12.80510    7.78640
 2100.00000   14.95920   14.95920  188.76120    5.29770    -999.25    -999.25    -999.25    -999.25    5.29770    6.02580    7.71730    6.02580  -55.62940  -13.10140    7.71730
 2150.00000   14.91560   14.91560  180.74030    5.53280    -999.25    -999.25    -999.25    -999.25    5.53280    5.83630    7.00620    5.83630  -54.79520  -12.45190    7.00620
 2200.00000   11.49920   11.49920  143.02630    6.99170    -999.25    -999.25    -999.25    -999.25    6.99170    6.55990    8.12330    6.55990  -56.48990  -14.33230    8.12330
 2250.00000   14.85680   14.85680  179.89490    5.55880    -999.25    -999.25    -999.25    -999.25    5.55880    5.09290    6.09640    5.09290  -53.12110  -11.14730    6.09640
 2300.00000   12.98170   12.98170  172.73540    5.78920    -999.25    -999.25    -999.25    -999.25    5.78920    5.25360    6.38370    5.25360  -50.97180   -9.18270    6.38370
 2350.00000   13.59880   13.59880  152.66010    6.55050    -999.25    -999.25    -999.25    -999.25    6.55050    6.09520    7.56060    6.09520  -49.39620   -7.79180    7.56060
 2400.00000   12.26990   12.26990  162.71010    6.14590    -999.25    -999.25    -999.25    -999.25    6.14590    5.63090    6.91820    5.63090  -49.35720   -7.93760    6.91820
 2450.00000    8.83560    8.83560  138.39340    7.22580    -999.25    -999.25    -999.25    -999.25    7.22580    6.81550    8.43410    6.81550  -48.62900   -7.39510    8.43410
 2500.00000    8.52140    8.52140  117.13030    8.53750    -999.25    -999.25    -999.25    -999.25    8.53750    7.62170   11.43060    7.62170  -50.12530   -9.07510   11.43060
 2550.00000   13.91580   13.91580  176.33260    5.67110    -999.25    -999.25    -999.25    -999.25    5.67110    5.48390    6.22820    5.48390  -49.69650   -8.83100    6.22820
 2600.00000    8.91570    8.91570  147.28410    6.78960    -999.25    -999.25    -999.25    -999.25    6.78960    6.48410    7.31940    6.48410  -50.12980   -9.44910    7.31940
 2650.00000    9.84380    9.84380  425.17010    2.35200    -999.25    -999.25    -999.25    -999.25    2.35200    2.57810    3.83790    2.57810  -47.18930   -6.69330    3.83790
 2700.00000    9.16270    9.16270  181.64810    5.50520    -999.25    -999.25    -999.25    -999.25    5.50520    4.97920    6.08370    4.97920  -46.09220   -5.78190    6.08370
 2750.00000    9.09610    9.09610  177.92960    5.62020    -999.25    -999.25    -999.25    -999.25    5.62020    5.44340    6.37890    5.44340  -45.32990   -5.25480    6.37890
 2800.00000    9.04400    9.04400  165.64240    6.03710    -999.25    -999.25    -999.25    -999.25    6.03710    5.74840    7.49730    5.74840  -44.49100   -4.92230    7.49730
 2850.00000    9.10500    9.10500  182.05980    5.49270    -999.25    -999.25    -999.25    -999.25    5.49270    5.22020    5.78630    5.22020  -44.55410   -5.49180    5.78630
 2900.00000    7.53230    7.53230  199.54900    5.01130    -999.25    -999.25    -999.25    -999.25    5.01130    4.74740    5.75960    4.74740  -45.19860   -6.64270    5.75960
 2950.00000   11.66110   11.66110  210.99430    4.73980    -999.25    -999.25    -999.25    -999.25    4.73980    4.43240    5.08120    4.43240  -43.11540   -5.06840    5.08120
 3000.00000    7.35520    7.35520  251.40160    3.97770  118.91600  118.91600  300.78200  300.78200    3.97770    4.33290    6.63180    4.33290  -41.91780   -4.37470    6.63180
 3050.00000   14.84160   14.84160  446.90740    2.23760  114.74810  114.74810   75.86910   75.86910    2.23760    2.29610    2.95060    2.29610  -40.67760   -3.64080    2.95060
 3100.00000   12.82840   12.82840  311.80820    3.20710  100.68080  100.68080   85.70930   85.70930    3.20710    3.33440    3.71740    3.33440  -41.57530   -5.04490    3.71740
 3150.00000   11.37970   11.37970  302.37970    3.30710  100.86130  100.86130   87.29040   87.29040    3.30710    3.47170    4.11280    3.47170  -39.40470   -3.38070    4.11280
 3200.00000   10.89670   10.89670  227.39900    4.39820  100.09550  100.09550   81.64330   81.64330    4.39820    4.66270    5.04430    4.66270  -44.97970   -9.46460    5.04430
