~Version ---------------------------------------------------
VERS.      2.0 : CWLS log ASCII Standard -VERSION 2.0
WRAP.       NO : One line per depth step
CREA. 09/22/17 : LAS Creation Date
~Well ------------------------------------------------------
STRT.FT                            1200.0 : START DEPTH
STOP.FT                           11700.0 : STOP DEPTH
STEP.FT                          50.00000 : STEP LENGTH
NULL.                             -999.25 : NULL VALUE
COMP.        PAN AMERICAN PETROLEUM CORP. : COMPANY
WELL. PAN AM FINA G-1 KAYBOBS 10-19-58-18 : WELL
FLD .                                  WC : FIELD
LOC .                                     : LOCATION
CTRY.                              CANADA : COUNTRY
SRVC.                        Schlumberger : SERVICE COMPANY
DATE.                         16-Apr-1969 : LOGDATE
PROV.                             Alberta : PROVINCE
UWI .                    100101905818W500 : UNIQUE WELL ID
SLAT.WGS84                       54.03118 : SURFACE LATITUDE
SLON.WGS84                      -116.6587 : SURFACE LONGITUDE
~Curve Information -----------------------------------------
DEPT    .FT    : Depth Curve
CALDED  .IN    : CALIPER FROM DENSITY LOG [DEP. ADJ. TO RESIS. LOG]
CALNED  .IN    : CALIPER FROM SNP LOG [DEP. ADJ. TO RESIS. LOG]
CALSED  .IN    : CALIPER FROM SONIC LOG
CALWS   .IN    : CALIPER [1200' CALSED 10727' CALDED]
CONDWS  .MMHO  : CONDUCTIVITY [1000/DRESWS]
DCORED  .G/C3  : DENSITY CORRECTION FROM DENSITY LOG [DEP. ADJ. TO RESIS. LOG]
DCORWS  .G/C3  : DENSITY CORRECTION [DCORED]
DENWS   .G/C3  : BULK DENSITY [M=2.71, F=1.00] [RHOBED]
DPHILSED.V/V   : DENSITY POROSITY [M=2.71, F=1.00] FROM DENSITY LOG [DEP. ADJ. TO RESIS. LOG]
DPOLSWS .V/V   : DENSITY POROSITY [M=2.71, F=1.00] [DPHILSED]
DRESWS  .OHMM  : DEEP RESISTIVITY [ILDED]
DTED    .US/F  : DELTA TIME FROM SONIC LOG
DTWS    .US/F  : DELTA TIME [DTED]
GRNED   .GAPI  : GAMMA RAY FROM SNP LOG [DEP. ADJ. TO RESIS. LOG]
GRSED   .GAPI  : GAMMA RAY FROM SONIC LOG
GRWS    .GAPI  : GAMMA RAY [1178' GRSED 11700' GRNED]
ILDED   .OHMM  : INDUCTION LOG DEEP RESISTIVITY
ILMED   .OHMM  : INDUCTION LOG MEDIUM RESISTIVITY
LL8ED   .OHMM  : 8 INCH LATEROLOG RESISTIVITY
MRESWS  .OHMM  : MEDIUM RESISTIVITY [ILMED]
NPOLSWS .V/V   : NEUTRON POROSITY LIMESTONE [SNPLSED]
RHOBED  .G/C3  : BULK DENSITY FROM DENSITY LOG [DEP. ADJ. TO RESIS. LOG]
SNPLSED .V/V   : SIDEWALL NEUTRON POROSITY [LIMESTONE] [DEP. ADJ. TO RESIS. LOG]
SPRED   .MV    : SPONTANEOUS POTENTIAL FROM RESISTIVITY LOG
SPWS    .MV    : SPONTANEOUS POTENTIAL [BASELINE 0 MV] [SPRED]
SRESWS  .OHMM  : SHALLOW RESISTIVITY [LL8ED]
~Params ----------------------------------------------------
PD  .                     GL : PERMANENT DATUM
EPD .FT                 3475 : ELEVATION PERMANENT DATUM
LMF .                     KB : LOG MEASURED FROM
DAPD.FT                   12 : FEET ABOVE PERMANENT DATUM
EKB .FT                 3487 : KELLY BUSHING
EGL .FT                 3475 : GROUND LEVEL
DATE.               04/16/69 : RUN DATE
RUN .                      1 : RUN NUMBER
DD  .FT                11735 : DEPTH DRILLER
DL  .FT                11734 : DEPTH LOGGER
BLI .FT                11729 : BOTTOM LOG INTERVAL
TLI .FT                 1202 : TOP LOG INTERVAL
CBD .FT                 1202 : CASING BOTTOM DRILLER
CBL .FT                 1202 : CASING BOTTOM LOGGER
BS  .IN                 8.75 : BIT SIZE
BSD .FT                11735 : BIT SIZE AT DEPTH
DFT .              GEL BENEX : DRILLING FLUID TYPE
DFD .                    9.3 : DRILLING FLUID DENSITY
DFV .                     90 : DRILLING FLUID VISCOSITY
DFPH.                    8.0 : DRILLING FLUID PH
DFL .                   11.2 : DRILLING FLUID LOSS
RMS .OHMM               2.37 : RESISTIVITY MUD SAMPLE
MST .DEGF                 67 : MUD SAMPLE TEMPERATURE
RMF .OHMM               1.81 : RESISTIVITY MUD FILTRATE SAMPLE
MFST.DEGF                 66 : MUD FILTRATE SAMPLE TEMPERATURE
RMC .OHMM               2.83 : RESISTIVITY MUD CAKE
MCST.DEGF                 68 : MUD CAKE SAMPLE TEMPERATURE
RMB .OHMM               0.62 : RESISTIVITY MUD AT BHT
TCS .HRS                   2 : TIME CIRCULATED STOPPED
LUN .                   7502 : LOGGING UNIT NUMBER
LUL .                    EDM : LOGGING UNIT LOCATION
ENGI.               ARMENTAN : RECORDING ENGINEER
WITN.                   CHUK : WITNESSED BY
CLNT.                A2DTECH : CLIENT CODE
ORIG.            2" 5" PRINT : ORIGIN OF DATA
UWI .       100101905818W500 : UNIQUE WELL ID
DICO. A2D Technologies, Inc. : DIGITIZING COMPANY
~Other -----------------------------------------------------
~ASCII -----------------------------------------------------
# ...
 10650.00000    -999.25    -999.25    9.81370    9.81370   19.62320    -999.25    -999.25    -999.25    -999.25    -999.25   51.16840   63.80650   63.80650    -999.25   75.06460   75.06460   51.16840   63.84950   95.57930   63.84950    -999.25    -999.25    -999.25  -51.85410  -91.80490   95.57930
 10700.00000    -999.25    -999.25   10.26110   10.26110   77.57110    -999.25    -999.25    -999.25    -999.25    -999.25   12.89140   66.07090   66.07090    -999.25   62.14410   62.14410   12.89140   13.04580   18.34090   13.04580    -999.25    -999.25    -999.25  -45.50500  -81.50090   18.34090
 10750.00000   13.74140   13.28130   11.36990   13.74140  107.41020    0.23350    0.23350    2.46450    0.14580    0.14580    9.31010   72.35000   72.35000   67.03620   74.19740   74.19740    9.31010    9.60800   13.62960    9.60800    0.28320    2.46450    0.28320  -48.05700  -80.12380   13.62960
 10800.00000    9.43500    9.38850    9.69810    9.43500   45.32030    0.06020    0.06020    2.68040    0.01830    0.01830   22.06520   60.95520   60.95520   59.95880   65.72200   65.72200   22.06520   26.77840   47.88210   26.77840    0.08780    2.68040    0.08780  -50.88660  -79.02440   47.88210
 10850.00000    9.48930    9.52400    9.79400    9.48930   59.87160    0.19610    0.19610    2.70170    0.00660    0.00660   16.70240   62.91310   62.91310   59.05770   63.57440   63.57440   16.70240   18.24100   27.46440   18.24100    0.11210    2.70170    0.11210  -62.42910  -86.61200   27.46440
 10900.00000    9.19470    8.94310    9.34410    9.19470   28.69660    0.03240    0.03240    2.76700   -0.02840   -0.02840   34.86700   56.10080   56.10080   44.37630   52.57610   52.57610   34.86700   41.01770   66.68650   41.01770    0.05440    2.76700    0.05440  -56.54800  -76.80180   66.68650
 10950.00000    9.44280    9.68890   10.02910    9.44280   54.63140    0.23470    0.23470    2.72120   -0.01080   -0.01080   18.30450   64.48180   64.48180   72.08960   82.70920   82.70920   18.30450   19.93900   28.59450   19.93900    0.10170    2.72120    0.10170  -39.16050  -55.45940   28.59450
 11000.00000   10.08320   10.59240   10.22620   10.08320   79.06010    0.23220    0.23220    2.39070    0.19070    0.19070   12.64860   70.28600   70.28600   86.81410   94.57400   94.57400   12.64860   13.02330   19.11040   13.02330    0.19660    2.39070    0.19660  -24.87020  -37.24010   19.11040
 11050.00000    9.38950    9.31930    9.66090    9.38950   48.61560    0.06110    0.06110    2.73540   -0.00990   -0.00990   20.56960   63.18310   63.18310   71.10110   81.51120   81.51120   20.56960   23.17560   40.84740   23.17560    0.09420    2.73540    0.09420  -23.49240  -31.93320   40.84740
 11100.00000    8.94190    8.74450    9.57870    8.94190    6.89600    0.05870    0.05870    2.64260    0.04060    0.04060  145.01070   66.45150   66.45150  112.01360  138.14990  138.14990  145.01070  206.90380  572.10640  206.90380    0.07280    2.64260    0.07280  -25.17910  -29.66500  572.10640
 11150.00000    9.02010    8.66200    9.57310    9.02010    2.05240    0.11140    0.11140    2.68510    0.02010    0.02010  487.66940   54.33810   54.33810   63.59420   73.60260   73.60260  487.66940 1138.42850  650.46380 1138.42850    0.04810    2.68510    0.04810  -22.79400  -23.75620  650.46380
 11200.00000    8.89810    8.70990    9.67430    8.89810    1.80280    0.01930    0.01930    2.55130    0.09470    0.09470  554.67990   65.67310   65.67310  132.80450  141.98800  141.98800  554.67990  647.63680  668.61080  647.63680    0.07940    2.55130    0.07940  -20.77760  -23.42300  668.61080
 11250.00000   11.17510   10.80270   12.03580   11.17510   15.56680    0.24900    0.24900    2.21820    0.30220    0.30220   64.23910   75.27950   75.27950  109.66520  106.27500  106.27500   64.23910   41.03420  203.18300   41.03420    0.29970    2.21820    0.29970  -50.72240  -55.04000  203.18300
 11300.00000   10.95850   10.43080   10.03070   10.95850    4.93990    0.23270    0.23270    2.33030    0.22440    0.22440  202.59700   47.38730   47.38730   10.11360    9.76030    9.76030  202.59700  230.96100  286.48090  230.96100    0.13770    2.33030    0.13770 -177.48000 -183.46970  286.48090
 11350.00000   11.76040   11.88950    9.95140   11.76040   10.68710    0.22220    0.22220    2.34740    0.21200    0.21200   93.57050   50.68180   50.68180    9.68880   10.06780   10.06780   93.57050   58.83580  252.65510   58.83580    0.15500    2.34740    0.15500 -154.09610 -161.76900  252.65510
 11400.00000    8.06690    8.28640    9.94220    8.06690    4.30900    0.04740    0.04740    2.80960   -0.05770   -0.05770  232.40370   47.31710   47.31710   11.39730   12.77410   12.77410  232.40370  295.32330  571.47670  295.32330    0.06050    2.80960    0.06050 -153.48530 -162.83040  571.47670
 11450.00000    9.28720    9.09990    9.04150    9.28720   10.15650    0.18690    0.18690    2.65710    0.02190    0.02190   98.45940   49.08430   49.08430   10.61010   10.60780   10.60780   98.45940   80.79450  236.94970   80.79450    0.06690    2.65710    0.06690 -154.50050 -165.52880  236.94970
 11500.00000   10.78190   10.21730    9.65490   10.78190    3.33480    0.23660    0.23660    2.47420    0.13590    0.13590  299.86550   51.98270   51.98270   10.18520   10.78230   10.78230  299.86550  149.91860  398.03410  149.91860    0.13280    2.47420    0.13280 -160.81000 -173.51040  398.03410
 11550.00000    8.78390    9.14110    9.37090    8.78390    2.92820    0.18790    0.18790    2.71820    0.00140    0.00140  341.56550   45.87120   45.87120   13.00320   14.07010   14.07010  341.56550  221.77800  843.56950  221.77800    0.09150    2.71820    0.09150 -198.51690 -212.88950  843.56950
 11600.00000   10.90130   10.67930   10.16320   10.90130    4.73390    0.24890    0.24890    2.40380    0.17210    0.17210  211.24270   51.28360   51.28360   12.50990   11.94260   11.94260  211.24270  132.37230  375.14710  132.37230    0.13620    2.40380    0.13620 -192.91670 -208.97250  375.14710
 11650.00000    8.94200    9.23190    9.51740    8.94200    2.36320    0.18450    0.18450    2.58480    0.07710    0.07710  424.30090   48.98670   48.98670   16.68930   15.58970   15.58970  424.30090  522.09540  487.15030  522.09540    0.09490    2.58480    0.09490 -152.39440 -170.12240  487.15030
 11700.00000   12.33370   12.44010    9.46040   12.33370    5.63420    0.23880    0.23880    2.43290    0.15040    0.15040  177.48740   50.01820   50.01820   15.56570   14.30160   14.30160  177.48740  117.34970  179.17470  117.34970    0.11870    2.43290    0.11870  -78.88000  -98.29110  179.17470
