~Version ---------------------------------------------------
VERS.      2.0 : CWLS log ASCII Standard -VERSION 2.0
WRAP.       NO : One line per depth step
CREA. 07/27/17 : LAS Creation Date
~Well ------------------------------------------------------
STRT.FT                            1000.0 : START DEPTH
STOP.FT                            9950.0 : STOP DEPTH
STEP.FT                          50.00000 : STEP LENGTH
NULL.                             -999.25 : NULL VALUE
COMP.        HUDSONS BAY OIL & GAS CO LTD : COMPANY
WELL. HB QUINTANA UNION GIROUX 10-8-66-20 : WELL
FLD .                                     : FIELD
LOC .                                     : LOCATION
CTRY.                              CANADA : COUNTRY
SRVC.                        Schlumberger : SERVICE COMPANY
DATE.                         18-Mar-1972 : LOGDATE
PROV.                             Alberta : PROVINCE
UWI .                    100100806620W500 : UNIQUE WELL ID
SLAT.WGS84                       54.70057 : SURFACE LATITUDE
SLON.WGS84                      -116.9823 : SURFACE LONGITUDE
~Curve Information -----------------------------------------
DEPT  .FT    : Depth Curve
CALSED.IN    : CALIPER FROM SONIC LOG
CALWS .IN    : CALIPER [CALSED]
CILDED.MMHO  : CONDUCTIVITY FROM RESISTIVITY LOG
CONDWS.MMHO  : CONDUCTIVITY [1000/DRESWS]
DRESWS.OHMM  : DEEP RESISTIVITY [1000/CILDED IF ILDED < 4, ILDED]
DTED  .US/F  : DELTA T FROM SONIC LOG
DTWS  .US/F  : COMPRESSIONAL SONIC [DTED]
GRSED .GAPI  : GAMMA RAY FROM SONIC LOG
GRWS  .GAPI  : GAMMA RAY [GRSED]
ILDED .OHMM  : DEEP INDUCTION FROM RESISTIVITY LOG
LL8ED .OHMM  : 8 INCH LATEROLOG FROM RESISTIVITY LOG
SPRED .MV    : SPONTANEOUS POTENTIAL FROM RESISTIVITY LOG
SPWS  .MV    : SPONTANEOUS POTENTIAL [BASELINE 0 MV, SPRED]
SRESWS.OHMM  : SHALLOW RESISTIVITY [LL8ED]
~Params ----------------------------------------------------
PD  .                     GL : PERMANENT DATUM
EPD .FT               2420.2 : ELEVATION PERMANENT DATUM
LMF .                     KB : LOG MEASURED FROM
DAPD.FT                   13 : FEET ABOVE PERMANENT DATUM
EKB .FT                 2434 : KELLY BUSHING
EGL .FT               2420.2 : GROUND LEVEL
DATE.               03/18/72 : RUN DATE
RUN .                      1 : RUN NUMBER
DD  .FT                 9990 : DEPTH DRILLER
DL  .FT                 9990 : DEPTH LOGGER
BLI .FT                 9987 : BOTTOM LOG INTERVAL
TLI .FT                 1023 : TOP LOG INTERVAL
CBD .FT                 1023 : CASING BOTTOM DRILLER
CBL .FT                 1023 : CASING BOTTOM LOGGER
BS  .IN                 8.75 : BIT SIZE
BSD .FT                 9990 : BIT SIZE AT DEPTH
DFT .               GEL CHEM : DRILLING FLUID TYPE
DFD .                    9.7 : DRILLING FLUID DENSITY
DFV .                    157 : DRILLING FLUID VISCOSITY
DFPH.                    9.5 : DRILLING FLUID PH
DFL .                    6.8 : DRILLING FLUID LOSS
MSS .             CIRCULATED : MUD SAMPLE SOURCE
RMS .OHMM               2.07 : RESISTIVITY MUD SAMPLE
MST .DEGF                 60 : MUD SAMPLE TEMPERATURE
RMF .OHMM               1.02 : RESISTIVITY MUD FILTRATE SAMPLE
MFST.DEGF                 72 : MUD FILTRATE SAMPLE TEMPERATURE
RMB .OHMM               0.48 : RESISTIVITY MUD AT BHT
TCS .HRS                 3.5 : TIME CIRCULATED STOPPED
LUN .                   7640 : LOGGING UNIT NUMBER
LUL .                    EDM : LOGGING UNIT LOCATION
ENGI.                CUTRESS : RECORDING ENGINEER
WITN.                HIGGINS : WITNESSED BY
CLNT.                A2DTECH : CLIENT CODE
ORIG.            2" 5" PRINT : ORIGIN OF DATA
UWI .       100100806620W500 : UNIQUE WELL ID
DICO. A2D Technologies, Inc. : DIGITIZING COMPANY
~Other -----------------------------------------------------
~ASCII -----------------------------------------------------
# ...
 5900.00000    9.94880    9.94880    -999.25   90.80510   11.01260   62.90560   62.90560   71.49540   71.49540   11.01260   14.04020  -86.15960  -17.03860   14.04020
 5950.00000   10.07130   10.07130    -999.25   55.47850   18.02500   65.34270   65.34270   89.39180   89.39180   18.02500   20.90330  -74.07800   -4.29590   20.90330
 6000.00000    8.42600    8.42600    -999.25  783.88340    1.27570   74.48210   74.48210   20.66520   20.66520    1.27570    9.66760 -186.37240 -117.91780    9.66760
 6050.00000    9.48730    9.48730    -999.25   55.58860   17.98930   55.03040   55.03040   41.86350   41.86350   17.98930   29.20810  -90.78570  -23.66520   29.20810
 6100.00000    8.96740    8.96740    -999.25   18.75140   53.32930   50.27230   50.27230   21.10630   21.10630   53.32930  184.39490 -150.58230  -84.79600  184.39490
 6150.00000    9.43650    9.43650    -999.25  166.83910    5.99380   53.98890   53.98890   32.38740   32.38740    5.99380   24.69740 -138.58240  -74.13020   24.69740
 6200.00000    9.39470    9.39470    -999.25   45.08810   22.17880   53.37900   53.37900   29.35130   29.35130   22.17880  109.11540 -158.27410  -95.16270  109.11540
 6250.00000    9.86900    9.86900    -999.25   91.52980   10.92540   68.00710   68.00710  119.99100  119.99100   10.92540   13.21930  -71.63060   -9.84670   13.21930
 6300.00000    9.74460    9.74460    -999.25   17.06950   58.58390   53.86610   53.86610   42.17480   42.17480   58.58390   92.59690  -65.50090   -5.05120   92.59690
 6350.00000    9.48400    9.48400    -999.25    5.42680  184.27040   52.70450   52.70450   18.96370   18.96370  184.27040  720.53890 -119.79090  -61.20890  720.53890
 6400.00000   10.10690   10.10690    -999.25  368.33770    2.71490   68.34960   68.34960   32.82340   32.82340    2.71490   13.43920 -143.56320  -86.57440   13.43920
 6450.00000   10.08020   10.08020    -999.25   85.96900   11.63210   60.83530   60.83530   48.21240   48.21240   11.63210   15.82200  -88.49190  -33.07140   15.82200
 6500.00000    9.95880    9.95880    -999.25   10.05810   99.42280   51.07490   51.07490   25.60460   25.60460   99.42280  381.14020  -72.02980  -18.16200  381.14020
 6550.00000   10.18520   10.18520    -999.25    3.76040  265.93190   50.90040   50.90040   20.83260   20.83260  265.93190  358.14630 -145.39190  -93.08460  358.14630
 6600.00000    9.72520    9.72520    -999.25   35.30110   28.32770   51.01970   51.01970   16.86640   16.86640   28.32770  136.58910 -165.40850 -114.66170  136.58910
 6650.00000   10.28130   10.28130    -999.25    3.75880  266.04140   50.68830   50.68830   13.04690   13.04690  266.04140  254.77360 -161.81110 -112.62490  254.77360
 6700.00000   10.25990   10.25990    -999.25  164.84780    6.06620   65.39750   65.39750   80.52060   80.52060    6.06620   19.83210  -83.58590  -35.96800   19.83210
 6750.00000   10.19060   10.19060    -999.25  240.16520    4.16380   64.49390   64.49390   58.48440   58.48440    4.16380   11.24270 -111.32050  -65.25520   11.24270
 6800.00000    9.90500    9.90500    -999.25  153.57680    6.51140   62.84800   62.84800   56.47890   56.47890    6.51140   15.74670 -107.63500  -63.13020   15.74670
 6850.00000   10.26000   10.26000    -999.25   47.45880   21.07090   57.00910   57.00910   50.23630   50.23630   21.07090   23.86100  -50.23180   -7.28750   23.86100
 6900.00000   10.02300   10.02300    -999.25    6.43280  155.45210   52.15110   52.15110   22.71180   22.71180  155.45210  147.31240  -44.88010   -3.49630  147.31240
 6950.00000    9.55490    9.55490    -999.25   15.43000   64.80890   54.07040   54.07040   49.35860   49.35860   64.80890   99.21210  -45.90590   -6.09030   99.21210
 7000.00000    9.29730    9.29730    -999.25    4.97870  200.85680   52.31550   52.31550   30.27320   30.27320  200.85680  233.37400  -50.14310  -11.88040  233.37400
 7050.00000    9.34030    9.34030    -999.25    7.85960  127.23300   52.80330   52.80330   31.70440   31.70440  127.23300  152.60310  -54.66010  -17.95780  152.60310
 7100.00000    9.25970    9.25970    -999.25    5.52080  181.13420   53.81140   53.81140   37.95080   37.95080  181.13420  276.22030  -44.47010   -9.32840  276.22030
 7150.00000    9.12100    9.12100    -999.25   11.93610   83.77930   55.80990   55.80990   41.26280   41.26280   83.77930  112.15690  -36.03140   -2.47910  112.15690
 7200.00000    9.00130    9.00130    -999.25   11.45980   87.26120   54.13570   54.13570   40.24250   40.24250   87.26120  127.65410  -47.36700  -14.02330  127.65410
 7250.00000    9.07080    9.07080    -999.25    8.69630  114.99110   54.13870   54.13870   38.77160   38.77160  114.99110  196.37810  -49.38470  -16.15710  196.37810
 7300.00000    9.08110    9.08110    -999.25   10.08610   99.14650   55.43230   55.43230   45.38920   45.38920   99.14650  130.63430  -43.78410  -10.67320  130.63430
 7350.00000    9.46230    9.46230    -999.25   41.67290   23.99640   59.29040   59.29040   81.64980   81.64980   23.99640   26.51020  -51.27240  -18.27820   26.51020
 7400.00000    9.30070    9.30070    -999.25    2.46650  405.43490   49.23400   49.23400   17.65040   17.65040  405.43490  361.45440  -78.78800  -45.91040  361.45440
 7450.00000    9.39590    9.39590    -999.25    1.69880  588.63520   49.38920   49.38920   18.11770   18.11770  588.63520  337.89890 -124.86400  -92.10370  337.89890
 7500.00000    9.90960    9.90960    -999.25    0.63670 1570.49070   49.50190   49.50190   16.48150   16.48150 1570.49070  467.31380 -103.52650  -70.88220  467.31380
 7550.00000    9.74050    9.74050    -999.25    0.95540 1046.69400   49.16400   49.16400   17.66580   17.66580 1046.69400  339.38630 -124.02210  -91.49440  339.38630
 7600.00000    9.95110    9.95110    -999.25    0.71540 1397.72280   49.75110   49.75110   13.28890   13.28890 1397.72280  405.97590 -110.07100  -77.66000  405.97590
 7650.00000    9.52640    9.52640    -999.25    3.80610  262.73360   51.76990   51.76990   12.85960   12.85960  262.73360  238.96330 -119.21470  -86.92040  238.96330
 7700.00000    9.90340    9.90340    -999.25    1.48290  674.34430   50.80900   50.80900   12.56280   12.56280  674.34430  271.14110 -124.65320  -92.47620  271.14110
 7750.00000    9.82580    9.82580    -999.25    5.76780  173.37630   52.88710   52.88710   13.06950   13.06950  173.37630  115.69140 -108.78680  -76.72590  115.69140
 7800.00000    9.79790    9.79790    -999.25    0.83270 1200.85660   49.25870   49.25870   16.01220   16.01220 1200.85660  324.81600  -94.47730  -62.53300  324.81600
 7850.00000    9.36280    9.36280    -999.25    0.61780 1618.72900   49.72850   49.72850   14.90890   14.90890 1618.72900  189.26630 -105.44980  -73.62220  189.26630
 7900.00000    9.77950    9.77950    -999.25    0.59990 1666.89260   51.48690   51.48690   13.95060   13.95060 1666.89260  231.86270 -107.27930  -75.56830  231.86270
 7950.00000    9.42690    9.42690    -999.25    0.62530 1599.25910   51.93420   51.93420   17.83970   17.83970 1599.25910  205.24700 -118.59160  -86.99780  205.24700
 8000.00000    8.36680    8.36680    -999.25   48.33160   20.69040   53.61720   53.61720   12.96850   12.96850   20.69040  165.18780 -150.39920 -118.92160  165.18780
 8050.00000    8.55870    8.55870    -999.25   29.83130   33.52180   52.30650   52.30650   18.36260   18.36260   33.52180  231.33440 -153.44950 -122.08850  231.33440
 8100.00000   10.06850   10.06850    -999.25    9.38590  106.54240   49.94120   49.94120   14.88170   14.88170  106.54240  176.51650 -133.25080 -102.00650  176.51650
 8150.00000    8.97100    8.97100    -999.25   47.20120   21.18590   53.23450   53.23450   37.36280   37.36280   21.18590   28.72700  -82.72680  -51.59910   28.72700
 8200.00000    9.46810    9.46810    -999.25    1.23010  812.96390   48.50070   48.50070   18.72730   18.72730  812.96390  203.07190 -116.34970  -85.33920  203.07190
 8250.00000    9.21450    9.21450    -999.25   99.91510   10.00850   55.65850   55.65850   35.67220   35.67220   10.00850   13.04280  -68.45980  -37.56540   13.04280
 8300.00000    9.21590    9.21590    -999.25    0.61650 1622.00070   50.91490   50.91490   27.56770   27.56770 1622.00070  369.91660  -32.95330   -2.17570  369.91660
