~Version ---------------------------------------------------
VERS.      2.0 : CWLS log ASCII Standard -VERSION 2.0
WRAP.       NO : One line per depth step
CREA. 11/17/17 : LAS Creation Date
~Well ------------------------------------------------------
STRT.FT                        700.0 : START DEPTH
STOP.FT                       6450.0 : STOP DEPTH
STEP.FT                     50.00000 : STEP LENGTH
NULL.                        -999.25 : NULL VALUE
COMP.        J. M. HUBER CORPORATION : COMPANY
WELL. HUBER 10E WESTLOCK 10-27-60-27 : WELL
FLD .                                : FIELD
LOC .                                : LOCATION
CTRY.                         CANADA : COUNTRY
SRVC.                   Schlumberger : SERVICE COMPANY
DATE.                    12-Nov-1965 : LOGDATE
PROV.                        Alberta : PROVINCE
UWI .               100102706027W400 : UNIQUE WELL ID
SLAT.WGS84                   54.2195 : SURFACE LATITUDE
SLON.WGS84                  -113.959 : SURFACE LONGITUDE
~Curve Information -----------------------------------------
DEPT  .FT    : Depth Curve
CALMED.IN    : CALIPER FROM MICROLOG
CALWS .IN    : CALIPER [CALMED]
CILDED.MMHO  : CONDUCTIVITY FROM RESISTIVITY LOG
CONDWS.MMHO  : CONDUCTIVITY [CILDED]
DRESWS.OHMM  : DEEP RESISTIVITY [1000/CILDED]
DTED  .US/F  : DELTA TIME FROM SONIC LOG
DTWS  .US/F  : DELTA TIME [DTED]
GRNED .GAPI  : GAMMA RAY FROM NEUTRON LOG
GRSED .GAPI  : GAMMA RAY FROM SONIC LOG
GRWS  .GAPI  : GAMMA RAY [2132' GRNED 2211' GRSED]
ILDED .OHMM  : INDUCTION LOG DEEP RESISTIVITY
NEUTED.NAPI  : NEUTRON FROM NEUTRON LOG
NEUTWS.NAPI  : NEUTRON [NEUTED]
SNED  .OHMM  : 16 INCH SHORT NORMAL RESISTIVITY FROM IEL
SPRED .MV    : SPONTANEOUS POTENTIAL FROM RESISTIVITY LOG [SHIFT IS REMOVED]
SPWS  .MV    : SPONTANEOUS POTENTIAL [BASELINE 0 MV] [SPRED]
SRESWS.OHMM  : SHALLOW RESISTIVITY [SNED]
~Params ----------------------------------------------------
PD  .                     GL : PERMANENT DATUM
EPD .FT               2028.3 : ELEVATION PERMANENT DATUM
LMF .                     KB : LOG MEASURED FROM
DAPD.FT                11.75 : FEET ABOVE PERMANENT DATUM
EKB .FT              2040.05 : KELLY BUSHING
EGL .FT               2028.3 : GROUND LEVEL
DATE.               11/12/65 : RUN DATE
RUN .                      1 : RUN NUMBER
DD  .FT                 6460 : DEPTH DRILLER
DL  .FT                 6455 : DEPTH LOGGER
BLI .FT                 6454 : BOTTOM LOG INTERVAL
TLI .FT                  657 : TOP LOG INTERVAL
CBD .FT                  655 : CASING BOTTOM DRILLER
CBL .FT                  657 : CASING BOTTOM LOGGER
BS  .IN                7.875 : BIT SIZE
BSD .FT                 6460 : BIT SIZE AT DEPTH
DFT .                    GEL : DRILLING FLUID TYPE
DFD .                    9.8 : DRILLING FLUID DENSITY
DFV .                    100 : DRILLING FLUID VISCOSITY
DFPH.                    9.0 : DRILLING FLUID PH
DFL .                    7.4 : DRILLING FLUID LOSS
RMS .OHMM               1.32 : RESISTIVITY MUD SAMPLE
MST .DEGF                 73 : MUD SAMPLE TEMPERATURE
RMF .OHMM              0.822 : RESISTIVITY MUD FILTRATE SAMPLE
MFST.DEGF                 82 : MUD FILTRATE SAMPLE TEMPERATURE
RMC .OHMM               1.63 : RESISTIVITY MUD CAKE
MCST.DEGF                 80 : MUD CAKE SAMPLE TEMPERATURE
RMB .OHMM              0.754 : RESISTIVITY MUD AT BHT
TCS .HRS                   2 : TIME CIRCULATED STOPPED
LUN .                   3523 : LOGGING UNIT NUMBER
LUL .                    EDM : LOGGING UNIT LOCATION
ENGI.              SWINARTON : RECORDING ENGINEER
WITN.                 KENZIE : WITNESSED BY
CLNT.                A2DTECH : CLIENT CODE
ORIG.            2" 5" PRINT : ORIGIN OF DATA
UWI .       100102706027W400 : UNIQUE WELL ID
DICO. A2D Technologies, Inc. : DIGITIZING COMPANY
~Other -----------------------------------------------------
~ASCII -----------------------------------------------------
# ...
 2750.00000   10.75810   10.75810  198.13270  198.13270    5.04710   78.33800   78.33800    -999.25   49.88780   49.88780    4.96010    -999.25    -999.25    7.23800  -32.48580  -25.01800    7.23800
 2800.00000   10.75370   10.75370  219.28430  219.28430    4.56030   94.67930   94.67930    -999.25   68.33870   68.33870    4.03150    -999.25    -999.25    5.42450  -16.36730   -9.21280    5.42450
 2850.00000   10.50350   10.50350  187.62810  187.62810    5.32970   93.94050   93.94050    -999.25   66.22170   66.22170    5.49830    -999.25    -999.25    7.25930  -21.42290  -14.58480    7.25930
 2900.00000   10.53550   10.53550  245.61410  245.61410    4.07140   97.08990   97.08990    -999.25   58.64440   58.64440    3.47370    -999.25    -999.25   11.28300  -48.58600  -42.06120   11.28300
 2950.00000   11.15270   11.15270  198.04320  198.04320    5.04940   87.48420   87.48420    -999.25   61.39960   61.39960    4.75850    -999.25    -999.25    5.90240  -19.83590  -13.62750    5.90240
 3000.00000   10.04790   10.04790  131.65700  131.65700    7.59550   89.98680   89.98680    -999.25   67.02330   67.02330    7.96230    -999.25    -999.25   10.57600  -16.03710  -10.14350   10.57600
 3050.00000    8.91400    8.91400  131.86190  131.86190    7.58370   83.30180   83.30180    -999.25   55.86760   55.86760    8.43190    -999.25    -999.25   12.25710  -26.41160  -20.83130   12.25710
 3100.00000   10.98970   10.98970  202.38410  202.38410    4.94110   73.71820   73.71820    -999.25  158.97720  158.97720    4.84120    -999.25    -999.25    7.11370  -16.26650  -10.36620    7.11370
 3150.00000    8.99390    8.99390    8.85870    8.85870  112.88340   49.56880   49.56880    -999.25   14.73260   14.73260  130.70830    -999.25    -999.25  104.22550  -33.53940  -27.29940  104.22550
 3200.00000    8.57550    8.57550   59.61260   59.61260   16.77500   56.52380   56.52380    -999.25   14.88730   14.88730   18.68080    -999.25    -999.25   33.31330  -70.31110  -63.72820   33.31330
 3250.00000    7.94100    7.94100  101.60460  101.60460    9.84210   55.50880   55.50880    -999.25    7.46660    7.46660   11.65510    -999.25    -999.25   36.52170  -95.71680  -88.79260   36.52170
 3300.00000    8.02600    8.02600  141.97250  141.97250    7.04360   67.98920   67.98920    -999.25   12.05870   12.05870    7.70560    -999.25    -999.25   29.54800 -102.83970  -95.57590   29.54800
 3350.00000    7.68820    7.68820  234.12880  234.12880    4.27120   75.33210   75.33210    -999.25   12.85740   12.85740    3.97050    -999.25    -999.25   18.30970 -102.94320  -95.33650   18.30970
 3400.00000    7.66030    7.66030  231.68610  231.68610    4.31620   68.44090   68.44090    -999.25   15.60880   15.60880    3.86880    -999.25    -999.25   24.42130 -104.67700  -96.73060   24.42130
 3450.00000    7.95500    7.95500  136.20300  136.20300    7.34200   59.98820   59.98820    -999.25   10.30270   10.30270    7.95330    -999.25    -999.25   32.11900 -104.89200  -96.60270   32.11900
 3500.00000    7.79450    7.79450  184.96080  184.96080    5.40660   64.83690   64.83690    -999.25    8.62980    8.62980    5.53350    -999.25    -999.25   21.00940 -105.09930  -96.46870   21.00940
 3550.00000    7.94020    7.94020  182.32950  182.32950    5.48460   63.25080   63.25080    -999.25   11.00020   11.00020    5.77820    -999.25    -999.25   33.41130 -108.89860  -99.92840   33.41130
 3600.00000    7.46170    7.46170  201.29000  201.29000    4.96800   58.19950   58.19950    -999.25    9.07880    9.07880    4.57830    -999.25    -999.25   24.45350 -112.42500 -103.11180   24.45350
 3650.00000    7.52610    7.52610  190.41770  190.41770    5.25160   62.34070   62.34070    -999.25   18.35070   18.35070    5.17170    -999.25    -999.25   31.26980 -112.74200 -103.08930   31.26980
 3700.00000    7.82280    7.82280  308.05510  308.05510    3.24620   64.40080   64.40080    -999.25   12.02990   12.02990    2.84280    -999.25    -999.25   22.28260 -118.72400 -108.72830   22.28260
 3750.00000    8.23080    8.23080  143.03960  143.03960    6.99110   58.17520   58.17520    -999.25   12.33360   12.33360    7.66720    -999.25    -999.25   32.62070 -106.32420  -95.98720   32.62070
 3800.00000    8.50930    8.50930  151.37050  151.37050    6.60630   57.36860   57.36860    -999.25   18.80620   18.80620    7.30670    -999.25    -999.25   37.42780 -112.13260 -101.45600   37.42780
 3850.00000    8.50920    8.50920  133.80960  133.80960    7.47330   58.76770   58.76770    -999.25   29.61990   29.61990    8.26280    -999.25    -999.25   29.18820 -100.61160  -89.59200   29.18820
 3900.00000   10.32850   10.32850  116.89180  116.89180    8.55490   65.31100   65.31100    -999.25   62.96580   62.96580    9.58200    -999.25    -999.25   11.18100  -37.25120  -25.89200   11.18100
 3950.00000    -999.25    -999.25   33.35900   33.35900   29.97690   58.79390   58.79390    -999.25   26.08420   26.08420   37.46860    -999.25    -999.25   33.68900  -44.63450  -32.93240   33.68900
 4000.00000    -999.25    -999.25   66.62030   66.62030   15.01040   62.38460   62.38460    -999.25   36.05470   36.05470   16.81370    -999.25    -999.25   16.52980  -38.32410  -26.28070   16.52980
 4050.00000    -999.25    -999.25  103.04140  103.04140    9.70480   68.13040   68.13040    -999.25   45.45920   45.45920   11.02890    -999.25    -999.25   11.94750  -39.45780  -27.07480   11.94750
 4100.00000    -999.25    -999.25  108.38280  108.38280    9.22660   76.88510   76.88510    -999.25   61.75670   61.75670   10.84200    -999.25    -999.25   14.88630  -36.77370  -24.04770   14.88630
 4150.00000    -999.25    -999.25  288.82270  288.82270    3.46230   99.45610   99.45610    -999.25   70.10570   70.10570    3.14330    -999.25    -999.25    4.05490  -44.25320  -31.18770    4.05490
 4200.00000    -999.25    -999.25  282.79020  282.79020    3.53620   90.37850   90.37850    -999.25   70.67860   70.67860    3.24690    -999.25    -999.25    5.18910  -44.58150  -31.17300    5.18910
 4250.00000    -999.25    -999.25  148.35880  148.35880    6.74040   67.70680   67.70680    -999.25   48.13090   48.13090    8.02180    -999.25    -999.25    6.45400  -47.24790  -33.49810    6.45400
 4300.00000    -999.25    -999.25   30.97530   30.97530   32.28380   56.54980   56.54980    -999.25   24.37600   24.37600   35.79010    -999.25    -999.25   33.82680  -37.64800  -23.55860   33.82680
 4350.00000    -999.25    -999.25  200.31560  200.31560    4.99210   89.19570   89.19570    -999.25   59.93630   59.93630    4.77040    -999.25    -999.25    5.90650  -42.25600  -27.82360    5.90650
 4400.00000    -999.25    -999.25  246.36220  246.36220    4.05910   93.65810   93.65810    -999.25   62.28060   62.28060    3.59210    -999.25    -999.25    4.37060  -40.54320  -25.77130    4.37060
 4450.00000    -999.25    -999.25  231.57350  231.57350    4.31830   87.66620   87.66620    -999.25   61.46130   61.46130    3.70660    -999.25    -999.25    5.27150  -40.83840  -25.72350    5.27150
 4500.00000    -999.25    -999.25  194.81610  194.81610    5.13300   91.96070   91.96070    -999.25   58.76750   58.76750    5.05610    -999.25    -999.25    6.72960  -38.96940  -23.51320    6.72960
 4550.00000    -999.25    -999.25   38.89920   38.89920   25.70740   58.88950   58.88950    -999.25   30.36170   30.36170   28.34890    -999.25    -999.25   33.67590  -33.21290  -17.41710   33.67590
 4600.00000    -999.25    -999.25   29.73920   29.73920   33.62570   57.63770   57.63770    -999.25   27.59310   27.59310   35.71030    -999.25    -999.25   40.63140  -33.53130  -17.39250   40.63140
 4650.00000    -999.25    -999.25   32.72640   32.72640   30.55640   58.24360   58.24360    -999.25   27.72930   27.72930   33.56760    -999.25    -999.25   36.85740  -31.29220  -14.81380   36.85740
 4700.00000    -999.25    -999.25  105.24970  105.24970    9.50120   72.91280   72.91280    -999.25   65.89990   65.89990   10.77030    -999.25    -999.25   13.22650  -24.25760   -7.55920   13.22650
 4750.00000    -999.25    -999.25   60.98440   60.98440   16.39760   90.39160   90.39160    -999.25  109.66430  109.66430   17.17440    -999.25    -999.25   25.27900  -22.45970   -6.10280   25.27900
