~Version ---------------------------------------------------
VERS.      2.0 : CWLS log ASCII Standard -VERSION 2.0
WRAP.       NO : One line per depth step
CREA. 11/15/17 : LAS Creation Date
~Well ------------------------------------------------------
STRT.FT                            1100.0 : START DEPTH
STOP.FT                           11050.0 : STOP DEPTH
STEP.FT                          50.00000 : STEP LENGTH
NULL.                             -999.25 : NULL VALUE
COMP.        CANADIAN HOMESTEAD OILS LTD. : COMPANY
WELL. HOMESTEAD ET AL ROSEVEAR 9-34-53-15 : WELL
FLD .                                     : FIELD
LOC .                                     : LOCATION
CTRY.                              CANADA : COUNTRY
SRVC.              Schlumberger of Canada : SERVICE COMPANY
DATE.                         06-May-1975 : LOGDATE
PROV.                             Alberta : PROVINCE
UWI .                    100093405315W500 : UNIQUE WELL ID
SLAT.WGS84                       53.62182 : SURFACE LATITUDE
SLON.WGS84                      -116.1151 : SURFACE LONGITUDE
~Curve Information -----------------------------------------
DEPT    .FT    : Depth Curve
CALDED  .IN    : CALIPER FROM CND LOG[DSH TO GRSED/ILDED]
CALSED  .IN    : CALIPER FROM SONIC LOG
CALWS   .IN    : CALIPER [CALSED]
CONDWS  .MMHO  : CONDUCTIVITY [1000/DRESWS]
DCORED  .G/C3  : DENSITY CORRECTION FROM CND LOG[DSH TO GRSED/ILDED]
DCORWS  .G/C3  : DENSITY CORRECTION DCORED]
DENWS   .G/C3  : BULK FORMATION DENSITY[RHOBED]
DPHILSED.V/V   : DENSITY POROSITY LIMESTONE[M=2.71, F=1.00]FROM CND LOG[DSH TO GRSED/ILDED]
DPHISSED.V/V   : DENSITY POROSITY SANDSTONE[M=2.65, F=1.00]FROM CND LOG[DSH TO GRSED/ILDED]
DPOLSWS .V/V   : DENSITY POROSITY LIMESTONE[M=2.71, F=1.00][CALCULATED FROM DENWS]
DRESWS  .OHMM  : DEEP RESISTIVITY [ILDED]
DTED    .US/F  : ACOUSTIC TRANSIT TIME SLOWNESS, DELTA T
DTWS    .US/F  : ACOUSTIC TRANSIT TIME SLOWNESS[DTED]
GRDED   .GAPI  : GAMMA RAY FROM DENSITY LOG[DSH TO GRSED/ILDED]
GRSED   .GAPI  : GAMMA RAY FROM SONIC LOG
GRWS    .GAPI  : GAMMA RAY [GRSED]
ILDED   .OHMM  : INDUCTION LOG DEEP RESISTIVITY
ILMED   .OHMM  : INDUCTION LOG MEDIUM RESISTIVITY
LL8ED   .OHMM  : 8 INCH LATEROLOG RESISTIVITY
MRESWS  .OHMM  : MEDIUM RESISTIVITY [ILMED]
NPHILSED.V/V   : NEUTRON POROSITY LIMESTONE FROM CND LOG[DSH TO GRSED/ILDED]
NPHISSED.V/V   : NEUTRON POROSITY SANDSTONE FROM CND LOG[DSH TO GRSED/ILDED]
NPOLSWS .V/V   : NEUTRON POROSITY LIMESTONE[ NPHSSED CONVERTED TO LIMESTONE AND SPLICED TO NPHILSED AT 7521']
RHOBED  .G/C3  : BULK FORMATION DENSITY FROM CND LOG[DSH TO GRSED/ILDED]
SPHIED  .V/V   : SONIC POROSITY [DTM=55.6, DF=189<7520' and 47.6 DF=189>7520']FROM SONIC LOG
SPOWS   .V/V   : SONIC POROSITY [SPHIED]
SPRED   .MV    : SPONTANEOUS POTENTIAL FROM RESISTIVITY LOG
SPWS    .MV    : SPONTANEOUS POTENTIAL [BASELINE 0 MV] [SPRED]
SRESWS  .OHMM  : SHALLOW RESISTIVITY [LL8ED]
~Params ----------------------------------------------------
PD  .                     GL : PERMANENT DATUM
EPD .FT               2932.7 : ELEVATION PERMANENT DATUM
LMF .                     KB : LOG MEASURED FROM
DAPD.FT                 18.3 : FEET ABOVE PERMANENT DATUM
EKB .FT                 2951 : KELLY BUSHING
EGL .FT               2932.7 : GROUND LEVEL
DATE.               05/06/75 : RUN DATE
RUN .                      1 : RUN NUMBER
DD  .FT                11081 : DEPTH DRILLER
DL  .FT                11087 : DEPTH LOGGER
BLI .FT                11081 : BOTTOM LOG INTERVAL
TLI .FT                 1136 : TOP LOG INTERVAL
CBD .FT                 1136 : CASING BOTTOM DRILLER
CBL .FT                 1134 : CASING BOTTOM LOGGER
BS  .IN                 8.75 : BIT SIZE
BSD .FT                11081 : BIT SIZE AT DEPTH
DFT .               CHEM GEL : DRILLING FLUID TYPE
DFD .                    9.2 : DRILLING FLUID DENSITY
DFV .                     90 : DRILLING FLUID VISCOSITY
DFPH.                     11 : DRILLING FLUID PH
DFL .                    8.4 : DRILLING FLUID LOSS
MSS .              CIRULATED : MUD SAMPLE SOURCE
RMS .OHMM               1.22 : RESISTIVITY MUD SAMPLE
MST .DEGF                 72 : MUD SAMPLE TEMPERATURE
RMF .OHMM               0.98 : RESISTIVITY MUD FILTRATE SAMPLE
MFST.DEGF                 70 : MUD FILTRATE SAMPLE TEMPERATURE
LUN .                   7690 : LOGGING UNIT NUMBER
LUL .                    EDM : LOGGING UNIT LOCATION
ENGI.                  BORLE : RECORDING ENGINEER
WITN.                   KING : WITNESSED BY
CLNT.                A2DTECH : CLIENT CODE
ORIG.            2" 5" PRINT : ORIGIN OF DATA
UWI .       100093405315W500 : UNIQUE WELL ID
DICO. A2D Technologies, Inc. : DIGITIZING COMPANY
~Other -----------------------------------------------------
~ASCII -----------------------------------------------------
# ...
 9850.00000    -999.25    9.33750    9.33750   40.95620    -999.25    -999.25    -999.25    -999.25    -999.25    -999.25   24.41630   63.51300   63.51300    -999.25   73.09700   73.09700   24.41630   29.77070   35.04810   29.77070    -999.25    -999.25    -999.25    -999.25    0.12230    0.12230  -40.45860  -55.86220   35.04810
 9900.00000    -999.25    9.53640    9.53640   69.22090    -999.25    -999.25    -999.25    -999.25    -999.25    -999.25   14.44650   65.45940   65.45940    -999.25   86.25640   86.25640   14.44650   15.10620   20.37490   15.10620    -999.25    -999.25    -999.25    -999.25    0.13810    0.13810  -24.40810  -41.26250   20.37490
 9950.00000    -999.25    9.25390    9.25390   60.88090    -999.25    -999.25    -999.25    -999.25    -999.25    -999.25   16.42550   64.46610   64.46610    -999.25   81.34920   81.34920   16.42550   17.24050   23.52440   17.24050    -999.25    -999.25    -999.25    -999.25    0.12890    0.12890   -7.69010  -25.99540   23.52440
 10000.00000    -999.25    9.32340    9.32340   66.68890    -999.25    -999.25    -999.25    -999.25    -999.25    -999.25   14.99500   64.77750   64.77750    -999.25   83.05700   83.05700   14.99500   16.74660   19.74210   16.74660    -999.25    -999.25    -999.25    -999.25    0.13120    0.13120  -13.86030  -33.61640   19.74210
 10050.00000    -999.25    9.41310    9.41310   71.80500    -999.25    -999.25    -999.25    -999.25    -999.25    -999.25   13.92660   66.84580   66.84580    -999.25   79.92370   79.92370   13.92660   15.16230   19.28780   15.16230    -999.25    -999.25    -999.25    -999.25    0.14710    0.14710  -34.53510  -55.74200   19.28780
 10100.00000    -999.25    9.89560    9.89560   74.23900    -999.25    -999.25    -999.25    -999.25    -999.25    -999.25   13.47000   67.74540   67.74540    -999.25   91.97320   91.97320   13.47000   15.04300   19.18630   15.04300    -999.25    -999.25    -999.25    -999.25    0.15390    0.15390  -28.66710  -51.32490   19.18630
 10150.00000    -999.25    9.10680    9.10680   62.24520    -999.25    -999.25    -999.25    -999.25    -999.25    -999.25   16.06550   65.82680   65.82680    -999.25   87.66750   87.66750   16.06550   19.24130   23.65090   19.24130    -999.25    -999.25    -999.25    -999.25    0.13850    0.13850  -15.22200  -39.33060   23.65090
 10200.00000    -999.25    9.74930    9.74930   97.82820    -999.25    -999.25    -999.25    -999.25    -999.25    -999.25   10.22200   70.35180   70.35180    -999.25   93.48820   93.48820   10.22200   10.98300   14.16720   10.98300    -999.25    -999.25    -999.25    -999.25    0.17190    0.17190  -37.06950  -62.62890   14.16720
 10250.00000    -999.25    8.99190    8.99190   55.97540    -999.25    -999.25    -999.25    -999.25    -999.25    -999.25   17.86500   64.30930   64.30930    -999.25   79.63950   79.63950   17.86500   21.03730   25.30700   21.03730    -999.25    -999.25    -999.25    -999.25    0.12700    0.12700   -1.70080  -28.71100   25.30700
 10300.00000    -999.25    9.51910    9.51910   80.86100    -999.25    -999.25    -999.25    -999.25    -999.25    -999.25   12.36690   68.65870   68.65870    -999.25   84.13710   84.13710   12.36690   14.43440   16.91070   14.43440    -999.25    -999.25    -999.25    -999.25    0.15960    0.15960  -18.62280  -47.08390   16.91070
 10350.00000    -999.25    9.09720    9.09720   92.15060    -999.25    -999.25    -999.25    -999.25    -999.25    -999.25   10.85180   68.64340   68.64340    -999.25   85.19760   85.19760   10.85180   12.51530   15.58720   12.51530    -999.25    -999.25    -999.25    -999.25    0.15940    0.15940   -7.69680  -37.60870   15.58720
 10400.00000    -999.25    8.93010    8.93010   49.08960    -999.25    -999.25    -999.25    -999.25    -999.25    -999.25   20.37090   60.00070   60.00070    -999.25   62.30500   62.30500   20.37090   23.10170   34.89150   23.10170    -999.25    -999.25    -999.25    -999.25    0.09360    0.09360  -35.63200  -66.99470   34.89150
 10450.00000    -999.25    8.94530    8.94530   14.55820    -999.25    -999.25    -999.25    -999.25    -999.25    -999.25   68.68990   71.84380   71.84380    -999.25  117.59200  117.59200   68.68990  134.55880  694.52810  134.55880    -999.25    -999.25    -999.25    -999.25    0.18460    0.18460    1.31330  -31.50030  694.52810
 10500.00000    -999.25    8.98120    8.98120   12.96510    -999.25    -999.25    -999.25    -999.25    -999.25    -999.25   77.13010   57.12640   57.12640    -999.25   46.78700   46.78700   77.13010  105.99560  157.07800  105.99560    -999.25    -999.25    -999.25    -999.25    0.07490    0.07490   15.59000  -18.67440  157.07800
 10550.00000    -999.25   10.12990   10.12990   33.69860    -999.25    -999.25    -999.25    -999.25    -999.25    -999.25   29.67480   77.45500   77.45500    -999.25  118.48160  118.48160   29.67480   36.18440   72.87750   36.18440    -999.25    -999.25    -999.25    -999.25    0.22980    0.22980   16.35200  -19.36320   72.87750
 10600.00000    -999.25    9.62540    9.62540   62.45900    -999.25    -999.25    -999.25    -999.25    -999.25    -999.25   16.01050   73.38270   73.38270    -999.25  102.85660  102.85660   16.01050   16.31490   23.25950   16.31490    -999.25    -999.25    -999.25    -999.25    0.19530    0.19530   45.95620    8.87720   23.25950
 10650.00000    -999.25    8.93320    8.93320    0.62750    -999.25    -999.25    -999.25    -999.25    -999.25    -999.25 1593.67490   48.82570   48.82570    -999.25   10.07830   10.07830 1593.67490 1500.42220 1446.78250 1500.42220    -999.25    -999.25    -999.25    -999.25    0.01450    0.01450  -31.77140  -68.85040 1446.78250
 10700.00000    -999.25    8.96670    8.96670    0.61160    -999.25    -999.25    -999.25    -999.25    -999.25    -999.25 1635.08230   49.26510   49.26510    -999.25    8.25040    8.25040 1635.08230 1532.62370 1416.76810 1532.62370    -999.25    -999.25    -999.25    -999.25    0.01740    0.01740  -46.83660  -83.91560 1416.76810
 10750.00000    -999.25    9.79920    9.79920    0.61140    -999.25    -999.25    -999.25    -999.25    -999.25    -999.25 1635.64060   48.46570   48.46570    -999.25   17.97170   17.97170 1635.64060 1520.96560 1484.76680 1520.96560    -999.25    -999.25    -999.25    -999.25    0.00960    0.00960  -29.62370  -66.70270 1484.76680
 10800.00000    -999.25    8.77120    8.77120    0.54200    -999.25    -999.25    -999.25    -999.25    -999.25    -999.25 1845.03880   49.33610   49.33610    -999.25   13.10070   13.10070 1845.03880 1522.34890 1479.08350 1522.34890    -999.25    -999.25    -999.25    -999.25    0.01730    0.01730  -32.92610  -70.00510 1479.08350
 10850.00000    -999.25   12.41240   12.41240    2.53750    -999.25    -999.25    -999.25    -999.25    -999.25    -999.25  394.08890   48.03160   48.03160    -999.25   17.53720   17.53720  394.08890  475.90870   44.37060  475.90870    -999.25    -999.25    -999.25    -999.25    0.00960    0.00960  -29.40810  -66.48710   44.37060
 10900.00000    -999.25    9.46720    9.46720    0.60440    -999.25    -999.25    -999.25    -999.25    -999.25    -999.25 1654.57280   49.78510   49.78510    -999.25   18.56290   18.56290 1654.57280 1542.58670 1315.97660 1542.58670    -999.25    -999.25    -999.25    -999.25    0.01930    0.01930  -29.40400  -66.48300 1315.97660
 10950.00000    -999.25    9.48130    9.48130    0.61290    -999.25    -999.25    -999.25    -999.25    -999.25    -999.25 1631.61470   48.35200   48.35200    -999.25   10.95420   10.95420 1631.61470 1490.72340 1372.43250 1490.72340    -999.25    -999.25    -999.25    -999.25    0.01100    0.01100  -45.03700  -82.11600 1372.43250
 11000.00000    -999.25    9.53060    9.53060    0.61720    -999.25    -999.25    -999.25    -999.25    -999.25    -999.25 1620.16390   48.82380   48.82380    -999.25   19.03170   19.03170 1620.16390 1356.09880 1503.51510 1356.09880    -999.25    -999.25    -999.25    -999.25    0.01210    0.01210  -55.89200  -92.97100 1503.51510
 11050.00000    -999.25    8.93720    8.93720    5.38290    -999.25    -999.25    -999.25    -999.25    -999.25    -999.25  185.77210   66.11650   66.11650    -999.25  175.13150  175.13150  185.77210  926.22500  926.14580  926.22500    -999.25    -999.25    -999.25    -999.25    0.14110    0.14110  -67.55370 -104.63270  926.14580
