~Version ---------------------------------------------------
VERS.      2.0 : CWLS log ASCII Standard -VERSION 2.0
WRAP.       NO : One line per depth step
CREA. 11/10/17 : LAS Creation Date
~Well ------------------------------------------------------
STRT.FT                          1150.0 : START DEPTH
STOP.FT                         11400.0 : STOP DEPTH
STEP.FT                        50.00000 : STEP LENGTH
NULL.                           -999.25 : NULL VALUE
COMP.              PETROFINA CANADA LTD : COMPANY
WELL. FINA AMOCO HB KAYBOBS 11-33-60-20 : WELL
FLD .                                   : FIELD
LOC .                                   : LOCATION
CTRY.                            CANADA : COUNTRY
SRVC.                      Schlumberger : SERVICE COMPANY
DATE.                       07-Apr-1977 : LOGDATE
PROV.                           Alberta : PROVINCE
UWI .                  100113306020W500 : UNIQUE WELL ID
SLAT.WGS84                     54.23446 : SURFACE LATITUDE
SLON.WGS84                    -116.9427 : SURFACE LONGITUDE
~Curve Information -----------------------------------------
DEPT    .FT    : Depth Curve
CALDED  .IN    : CALIPER CNFD LOG
CALSED  .IN    : CALIPER FROM BCS LOG [ADJ. TO GRDED]
CALWS   .IN    : CALIPER [CALSED]
CONDWS  .MMHO  : CONDUCTIVITY [1000/DRESWS]
DCORWS  .G/C3  : DENSITY CORRECTION [DRHOED]
DENWS   .G/C3  : FORMATION BULK DENSITY [RHOBED]
DPHILSED.V/V   : DENSITY POROSITY LIMESTONE [M=2.71, F=1.00] FROM CNFD LOG [ADJ. TO RHOBED]
DPHISSED.V/V   : DENSITY POROSITY SANDSTONE [M=2.65, F=1.00] FROM CNFD LOG [ADJ. TO RHOBED]
DPOLSWS .V/V   : DENSITY POROSITY LIMESTONE [CALCULATED FROM DENWS, M=2.71, F=1.00]
DRESWS  .OHMM  : DEEP RESISTIVITY [ILDED]
DRHOED  .G/C3  : DENSITY CORRECTION FROM CNFD LOG
DTED    .US/F  : INTERVAL TRANSIT TIME FROM BCS LOG [ADJ. TO GRDED]
DTWS    .US/F  : COMPRESSIONAL SONIC [DTWS]
GRDED   .GAPI  : GAMMA RAY FROM CNFD LOG
GRSED   .GAPI  : GAMMA RAY FROM BCS LOG [ADJ. TO GRDED]
GRWS    .GAPI  : GAMMA RAY [GRSED]
ILDED   .OHMM  : DEEP INDUCTION FROM DILL LOG
ILMED   .OHMM  : MEDIUM INDUCTION FROM DILL LOG
LL8ED   .OHMM  : LATEROLOG FROM DILL LOG
MRESWS  .OHMM  : MEDIUM RESISTIVITY [ILMED]
NPHILSED.V/V   : NEUTRON POROSITY LIMESTONE FROM CNFD LOG [ADJ. TO RHOBED]
NPHISSED.V/V   : NEUTRON POROSITY SANDSTONE FROM CNFD LOG [ADJ. TO RHOBED]
NPOLSWS .V/V   : NEUTRON POROSITY LIMESTONE [NPHISSED MATRIX CONVERSION FOR LIMESTONE, SPL. TO NPHILSED @ 7450']
RHOBED  .G/C3  : BULK DENSITY FROM CNFD LOG
SPRED   .MV    : SPONTANEOUS POTENTIAL FROM DILL LOG
SPWS    .MV    : SPONTANEOUS POTENTIAL [BASELINE 0 MV, SPRED]
SRESWS  .OHMM  : SHALLOW RESISTIVITY [LL8ED]
~Params ----------------------------------------------------
PD  .                     GL : PERMANENT DATUM
EPD .FT                 2961 : ELEVATION PERMANENT DATUM
LMF .                     KB : LOG MEASURED FROM
DAPD.FT                   18 : FEET ABOVE PERMANENT DATUM
EKB .FT                 2979 : KELLY BUSHING
EGL .FT                 2961 : GROUND LEVEL
DATE.               04/07/77 : RUN DATE
RUN .                      1 : RUN NUMBER
DD  .FT                11429 : DEPTH DRILLER
DL  .FT                11423 : DEPTH LOGGER
BLI .FT                11417 : BOTTOM LOG INTERVAL
TLI .FT                 1195 : TOP LOG INTERVAL
CBD .FT                 1195 : CASING BOTTOM DRILLER
CBL .FT                 1195 : CASING BOTTOM LOGGER
BS  .IN                 8.75 : BIT SIZE
BSD .FT                11429 : BIT SIZE AT DEPTH
DFT .               GEL CHEM : DRILLING FLUID TYPE
DFD .                      9 : DRILLING FLUID DENSITY
DFV .                     98 : DRILLING FLUID VISCOSITY
DFPH.                    9.5 : DRILLING FLUID PH
MSS .               FLOWLINE : MUD SAMPLE SOURCE
RMS .OHMM               1.54 : RESISTIVITY MUD SAMPLE
MST .DEGF                 65 : MUD SAMPLE TEMPERATURE
RMB .OHMM               0.51 : RESISTIVITY MUD AT BHT
TCS .HRS                   4 : TIME CIRCULATED STOPPED
LUN .             OSU C 3704 : LOGGING UNIT NUMBER
LUL .                    EDM : LOGGING UNIT LOCATION
ENGI.               MCDONALD : RECORDING ENGINEER
WITN.               BOLEANTU : WITNESSED BY
CLNT.                A2DTECH : CLIENT CODE
ORIG.            2" 5" PRINT : ORIGIN OF DATA
UWI .       100113306020W500 : UNIQUE WELL ID
DICO. A2D Technologies, Inc. : DIGITIZING COMPANY
~Other -----------------------------------------------------
~ASCII -----------------------------------------------------
# ...
 3750.00000    8.75940    9.50220    9.50220  195.19810    0.21800    2.17340    -999.25    0.13560    0.31380    5.12300    0.21800   93.22000   93.22000   89.94500   79.43750   75.36130    5.12300    4.23680    5.21600    4.23680    -999.25    0.31070    0.26670    2.17340 -288.15320   -3.70710    5.21600
 3800.00000    8.73290    9.33700    9.33700   40.88770    0.00820    2.61490    -999.25   -0.14960    0.05560   24.47330    0.00820   72.36770   72.36770   50.18780   52.09600   52.09600   24.47330   21.81960   23.28810   21.81960    -999.25    0.11590    0.07390    2.61490 -291.60820   -7.67360   23.28810
 3850.00000    8.79480   10.46590   10.46590  186.60890    0.16850    2.41080    -999.25   -0.02240    0.17500    5.35880    0.16850  106.71390  106.71390   85.31940   71.30990   71.30990    5.35880    4.45990    5.88300    4.45990    -999.25    0.38790    0.34480    2.41080 -288.91620   -5.49820    5.88300
 3900.00000    8.63760    9.39430    9.39430   58.39760    0.08800    2.48720    -999.25   -0.06670    0.13030   17.12400    0.08800   76.92600   76.92600   54.03310   40.53020   40.53020   17.12400   19.19200   18.34160   19.19200    -999.25    0.13000    0.08760    2.48720 -306.32530  -23.42140   18.34160
 3950.00000    8.60750    9.79580    9.79580  102.30070    0.04620    2.59620    -999.25   -0.13500    0.06650    9.77510    0.04620   81.19770   81.19770   80.59840   64.65580   73.47380    9.77510    9.18410   11.02150    9.18410    -999.25    0.19170    0.14840    2.59620 -287.54340   -5.15360   11.02150
 4000.00000    8.57900    9.59350    9.59350  136.10630    0.14340    2.34500    -999.25    0.02150    0.21350    7.34720    0.14340   84.32390   84.32390   93.21430   79.42600   71.48070    7.34720    6.88460    7.54400    6.88460    -999.25    0.22940    0.18560    2.34500 -285.87580   -4.00000    7.54400
 4050.00000    8.68030   10.49230   10.49230  112.95730    0.18050    1.96540    -999.25    0.25020    0.43550    8.85290    0.18050   82.04480   82.04480  107.63400   88.61150   88.61150    8.85290    8.57430    9.12430    8.57430    -999.25    0.23830    0.19450    1.96540 -286.63730   -5.27300    9.12430
 4100.00000    8.60340   11.87550   11.87550  119.40010    0.03100    2.64480    -999.25   -0.14870    0.03810    8.37520    0.03100   81.69120   81.69120  119.54260   95.46600   97.45010    8.37520    7.77150    8.78300    7.77150    -999.25    0.25360    0.20970    2.64480 -287.07640   -6.22880    8.78300
 4150.00000    8.69010   11.03140   11.03140  120.90140    0.03920    2.64220    -999.25   -0.15010    0.03960    8.27120    0.03920   83.88930   83.88930  124.82660  104.58420  101.19550    8.27120    7.46900    8.50680    7.46900    -999.25    0.21840    0.17470    2.64220 -286.20190   -5.86840    8.50680
 4200.00000    8.76760   12.28920   12.28920  136.21190    0.03550    2.57560    -999.25   -0.12390    0.07860    7.34150    0.03550   90.05150   90.05150  132.23510  115.16660  123.32050    7.34150    6.59740    8.02430    6.59740    -999.25    0.25300    0.20910    2.57560 -285.27960   -5.46010    8.02430
 4250.00000    8.72970   10.73360   10.73360   82.46810    0.00750    2.60690    -999.25   -0.14390    0.06030   12.12590    0.00750   87.58200   87.58200  162.66090  144.24900  141.04960   12.12590   11.38600   14.68660   11.38600    -999.25    0.21600    0.17240    2.60690 -283.06020   -3.75480   14.68660
 4300.00000    8.80300   10.75410   10.75410   93.63600    0.00050    2.60210    -999.25   -0.13960    0.06310   10.68000    0.00050   83.25490   83.25490  145.25590  112.30950  113.05910   10.68000   10.13560   11.54680   10.13560    -999.25    0.19200    0.14870    2.60210 -282.39410   -3.60020   11.54680
 4350.00000    8.64180   10.53840   10.53840  101.70350    0.05000    2.60870    -999.25   -0.14420    0.05920    9.83250    0.05000   82.69590   82.69590  121.18630  108.22330  104.54620    9.83250    9.32460   10.23300    9.32460    -999.25    0.19230    0.14900    2.60870 -283.73100   -5.45370   10.23300
 4400.00000    8.81280    9.99240    9.99240  117.70380    0.03020    2.50360    -999.25   -0.07520    0.12070    8.49590    0.03020   83.07710   83.07710  129.73140  107.46110  106.04690    8.49590    7.89060    8.88840    7.89060    -999.25    0.20930    0.16580    2.50360 -283.60290   -5.83970    8.88840
 4450.00000    9.07360   10.39480   10.39480  128.29890    0.00870    2.35320    -999.25    0.02590    0.20870    7.79430    0.00870   84.18760   84.18760  129.93490  104.47530  105.61250    7.79430    7.13910    7.91160    7.13910    -999.25    0.30470    0.26070    2.35320 -283.20150   -5.95240    7.91160
 4500.00000    8.90930   10.03640   10.03640   92.11920    0.05690    2.47690    -999.25   -0.05880    0.13630   10.85550    0.05690   76.96280   76.96280  118.67150  100.10520  102.66230   10.85550   10.23440   11.10200   10.23440    -999.25    0.15540    0.11270    2.47690 -283.36350   -6.62840   11.10200
 4550.00000    9.30240   10.05290   10.05290   95.10360    0.09670    2.26290    -999.25    0.08080    0.26150   10.51890    0.09670   75.76400   75.76400  113.65980   88.82810   94.69220   10.51890   10.16740    9.39860   10.16740    -999.25    0.16400    0.12110    2.26290 -282.68160   -6.45800    9.39860
 4600.00000    9.20360   10.18540   10.18540  113.54090    0.04210    2.55070    -999.25   -0.10980    0.09320    8.80740    0.04210   80.26290   80.26290  127.14110  108.71260  108.71260    8.80740    8.56960    9.33400    8.56960    -999.25    0.15350    0.11090    2.55070 -280.82260   -5.11570    9.33400
 4650.00000    9.20780   10.99070   10.99070  111.47900    0.03790    2.23130    -999.25    0.10670    0.27990    8.97030    0.03790   86.95480   86.95480  137.46420  118.32700  123.07320    8.97030    8.64190    9.57320    8.64190    -999.25    0.30610    0.26210    2.23130 -279.42450   -4.23160    9.57320
 4700.00000    9.28720   10.40160   10.40160  135.79950    0.09880    2.07800    -999.25    0.20720    0.36960    7.36380    0.09880   80.52030   80.52030  112.59800  104.32890  108.38510    7.36380    6.85100    7.84360    6.85100    -999.25    0.27750    0.23350    2.07800 -279.83600   -5.15720    7.84360
 4750.00000    8.94370   10.32990   10.32990  105.66250    0.13210    2.59770    -999.25   -0.13490    0.06570    9.46410    0.13210   80.56740   80.56740  115.81670  103.02050  107.12110    9.46410    9.01680    9.82220    9.01680    -999.25    0.27090    0.22690    2.59770 -280.20380   -6.03910    9.82220
 4800.00000    9.11500   11.48160   11.48160   82.76540    0.20610    2.10210    -999.25    0.14490    0.35550   12.12800    0.20610   79.16690   79.16690   83.30740   75.27440   80.58540   12.12800   10.75270   12.88910   10.75270    -999.25    0.32390    0.28010    2.10210 -286.03900  -12.38570   12.88910
 4850.00000    8.63660    9.15940    9.15940   67.76350    0.25240    2.33230    -999.25    0.03130    0.22090   14.75720    0.25240   75.73990   75.73990  112.12880  107.50540  107.34870   14.75720   14.37140   15.56860   14.37140    -999.25    0.14870    0.10620    2.33230 -275.34670   -2.21010   15.56860
 4900.00000    8.79450    9.45520    9.45520   76.93080    0.21450    2.12500    -999.25    0.15010    0.34210   12.99870    0.21450   80.84490   80.84490  114.33130   98.88190   98.06270   12.99870   12.62960   13.96330   12.62960    -999.25    0.19040    0.14710    2.12500 -276.98560   -4.36310   13.96330
 4950.00000    8.78590    9.23030    9.23030   86.08370    0.23710    2.16220    -999.25    0.12760    0.32040   11.61660    0.23710   81.14190   81.14190  119.20980  106.84900  106.84900   11.61660   11.30580   11.76940   11.30580    -999.25    0.20700    0.16350    2.16220 -275.24760   -3.13920   11.76940
 5000.00000    8.75790    8.94120    8.94120   96.33260    0.22580    2.13720    -999.25    0.16000    0.33500   10.38070    0.22580   78.62160   78.62160  124.57710  109.37250  109.23210   10.38070   10.09890   10.65010   10.09890    -999.25    0.18860    0.14530    2.13720 -276.35560   -4.76120   10.65010
