~Version ---------------------------------------------------
VERS. 2.0 : CWLS log ASCII Standard -VERSION 2.0
WRAP. YES : MULTIPLE LINES PER DEPTH STEP
~Well ------------------------------------------------------
STRT.M                    600.0 : START DEPTH
STOP.M                   3350.0 : STOP DEPTH
STEP.M                 50.00000 : STEP LENGTH
NULL.                   -999.25 : NULL VALUE
COMP. GULF CANADA RESOURCES INC : COMPANY
WELL.    GULF STURLS 4-12-69-26 : WELL
FLD .                           : FIELD
LOC .                           : LOCATION
CTRY.                    CANADA : COUNTRY
SRVC.    Schlumberger of Canada : SERVICE COMPANY
DATE.               20-Feb-1982 : LOGDATE
PROV.                   Alberta : PROVINCE
UWI .          100041206926W500 : UNIQUE WELL ID
SLAT.WGS84             54.95583 : SURFACE LATITUDE
SLON.WGS84            -117.8332 : SURFACE LONGITUDE
~Curve Information -----------------------------------------
DEPT    .M      : DEPTH METERS
CALDED  .MM     : CALIPER FROM CNFD LOG, DEPTH ADJUSTED WITH [GRRED]
CALSED  .MM     : CALIPER FROM SONIC LOG, DEPTH ADJUSTED WITH [GRRED]
CALWS   .MM     : CALIPER [CALDED]
CONDWS  .MMHO   : CONDUCTIVITY [1000/DRESWS]
DCORWS  .KG/M3  : DENSITY CORRECTION [DRHOED]
DENWS   .KG/M3  : BULK DENSITY [RHOBED]
DPHILSED.V/V    : DENSITY POROSITY [M=2.71 F=1.0] FROM CNFD LOG, DEPTH ADJUSTED WITH [GRRED]
DPHISSED.V/V    : DENSITY POROSITY [M=2.65 F=1.0] FROM CNFD LOG, DEPTH ADJUSTED WITH [GRRED]
DPOLSWS .V/V    : DENSITY POROSITY LIMESTONE [CALCULATED FROM DENWS]
DRESWS  .OHMM   : DEEP RESISTIVITY [ILDED]
DRHOED  .KG/M3  : DENSITY CORRECTION FROM CNFD LOG, DEPTH ADJUSTED WITH [GRRED]
DTED    .US/M   : DELTA TIME FROM SONIC LOG, DEPTH ADJUSTED WITH [GRRED]
DTWS    .US/M   : DELTA TIME [DTED]
GRDED   .GAPI   : GAMMA RAY FROM CNFD LOG, DEPTH ADJUSTED WITH [GRRED]
GRRED   .GAPI   : GAMMA RAY FROM RESISTIVITY LOG
GRSED   .GAPI   : GAMMA RAY FROM SONIC LOG, DEPTH ADJUSTED WITH [GRRED]
GRWS    .GAPI   : GAMMA RAY [GRRED], SPLICED WITH [GRSED] FROM 563-597
ILDED   .OHMM   : INDUCTION LOG DEEP RESISTIVITY
ILMED   .OHMM   : INDUCTION LOG MEDIUM RESISTIVITY
MRESWS  .OHMM   : MEDIUM RESISTIVITY [ILMED]
NPHILSED.V/V    : NEUTRON POROSITY LIMESTONE FROM CNFD LOG, DEPTH ADJUSTED WITH [GRRED]
NPHISSED.V/V    : NEUTRON POROSITY SANDSTONE FROM CNFD LOG, DEPTH ADJUSTED WITH [GRRED]
NPOLSWS .V/V    : NEUTRON POROSITY LIMESTONE [NPHILSED], SPLICED WITH CALCULATED FROM NPHISSED [563-1787]
RHOBED  .KG/M3  : BULK DENSITY FROM CNFD LOG, DEPTH ADJUSTED WITH [GRRED]
SFLUED  .OHMM   : SPHERICALLY FOCUSED LOG RESISTIVITY
SPRED   .MV     : SPONTANEOUS POTENTIAL FROM RESISTIVITY LOG
SPWS    .MV     : SPONTANEOUS POTENTIAL [BASELINE 0 MV] [SPRED]
SRESWS  .OHMM   : SHALLOW RESISTIVITY [SFLUED]
TENDED  .N      : TENSION FROM CNFD LOG, DEPTH ADJUSTED WITH [GRRED]
TENRED  .N      : TENSION FROM RESISTIVITY LOG
TENSED  .N      : TENSION FROM SONIC LOG, DEPTH ADJUSTED WITH [GRRED]
~Params ----------------------------------------------------
PD  .                         GL : PERMANENT DATUM
EPD .M                       740 : ELEVATION PERMANENT DATUM
LMF .                         KB : LOG MEASURED FROM
DAPD.M                      6.55 : FEET ABOVE PERMANENT DATUM
DMF .                         KB : DRILLING MEASURED FROM
EKB .M                    746.55 : KELLY BUSHING
EDF .M                    746.15 : DRILLING FLOOR
EGL .M                       740 : GROUND LEVEL
DATE.                   02/20/82 : RUN DATE
RUN .                          1 : RUN NUMBER
DD  .M                      3373 : DEPTH DRILLER
DL  .M                      3373 : DEPTH LOGGER
BLI .M                      3371 : BOTTOM LOG INTERVAL
TLI .M                       610 : TOP LOG INTERVAL
CS  .MM                      244 : CASING SIZE
CBD .M                       610 : CASING BOTTOM DRILLER
CBL .M                       610 : CASING BOTTOM LOGGER
BS  .MM                      222 : BIT SIZE
BSD .M                      3373 : BIT SIZE AT DEPTH
DFT .                   GEL CHEM : DRILLING FLUID TYPE
DFD .                       1140 : DRILLING FLUID DENSITY
DFV .                         69 : DRILLING FLUID VISCOSITY
DFPH.                         10 : DRILLING FLUID PH
DFL .                        7.4 : DRILLING FLUID LOSS
MSS .                   FLOWLINE : MUD SAMPLE SOURCE
RMS .OHMM                   1.49 : RESISTIVITY MUD SAMPLE
MST .DEGC                   22.7 : MUD SAMPLE TEMPERATURE
RMF .OHMM                   1.38 : RESISTIVITY MUD FILTRATE SAMPLE
MFST.DEGC                   18.3 : MUD FILTRATE SAMPLE TEMPERATURE
RMC .OHMM                  0.437 : RESISTIVITY MUD CAKE
MCST.DEGC                    104 : MUD CAKE SAMPLE TEMPERATURE
MFSS.                      PRESS : MUD FILTRATE SAMPLE SOURCE
MCSS.                      PRESS : MUD CAKE SAMPLE SOURCE
RMB .OHMM                  0.525 : RESISTIVITY MUD AT BHT
TCS .HRS                    1230 : TIME CIRCULATED STOPPED
TLAB.HRS                    1930 : TIME LOGGER AT BOTTOM
LUN .                       8155 : LOGGING UNIT NUMBER
LUL .                         GP : LOGGING UNIT LOCATION
ENGI.                      JONES : RECORDING ENGINEER
WITN.                      ZADEH : WITNESSED BY
CLNT.                    A2DTECH : CLIENT CODE
ORIG. 6.5"/100M 16.5"/100M PRINT : ORIGIN OF DATA
UWI .           100041206926W500 : UNIQUE WELL ID
DICO.     A2D Technologies, Inc. : DIGITIZING COMPANY
~Other -----------------------------------------------------
~ASCII -----------------------------------------------------
  600.00000    -999.25    -999.25    -999.25    -999.25    -999.25    -999.25    -999.25    -999.25    -999.25    -999.25    -999.25    -999.25    -999.25   40.81510   41.24010   41.34350   71.24010    -999.25    -999.25    -999.25    -999.25    0.53460    0.49290    -999.25    -999.25    -999.25    -999.25    -999.25    -999.25    -999.25    -999.25
  650.00000  420.02600  256.80850  420.02600  120.34850   42.80000 2247.70000    -999.25    0.24370    0.27040    8.30920   42.80000  289.27470  289.27470   91.99070  103.97160   86.95040  103.97160    8.30920    6.99120    6.99120    -999.25    0.41870    0.37620 2247.70000    6.86590    3.54960   -3.54180    6.86590 5932.98880 4487.31200 5545.74900
  700.00000  424.54190  253.61190  424.54190  142.64930   34.10000 2313.70000    -999.25    0.20310    0.23180    7.01020   34.10000  337.64890  337.64890  110.90000  114.85740  104.32380  114.85740    7.01020    6.04200    6.04200    -999.25    0.39860    0.35570 2313.70000    6.61010    4.42130   -4.35920    6.61010 6013.92430 4725.45650 5809.76900
  750.00000  489.03370  246.05660  489.03370   96.97350   43.20000 2338.20020    -999.25    0.18760    0.21740   10.31210   43.20000  327.38960  327.38960   98.66980   88.37110   83.47610   88.37110   10.31210    8.63900    8.63900    -999.25    0.34000    0.29630 2338.20020    8.38260    4.03260   -5.00190    8.38260 7008.91020 4909.05370 5967.66410
  800.00000  334.94100  244.59660  334.94100   95.59040   53.30000 2340.89990    -999.25    0.18400    0.21580   10.46130   53.30000  293.84340  293.84340   95.52990   96.82260   97.19070   96.82260   10.46130   10.46040   10.46040    -999.25    0.40750    0.36480 2340.89990    7.97200   -0.55740   -9.80140    7.97200 6888.63770 5102.45310 6223.19190
  850.00000  300.06380  238.33790  300.06380  101.88590   46.50000 2214.79980    -999.25    0.26500    0.28960    9.81490   46.50000  273.92520  273.92520  106.95910   96.79030   99.20100   96.79030    9.81490    8.34230    8.34230    -999.25    0.38140    0.33820 2214.79980    8.58670    5.13190   -4.32170    8.58670 6823.12740 5353.94730 6427.77250
  900.00000  261.45100  239.42450  261.45100  140.15220  192.70000 2142.50000    -999.25    0.30880    0.33190    7.13510  192.70000  338.51470  338.51470  113.16700  109.62150  108.46740  109.62150    7.13510    6.48290    6.48290    -999.25    0.42700    0.38470 2142.50000    7.26760    5.91160   -3.75160    7.26760 6939.93210 5563.85010 6474.44530
  950.00000  292.03620  238.77160  292.03620  103.04290  221.90000 2344.50000    -999.25    0.20390    0.21370    9.70470  221.90000  274.30150  274.30150  115.74120   98.62900  102.50990   98.62900    9.70470    8.84810    8.84810    -999.25    0.37630    0.33300 2344.50000   11.83270    6.83810   -3.03470   11.83270 7244.73630 5713.91060 6913.00490
 1000.00000  310.91780  250.13860  310.91780  130.75660   77.90000 2388.00000    -999.25    0.16150    0.18830    7.64780   77.90000  332.43660  332.43660  124.51980  126.58670  104.43290  126.58670    7.64780    7.30300    7.30300    -999.25    0.39370    0.35070 2388.00000    8.62770    6.76310   -3.31920    8.62770 7524.40380 6022.21730 6935.76860
 1050.00000  232.00630  241.91140  232.00630  139.82890  227.40000 2505.80000    -999.25    0.07650    0.11940    7.15160  227.40000  301.52260  301.52260  103.08360  100.42410  103.52070  100.42410    7.15160    6.39450    6.39450    -999.25    0.31230    0.26840 2505.80000    6.41880    5.36850   -4.92340    6.41880 7819.35400 6179.00390 7233.18020
 1100.00000  279.38210  240.87300  279.38210  154.56670  141.90000 2400.00000    -999.25    0.14440    0.18130    6.46970  141.90000  299.34270  299.34270   92.75560  102.56100  102.15240  102.56100    6.46970    6.29430    6.29430    -999.25    0.31870    0.27480 2400.00000    6.70420    8.13770   -2.36380    6.70420 7967.53960 6381.05520 7510.01270
 1150.00000  305.20430  252.78410  305.20430  120.54870   84.60000 2530.60010    -999.25    0.07130    0.10490    8.29540   84.60000  278.06490  278.06490   98.97340  102.83080  106.67350  102.83080    8.29540    8.12560    8.12560    -999.25    0.27440    0.23040 2530.60010    9.18260    7.10030   -3.61080    9.18260 8192.35550 6696.71140 7831.18650
 1200.00000  358.79210  253.16480  358.79210  220.66290   48.20000 2372.70000    -999.25    0.16800    0.19730    4.53180   48.20000  354.17550  354.17550  177.18340  203.96660  206.96550  203.96660    4.53180    4.36910    4.36910    -999.25    0.43380    0.39170 2372.70000    5.31350    8.17710   -2.74350    5.31350 8038.61870 6856.15480 7901.01810
 1250.00000  351.25500  284.08400  351.25500  219.86240  186.80000 2378.30000    -999.25    0.16440    0.19400    4.54830  186.80000  317.28660  317.28660   95.22220  102.92850   90.86740  102.92850    4.54830    4.33360    4.33360    -999.25    0.38070    0.33750 2378.30000    4.78690    8.13880   -3.00670    4.78690 8535.30080 7096.33500 8188.68650
 1300.00000  217.77620  219.69230  217.77620  154.77480   84.50000 2378.90010    -999.25    0.16480    0.19360    6.46100   84.50000  266.54820  266.54820   35.51400   31.92910   33.25510   31.92910    6.46100    8.49270    8.49270    -999.25    0.21100    0.16740 2378.90010   11.97200  -46.19150  -57.57030   11.97200 8858.71190 7328.77200 8292.94820
 1350.00000  251.46750  235.02000  251.46750   31.37570    1.00000 2602.20000    -999.25    0.02690    0.06300   31.87180    1.00000  189.25330  189.25330   39.10750   37.95560   38.04830   37.95560   31.87180   41.93520   41.93520    -999.25    0.13160    0.08920 2602.20000   57.29970    2.35790   -9.25430   57.29970 9361.35640 7553.26460 8652.74610
 1400.00000  222.81830  219.30460  222.81830  127.66500   55.80000 2399.00000    -999.25    0.15220    0.18190    7.83300   55.80000  260.19380  260.19380   55.80980   52.71990   58.20910   52.71990    7.83300   10.10890   10.10890    -999.25    0.24770    0.20380 2399.00000   13.02230  -34.65350  -46.49900   13.02230 8998.57130 7766.89310 8772.63480
 1450.00000  248.53410  244.19430  248.53410  139.71550   13.80000 2495.70000    -999.25    0.10230    0.12530    7.15740   13.80000  263.59000  263.59000   60.12340   71.16550   57.42870   71.16550    7.15740    7.58150    7.58150    -999.25    0.26370    0.21970 2495.70000   14.12790   -8.33780  -20.41670   14.12790 9379.26950 7981.29350 8940.42870
 1500.00000  226.39650  218.61750  226.39650  164.04470   24.30000 2413.30000    -999.25    0.14290    0.17350    6.09590   24.30000  251.99770  251.99770   51.19580   44.72130   46.07110   44.72130    6.09590    8.51100    8.51100    -999.25    0.22590    0.18220 2413.30000   13.36710  -49.10180  -61.41400   13.36710 9499.02340 8271.09770 9054.09770
 1550.00000  292.16280  281.24730  292.16280   79.93540   20.30000 2560.80000    -999.25    0.05490    0.08730   12.51010   20.30000  223.46990  223.46990   63.33910   59.22460   64.56890   59.22460   12.51010   14.67840   14.67840    -999.25    0.16770    0.12480 2560.80000   24.38420  -22.83020  -35.37570   24.38420 9795.87500 8419.05860 9520.93850
 1600.00000  318.75960  279.29460  318.75960   85.32640   21.30000 2582.40010    -999.25    0.04220    0.07460   11.71970   21.30000  259.97670  259.97670   95.44150  106.04010   88.79910  106.04010   11.71970   12.00570   12.00570    -999.25    0.27760    0.23360 2582.40010   13.65000    1.78250  -10.99640   13.65000 10091.08400 8600.09080 9740.10740
 1650.00000  293.12870  283.65980  293.12870   67.23320   80.20000 2298.89990    -999.25    0.20580    0.24040   14.87360   80.20000  262.26990  262.26990  118.62810  121.90320  106.87820  121.90320   14.87360   14.19710   14.19710    -999.25    0.36140    0.31790 2298.89990   18.77120   10.72530   -2.28690   18.77120 10274.66700 8815.70700 9673.19920
 1700.00000  260.15080  256.08950  260.15080   61.66900   56.40000 2589.60010    -999.25    0.03850    0.07040   16.21560   56.40000  230.21340  230.21340   69.62090   73.79860   71.71180   73.79860   16.21560   19.95990   19.95990    -999.25    0.18130    0.13810 2589.60010   23.62260  -10.41690  -23.87070   23.62260 10318.68950 9010.44040 9968.71780
