~Version ---------------------------------------------------
VERS.      2.0 : CWLS log ASCII Standard -VERSION 2.0
WRAP.      YES : Multiple lines per depth step
CREA. 09/09/14 : LAS Creation Date
~Well ------------------------------------------------------
STRT.M                       300.0 : START DEPTH
STOP.M                      3750.0 : STOP DEPTH
STEP.M                    50.00000 : STEP LENGTH
NULL.                      -999.25 : NULL VALUE
COMP.                   SUNCOR INC : COMPANY
WELL. SUNCOR PINE CREEK 9-29-55-18 : WELL
FLD .                              : FIELD
LOC .                              : LOCATION
CTRY.                       CANADA : COUNTRY
SRVC.                 Schlumberger : SERVICE COMPANY
DATE.                  17-Dec-1995 : LOGDATE
PROV.                      Alberta : PROVINCE
UWI .             100092905518W500 : UNIQUE WELL ID
SLAT.WGS84                53.78394 : SURFACE LATITUDE
SLON.WGS84               -116.6319 : SURFACE LONGITUDE
~Curve Information -----------------------------------------
DEPT    .M      : Depth METER
AIBDED  .MM     : CALIER FROM RESISTIVITY LOG
AT10ED  .OHMM   : 10 INCH RESISTIVITY TWO FOOT RESOLUTION FROM AIT LOG
AT20ED  .OHMM   : 20 INCH RESISTIVITY TWO FOOT RESOLUTION FROM AIT LOG
AT30ED  .OHMM   : 30 INCH RESISTIVITY TWO FOOT RESOLUTION FROM AIT LOG
AT60ED  .OHMM   : 60 INCH RESISTIVITY TWO FOOT RESOLUTION FROM AIT LOG
AT90ED  .OHMM   : 90 INCH RESISTIVITY TWO FOOT RESOLUTION FROM AIT LOG
ATRTED  .OHMM   : ARRAY INDUCTION TWO FOOT RT
ATRXED  .OHMM   : ARRAY INDUCTION TWO FOOT RXO
CALDED  .MM     : CALIPER FROM FDC LOG [DEPTH ADJ. TO GRR]
CALWS   .MM     : CALIPER [AIBED]
CONDWS  .MMHO   : CONDUCTIVITY [1000/DRESWS]
DCORWS  .KG/M3  : DENSITY CORRECTION [DRHOED,SPL DRHED @2615-2636M]
DENWS   .KG/M3  : BULK DENSITY [CALCULATED FROM DPOSSWS]
DPHISSED.V/V    : DENSITY POROSITY SANDSTONE FROM FDC LOG [DEPTH ADJ. TO GRS]
DPOSSED .V/V    : LDS DENSITY POROSITY SANDSTONE
DPOSSWS .V/V    : DENSITY POROSITY M=2710 F=1000] [DPHISSED,SPL DPOED @2615-2636M]
DRESWS  .OHMM   : DEEP RESISTIVITY [AT90ED]
DRHED   .KG/M3  : DENSITY CORRECTION FROM DENSITY LOG
DRHOED  .KG/M3  : DENSITY CORRECTION FROM FDC LOG [DEPTH ADJ. TO GRR]
DTED    .US/M   : DELTA TIME FROM SONIC LOG
DTWS    .US/M   : DELTA TIME [DTED]
GRDED   .GAPI   : GAMMA RAY FROM FDC LOG [DEPTH ADJ. TO GRR]
GRED    .GAPI   : GAMMA RAY IN CASE HOLE LOG [DEPTH ADJ. TO GRR]
GRRED   .GAPI   : GAMMA RAY FROM RESISTIVITY LOG
GRSED   .GAPI   : GAMMA RAY FROM SONIC LOG [DEPTH ADJ. TO GRR]
GRWS    .GAPI   : GAMMA RAY [GRRED,SPL GRED TOP-565.2M+20]
HDED    .MM     : HOLE DIAMETER FROM SONIC LOG
LCALDED .MM     : DENSITY CALIPER/LOWER CALIPER FROM FDC
MRESWS  .OHMM   : SHALLOW LATERAL RESISTIVITY [AT60ED]
NPORSSED.V/V    : NEUTRON POROSITY SANDSTONE FROM DENSITY LOG
NPOSSWS .V/V    : NEUTRON POROSITY [NPHISSED]
PEFED   .B/E    : PHOTO ELECTROL LOG FROM FDC LOG [DEPTH ADJ. TO GRR]
PEFLED  .B/E    : HRDD STANDARD RESOLUTION FORMATION PHOTOELECTRIC FACTOR
PEFWS   .B/E    : PHOTO ELECTROL [PEFED]
RHOBED  .KG/M3  : BULK DENSITY FROM FDC LOG [DEPTH ADJ. TO GRR]
RHOMED  .KG/M3  : CORRECTED BULK DENSITY
SRESWS  .OHMM   : SHALLOW RESISTIVITY [AT10ED]
TENDED  .N      : TENSION FROM FDC LOG [DEPTH ADJ. TO GRR]
TENRED  .N      : TENSION FROM RESISTIVITY LOG
TENSED  .N      : TENSTION FROM SONIC LOG
~Params ----------------------------------------------------
PD  .                         GL : PERMANENT DATUM
EPD .M                    1050.6 : ELEVATION PERMANENT DATUM
LMF .                         KB : LOG MEASURED FROM
DAPD.M                       7.4 : FEET ABOVE PERMANENT DATUM
DMF .                         KB : DRILLING MEASURED FROM
EKB .M                      1058 : KELLY BUSHING
EDF .M                    1057.7 : DRILLING FLOOR
EGL .M                    1050.6 : GROUND LEVEL
DATE.                   12/17/96 : RUN DATE
RUN .                          1 : RUN NUMBER
DD  .M                      3785 : DEPTH DRILLER
DL  .M                      3780 : DEPTH LOGGER
BLI .M                    3774.5 : BOTTOM LOG INTERVAL
TLI .M                       606 : TOP LOG INTERVAL
CS  .MM                    244.5 : CASING SIZE
CBD .M                       606 : CASING BOTTOM DRILLER
CBL .M                       606 : CASING BOTTOM LOGGER
BS  .MM                      222 : BIT SIZE
BSD .M                      3785 : BIT SIZE AT DEPTH
DFT .                     INVERT : DRILLING FLUID TYPE
DFD .                       1050 : DRILLING FLUID DENSITY
DFV .                         48 : DRILLING FLUID VISCOSITY
TCS .HRS                     900 : TIME CIRCULATED STOPPED
TLAB.HRS                    1850 : TIME LOGGER AT BOTTOM
LUN .                       2012 : LOGGING UNIT NUMBER
LUL .                   NISKU ES : LOGGING UNIT LOCATION
ENGI.                      PISIO : RECORDING ENGINEER
WITN.                      YAGER : WITNESSED BY
CLNT.                    A2DTECH : CLIENT CODE
ORIG. 6.5"/100M 16.5"/100M PRINT : ORIGIN OF DATA
UWI .           100092905518W500 : UNIQUE WELL ID
DICO.     A2D Technologies, Inc. : DIGITIZING COMPANY
~Other -----------------------------------------------------
MUD DENSITY 1050 PPM.
~ASCII -----------------------------------------------------
# ...
 3000.00000  227.05850 2007.09840 2008.34280 1518.10010  552.61280  791.11150  760.16400 2040.73250  216.57770  227.05850    1.26400    0.06910 2715.34000   -0.03960   -0.07400   -0.03960  791.11150  190.03450    0.06910  159.08920  159.08920   16.07510    -999.25   18.49150   18.58600   18.49150  227.64920  247.60750 1518.10010    0.03780    0.03780    5.37130    4.99280    5.37130 2715.38820 2772.69210 2007.09840 20147.49020 18203.21480 18179.44730
 3050.00000  235.19970  647.68050  607.00320  471.80170  316.73630  380.86240  445.73470  694.39280  215.56510  235.19970    2.62560   -2.78020 2719.30000   -0.04200    0.03160   -0.04200  380.86240  385.27900   -2.78020  160.98910  160.98910   11.31730    -999.25   11.90920   11.51470   11.90920  235.66630  293.78590  471.80170    0.04060    0.04060    5.49000    5.05360    5.49000 2719.65260 2593.55640  647.68050 20109.71880 18443.76760 18320.74800
 3100.00000  221.31260  136.78780  128.28830  119.76040  106.10790  113.06130  123.73790  133.58800  216.91580  221.31260    8.84480   -0.57010 2723.09500   -0.04430   -0.04240   -0.04430  113.06130    7.77000   -0.57010  158.66920  158.66920   10.27270    -999.25   10.65930   10.36640   10.65930  221.28370  224.37660  119.76040    0.04620    0.04620    4.90720    4.87250    4.90720 2725.10060 2720.41280  136.78780 20108.59570 18538.45510 18615.20700
 3150.00000  241.55740  661.02060  612.62600  413.70740  317.45390  362.83890  366.95890  646.02360  214.98510  241.55740    2.75600  -10.72020 2699.66500   -0.03010   -0.00630   -0.03010  362.83890  314.94650  -10.72020  164.42330  164.42330   13.55990    -999.25   15.16420   14.46410   15.16420  238.94820  301.22500  413.70740    0.05960    0.05960    4.83220    4.87410    4.83220 2699.89330 2659.83520  661.02060 20593.48440 18757.61330 18790.84380
 3200.00000  319.68270   26.87770   26.48230   29.32470   41.82240   46.34280   45.84910   26.33060  218.99910  319.68270   21.57830   -3.76940 1799.59000    0.51540    0.40420    0.51540   46.34280   87.41480   -3.76940  179.97920  179.97920   21.38510    -999.25   22.05280   21.48430   22.05280  291.18010  374.19640   29.32470    0.28110    0.28110    3.30400    4.44770    3.30400 1792.84420 2008.06910   26.87770 20688.57810 18890.32030 18907.80270
 3250.00000  264.31340   85.11080  130.81400  135.74900  169.04950  183.81700  189.17110   82.14060  213.12290  264.31340    5.44020   -2.17360 2674.75000   -0.01500    0.14100   -0.01500  183.81700  192.44590   -2.17360  178.40130  178.40130   25.26460    -999.25   24.84420   25.07250   24.84420  259.08800  360.13810  135.74900    0.11800    0.11800    2.89420    4.29570    2.89420 2648.05050 2474.58330   85.11080 20685.31450 19381.74020 19386.67970
 3300.00000  228.12150   59.12450   55.45830   51.52850   47.03630   49.53660   48.39490   57.93700  220.81880  228.12150   20.18710    6.20240 2726.39500   -0.04630   -0.02450   -0.04630   49.53660  -10.03090    6.20240  179.36430  179.36430   36.98030    -999.25   36.63270   36.52290   36.63270  228.12250  221.74040   51.52850    0.10150    0.10150    5.31310    5.27530    5.31310 2726.32010 2691.75020   59.12450 21250.42970 19323.15820 19274.59180
 3350.00000  231.32760   74.04060   71.81650   66.04810   63.50660   63.42170   62.81080   73.85900  224.40290  231.32760   15.76750   -0.76070 2711.21500   -0.03710   -0.02040   -0.03710   63.42170  -12.06730   -0.76070  180.10380  180.10380   35.82750    -999.25   37.58200   37.19140   37.58200  230.95200  226.97730   66.04810    0.10810    0.10810    4.58900    5.54850    4.58900 2714.00170 2683.86690   74.04060 21390.98240 19557.05270 19579.65230
 3400.00000  235.77920   44.53050   43.14990   39.60540   40.16050   37.21140   36.65060   44.95290  237.34260  235.77920   26.87350   13.99810 2718.31000   -0.04140   -0.02540   -0.04140   37.21140  -12.22950   13.99810  187.98010  187.98010   41.89600    -999.25   45.78050   44.60460   45.78050  235.25020  224.11190   39.60540    0.09390    0.09390    4.80760    4.39130    4.80760 2719.02860 2690.32420   44.53050 21791.21480 19828.72070 19784.11130
 3450.00000  238.48730   26.90970   26.72780   25.32920   24.43630   23.91400   23.51720   27.44790  223.43680  238.48730   41.81650   -2.09290 2645.05000    0.00300   -0.02180    0.00300   23.91400   -7.21690   -2.09290  202.44860  202.44860   64.65480    -999.25   69.76070   70.67350   69.76070  237.77250  223.90190   25.32920    0.13940    0.13940    4.77080    4.21920    4.77080 2644.64840 2684.67630   26.90970 21755.22070 19866.98630 19973.15630
 3500.00000  223.00970   13.18670   12.82970   11.95890   11.77370   11.46820   11.24500   13.33130  217.41840  223.00970   87.19760   -1.71520 2717.15500   -0.04070   -0.03430   -0.04070   11.46820   -3.90030   -1.71520  211.97120  211.97120   68.03360    -999.25   70.25370   70.26960   70.25370  221.98220  218.51040   11.95890    0.17150    0.17150    4.54920    4.55580    4.54920 2717.18680 2705.33010   13.18670 22899.89060 20265.01760 20294.60350
 3550.00000  224.47720 2035.34300 1984.98130 1265.12450  747.08730  995.52920 1055.93350 2032.84730  216.57390  224.47720    1.00450    6.97340 2524.93000    0.07580    0.09010    0.07580  995.52920  -24.85620    6.97340  244.35690  244.35690  156.82700    -999.25  118.07150  120.08910  118.07150  221.92110  217.92340 1265.12450    0.21580    0.21580    3.80590    3.74580    3.80590 2516.74900 2490.88400 2035.34300 22570.27150 20361.24020 20435.59380
 3600.00000  222.20050   58.94470   72.97520   68.51920   69.65820   55.74090   74.18620   76.19800  216.53900  222.20050   17.94010    9.34390 2702.14000   -0.03160    0.05310   -0.03160   55.74090  143.65100    9.34390  188.62340  188.62340   57.53760    -999.25   53.06210   52.28260   53.06210  224.21800  221.04340   68.51920    0.09040    0.09040    4.85320    5.00450    4.85320 2706.96850 2561.83130   58.94470 22493.08980 20902.18950 20866.91210
 3650.00000  225.85930 2018.47190 2002.42760 1970.65890 1849.63200 1925.16280 1728.33900 1973.43910  213.01690  225.85930    0.51940   -1.83290 2730.68500   -0.04890   -0.06770   -0.04890 1925.16280  358.32900   -1.83290  157.84100  157.84100   13.22930    -999.25   12.47200   12.20120   12.47200  224.23540  249.66910 1970.65890    0.03640    0.03640    4.81630    5.03400    4.81630 2730.56710 2765.52590 2018.47190 22716.99220 20812.70700 20777.86720
 3700.00000  221.46630  639.81700  544.39480  172.28490   81.44690  114.50840   80.87630  647.30800  212.10370  221.46630    8.73300   42.42800 2775.07000   -0.07580    0.11010   -0.07580  114.50840  180.09050   42.42800  161.96240  161.96240    9.45760    -999.25    9.48170    9.29320    9.48170  221.45470  243.42790  172.28490    0.12760    0.12760    3.35740    4.22820    3.35740 2775.43360 2469.96340  639.81700 23221.50390 21546.65430 21573.14450
 3750.00000  222.24270 1960.64380 1907.45430 1455.08400  822.89690 1102.28410 1190.26990 2036.80960  213.22100  222.24270    0.90720    6.98960 2738.27500   -0.05350   -0.08700   -0.05350 1102.28410  210.89320    6.98960  161.44030  161.44030   40.94460    -999.25   51.52410   53.50300   51.52410  220.27060  229.30480 1455.08400    0.06840    0.06840    4.19060    5.33280    4.19060 2738.45560 2799.42240 1960.64380 23132.37700 21276.83200 21253.53520
