~Version ---------------------------------------------------
VERS.      2.0 : CWLS log ASCII Standard -VERSION 2.0
WRAP.       NO : One line per depth step
CREA. 11/13/17 : LAS Creation Date
~Well ------------------------------------------------------
STRT.FT                       1150.0 : START DEPTH
STOP.FT                      10450.0 : STOP DEPTH
STEP.FT                     50.00000 : STEP LENGTH
NULL.                        -999.25 : NULL VALUE
COMP.            GULF OIL CANADA LTD : COMPANY
WELL. NUMAC ET AL KAYBOBS 6-13-60-18 : WELL
FLD .                             WC : FIELD
LOC .                                : LOCATION
CTRY.                         CANADA : COUNTRY
SRVC.                   Schlumberger : SERVICE COMPANY
DATE.                    01-Mar-1977 : LOGDATE
PROV.                        Alberta : PROVINCE
UWI .               100061306018W500 : UNIQUE WELL ID
SLAT.WGS84                  54.18721 : SURFACE LATITUDE
SLON.WGS84                 -116.5675 : SURFACE LONGITUDE
~Curve Information -----------------------------------------
DEPT    .FT    : Depth Curve
CALDED  .IN    : CALIPER FROM CNFD LOG
CALSED  .IN    : CALIPER FROM BCS LOG [ADJ.TO GRDED]
CALWS   .IN    : CALIPER [CALSED SPL. TO CALDED @ 10498']
CONDWS  .MMHO  : CONDUCTIVITY [1000/DRESWS]
DCORED  .G/C3  : DENSITY CORRECTION FROM CNFD LOG
DCORWS  .G/C3  : DENSITY CORRECTION [DCORED]
DENWS   .G/C3  : FORMATION BULK DENSITY [RHOBED]
DPHILSED.V/V   : DENSITY POROSITY LIMESTONE [M=2.71, F=1.0] FROM CNFD LOG [ADJ.TO RHOBED]
DPHISSED.V/V   : DENSITY POROSITY SANDSTONE [M=2.65, F=1.0] FROM CNFD LOG [ADJ.TO RHOBED]
DPOWS   .V/V   : DENSITY POROSITY LIMESTONE [CALCULATED FROM DENWS, M=2.71, F=1.0]
DRESWS  .OHMM  : DEEP RESISTIVITY [ILDED]
DTED    .US/F  : DELTA-T FROM BCS LOG [ADJ.TO GRDED]
DTWS    .US/F  : COMPRESSIONAL SONIC [DTED]
GRDED   .GAPI  : GAMMA RAY FROM CNFD LOG
GRSED   .GAPI  : GAMMA RAY FROM BCS LOG [ADJ.TO GRDED]
GRWS    .GAPI  : GAMMA RAY [GRSED]
ILDED   .OHMM  : DEEP INDUCTION FROM DIL-LAT LOG
ILMED   .OHMM  : MEDIUM INDUCTION FROM DIL-LAT LOG
LL8ED   .OHMM  : LATEROLOG 8 FROM DIL-LAT LOG
MRESWS  .OHMM  : MEDIUM RESISTIVITY [ILMED]
NPHILSED.V/V   : NEUTRON POROSITY LIMESTONE FROM CNFD LOG [ADJ.TO RHOBED]
NPHISSED.V/V   : NEUTRON POROSITY SANDSTONE FROM CNFD LOG [ADJ.TO RHOBED]
NPOWS   .V/V   : NEUTRON POROSITY LIMESTONE [NPHISSED CONVERTED TO LIMESTONE MATRIX & SPL. TO NPHILSED @ 6970']
RHOBED  .G/C3  : FORMATION BULK DENSITY FROM CNFD LOG
SPRED   .MV    : SPONTANEOUS POTENTIAL FROM DIL-LAT LOG
SPWS    .MV    : SPONTANEOUS POTENTIAL [BASELINE 0 MV, SPRED]
SRESWS  .OHMM  : SHALLOW RESISTIVITY [LL8ED]
~Params ----------------------------------------------------
PD  .                     GL : PERMANENT DATUM
EPD .FT               2750.3 : ELEVATION PERMANENT DATUM
LMF .                     KB : LOG MEASURED FROM
DAPD.FT                 15.7 : FEET ABOVE PERMANENT DATUM
EKB .FT                 2766 : KELLY BUSHING
EGL .FT               2750.3 : GROUND LEVEL
DATE.               03/01/77 : RUN DATE
RUN .                      1 : RUN NUMBER
DD  .FT                10500 : DEPTH DRILLER
DL  .FT                10488 : DEPTH LOGGER
BLI .FT                10494 : BOTTOM LOG INTERVAL
TLI .FT                 1099 : TOP LOG INTERVAL
CBD .FT                 1099 : CASING BOTTOM DRILLER
CBL .FT                 1100 : CASING BOTTOM LOGGER
BS  .IN                 8.75 : BIT SIZE
BSD .FT                10500 : BIT SIZE AT DEPTH
DFT .                    GEL : DRILLING FLUID TYPE
DFD .                    9.1 : DRILLING FLUID DENSITY
DFV .                    115 : DRILLING FLUID VISCOSITY
DFPH.                   10.5 : DRILLING FLUID PH
DFL .                    8.8 : DRILLING FLUID LOSS
MSS .               FLOWLINE : MUD SAMPLE SOURCE
RMS .OHMM                2.6 : RESISTIVITY MUD SAMPLE
MST .DEGF                 60 : MUD SAMPLE TEMPERATURE
RMF .OHMM               2.46 : RESISTIVITY MUD FILTRATE SAMPLE
MFST.DEGF                 59 : MUD FILTRATE SAMPLE TEMPERATURE
RMB .OHMM               0.86 : RESISTIVITY MUD AT BHT
TCS .HRS                   4 : TIME CIRCULATED STOPPED
LUN .                   7669 : LOGGING UNIT NUMBER
LUL .                    EDM : LOGGING UNIT LOCATION
ENGI.                LANGTON : RECORDING ENGINEER
WITN.      ROCKNEY CHOQUETTE : WITNESSED BY
CLNT.                A2DTECH : CLIENT CODE
ORIG.            2" 5" PRINT : ORIGIN OF DATA
UWI .       100061306018W500 : UNIQUE WELL ID
DICO. A2D Technologies, Inc. : DIGITIZING COMPANY
~Other -----------------------------------------------------
~ASCII -----------------------------------------------------
# ...
 5050.00000    9.23840    9.40060    9.40060  133.78280    0.13770    0.13770    2.49670    -999.25    0.10070    0.12470    7.47480   79.30180   79.30180   93.76810   93.22090   93.22090    7.47480    8.65900    9.76410    8.65900    -999.25    0.29180    0.24780    2.49670  -77.08900   -7.32280    9.76410
 5100.00000    9.10690    9.33880    9.33880  145.27700    0.12910    0.12910    2.51550    -999.25    0.08800    0.11370    6.88340   87.93880   87.93880  111.79870  109.99840  109.99840    6.88340    7.70000    8.72160    7.70000    -999.25    0.33810    0.29430    2.51550  -75.35550   -5.67030    8.72160
 5150.00000    8.97160    9.24830    9.24830  146.49220    0.19920    0.19920    2.43280    -999.25    0.13790    0.16210    6.82630   84.51210   84.51210  109.75600  109.34390  109.34390    6.82630    7.32520    8.28580    7.32520    -999.25    0.35280    0.30920    2.43280  -75.58740   -5.98260    8.28580
 5200.00000    9.12900    9.34610    9.34610  152.84210    0.09970    0.09970    2.53700    -999.25    0.06650    0.10120    6.54270   85.71000   85.71000  107.26400  119.05140  119.05140    6.54270    7.22520    7.95450    7.22520    -999.25    0.33580    0.29200    2.53700  -74.57870   -5.05490    7.95450
 5250.00000    9.46150    9.68220    9.68220  104.89770    0.26290    0.26290    2.28190    -999.25    0.23290    0.25040    9.53310   80.88820   80.88820  103.70130  109.93040  109.93040    9.53310   10.05180   10.73030   10.05180    -999.25    0.34640    0.30270    2.28190  -76.43780   -6.99450   10.73030
 5300.00000    9.19780    9.81030    9.81030  118.97960    0.25630    0.25630    2.47750    -999.25    0.12020    0.13600    8.40480   81.62110   81.62110  110.93270  105.26810  105.26810    8.40480    9.15250    8.88970    9.15250    -999.25    0.34580    0.30210    2.47750  -75.63560   -6.27280    8.88970
 5350.00000    9.12890    9.29690    9.29690  204.06080    0.17940    0.17940    2.38530    -999.25    0.16750    0.18990    4.90050   92.53640   92.53640  111.46150  113.12490  113.12490    4.90050    5.53260    6.71810    5.53260    -999.25    0.40070    0.35780    2.38530  -73.20220   -3.92040    6.71810
 5400.00000   10.01070    9.07800    9.07800  234.86310    0.10280    0.10280    2.50020    -999.25    0.09450    0.12270    4.25780   99.28070   99.28070  171.87360  181.54830  181.54830    4.25780    4.46010    6.30350    4.46010    -999.25    0.42410    0.38170    2.50020  -72.21670   -3.01540    6.30350
 5450.00000   10.76480   10.02680   10.02680  312.73460    0.05840    0.05840    2.50020    -999.25    0.09880    0.12270    3.19760   95.92760   95.92760  101.13780   96.54400   96.54400    3.19760    3.40550    4.18460    3.40550    -999.25    0.38020    0.33700    2.50020  -72.38870   -3.26840    4.18460
 5500.00000   11.22460   11.11510   11.11510  239.71620    0.03080    0.03080    2.51160    -999.25    0.08590    0.11600    4.17160   91.55860   91.55860  111.84430  110.21390  110.21390    4.17160    4.34660    5.72190    4.34660    -999.25    0.36430    0.32080    2.51160  -71.44140   -2.40160    5.72190
 5550.00000   10.02890   10.32610   10.32610  190.73780    0.07720    0.07720    2.55070    -999.25    0.06490    0.09320    5.24280   90.28160   90.28160  112.54200  106.62950  106.62950    5.24280    5.63570    6.89770    5.63570    -999.25    0.31580    0.27190    2.55070  -72.46550   -3.50610    6.89770
 5600.00000    8.99490    9.20500    9.20500   68.39800    0.01540    0.01540    2.53700    -999.25    0.07620    0.10120   14.62030   70.87230   70.87230   56.87450   59.32220   59.32220   14.62030   18.06020   20.03890   18.06020    -999.25    0.16740    0.12450    2.53700  -85.95690  -17.22810   20.03890
 5650.00000   11.62210    9.70640    9.70640  124.27610    0.12330    0.12330    2.55830    -999.25    0.06070    0.08870    8.04660   79.81780   79.81780   92.94860   92.50330   92.50330    8.04660    8.37860    9.11670    8.37860    -999.25    0.22470    0.18100    2.55830  -74.39960   -6.05050    9.11670
 5700.00000    8.86960    9.02800    9.02800  120.69710    0.04780    0.04780    2.49870    -999.25    0.12880    0.12360    8.28520   90.27410   90.27410   79.24760   80.16450   80.16450    8.28520   10.69610    8.91530   10.69610    -999.25    0.32360    0.27970    2.49870  -72.79290   -4.82590    8.91530
 5750.00000    9.62520    9.77820    9.77820   77.59160    0.06050    0.06050    2.56830    -999.25    0.05300    0.08290   12.88800   74.63170   74.63170   84.94750   85.95360   85.95360   12.88800   14.61390   20.10690   14.61390    -999.25    0.24010    0.19630    2.56830  -80.92380  -13.33650   20.10690
 5800.00000    9.48220    9.43990    9.43990   50.23060    0.05570    0.05570    2.55480    -999.25    0.05850    0.09080   19.90820   69.39270   69.39270   50.83880   56.67720   56.67720   19.90820   22.33690   29.24860   22.33690    -999.25    0.19510    0.15170    2.55480  -83.45320  -16.24550   29.24860
 5850.00000    9.19060    9.19910    9.19910   99.15720    0.02460    0.02460    2.59320    -999.25    0.04450    0.06830   10.08500   73.41850   73.41850   79.50370   80.80620   80.80620   10.08500   10.82710   11.62800   10.82710    -999.25    0.24300    0.19910    2.59320  -74.14720   -7.32160   11.62800
 5900.00000    9.47680    9.28310    9.28310   67.33870    0.04000    0.04000    2.60760    -999.25    0.02690    0.05990   14.85030   70.58680   70.58680   59.23440   61.89250   61.89250   14.85030   16.68010   19.90180   16.68010    -999.25    0.19760    0.15420    2.60760  -79.60320  -13.15730   19.90180
 5950.00000    9.77030    9.80920    9.80920   24.38280    0.14200    0.14200    1.86340    -999.25    0.47900    0.49510   41.01260  110.94240  110.94240   62.93970   69.14480   69.14480   41.01260   60.83850   97.83710   60.83850    -999.25    0.62040    0.57870    1.86340  -70.68560   -4.62180   97.83710
 6000.00000    9.25530    9.04790    9.04790   69.02650    0.03590    0.03590    2.56820    -999.25    0.05510    0.08290   14.48720   71.55020   71.55020   81.90680   79.84970   79.84970   14.48720   15.49960   16.74380   15.49960    -999.25    0.22160    0.17790    2.56820  -79.22480  -13.54070   16.74380
 6050.00000    8.90820    9.02090    9.02090   51.78420    0.02210    0.02210    2.62220    -999.25    0.01390    0.05130   19.31090   66.36540   66.36540   63.23000   64.89810   64.89810   19.31090   23.15090   25.28550   23.15090    -999.25    0.20960    0.16600    2.62220  -76.82660  -11.52210   25.28550
 6100.00000    9.34680    9.71340    9.71340   79.17410    0.03140    0.03140    2.55660    -999.25    0.05550    0.08970   12.63040   74.08870   74.08870   61.89860   53.96040   53.96040   12.63040   13.13790   14.55880   13.13790    -999.25    0.25480    0.21090    2.55660  -85.05050  -20.12810   14.55880
 6150.00000    9.41280    9.50210    9.50210   12.94280    0.02640    0.02640    1.93950    -999.25    0.56790    0.45060   77.26320  124.49660  124.49660   28.91360   25.50670   25.50670   77.26320   89.46570  496.61290   89.46570    -999.25    0.62730    0.58560    1.93950  -74.87600  -10.33330  496.61290
 6200.00000    9.69760    9.51360    9.51360   64.09230    0.05030    0.05030    2.56670    -999.25    0.05380    0.08380   15.60250   73.89720   73.89720   60.68020   62.72310   62.72310   15.60250   17.50930   24.48710   17.50930    -999.25    0.25140    0.20750    2.56670  -72.19630   -8.03570   24.48710
 6250.00000    9.62800    9.45390    9.45390   62.98700    0.03850    0.03850    2.68460    -999.25   -0.00850    0.01490   15.87630   70.58330   70.58330   74.93070   74.76250   74.76250   15.87630   16.79050   18.74770   16.79050    -999.25    0.25160    0.20770    2.68460  -70.32120   -6.54030   18.74770
 6300.00000   10.14620    9.34980    9.34980   98.88950    0.20110    0.20110    2.44490    -999.25    0.12780    0.15500   10.11230   73.65790   73.65790   84.55310   94.97870   94.97870   10.11230   10.64300   11.40480   10.64300    -999.25    0.27580    0.23180    2.44490  -65.86450   -2.46320   11.40480
