~Version ---------------------------------------------------
VERS.      2.0 : CWLS log ASCII Standard -VERSION 2.0
WRAP.       NO : One line per depth step
CREA. 08/01/17 : LAS Creation Date
~Well ------------------------------------------------------
STRT.FT                          300.0 : START DEPTH
STOP.FT                        13100.0 : STOP DEPTH
STEP.FT                       50.00000 : STEP LENGTH
NULL.                          -999.25 : NULL VALUE
COMP.      ANADARKO CANADA CORPORATION : COMPANY
WELL.      NORCEN ET AL FERR 9-23-40-9 : WELL
FLD .                               WC : FIELD
LOC .                                  : LOCATION
CTRY.                           CANADA : COUNTRY
SRVC. Schlumberger Well Surveying Corp : SERVICE COMPANY
DATE.                      17-Jun-1956 : LOGDATE
PROV.                          Alberta : PROVINCE
UWI .                 102092304009W500 : UNIQUE WELL ID
SLAT.WGS84                    52.45946 : SURFACE LATITUDE
SLON.WGS84                   -115.1788 : SURFACE LONGITUDE
~Curve Information -----------------------------------------
DEPT  .FT     : Depth Curve
CALWS .IN     : CALIPER [MCALED]
CONDWS.MMHO   : CONDUCTIVITY [1000/DRESWS]
DRESWS.OHMM   : DEEP RESISTIVITY [LNED]
GRNED .UR/HR  : GAMMA RAY FROM NEUTRON LOG
GRWS  .GAPI   : GAMMA RAY [GRNED WAS RESCALED FROM 0-15 UR/HR TO 0-150 PSEUDO API UNIT]
LNED  .OHMM   : 64 INCH LONG NORMAL RESISTIVITY FROM EL
LT18ED.OHMM   : LATERAL 18'8" FROM EL
MCALED.IN     : CALIPER FROM MICRO LOG
MINVED.OHMM   : MICROINVERSE RESISTIVITY FROM MICROLOG
MNORED.OHMM   : MICRONORMAL RESISTIVITY FROM MICROLOG
NEUTED.CU     : NEUTRON FROM GAMMA RAY NEUTRON LOG
NEUTWS.CU     : NEUTRON[NEUTED]
SNED  .OHMM   : 16 INCH SHORT NORMAL RESISTIVITY FROM EL
SPMED .MV     : SPONTANEOUS POTENTIAL FROM MICROLOG
SPRED .MV     : SPONTANEOUS POTENTIAL FROM RESISTIVITY LOG
SPWS  .MV     : SPONTANEOUS POTENTIAL [BASELINE 0 MV] [SPRED]
SRESWS.OHMM   : SHALLOW RESISTIVITY [SNED]
~Params ----------------------------------------------------
LMF .                     KB : LOG MEASURED FROM
DMF .                     KB : DRILLING MEASURED FROM
EGL .FT                 3455 : GROUND LEVEL
DATE.               06/17/56 : RUN DATE
RUN .                      5 : RUN NUMBER
DD  .FT                13102 : DEPTH DRILLER
DL  .FT                13103 : DEPTH LOGGER
BLI .FT                13100 : BOTTOM LOG INTERVAL
TLI .FT                11000 : TOP LOG INTERVAL
BS  .IN                    9 : BIT SIZE
BSD .FT                13102 : BIT SIZE AT DEPTH
DFT .              LIME BASE : DRILLING FLUID TYPE
DFD .                   10.9 : DRILLING FLUID DENSITY
DFV .                     98 : DRILLING FLUID VISCOSITY
DFPH.                     13 : DRILLING FLUID PH
DFL .                    4.4 : DRILLING FLUID LOSS
MSS .            CIRCULATION : MUD SAMPLE SOURCE
RMS .OHMM               0.46 : RESISTIVITY MUD SAMPLE
MST .DEGF                 61 : MUD SAMPLE TEMPERATURE
RMF .OHMM               0.21 : RESISTIVITY MUD FILTRATE SAMPLE
MFST.DEGF                 79 : MUD FILTRATE SAMPLE TEMPERATURE
RMC .OHMM               0.74 : RESISTIVITY MUD CAKE
MCST.DEGF                 68 : MUD CAKE SAMPLE TEMPERATURE
TLAB.HRS                   3 : TIME LOGGER AT BOTTOM
LUN .                   1729 : LOGGING UNIT NUMBER
LUL .                     RD : LOGGING UNIT LOCATION
ENGI.                BOSWELL : RECORDING ENGINEER
WITN.                 DUNCAN : WITNESSED BY
CLNT.                A2DTECH : CLIENT CODE
ORIG.       1" 5" 25" PRINT0 : ORIGIN OF DATA
UWI .       102092304009W500 : UNIQUE WELL ID
DICO. A2D Technologies, Inc. : DIGITIZING COMPANY
~Other -----------------------------------------------------
~ASCII -----------------------------------------------------
  300.00000    8.72730   68.21380   14.65980    4.81480   48.14800   14.65980   19.68570    8.72730    7.76450    8.10160   51.74560   51.74560   11.70890  -29.90960  -34.82280  -13.83560   11.70890
  350.00000    9.04020   60.27260   16.59130    4.30860   43.08600   16.59130   18.67400    9.04020    9.08350    7.88510    7.43330    7.43330   11.08180  -26.96060  -32.56270  -11.57550   11.08180
  400.00000    8.93660  111.93570    8.93370    4.13580   41.35800    8.93370    8.34170    8.93660    3.19710    3.45190   49.43980   49.43980    4.44320  -25.95750  -31.09990  -10.11270    4.44320
  450.00000    9.03320   73.37130   13.62930    4.25930   42.59300   13.62930   12.04430    9.03320   11.28560   10.08640   37.01680   37.01680    8.77820  -27.62890  -32.09000  -11.10280    8.77820
  500.00000    9.23610   47.29920   21.14200    4.25930   42.59300   21.14200   19.88480    9.23610   16.31490   11.42770   51.96820   51.96820   18.82740  -27.87290  -32.91460  -11.92740   18.82740
  550.00000    9.21230   46.29910   21.59870    5.10000   51.00000   21.59870   24.32810    9.21230    7.49540    7.50250   49.25190   49.25190   15.08390  -23.63820  -28.36110   -7.37390   15.08390
  600.00000    8.78370   50.08610   19.96560    4.34570   43.45700   19.96560   26.15110    8.78370   10.24720    9.89720   50.34770   50.34770   17.25550  -23.36560  -28.13000   -7.14280   17.25550
  650.00000   14.57780   45.61400   21.92310    5.05000   50.50000   21.92310   29.51560   14.57780   10.52950    9.53620  105.11220  105.11220   12.42550    -999.25  -27.77970   -6.79250   12.42550
  700.00000   16.47830   53.40910   18.72340    7.28210   72.82100   18.72340   24.75710   16.47830    5.25570    6.31430  118.61640  118.61640    9.41440    -999.25  -26.41750   -5.43030    9.41440
  750.00000   16.51380   76.28870   13.10810    6.96250   69.62500   13.10810   17.97280   16.51380    4.02760    4.43510   31.98730   31.98730    9.03900    -999.25  -33.78510  -12.79790    9.03900
  800.00000   16.54340   56.09690   17.82630    6.83750   68.37500   17.82630   20.50810   16.54340    3.74320    3.75030  126.49760  126.49760    9.41440    -999.25  -37.50000  -16.51280    9.41440
  850.00000   14.71820   84.73280   11.80180    7.38460   73.84600   11.80180   18.42560   14.71820   -0.37930   -0.38000   74.18950   74.18950    6.21880    -999.25  -33.12650  -12.13930    6.21880
  900.00000   16.37270  123.82980    8.07560    7.03850   70.38500    8.07560    9.92680   16.37270    4.04840    3.88070   89.15210   89.15210    3.78950    -999.25  -31.30900  -10.32180    3.78950
  950.00000   10.39090  126.75400    7.88930    5.20000   52.00000    7.88930    8.62880   10.39090    4.06370    2.73240  106.81630  106.81630    3.14090    -999.25  -31.53610  -10.54890    3.14090
 1000.00000    -999.25   96.94340   10.31530    6.07500   60.75000   10.31530    9.46180    -999.25    -999.25    -999.25  165.97090  165.97090    5.73890    -999.25  -26.05780   -5.07060    5.73890
 1050.00000    -999.25   49.88780   20.04500    4.74070   47.40700   20.04500   20.53820    -999.25    -999.25    -999.25  289.90020  289.90020    9.71850    -999.25  -25.63250   -4.64530    9.71850
 1100.00000    -999.25   47.10870   21.22750    5.97500   59.75000   21.22750   34.28590    -999.25    -999.25    -999.25  124.69120  124.69120   18.69370    -999.25  -23.45400   -2.51020   18.69370
 1150.00000    -999.25   54.77410   18.25680    6.52500   65.25000   18.25680   23.85820    -999.25    -999.25    -999.25  125.31170  125.31170    9.32780    -999.25  -26.57450   -5.69100    9.32780
 1200.00000    -999.25   49.04530   20.38930    6.78750   67.87500   20.38930   32.29510    -999.25    -999.25    -999.25  149.88170  149.88170   10.70570    -999.25  -29.77200   -8.94890   10.70570
 1250.00000    -999.25   48.56250   20.59200    6.90000   69.00000   20.59200   26.21830    -999.25    -999.25    -999.25  221.39960  221.39960   11.26880    -999.25  -27.37950   -6.61670   11.26880
 1300.00000    -999.25   53.28700   18.76630    6.75000   67.50000   18.76630   21.13130    -999.25    -999.25    -999.25  119.41950  119.41950    9.08710    -999.25  -28.52010   -7.81760    9.08710
 1350.00000    -999.25   81.91890   12.20720    6.15000   61.50000   12.20720   40.69920    -999.25    -999.25    -999.25  141.29850  141.29850    9.24550    -999.25  -26.54050   -5.89830    9.24550
 1400.00000   10.98590   29.47640   33.92540    4.81480   48.14800   33.92540   36.19350   10.98590    9.12900    9.86300  202.92450  202.92450   21.48470    -999.25  -29.50700   -8.92510   21.48470
 1450.00000   11.46360   34.52560   28.96400    5.35000   53.50000   28.96400   28.46080   11.46360    3.51850    4.46100   84.16460   84.16460   11.66670    -999.25  -25.14730   -4.62570   11.66670
 1500.00000   12.43390   27.92450   35.81080    6.62500   66.25000   35.81080   27.16230   12.43390    3.75510    4.86500  177.68080  177.68080   18.58850    -999.25  -30.69930  -10.23800   18.58850
 1550.00000   12.44540   44.45650   22.49390    6.92500   69.25000   22.49390   35.14590   12.44540    4.66600    6.06830  108.56790  108.56790   12.39090    -999.25  -28.96080   -8.55990   12.39090
 1600.00000   11.66830   53.23740   18.78380    7.01280   70.12800   18.78380   13.69820   11.66830    6.28600    6.79010  160.22440  160.22440   12.55560    -999.25  -28.00770   -7.66710   12.55560
 1650.00000   11.32390   76.36390   13.09520    7.07690   70.76900   13.09520   51.15690   11.32390    4.99810    6.04130  137.06800  137.06800   11.93690    -999.25  -26.90960   -6.62930   11.93690
 1700.00000   11.22740   54.69950   18.28170    7.46150   74.61500   18.28170    7.64340   11.22740    2.86120    4.31650  157.80860  157.80860    8.41170    -999.25  -24.57200   -4.35200    8.41170
 1750.00000   11.25950   76.83620   13.01470    7.87180   78.71800   13.01470    7.36450   11.25950    2.54490    1.96810  131.54610  131.54610    4.78590    -999.25  -26.19540   -6.03570    4.78590
 1800.00000   10.48280   28.68530   34.86110    5.85000   58.50000   34.86110   29.40890   10.48280   14.48910   13.23860  275.00860  275.00860   25.72070    -999.25  -30.51410  -10.41470   25.72070
 1850.00000   10.91360   26.61230   37.57660    5.18750   51.87500   37.57660   63.70480   10.91360   16.00470   16.07410  264.02740  264.02740   33.07050    -999.25  -29.77030   -9.73120   33.07050
 1900.00000   10.59740   27.92450   35.81080    5.36250   53.62500   35.81080   54.03780   10.59740   17.47930   14.60750  252.51250  252.51250   24.51240    -999.25  -27.54910   -7.57040   24.51240
 1950.00000   10.41960   61.74210   16.19640    7.05130   70.51300   16.19640   82.18370   10.41960   15.80810   14.96210  184.91270  184.91270   26.44140    -999.25  -30.48390  -10.56550   26.44140
 2000.00000   10.50210   34.04900   29.36940    6.41250   64.12500   29.36940   46.06740   10.50210   15.12690   13.04560  175.60180  175.60180   24.23420    -999.25  -31.82860  -11.97050   24.23420
 2050.00000    -999.25   91.30670   10.95210    6.50000   65.00000   10.95210   24.17170    -999.25    -999.25    -999.25  101.62090  101.62090    6.67650    -999.25  -27.24800   -7.45020    6.67650
 2100.00000    -999.25   80.93430   12.35570    7.41030   74.10300   12.35570    9.70620    -999.25    -999.25    -999.25  101.60470  101.60470    4.63960    -999.25  -30.09040  -10.35290    4.63960
 2150.00000    -999.25   52.73150   18.96400    7.12820   71.28200   18.96400   19.96480    -999.25    -999.25    -999.25  119.70080  119.70080    9.84230    -999.25  -25.03890   -5.36170    9.84230
 2200.00000    9.58570   67.89000   14.72970    8.04940   80.49400   14.72970    7.64040    9.58570    4.49290    4.96200  178.27850  178.27850    9.01200    -999.25  -23.16810   -3.55130    9.01200
 2250.00000   10.33010   36.52010   27.38220    6.15000   61.50000   27.38220   27.38900   10.33010   17.77570   14.99430  282.54360  282.54360   21.64690    -999.25  -29.84690  -10.29040   21.64690
 2300.00000   10.71070   56.10760   17.82290    6.17500   61.75000   17.82290    8.03660   10.71070    6.54990    6.54990  201.37160  201.37160   10.77090    -999.25  -26.48240   -6.98620   10.77090
