~Version ---------------------------------------------------
VERS.      2.0 : CWLS log ASCII Standard -VERSION 2.0
WRAP.       NO : One line per depth step
CREA. 08/04/17 : LAS Creation Date
~Well ------------------------------------------------------
STRT.FT                           300.0 : START DEPTH
STOP.FT                         10100.0 : STOP DEPTH
STEP.FT                        50.00000 : STEP LENGTH
NULL.                           -999.25 : NULL VALUE
COMP.             CANADIAN FINA OIL LTD : COMPANY
WELL. FINA ET AL HEAVYSOUND 10-14-62-16 : WELL
FLD .                                WC : FIELD
LOC .                                   : LOCATION
CTRY.                            CANADA : COUNTRY
SRVC.            Schlumberger of Canada : SERVICE COMPANY
DATE.                       08-Apr-1960 : LOGDATE
PROV.                           Alberta : PROVINCE
UWI .                  100101406216W500 : UNIQUE WELL ID
SLAT.WGS84                     54.36487 : SURFACE LATITUDE
SLON.WGS84                    -116.2841 : SURFACE LONGITUDE
~Curve Information -----------------------------------------
DEPT  .FT         : Depth Curve
CALWS .IN         : CALIPER [MCALED]
CILDED.MMHO       : DEEP INDUCTION CONDUCTIVITY FROM IEL LOG
CONDWS.MMHO       : CONDUCTIVITY [1000/DRESWS]
DRESWS.OHMM       : DEEP RESISTIVITY [ILDED]
GRNED .UgRa-Eq/T  : GAMMA RAY FROM GRN LOG
GRWS  .GAPI       : GAMMA RAY [GRNED*16.5 TO CONVERT MG/TON TO GAPI]
ILDED .OHMM       : DEEP INDUCTION  FROM IEL LOG
LLED  .OHMM       : LATEROLOG FROM LL LOG
MCALED.IN         : MLT (MICROLOG) CALIPER FROM MICRO LOG
NEUTED.CPS        : NEUTRON FROM GRN LOG
NEUTWS.CPS        : NEUTRON [NEUTED]
SNED  .OHMM       : SHORT NORMAL RESISTIVITY FROM IEL LOG
SPR1ED.MV         : SPONTANEOUS POTENTIAL FROM LL LOG
SPRED .MV         : SPONTANEOUS POTENTIAL FROM IEL LOG
SPWS  .MV         : SPONTANEOUS POTENTIAL [BASELINE 0 MV, SPRED]
SRESWS.OHMM       : SHALLOW RESISTIVITY [SNED]
~Params ----------------------------------------------------
LMF .                     KB : LOG MEASURED FROM
DMF .                     KB : DRILLING MEASURED FROM
EKB .FT              3183.62 : KELLY BUSHING
EGL .FT               3169.7 : GROUND LEVEL
DATE.               04/08/60 : RUN DATE
RUN .                      1 : RUN NUMBER
DD  .FT                10100 : DEPTH DRILLER
DL  .FT                10110 : DEPTH LOGGER
BLI .FT                10103 : BOTTOM LOG INTERVAL
TLI .FT                 1180 : TOP LOG INTERVAL
CBD .FT                 1172 : CASING BOTTOM DRILLER
CBL .FT                 1180 : CASING BOTTOM LOGGER
BS  .IN                    9 : BIT SIZE
BSD .FT                10100 : BIT SIZE AT DEPTH
DFT .                    GEL : DRILLING FLUID TYPE
DFD .                    9.9 : DRILLING FLUID DENSITY
DFV .                    146 : DRILLING FLUID VISCOSITY
DFPH.                   10.5 : DRILLING FLUID PH
DFL .                   10.5 : DRILLING FLUID LOSS
MSS .             CIRCULATED : MUD SAMPLE SOURCE
RMS .OHMM                3.5 : RESISTIVITY MUD SAMPLE
MST .DEGF                 67 : MUD SAMPLE TEMPERATURE
RMF .OHMM               2.36 : RESISTIVITY MUD FILTRATE SAMPLE
MFST.DEGF                 63 : MUD FILTRATE SAMPLE TEMPERATURE
RMC .OHMM                4.7 : RESISTIVITY MUD CAKE
MCST.DEGF                 62 : MUD CAKE SAMPLE TEMPERATURE
MFSS.                   MEAS : MUD FILTRATE SAMPLE SOURCE
MCSS.                   MEAS : MUD CAKE SAMPLE SOURCE
RMB .OHMM               1.14 : RESISTIVITY MUD AT BHT
TCS .HRS                 700 : TIME CIRCULATED STOPPED
LUN .                   1573 : LOGGING UNIT NUMBER
LUL .                   C WC : LOGGING UNIT LOCATION
ENGI.              HAUSEGGER : RECORDING ENGINEER
WITN.        WENDEBORN ANKLE : WITNESSED BY
CLNT.                A2DTECH : CLIENT CODE
ORIG.            2" 5" PRINT : ORIGIN OF DATA
UWI .       100101406216W500 : UNIQUE WELL ID
DICO. A2D Technologies, Inc. : DIGITIZING COMPANY
~Other -----------------------------------------------------
~ASCII -----------------------------------------------------
# ...
 2450.00000   11.57920  292.45180  333.77840    2.99600    4.23270   69.83960    2.99600    -999.25   11.57920  177.45250  177.45250    4.57690    -999.25  -76.89870   -2.80640    4.57690
 2500.00000   10.53260  231.16190  250.19390    3.99690    4.19350   69.19280    3.99690    7.22620   10.53260  208.20620  208.20620    6.35800  -69.25380  -77.98160   -4.15130    6.35800
 2550.00000    9.37240   76.36760   72.05160   13.92250    2.70200   44.58220   13.92250   31.23070    9.37240  244.98350  244.98350   19.01320  -74.71190  -82.12560   -8.45680   19.01320
 2600.00000    8.93130   87.92390   87.62710   11.41200    2.86480   47.26920   11.41200   17.25530    8.93130  203.94900  203.94900   15.13550  -88.49660  -96.82770  -23.29850   15.13550
 2650.00000    9.06380  129.06860  131.04360    7.63150    3.61730   59.68550    7.63150   10.26670    9.06380  198.19290  198.19290    9.79310  -81.48560  -91.99400  -18.60360    9.79310
 2700.00000    9.41610   87.57280   86.87490   11.51080    3.06830   50.62690   11.51080   11.96530    9.41610  236.43490  236.43490   16.50490  -73.11270  -80.73550   -7.48470   16.50490
 2750.00000   10.83820  350.75000  395.17880    2.53050    4.52160   74.60640    2.53050    5.10780   10.83820  173.34010  173.34010    3.59270  -66.15660  -74.93270   -1.82070    3.59270
 2800.00000   10.09550  173.78640  182.36990    5.48400    4.30190   70.98050    5.48400    8.62580   10.09550  203.32040  203.32040    7.12820  -66.55580  -75.17610   -2.20280    7.12820
 2850.00000   10.40660  334.03430  377.07390    2.65200    4.20360   69.35940    2.65200    4.91640   10.40660  178.74660  178.74660    4.93390  -66.63500  -74.89350   -2.05990    4.93390
 2900.00000    9.30120  196.53930  192.24460    5.23540    3.97430   65.57600    5.23540   11.21320    9.30120  202.00680  202.00680    7.53730  -66.67260  -75.92240   -3.22750    7.53730
 2950.00000   10.24160  231.75690  243.03110    4.11470    3.73120   61.56480    4.11470   10.95880   10.24160  216.44550  216.44550    7.23500  -66.75300  -74.32160   -1.76640    7.23500
 3000.00000   10.69040  307.07440  336.02150    2.97600    4.20950   69.45680    2.97600    5.86320   10.69040  187.44510  187.44510    4.39500  -65.99630  -73.42880   -1.01230    4.39500
 3050.00000   10.30250   93.71470   92.30210   10.84070    2.90050   47.85820   10.84070   13.43060   10.30250  173.70810  173.70810   15.75650  -69.36720  -77.04210   -4.76430   15.75650
 3100.00000   11.34940  211.52710  218.70350    4.57240    3.93840   64.98360    4.57240    8.46950   11.34940  195.11650  195.11650    6.67750  -67.46490  -74.54350   -2.40540    6.67750
 3150.00000   12.24210  223.24620  246.95820    4.04950    3.69910   61.03510    4.04950    7.15550   12.24210  196.37570  196.37570    5.42840  -65.78990  -73.56870   -1.56930    5.42840
 3200.00000   11.34760  302.74390  339.21300    2.94800    4.15600   68.57400    2.94800    5.68620   11.34760  177.52180  177.52180    4.43740  -66.09110  -73.44660   -1.58690    4.43740
 3250.00000    9.96220   43.38380   42.33570   23.62070    2.52030   41.58500   23.62070   26.82810    9.96220  230.24150  230.24150   27.68690  -94.94310  -97.20640  -25.48540   27.68690
 3300.00000    9.20880   89.73830   90.47570   11.05270    2.96690   48.95300   11.05270   15.74340    9.20880  208.39240  208.39240   14.05960  -81.59010  -89.41690  -17.83470   14.05960
 3350.00000   11.16010  197.19560  200.46510    4.98840    3.72110   61.39820    4.98840    8.81210   11.16010  202.44300  202.44300    6.93910  -65.23340  -73.40740   -1.96480    6.93910
 3400.00000    9.85890  202.53370  220.53440    4.53660    3.91860   64.65690    4.53660    7.23950    9.85890  193.85990  193.85990    6.18930  -63.79680  -72.34690   -1.04310    6.18930
 3450.00000   11.70390  275.60710  309.80850    3.22780    4.18590   69.06740    3.22780    5.66250   11.70390  185.46100  185.46100    4.78700  -64.53730  -71.81500   -0.48110    4.78700
 3500.00000   13.31800  213.77120  232.98080    4.29220    4.50220   74.28630    4.29220    7.49220   13.31800  183.75790  183.75790    6.44790  -66.07770  -72.72540   -1.16690    6.44790
 3550.00000   15.45450  170.61970  177.06230    5.64780    5.53940   91.40010    5.64780    9.50280   15.45450  183.47010  183.47010    7.17640  -69.99080  -76.72230   -4.93930    7.17640
 3600.00000   15.17810  211.10280  224.20520    4.46020    5.71460   94.29090    4.46020    8.43800   15.17810  174.39500  174.39500    6.27150  -70.50860  -76.40740   -4.39830    6.27150
 3650.00000   15.57920  207.49430  225.47920    4.43500    6.20440  102.37340    4.43500    8.54330   15.57920  168.92270  168.92270    6.54130  -71.09660  -75.98460   -3.75090    6.54130
 3700.00000   15.40630  128.23790  129.43640    7.72580    6.35830  104.91190    7.72580   14.73600   15.40630  183.60970  183.60970   11.16480  -67.91190  -74.12430   -2.66460   11.16480
 3750.00000   15.19560  158.13790  166.20680    6.01660    5.86470   96.76760    6.01660   11.03790   15.19560  165.78970  165.78970    8.61400  -68.45340  -73.65810   -2.40860    8.61400
 3800.00000   14.34720  148.86310  152.99910    6.53630    6.04900   99.80770    6.53630   10.67370   14.34720  177.08370  177.08370    8.48170  -68.49410  -74.70730   -3.77940    8.48170
 3850.00000   13.60510  185.94670  195.29340    5.12050    5.63200   92.92800    5.12050    9.69020   13.60510  177.02460  177.02460    7.05580  -68.98330  -74.87400   -4.26980    7.05580
 3900.00000   13.53760  176.47220  186.95710    5.34960    5.62670   92.84050    5.34960    8.24090   13.53760  173.23350  173.23350    7.23600  -69.86410  -74.96090   -4.67830    7.23600
 3950.00000   11.82780  201.54830  214.59690    4.65990    6.11450  100.88920    4.65990    7.51950   11.82780  173.87750  173.87750    6.45650  -68.64150  -74.53640   -4.57750    6.45650
 4000.00000   12.33370  184.56180  196.32870    5.09350    6.05370   99.88600    5.09350    8.90860   12.33370  173.14510  173.14510    7.07260  -68.61020  -73.47160   -3.83430    7.07260
 4050.00000   12.28410  188.89330  201.96040    4.95150    6.30840  104.08940    4.95150    8.38570   12.28410  166.32380  166.32380    6.88030  -67.94950  -73.60260   -4.28690    6.88030
 4100.00000   12.14360  195.34460  205.22080    4.87280    6.06060   99.99990    4.87280    8.42050   12.14360  168.15270  168.15270    6.50100  -68.54210  -72.90690   -3.91490    6.50100
 4150.00000   12.72950  165.29930  169.77730    5.89030    5.83560   96.28740    5.89030    9.44310   12.72950  170.92000  170.92000    7.72190  -68.60280  -72.10340   -3.43300    7.72190
 4200.00000   11.48450  226.59210  245.57350    4.07210    5.81220   95.90130    4.07210    7.49780   11.48450  169.32540  169.32540    5.99360  -68.87420  -73.32210   -4.97540    5.99360
 4250.00000   12.03880  138.31260  140.39420    7.12280    5.15820   85.11030    7.12280   10.55910   12.03880  180.02680  180.02680    9.10790  -67.71400  -71.56280   -3.53770    9.10790
 4300.00000   11.72500  162.40370  164.44940    6.08400    5.67300   93.60450    6.08400    9.18830   11.72500  170.67520  170.67520    8.44450  -65.48080  -70.21870   -2.51520    8.44450
 4350.00000   13.28020  146.89910  153.03390    6.53450    5.47280   90.30120    6.53450   10.31990   13.28020  174.83090  174.83090    8.52760  -65.82130  -70.37450   -3.31920    8.52760
 4400.00000   15.18270  153.59340  158.51070    6.30950    5.80590   95.79650    6.30950    9.34790   15.18270  178.73140  178.73140    8.11400  -65.87880  -70.12480   -3.74340    8.11400
 4450.00000   15.86540  177.94740  184.17560    5.42960    5.94500   98.09250    5.42960    9.87430   15.86540  165.26570  165.26570    7.92480  -63.65710  -68.38640   -2.68340    7.92480
 4500.00000   15.23840  163.36840  168.54600    5.93310    6.83890  112.84180    5.93310   10.06760   15.23840  176.84320  176.84320    8.34300  -63.41750  -66.57850   -1.54940    8.34300
 4550.00000   14.26320  159.49540  164.34690    6.08470    6.69560  110.47820    6.08470   10.37090   14.26320  160.84940  160.84940    9.20300  -63.19520  -65.89980   -1.54470    9.20300
