~Version ---------------------------------------------------
VERS.      2.0 : CWLS log ASCII Standard -VERSION 2.0
WRAP.       NO : One line per depth step
CREA. 09/22/17 : LAS Creation Date
~Well ------------------------------------------------------
STRT.FT                1200.0 : START DEPTH
STOP.FT               10800.0 : STOP DEPTH
STEP.FT              50.00000 : STEP LENGTH
NULL.                 -999.25 : NULL VALUE
COMP. SUN OIL COMPANY LIMITED : COMPANY
WELL. BEC ROSEVEAR 6-34-54-15 : WELL
FLD .                         : FIELD
LOC .                         : LOCATION
CTRY.                  CANADA : COUNTRY
SRVC.  Schlumberger of Canada : SERVICE COMPANY
DATE.             25-Mar-1971 : LOGDATE
PROV.                 Alberta : PROVINCE
UWI .        100063405415W500 : UNIQUE WELL ID
SLAT.WGS84           53.70553 : SURFACE LATITUDE
SLON.WGS84          -116.1304 : SURFACE LONGITUDE
~Curve Information -----------------------------------------
DEPT   .FT    : Depth Curve
CALIED .IN    : CALIPER FROM SNP LOG [ADJ. TO RESISTIVITY LOG]
CALSED .IN    : CALIPER FROM SONIC LOG [ADJ. TO RESISTIVITY LOG]
CALWS  .IN    : CALIPER [CALSED]
CILDED .MMHO  : CONDUCTIVITY FROM RESISTIVITY LOG
CONDWS .MMHO  : CONDUCTIVITY [1000/DRESWS]
DRESWS .OHMM  : DEEP RESISTIVITY [1000/CILDED IF ILDED<=5, ILDED]
DTED   .US/F  : DELTA T FROM SONIC LOG [ADJ. TO RESISTIVITY LOG]
DTWS   .US/F  : COMPRESSIONAL SONIC [DTED]
GRED   .GAPI  : GAMMA RAY FROM SNP LOG [ADJ. TO RESISTIVITY LOG]
GRNED  .GAPI  : GAMMA RAY NEUTRON FROM GRN LOG [ADJ. TO RESISTIVITY LOG]
GRSED  .GAPI  : GAMMA RAY FROM SONIC LOG [ADJ. TO RESISTIVITY LOG]
GRWS   .GAPI  : GAMMA RAY [GRSED SPL. TO GRNED @ 10735']
ILDED  .OHMM  : DEEP INDUCTION FROM RESISTIVITY LOG
ILMED  .OHMM  : MEDIUM INDUCTION FROM RESISTIVITY LOG
LL8ED  .OHMM  : LATEROLOG 8' FROM RESISTIVITY LOG
MRESWS .OHMM  : MEDIUM RESISTIVITY [ILMED]
NEUTED .NAPI  : NEUTRON FROM GRN LOG [ADJ. TO RESISTIVITY LOG]
NEUTWS .NAPI  : NEUTRON [NEUTED]
NPOLSWS.V/V   : NEUTRON POROSITY LIMESTONE [SNPLSED]
SNED   .OHMM  : SHORT NORMAL FROM RESISTIVITY LOG
SNPLSED.V/V   : SIDEWALL NEUTRON POROSITY LIMESTONE FROM SNP LOG [ADJ. TO RESISTIVITY LOG]
SPRED  .MV    : SPONTANEOUS POTENTIAL FROM RESISTIVITY LOG
SPWS   .MV    : SPONTANEOUS POTENTIAL [BASELINE 0 MV, SPRED]
SRESWS .OHMM  : SHALLOW RESISTIVITY [SNED SPL. TO LL8ED @ 4794']
~Params ----------------------------------------------------
PD  .                     GL : PERMANENT DATUM
EPD .FT               2803.5 : ELEVATION PERMANENT DATUM
LMF .                     KB : LOG MEASURED FROM
DAPD.FT                 15.5 : FEET ABOVE PERMANENT DATUM
EKB .FT                 2819 : KELLY BUSHING
EGL .FT               2803.5 : GROUND LEVEL
DATE.               03/25/71 : RUN DATE
RUN .                      1 : RUN NUMBER
DD  .FT                10590 : DEPTH DRILLER
DL  .FT                10587 : DEPTH LOGGER
BLI .FT                10581 : BOTTOM LOG INTERVAL
TLI .FT                 1243 : TOP LOG INTERVAL
CBD .FT                 1243 : CASING BOTTOM DRILLER
CBL .FT                 1243 : CASING BOTTOM LOGGER
BS  .IN                 8.75 : BIT SIZE
BSD .FT                10590 : BIT SIZE AT DEPTH
DFT .                    GEL : DRILLING FLUID TYPE
DFD .                   11.1 : DRILLING FLUID DENSITY
DFV .                    127 : DRILLING FLUID VISCOSITY
DFPH.                     10 : DRILLING FLUID PH
DFL .                      6 : DRILLING FLUID LOSS
MSS .                   CIRC : MUD SAMPLE SOURCE
RMS .OHMM               1.34 : RESISTIVITY MUD SAMPLE
MST .DEGF                 68 : MUD SAMPLE TEMPERATURE
RMF .OHMM               0.95 : RESISTIVITY MUD FILTRATE SAMPLE
MFST.DEGF                 50 : MUD FILTRATE SAMPLE TEMPERATURE
RMC .OHMM               1.98 : RESISTIVITY MUD CAKE
MCST.DEGF                 52 : MUD CAKE SAMPLE TEMPERATURE
RMB .OHMM               0.32 : RESISTIVITY MUD AT BHT
TCS .HRS                   4 : TIME CIRCULATED STOPPED
LUN .                   5628 : LOGGING UNIT NUMBER
ENGI.               PUOURSON : RECORDING ENGINEER
WITN.                 BAANUT : WITNESSED BY
CLNT.                A2DTECH : CLIENT CODE
ORIG.            2" 5" PRINT : ORIGIN OF DATA
UWI .       100063405415W500 : UNIQUE WELL ID
DICO. A2D Technologies, Inc. : DIGITIZING COMPANY
~Other -----------------------------------------------------
DIL-GRN-SNP-BCS LOG RAN.
~ASCII -----------------------------------------------------
 1200.00000    -999.25    -999.25    -999.25    -999.25    -999.25    -999.25    -999.25    -999.25    -999.25    -999.25   39.59020   39.59020    -999.25    -999.25    -999.25    -999.25    -999.25    -999.25    -999.25    -999.25    -999.25    -999.25    -999.25    -999.25
 1250.00000    -999.25   10.70350   10.70350  246.34470  260.38950    3.84040  100.56520  100.56520    -999.25    -999.25   68.29530   68.29530    3.84040    -999.25    -999.25    -999.25    -999.25    -999.25    -999.25    5.08030    -999.25  -73.71570   -2.50660    5.08030
 1300.00000    -999.25   10.80180   10.80180  246.96500  240.82450    4.16460  112.15340  112.15340    -999.25    -999.25   61.26100   61.26100    4.16460    -999.25    -999.25    -999.25    -999.25    -999.25    -999.25    4.75210    -999.25  -77.22040   -3.26040    4.75210
 1350.00000    -999.25   10.69430   10.69430  197.35730  209.97380    4.76250   96.30450   96.30450    -999.25    -999.25   55.74430   55.74430    4.76250    -999.25    -999.25    -999.25    -999.25    -999.25    -999.25    4.67910    -999.25  -76.43380   -3.53970    4.67910
 1400.00000    -999.25   11.30120   11.30120   90.07440   85.55350   11.69210   90.74590   90.74590    -999.25    -999.25   53.13810   53.13810   11.69210    -999.25    -999.25    -999.25    -999.25    -999.25    -999.25   10.05270    -999.25  -77.15060   -4.37690   10.05270
 1450.00000    -999.25   10.55180   10.55180   71.17300   65.63490   15.23580   96.86930   96.86930    -999.25    -999.25   43.37460   43.37460   15.23580    -999.25    -999.25    -999.25    -999.25    -999.25    -999.25   11.30060    -999.25  -81.04140   -9.94980   11.30060
 1500.00000    -999.25   11.28310   11.28310  194.12330  193.31140    5.17300   98.10650   98.10650    -999.25    -999.25   68.39780   68.39780    5.17300    -999.25    -999.25    -999.25    -999.25    -999.25    -999.25    5.48260    -999.25  -74.36630   -4.59760    5.48260
 1550.00000    -999.25   10.80530   10.80530  200.49540  206.02430    4.85380   95.30370   95.30370    -999.25    -999.25   70.08930   70.08930    4.85380    -999.25    -999.25    -999.25    -999.25    -999.25    -999.25    5.07310    -999.25  -73.75840   -3.81500    5.07310
 1600.00000    -999.25   10.11810   10.11810   59.21940   53.84570   18.57160   88.48960   88.48960    -999.25    -999.25   47.04410   47.04410   18.57160    -999.25    -999.25    -999.25    -999.25    -999.25    -999.25   14.36570    -999.25  -79.77380   -9.65620   14.36570
 1650.00000    -999.25   10.61210   10.61210  138.47120  141.56180    7.06860   85.55730   85.55730    -999.25    -999.25   63.99640   63.99640    7.06860    -999.25    -999.25    -999.25    -999.25    -999.25    -999.25    7.11760    -999.25  -72.60260   -2.31480    7.11760
 1700.00000    -999.25   10.56230   10.56230  161.15000  161.10580    6.20710   86.12650   86.12650    -999.25    -999.25   59.56570   59.56570    6.20710    -999.25    -999.25    -999.25    -999.25    -999.25    -999.25    6.00370    -999.25  -73.29790   -3.53310    6.00370
 1750.00000    -999.25   11.08500   11.08500  161.42950  161.35280    6.19760   89.49390   89.49390    -999.25    -999.25   69.07130   69.07130    6.19760    -999.25    -999.25    -999.25    -999.25    -999.25    -999.25    5.81170    -999.25  -72.45940   -3.29930    5.81170
 1800.00000    -999.25   10.65050   10.65050  157.05780  157.06560    6.36790   86.75760   86.75760    -999.25    -999.25   62.91580   62.91580    6.36790    -999.25    -999.25    -999.25    -999.25    -999.25    -999.25    6.07700    -999.25  -72.14890   -3.82000    6.07700
 1850.00000    -999.25   10.59650   10.59650  136.13790  134.13280    7.45530   84.29770   84.29770    -999.25    -999.25   70.00220   70.00220    7.45530    -999.25    -999.25    -999.25    -999.25    -999.25    -999.25    6.62620    -999.25  -71.45990   -3.96940    6.62620
 1900.00000    -999.25   10.62350   10.62350   68.81230   62.83390   15.94380   87.89800   87.89800    -999.25    -999.25   54.23240   54.23240   15.94380    -999.25    -999.25    -999.25    -999.25    -999.25    -999.25   13.73620    -999.25  -77.78380  -11.40750   13.73620
 1950.00000    -999.25   10.90900   10.90900  263.30860  275.05020    3.63570  103.08380  103.08380    -999.25    -999.25   71.32200   71.32200    3.63570    -999.25    -999.25    -999.25    -999.25    -999.25    -999.25    4.69950    -999.25  -67.72610   -1.50600    4.69950
 2000.00000    -999.25   10.37600   10.37600  399.25720  495.85960    2.01670  152.75060  152.75060    -999.25    -999.25   91.82370   91.82370    2.01670    -999.25    -999.25    -999.25    -999.25    -999.25    -999.25    3.72550    -999.25  -67.43950   -1.66030    3.72550
 2050.00000    -999.25   10.99110   10.99110  193.64790  193.54460    5.16770   94.96490   94.96490    -999.25    -999.25   72.80320   72.80320    5.16770    -999.25    -999.25    -999.25    -999.25    -999.25    -999.25    5.42920    -999.25  -68.34090   -3.07930    5.42920
 2100.00000    -999.25   11.21590   11.21590  157.18210  172.64000    5.79240   88.38600   88.38600    -999.25    -999.25   73.32740   73.32740    5.79240    -999.25    -999.25    -999.25    -999.25    -999.25    -999.25    6.48110    -999.25  -69.47870   -3.22900    6.48110
 2150.00000    -999.25   11.00700   11.00700  207.52350  214.32340    4.67060   98.63000   98.63000    -999.25    -999.25   75.32010   75.32010    4.67060    -999.25    -999.25    -999.25    -999.25    -999.25    -999.25    5.28030    -999.25  -67.75010   -1.65060    5.28030
 2200.00000    -999.25   11.39350   11.39350  175.74940  175.53710    5.69680   84.16470   84.16470    -999.25    -999.25   57.63550   57.63550    5.69680    -999.25    -999.25    -999.25    -999.25    -999.25    -999.25    5.62570    -999.25  -68.65610   -3.89840    5.62570
 2250.00000    -999.25   11.27390   11.27390  238.53230  252.35960    3.96260   95.57320   95.57320    -999.25    -999.25   75.12980   75.12980    3.96260    -999.25    -999.25    -999.25    -999.25    -999.25    -999.25    4.87710    -999.25  -67.80860   -3.09190    4.87710
 2300.00000    -999.25   11.34990   11.34990  118.02520  114.11530    8.77590   78.81900   78.81900    -999.25    -999.25   56.24900   56.24900    8.77590    -999.25    -999.25    -999.25    -999.25    -999.25    -999.25    8.48870    -999.25  -68.50210   -3.36750    8.48870
 2350.00000    -999.25   10.68100   10.68100  170.89430  170.92260    5.85060   80.33790   80.33790    -999.25    -999.25   55.80100   55.80100    5.85060    -999.25    -999.25    -999.25    -999.25    -999.25    -999.25    5.84190    -999.25  -67.87410   -2.35290    5.84190
 2400.00000    -999.25   10.56550   10.56550  253.01870  265.95630    3.76020   97.70240   97.70240    -999.25    -999.25   76.06090   76.06090    3.76020    -999.25    -999.25    -999.25    -999.25    -999.25    -999.25    4.29550    -999.25  -69.87950   -5.21890    4.29550
 2450.00000    -999.25   11.12530   11.12530  221.57770  222.56840    4.49300   96.90700   96.90700    -999.25    -999.25   65.19960   65.19960    4.49300    -999.25    -999.25    -999.25    -999.25    -999.25    -999.25    5.16860    -999.25  -68.93600   -5.14340    5.16860
 2500.00000    -999.25   10.65400   10.65400  242.34050  238.56670    4.19170   93.81800   93.81800    -999.25    -999.25   68.38310   68.38310    4.19170    -999.25    -999.25    -999.25    -999.25    -999.25    -999.25    4.64010    -999.25  -65.74980   -3.34230    4.64010
 2550.00000    -999.25   10.64790   10.64790   81.87400   79.05430   12.65230   75.92090   75.92090    -999.25    -999.25   48.47340   48.47340   12.65230    -999.25    -999.25    -999.25    -999.25    -999.25    -999.25   12.47330    -999.25  -66.52060   -4.00550   12.47330
 2600.00000    -999.25   11.28570   11.28570  177.13530  185.84600    5.38080   93.25950   93.25950    -999.25    -999.25   73.78780   73.78780    5.38080    -999.25    -999.25    -999.25    -999.25    -999.25    -999.25    5.82210    -999.25  -64.22710   -2.09910    5.82210
