~Version ---------------------------------------------------
VERS.      2.0 : CWLS log ASCII Standard -VERSION 2.0
WRAP.       NO : One line per depth step
CREA. 10/01/14 : LAS Creation Date
~Well ------------------------------------------------------
STRT.FT                        1500.0 : START DEPTH
STOP.FT                        9650.0 : STOP DEPTH
STEP.FT                      50.00000 : STEP LENGTH
NULL.                         -999.25 : NULL VALUE
COMP.           OCELOT INDUSTRIES LTD : COMPANY
WELL. OIL ET AL VIRGHILLS 11-15-63-13 : WELL
FLD .                                 : FIELD
LOC .                                 : LOCATION
CTRY.                          CANADA : COUNTRY
SRVC.                   Dresser Atlas : SERVICE COMPANY
DATE.                     19-Jun-1978 : LOGDATE
PROV.                         Alberta : PROVINCE
UWI .                100111506313W500 : UNIQUE WELL ID
SLAT.WGS84                   54.45302 : SURFACE LATITUDE
SLON.WGS84                  -115.8819 : SURFACE LONGITUDE
~Curve Information -----------------------------------------
DEPT    .FT    : DEPTH METER
CALD    .IN    : CALIPER FROM CDL-CNL LOG
CALD1   .IN    : CALIPER FROM CNFD LOG
CORR    .G/C3  : DENSITY CORRECTION FROM CDL-CNL LOG
DCOR1   .G/C3  : DENSITY CORRECTION FROM CNFD LOG
DPHI_LS .DEC   : DENSITY POROSITY LIMESTONE [M=2.71,F=1.0] FROM CDL-CNL LOG
DPHI_SS .DEC   : DENSITY POROSITY SANDSTONE [M=2.65,F=1.0] FROM CDL-CNL LOG
DPHI_SS1.DEC   : DENSITY POROSITY SANDSTONE [M=2.65,F=1.0] FROM CNFD LOG
GRD     .GAPI  : GAMMA RAY FROM CDL-CNL LOG
GRD1    .GAPI  : GAMMA RAY FROM CNFD LOG
ILD     .OHMM  : DEEP INDUCTION FROM RESISTIVITY LOG
ILM     .OHMM  : MEDIUM INDUCTION FROM RESISTIVITY LOG
NPHI_LS .DEC   : NEUTRON POROSITY LIMESTONE FROM CDL-CNL LOG
NPHI_SS .DEC   : NEUTRON POROSITY SANDSTONE FROM CDL-CNL LOG
NPHI_SS1.DEC   : NEUTRON POROSITY SANDSTONE FROM CNFD LOG
RHOB    .G/C3  : BULK DENSITY FROM CDL-CNL LOG
RHOB1   .G/C3  : BULK DENSITY FROM CNFD LOG
SFL     .OHMM  : SPHERICALLY FOCUSED FROM RESISTIVITY LOG
SPR     .MV    : SPONTANEOUS POTENTIAL FROM RESISTIVITY LOG
~Params ----------------------------------------------------
PD  .                     GL : PERMANENT DATUM
EPD .FT               3435.5 : ELEVATION PERMANENT DATUM
LMF .                     KB : LOG MEASURED FROM
DAPD.FT                 15.5 : FEET ABOVE PERMANENT DATUM
DMF .                     KB : DRILLING MEASURED FROM
EKB .FT                 3451 : KELLY BUSHING
EGL .FT               3435.5 : GROUND LEVEL
DATE.               06/19/78 : RUN DATE
RUN .                      1 : RUN NUMBER
DD  .FT                 9683 : DEPTH DRILLER
DL  .FT                 9684 : DEPTH LOGGER
BLI .FT                 9681 : BOTTOM LOG INTERVAL
TLI .FT                 1517 : TOP LOG INTERVAL
CS  .IN                8.625 : CASING SIZE
CBD .FT                 1517 : CASING BOTTOM DRILLER
CBL .FT                 1517 : CASING BOTTOM LOGGER
BS  .IN                7.875 : BIT SIZE
BSD .FT                 9683 : BIT SIZE AT DEPTH
DFT .               GEL CHEM : DRILLING FLUID TYPE
DFD .                    9.1 : DRILLING FLUID DENSITY
DFV .                     65 : DRILLING FLUID VISCOSITY
DFPH.                      9 : DRILLING FLUID PH
DFL .                     11 : DRILLING FLUID LOSS
MSS .                   CIRC : MUD SAMPLE SOURCE
RMS .OHMM                  3 : RESISTIVITY MUD SAMPLE
MST .DEGF                 76 : MUD SAMPLE TEMPERATURE
RMF .OHMM                2.8 : RESISTIVITY MUD FILTRATE SAMPLE
MFST.DEGF                 72 : MUD FILTRATE SAMPLE TEMPERATURE
RMC .OHMM                2.5 : RESISTIVITY MUD CAKE
MCST.DEGF                 72 : MUD CAKE SAMPLE TEMPERATURE
MFSS.                   MEAS : MUD FILTRATE SAMPLE SOURCE
MCSS.                   MEAS : MUD CAKE SAMPLE SOURCE
RMB .OHMM               1.23 : RESISTIVITY MUD AT BHT
TCS .HRS                   5 : TIME CIRCULATED STOPPED
LUN .                HL 6155 : LOGGING UNIT NUMBER
LUL .                     VV : LOGGING UNIT LOCATION
ENGI.                 GORDON : RECORDING ENGINEER
WITN.                  BROCK : WITNESSED BY
CLNT.                A2DTECH : CLIENT CODE
ORIG.            2" 5" PRINT : ORIGIN OF DATA
UWI .       100111506313W500 : UNIQUE WELL ID
DICO. A2D Technologies, Inc. : DIGITIZING COMPANY
~Other -----------------------------------------------------
~ASCII -----------------------------------------------------
# ...
 3450.00000    -999.25    9.70520    -999.25    0.20090    -999.25    -999.25    0.36100    -999.25  117.88730    5.19970    5.46770    -999.25    -999.25    0.48930    -999.25    2.06900    5.85270  -35.72790
 3500.00000    -999.25    8.12090    -999.25    0.05840    -999.25    -999.25    0.08530    -999.25  115.58950    8.13270   10.56740    -999.25    -999.25    0.35290    -999.25    2.50490   10.99000  -35.55590
 3550.00000    -999.25    8.69380    -999.25    0.17220    -999.25    -999.25    0.17770    -999.25  129.02260    6.03050    6.82350    -999.25    -999.25    0.41950    -999.25    2.34750    8.45600  -33.57230
 3600.00000    -999.25    9.69880    -999.25    0.19010    -999.25    -999.25    0.19460    -999.25  113.30700    5.68940    6.39430    -999.25    -999.25    0.40250    -999.25    2.28240    6.38550  -36.39790
 3650.00000    -999.25   10.38040    -999.25    0.14190    -999.25    -999.25    0.23900    -999.25  113.72260    5.76090    5.98900    -999.25    -999.25    0.39240    -999.25    2.24770    6.80750  -37.66430
 3700.00000    -999.25   10.01880    -999.25    0.14030    -999.25    -999.25    0.28220    -999.25  111.80010    5.40650    5.94840    -999.25    -999.25    0.45600    -999.25    2.14520    6.86250  -37.93670
 3750.00000    -999.25   10.16290    -999.25    0.18360    -999.25    -999.25    0.23420    -999.25  115.78560    6.25150    7.19660    -999.25    -999.25    0.38940    -999.25    2.27080    8.21990  -36.79020
 3800.00000    -999.25    9.24560    -999.25    0.13620    -999.25    -999.25    0.18080    -999.25  114.01830    5.60120    6.22890    -999.25    -999.25    0.47310    -999.25    2.35470    6.03290  -38.86350
 3850.00000    -999.25    9.35420    -999.25    0.20070    -999.25    -999.25    0.28340    -999.25  116.03850    6.11330    6.79680    -999.25    -999.25    0.48510    -999.25    2.20930    5.97720  -40.37000
 3900.00000    -999.25    8.56210    -999.25    0.10680    -999.25    -999.25    0.27030    -999.25  118.86640    6.34310    6.93530    -999.25    -999.25    0.41830    -999.25    2.22470    7.35010  -38.14280
 3950.00000    -999.25    8.43190    -999.25    0.03080    -999.25    -999.25    0.25340    -999.25  122.60700    4.88130    5.15790    -999.25    -999.25    0.45740    -999.25    2.18930    5.44470  -39.09110
 4000.00000    -999.25    8.51340    -999.25    0.19110    -999.25    -999.25    0.21050    -999.25  116.06130    6.73160    7.11850    -999.25    -999.25    0.41350    -999.25    2.32780    7.67740  -39.20240
 4050.00000    -999.25    8.95010    -999.25    0.16040    -999.25    -999.25    0.04100    -999.25  114.01450    6.32240    6.89790    -999.25    -999.25    0.42480    -999.25    2.56080    8.96020  -37.86030
 4100.00000    -999.25    9.28470    -999.25    0.23690    -999.25    -999.25    0.21450    -999.25  123.52240    6.52960    6.87960    -999.25    -999.25    0.39020    -999.25    2.29910    7.12100  -35.34510
 4150.00000    -999.25    8.90750    -999.25    0.25010    -999.25    -999.25    0.23970    -999.25  133.45450    5.17130    5.45750    -999.25    -999.25    0.45620    -999.25    2.17930    6.43830  -34.36820
 4200.00000    -999.25    9.32940    -999.25    0.25310    -999.25    -999.25    0.27170    -999.25  126.22760    5.56060    5.67720    -999.25    -999.25    0.45750    -999.25    2.11620    6.56780  -33.65070
 4250.00000    -999.25    8.82930    -999.25    0.16190    -999.25    -999.25    0.12800    -999.25  141.85400    6.13930    6.24480    -999.25    -999.25    0.43210    -999.25    2.42890    7.23450  -35.60320
 4300.00000    -999.25    8.17850    -999.25    0.05230    -999.25    -999.25    0.10380    -999.25  148.84020    5.90900    6.10510    -999.25    -999.25    0.45500    -999.25    2.48010    7.51720  -33.04690
 4350.00000    -999.25    8.01030    -999.25    0.00330    -999.25    -999.25    0.12920    -999.25  169.79180    7.01150    7.33310    -999.25    -999.25    0.44490    -999.25    2.43010   10.02400  -34.10140
 4400.00000    -999.25    7.99430    -999.25    0.02590    -999.25    -999.25    0.20780    -999.25  181.83890    5.73280    6.52440    -999.25    -999.25    0.46540    -999.25    2.31970    7.63230  -35.13990
 4450.00000    -999.25   10.38120    -999.25    0.23770    -999.25    -999.25    0.28920    -999.25  123.11200    4.04800    4.23320    -999.25    -999.25    0.40300    -999.25    2.18260    5.48110  -33.31940
 4500.00000    -999.25    8.00680    -999.25    0.09820    -999.25    -999.25    0.10780    -999.25  104.99790    6.43740    7.53450    -999.25    -999.25    0.35370    -999.25    2.45410    7.80950  -52.42470
 4550.00000    -999.25    8.46410    -999.25    0.19660    -999.25    -999.25    0.07840    -999.25  126.66250    5.05540    5.35760    -999.25    -999.25    0.38000    -999.25    2.51630    5.64790  -34.29120
 4600.00000    -999.25    8.69210    -999.25    0.12150    -999.25    -999.25    0.09300    -999.25  111.11020    5.90740    6.16000    -999.25    -999.25    0.36210    -999.25    2.52900    5.72810  -36.35990
 4650.00000    -999.25    9.94960    -999.25    0.21810    -999.25    -999.25    0.19110    -999.25  132.50070    3.83250    3.95570    -999.25    -999.25    0.39800    -999.25    2.35500    4.49000  -32.46800
 4700.00000    -999.25   11.74740    -999.25    0.20820    -999.25    -999.25    0.21410    -999.25  114.59580    3.52940    3.67920    -999.25    -999.25    0.46800    -999.25    2.29570    4.32590  -33.25800
 4750.00000    -999.25    9.90270    -999.25    0.19990    -999.25    -999.25    0.19960    -999.25  166.42380    2.01240    2.12140    -999.25    -999.25    0.48620    -999.25    2.35070    4.02860  -32.46460
 4800.00000    8.60050   10.38410    0.04240    0.17830    -999.25    0.30530    0.27050  131.31360  126.70660    1.99500    2.10950    -999.25    0.41670    0.51130    2.18160    2.19160    3.39960  -31.65100
 4850.00000    9.75170    9.85710    0.07830    0.24160    -999.25    0.20270    0.20150  129.67070  118.70300    3.29930    3.55300    -999.25    0.35750    0.39550    2.27640    2.38590    3.62010  -31.99990
 4900.00000    9.79190   10.24530    0.09760    0.20270    -999.25    0.24210    0.16220  134.21010  122.51460    2.68050    2.89970    -999.25    0.35810    0.41140    2.25180    2.37300    3.55550  -31.48110
 4950.00000    8.79330    8.58730    0.03480    0.06540    -999.25    0.09680    0.08400  122.32850  128.64310    4.70800    5.38310    -999.25    0.26570    0.33790    2.45180    2.49380    5.79850  -35.41370
 5000.00000    7.35270    7.40090    0.09990    0.12080    -999.25    0.08940    0.09570   86.23170   70.94840   10.68960   15.66560    -999.25    0.23080    0.26440    2.48750    2.48290   17.65570  -52.36090
 5050.00000    7.96490    8.22820    0.12210   -0.00040    -999.25    0.06530    0.09060   91.52340   81.64670    5.26190    6.13340    -999.25    0.26990    0.36390    2.52910    2.52890    6.64590  -39.79890
 5100.00000    8.33660    8.36100    0.12330    0.09020    -999.25    0.01100   -0.00860  112.18120   90.09210    4.96240    5.20150    -999.25    0.32480    0.38300    2.59600    2.79730    7.55010  -33.74900
 5150.00000    8.63060    8.98690    0.00470    0.02290    -999.25    0.09780    0.06500   93.94070   75.22820    7.27870    7.73430    -999.25    0.29370    0.30810    2.49200    2.52650    8.16470  -43.04060
 5200.00000    9.96780    9.18920    0.08440    0.09850    -999.25    0.42250    0.13920  110.00280  116.29260    5.00600    5.22540    -999.25    0.41730    0.40230    2.26750    2.20580    6.53150  -31.32500
 5250.00000    9.17080   10.45290    0.00670    0.16090    -999.25    0.23910    0.38380  117.20550   98.79040    3.15170    3.62490    -999.25    0.39020    0.57250    2.23160    2.03880    4.04150  -30.20780
 5300.00000    9.13840   10.08940    0.07810    0.03230    -999.25    0.05840    0.11680  106.41670   92.03450    6.70490    6.96980    -999.25    0.31900    0.36360    2.44240    2.50450    7.21950  -30.38130
 5350.00000    9.09100    9.59060    0.02430    0.06770    -999.25    0.09820    0.04170  107.61610   88.93070    7.10550    7.38580    -999.25    0.27820    0.31330    2.47830    2.57440    9.32130  -42.08000
