~Version ---------------------------------------------------
VERS.      2.0 : CWLS log ASCII Standard -VERSION 2.0
WRAP.       NO : One line per depth step
CREA. 12/21/17 : LAS Creation Date
~Well ------------------------------------------------------
STRT.FT                    300.0 : START DEPTH
STOP.FT                   9850.0 : STOP DEPTH
STEP.FT                 50.00000 : STEP LENGTH
NULL.                    -999.25 : NULL VALUE
COMP. PHILLIPS PETROLEUM COMPANY : COMPANY
WELL.    PHILLIPS A KAYBOB 10-16 : WELL
FLD .                     kaybob : FIELD
LOC .                            : LOCATION
CTRY.                     CANADA : COUNTRY
SRVC.                      Welex : SERVICE COMPANY
DATE.                21-Apr-1958 : LOGDATE
PROV.                    Alberta : PROVINCE
UWI .           100101606419W500 : UNIQUE WELL ID
SLAT.WGS84              54.53981 : SURFACE LATITUDE
SLON.WGS84             -116.8075 : SURFACE LONGITUDE
~Curve Information -----------------------------------------
DEPT   .FT    : Depth Curve
CALMED .IN    : CALIPER FROM MICROLOG
CALWS  .IN    : CALIPER (CALMED)
CILDED .MMHO  : CONDUCTIVITY FROM LOG
CONDWS .MMHO  : CONDUCTIVITY (1000/DRESWS)
DRESWS .OHMM  : DEEP RESISTIVITY (GUARDED)
GRED   .GAPI  : GAMMA RAY CBL -CASED HOLE (ADJ TO RES.)
GRNED  .CPS   : GAMMA RAY GR/NEUTRON LOG (ADJ TO RES.)
GRWS   .GAPI  : GAMMA RAY (GRED/GRNED @ 1502')
GUARDED.OHMM  : GUARD LOG RESISTIVITY 10'
NEUTED .CPS   : NEUTRON GR/NEUTRON LOG (ADJ TO RES.)
NEUTWS .CPS   : NEUTRON (NEUTED)
SPMED  .MV    : SPONTANEOUS POTENTIAL FROM MICROLOG
SPRED  .MV    : Spontaneous Potential  RESISTIVITY LOG
SPWS   .MV    : SPONTANEOUS POTENTIAL BASELINE 0 MV (SPRED)
~Params ----------------------------------------------------
PD  .                     CF : PERMANENT DATUM
LMF .                     KB : LOG MEASURED FROM
DAPD.FT                   13 : FEET ABOVE PERMANENT DATUM
DMF .                     KB : DRILLING MEASURED FROM
EKB .FT                 2512 : KELLY BUSHING
EDF .FT                 2510 : DRILLING FLOOR
EGL .FT                 2499 : GROUND LEVEL
DATE.               04/21/58 : RUN DATE
RUN .                      1 : RUN NUMBER
DD  .FT                 9900 : DEPTH DRILLER
DL  .FT                 9896 : DEPTH LOGGER
BLI .FT                 9891 : BOTTOM LOG INTERVAL
TLI .FT                 1510 : TOP LOG INTERVAL
CS  .IN                10.75 : CASING SIZE
CBD .FT                 1510 : CASING BOTTOM DRILLER
CBL .FT                 1510 : CASING BOTTOM LOGGER
BS  .IN                7.875 : BIT SIZE
BSD .FT                 9900 : BIT SIZE AT DEPTH
DFT .            OIL MULSION : DRILLING FLUID TYPE
DFD .                   10.6 : DRILLING FLUID DENSITY
DFV .                    112 : DRILLING FLUID VISCOSITY
DFPH.                   10.0 : DRILLING FLUID PH
DFL .                    4.8 : DRILLING FLUID LOSS
MSS .             CIRCULATED : MUD SAMPLE SOURCE
RMS .OHMM               2.75 : RESISTIVITY MUD SAMPLE
MST .DEGF                 58 : MUD SAMPLE TEMPERATURE
RMF .OHMM               0.65 : RESISTIVITY MUD FILTRATE SAMPLE
MFST.DEGF                180 : MUD FILTRATE SAMPLE TEMPERATURE
RMC .OHMM               1.15 : RESISTIVITY MUD CAKE
MCST.DEGF                180 : MUD CAKE SAMPLE TEMPERATURE
RMB .OHMM               0.94 : RESISTIVITY MUD AT BHT
ENGI.         FOWLER CARBERT : RECORDING ENGINEER
WITN.         HANKINS FOSTER : WITNESSED BY
CLNT.                A2DTECH : CLIENT CODE
ORIG.            2" 5" PRINT : ORIGIN OF DATA
UWI .       100101606419W500 : UNIQUE WELL ID
DICO. A2D Technologies, Inc. : DIGITIZING COMPANY
~Other -----------------------------------------------------
CILDED does not appear to be a standard curve as seen on IE logs, therefore, did not use it.
~ASCII -----------------------------------------------------
# ...
 7650.00000    -999.25    -999.25    0.90000    1.41420  707.11680   10.55430   39.04120   39.04120  707.11680  749.73930  749.73930    -999.25 -233.93080 -131.58090
 7700.00000    -999.25    -999.25    1.07420    1.31790  758.76200    2.42820   36.41030   36.41030  758.76200  702.82900  702.82900    -999.25 -304.65410 -203.76440
 7750.00000    -999.25    -999.25    4.43750    8.19370  122.04500    4.54040   39.70930   39.70930  122.04500  742.44320  742.44320    -999.25 -284.02160 -184.59220
 7800.00000    -999.25    -999.25    0.84930    0.63880 1565.34790    6.18980   39.33430   39.33430 1565.34790  708.81740  708.81740    -999.25 -257.57150 -159.60240
 7850.00000    -999.25    -999.25    1.21760    1.54830  645.86980    8.21590   41.08080   41.08080  645.86980  718.49980  718.49980    -999.25 -291.64320 -195.13430
 7900.00000    -999.25    -999.25    0.72660    0.18150 5509.00290    5.34260   37.33060   37.33060 5509.00290  646.14530  646.14530    -999.25 -237.32710 -142.27850
 7950.00000    -999.25    -999.25    0.75840    0.27330 3659.26860    3.94270   35.52520   35.52520 3659.26860  584.76880  584.76880    -999.25 -343.61640 -250.02810
 8000.00000    -999.25    -999.25    1.14890    1.29430  772.58940    3.62370   35.12660   35.12660  772.58940  634.35350  634.35350    -999.25 -312.66840 -220.54030
 8050.00000    -999.25    -999.25    2.25950    3.44780  290.03720   11.01170   38.87050   38.87050  290.03720  746.99590  746.99590    -999.25 -352.81830 -262.15050
 8100.00000    -999.25    -999.25    1.89790    2.84530  351.45620    4.40950   34.06700   34.06700  351.45620  771.50780  771.50780    -999.25 -297.43570 -208.22820
 8150.00000    -999.25    -999.25    1.82550    2.93070  341.21290   68.37290   38.02670   38.02670  341.21290  688.53110  688.53110    -999.25 -291.02670 -203.27940
 8200.00000    -999.25    -999.25    1.73200    3.40520  293.66850   32.41500   46.38050   46.38050  293.66850  632.14810  632.14810    -999.25 -257.65710 -171.37010
 8250.00000    -999.25    -999.25   17.83630   34.93510   28.62450   11.88390   38.73950   38.73950   28.62450  520.73380  520.73380    -999.25 -258.99600 -174.16930
 8300.00000    -999.25    -999.25    1.47290    2.30750  433.36040   14.37860   51.56300   51.56300  433.36040  698.14090  698.14090    -999.25 -127.73530  -44.36880
 8350.00000    -999.25    -999.25    1.41750    1.26570  790.05130   10.24260   52.81170   52.81170  790.05130  684.14310  684.14310    -999.25 -194.31990 -112.41370
 8400.00000    -999.25    -999.25   11.69300   25.77350   38.79950   18.80450   66.71870   66.71870   38.79950  465.70240  465.70240    -999.25 -165.47990  -85.03400
 8450.00000    -999.25    -999.25    6.74640   16.30400   61.33450   13.70230   63.61550   63.61550   61.33450  539.80830  539.80830    -999.25 -171.14290  -92.15720
 8500.00000    -999.25    -999.25   12.01050   24.22370   41.28190   22.10620   68.19810   68.19810   41.28190  588.35570  588.35570    -999.25 -165.27070  -87.74530
 8550.00000    -999.25    -999.25   19.10000   46.67770   21.42350   24.85870   73.10630   73.10630   21.42350  537.82910  537.82910    -999.25 -157.03500  -80.96990
 8600.00000    -999.25    -999.25    7.14340   16.15100   61.91580   19.26060   72.29570   72.29570   61.91580  635.14500  635.14500    -999.25 -159.28530  -84.68040
 8650.00000    -999.25    -999.25   51.48550  105.89290    9.44350   19.50150   64.28900   64.28900    9.44350  477.94370  477.94370    -999.25 -151.29030  -78.14570
 8700.00000    -999.25    -999.25   25.26570   61.62110   16.22820   23.71080   67.52510   67.52510   16.22820  521.64120  521.64120    -999.25 -164.32630  -92.64190
 8750.00000    -999.25    -999.25   18.24560   38.59740   25.90850   23.57520   66.17780   66.17780   25.90850  555.76230  555.76230    -999.25 -186.17700 -115.95290
 8800.00000    -999.25    -999.25   99.92920  381.17020    2.62350   25.30670  100.42970  100.42970    2.62350  313.55500  313.55500    -999.25 -202.18960 -133.42580
 8850.00000    -999.25    -999.25   99.90460  431.77890    2.31600   31.31280   90.03530   90.03530    2.31600  289.69930  289.69930    -999.25 -183.04100 -115.73740
 8900.00000    -999.25    -999.25   99.94420  338.90260    2.95070   39.28850   99.74660   99.74660    2.95070  293.56150  293.56150    -999.25 -172.71650 -106.87320
 8950.00000    -999.25    -999.25  100.05140  494.68220    2.02150   35.39040   93.57370   93.57370    2.02150  285.19110  285.19110    -999.25 -156.03530  -91.65230
 9000.00000    -999.25    -999.25  100.05240  389.25650    2.56900   40.29830  106.87380  106.87380    2.56900  277.99450  277.99450    -999.25 -113.64920  -50.72640
 9050.00000    -999.25    -999.25   47.59440  102.22340    9.78250   28.75510   74.41810   74.41810    9.78250  425.58040  425.58040    -999.25  -83.01930  -21.55680
 9100.00000    -999.25    -999.25   49.62650  116.77330    8.56360   36.35120   95.48210   95.48210    8.56360  401.75050  401.75050    -999.25  -60.45390   -0.45170
 9150.00000    -999.25    -999.25   56.78970  147.36870    6.78570   45.26960  112.78050  112.78050    6.78570  383.49020  383.49020    -999.25  -57.56630    0.97570
 9200.00000    -999.25    -999.25   52.87600  118.62960    8.42960   36.94850  114.65670  114.65670    8.42960  387.12390  387.12390    -999.25 -116.73350  -59.65180
 9250.00000    -999.25    -999.25   72.61270  187.10820    5.34450   52.39020  121.09740  121.09740    5.34450  354.52900  354.52900    -999.25 -134.67720  -79.05580
 9300.00000    -999.25    -999.25   58.09930  167.68680    5.96350   52.91000  124.45160  124.45160    5.96350  357.61400  357.61400    -999.25 -156.35100 -102.18980
 9350.00000    -999.25    -999.25   78.22360  210.57510    4.74890   39.52330  107.57550  107.57550    4.74890  331.71910  331.71910    -999.25 -154.64270 -101.94180
 9400.00000    -999.25    -999.25   87.98220  236.81530    4.22270   39.99500  110.59450  110.59450    4.22270  327.77670  327.77670    -999.25 -120.40600  -69.16540
 9450.00000    -999.25    -999.25    1.56980    2.75350  363.17930   60.05670  124.07950  124.07950  363.17930  467.61540  467.61540    -999.25  -96.21960  -46.43920
 9500.00000    -999.25    -999.25    2.15560    3.07810  324.87330   95.07930  145.57440  145.57440  324.87330  614.95130  614.95130    -999.25  -65.79190  -17.47180
 9550.00000    -999.25    -999.25   11.58720   19.94690   50.13310   48.37010  125.06760  125.06760   50.13310  370.42510  370.42510    -999.25  -59.28690  -11.03980
 9600.00000    -999.25    -999.25    0.79990    1.64040  609.62250   27.95100   95.52060   95.52060  609.62250  477.45880  477.45880    -999.25  -77.72090  -29.47380
 9650.00000    -999.25    -999.25   10.67360   20.18810   49.53420   13.67000   75.12920   75.12920   49.53420  492.81230  492.81230    -999.25 -111.39400  -63.14690
 9700.00000    -999.25    -999.25    3.15410    2.78600  358.93900    -999.25   50.30110   50.30110  358.93900  757.65580  757.65580    -999.25 -214.20950 -165.96240
 9750.00000    -999.25    -999.25    4.99030   10.52160   95.04300    -999.25   51.64920   51.64920   95.04300  592.63290  592.63290    -999.25 -287.29430 -239.04720
 9800.00000    -999.25    -999.25    4.00760    8.18840  122.12460    -999.25   63.75110   63.75110  122.12460  635.17460  635.17460    -999.25 -300.82260 -252.57550
 9850.00000    -999.25    -999.25    5.90450   14.01790   71.33740    -999.25   63.89440   63.89440   71.33740  672.98210  672.98210    -999.25 -281.63170 -233.38460
