~Version ---------------------------------------------------
VERS.      2.0 : CWLS log ASCII Standard -VERSION 2.0
WRAP.       NO : One line per depth step
CREA. 12/11/17 : LAS Creation Date
~Well ------------------------------------------------------
STRT.FT                1000.0 : START DEPTH
STOP.FT                9350.0 : STOP DEPTH
STEP.FT              50.00000 : STEP LENGTH
NULL.                 -999.25 : NULL VALUE
COMP.   TEXACO CANADA LIMITED : COMPANY
WELL. TEXCAN WABAT 7-29-72-22 : WELL
FLD .                         : FIELD
LOC .                         : LOCATION
CTRY.                  CANADA : COUNTRY
SRVC.            Schlumberger : SERVICE COMPANY
DATE.             20-Nov-1973 : LOGDATE
PROV.                 Alberta : PROVINCE
UWI .        100072907222W500 : UNIQUE WELL ID
SLAT.WGS84           55.26257 : SURFACE LATITUDE
SLON.WGS84          -117.3421 : SURFACE LONGITUDE
~Curve Information -----------------------------------------
DEPT  .FT    : Depth Curve
CALSED.IN    : CALIPER FROM SONIC LOG
CALWS .IN    : CALIPER [CALSED]
CONDWS.MMHO  : CONDUCTIVITY [1000/DRESWS]
DRESWS.OHMM  : DEEP RESISTIVITY [ILDED]
DTED  .US/F  : DELTA- TIME FROM SONIC LOG
DTWS  .US/F  : COMPRESSIONAL SONIC [DTED]
GRED  .GAPI  : GAMMA RAY FROM GR LOG
GRSED .GAPI  : GAMMA RAY FROM SONIC LOG
GRWS  .GAPI  : GAMMA RAY [GRSED]
ILDED .OHMM  : DEEP INDUCTION RESISTIVITY FROM RESISTIVITY LOG
ILMED .OHMM  : MEDIUM INDUCTION RESISTIVITY FROM RESISTIVITY LOG
LL8ED .OHMM  : LATEROLOG 8 RESISTIVITY FROM RESISTIVITY LOG
MCALED.IN    : MICRO CALIPER FROM ML LOG [ADJ. TO RESISTIVITY LOG]
MRESWS.OHMM  : MEDIUM RESISTIVITY [ILMED]
SPRED .MV    : SPONTANEOUS POTENTIAL FROM RESISTIVITY LOG
SPWS  .MV    : SPONTANEOUS POTENTIAL [BASELINE 0 MV, SPRED]
SRESWS.OHMM  : SHALLOW RESISTIVITY [LL8ED]
~Params ----------------------------------------------------
PD  .                     GL : PERMANENT DATUM
EPD .FT               2350.7 : ELEVATION PERMANENT DATUM
LMF .                     KB : LOG MEASURED FROM
DAPD.FT                 18.6 : FEET ABOVE PERMANENT DATUM
EKB .FT               2369.3 : KELLY BUSHING
EGL .FT               2350.7 : GROUND LEVEL
DATE.               11/20/73 : RUN DATE
RUN .                      1 : RUN NUMBER
DD  .FT                 9395 : DEPTH DRILLER
DL  .FT                 9392 : DEPTH LOGGER
BLI .FT                 9386 : BOTTOM LOG INTERVAL
TLI .FT                  990 : TOP LOG INTERVAL
CBD .FT                  991 : CASING BOTTOM DRILLER
CBL .FT                  990 : CASING BOTTOM LOGGER
BS  .IN                 8.75 : BIT SIZE
BSD .FT                 9395 : BIT SIZE AT DEPTH
DFT .                    GEL : DRILLING FLUID TYPE
DFD .                    9.6 : DRILLING FLUID DENSITY
DFV .                    100 : DRILLING FLUID VISCOSITY
DFPH.                    9.5 : DRILLING FLUID PH
DFL .                    9.6 : DRILLING FLUID LOSS
RMS .OHMM                3.1 : RESISTIVITY MUD SAMPLE
MST .DEGF                 65 : MUD SAMPLE TEMPERATURE
RMF .OHMM               3.82 : RESISTIVITY MUD FILTRATE SAMPLE
MFST.DEGF                 71 : MUD FILTRATE SAMPLE TEMPERATURE
RMC .OHMM               3.02 : RESISTIVITY MUD CAKE
MCST.DEGF                 67 : MUD CAKE SAMPLE TEMPERATURE
RMB .OHMM               1.35 : RESISTIVITY MUD AT BHT
TCS .HRS                   4 : TIME CIRCULATED STOPPED
LUN .                   7502 : LOGGING UNIT NUMBER
LUL .                    EDM : LOGGING UNIT LOCATION
ENGI.           EARLEY LEITH : RECORDING ENGINEER
WITN.      WILCOCK PATTERSON : WITNESSED BY
CLNT.                A2DTECH : CLIENT CODE
ORIG.            2" 5" PRINT : ORIGIN OF DATA
UWI .       100072907222W500 : UNIQUE WELL ID
DICO. A2D Technologies, Inc. : DIGITIZING COMPANY
~Other -----------------------------------------------------
~ASCII -----------------------------------------------------
 1000.00000   11.46210   11.46210  244.72020    4.08630  142.69650  142.69650    -999.25   55.37420   55.37420    4.08630    3.84030    5.94830   13.57840    3.84030  -93.62900  -54.73370    5.94830
 1050.00000   13.90610   13.90610  241.91400    4.13370  147.20980  147.20980    -999.25   53.20340   53.20340    4.13370    3.87640    4.80060   16.99530    3.87640  -99.33240  -60.43710    4.80060
 1100.00000   12.77200   12.77200  146.50300    6.82580  132.69130  132.69130    -999.25   66.76320   66.76320    6.82580    6.02570   10.45200   18.37000    6.02570  -96.97420  -58.07890   10.45200
 1150.00000   11.39280   11.39280  153.18630    6.52800  120.98830  120.98830    -999.25   76.02730   76.02730    6.52800    5.76000    9.53830   18.50800    5.76000  -63.37760  -24.48230    9.53830
 1200.00000   10.83120   10.83120  181.19220    5.51900  131.42010  131.42010    -999.25   72.61050   72.61050    5.51900    4.93970    9.29900   18.94390    4.93970  -64.03360  -25.13830    9.29900
 1250.00000   10.19490   10.19490  236.83770    4.22230  137.21410  137.21410    -999.25   94.80510   94.80510    4.22230    3.62680    8.26080   18.90050    3.62680  -55.17850  -16.28320    8.26080
 1300.00000   13.40140   13.40140  138.31260    7.23000  125.74740  125.74740    -999.25   98.12870   98.12870    7.23000    6.23650   17.98830   18.40780    6.23650  -53.81620  -14.92090   17.98830
 1350.00000   15.04020   15.04020  144.99480    6.89680  143.71490  143.71490    -999.25   75.61860   75.61860    6.89680    5.83730   11.58260   17.02080    5.83730  -59.48250  -20.58180   11.58260
 1400.00000   15.00000   15.00000  121.43290    8.23500  155.51260  155.51260    -999.25   74.66380   74.66380    8.23500    5.90700   10.19620   16.51800    5.90700  -58.54990  -19.62950   10.19620
 1450.00000   15.00000   15.00000  147.92680    6.76010  198.92460  198.92460    -999.25   60.18070   60.18070    6.76010    4.78310    6.58340   18.91890    4.78310  -65.55850  -26.61820    6.58340
 1500.00000   15.00000   15.00000  135.95820    7.35520  175.98050  175.98050    -999.25   71.90250   71.90250    7.35520    5.09620    6.79540   16.62950    5.09620  -63.98050  -25.02060    6.79540
 1550.00000   15.00000   15.00000  135.09680    7.40210  168.69610  168.69610    -999.25   67.90250   67.90250    7.40210    5.41740    7.18660   18.36820    5.41740  -60.33930  -21.35970    7.18660
 1600.00000   15.31840   15.31840  149.04460    6.70940  196.23220  196.23220    -999.25   43.78310   43.78310    6.70940    4.10660    7.39060   15.27440    4.10660  -63.88810  -24.88860    7.39060
 1650.00000   15.00000   15.00000  134.92000    7.41180  186.45720  186.45720    -999.25   61.96590   61.96590    7.41180    4.94900    6.84980   18.82760    4.94900  -66.83450  -27.81540    6.84980
 1700.00000   14.71680   14.71680  146.10480    6.84440  137.86730  137.86730    -999.25   75.91180   75.91180    6.84440    4.84170    7.04950   17.93570    4.84170  -66.05440  -27.01540    7.04950
 1750.00000   15.00000   15.00000  126.23230    7.92190  141.28310  141.28310    -999.25   76.30200   76.30200    7.92190    5.56350    7.40310   18.22040    5.56350  -69.89640  -30.83770    7.40310
 1800.00000   15.00000   15.00000  160.14350    6.24440  161.52770  161.52770    -999.25   84.13790   84.13790    6.24440    4.68050    6.81220   18.56890    4.68050  -67.86860  -28.79030    6.81220
 1850.00000   11.86430   11.86430  188.14320    5.31510  121.82410  121.82410    -999.25  100.52810  100.52810    5.31510    4.22190    6.71950   16.44740    4.22190  -64.20530  -25.10710    6.71950
 1900.00000   10.25350   10.25350  150.06230    6.66390  121.41640  121.41640    -999.25  105.70540  105.70540    6.66390    5.48200    8.06240   16.53670    5.48200  -66.50750  -27.38960    8.06240
 1950.00000   10.80610   10.80610  155.31330    6.43860  116.45140  116.45140    -999.25  116.17250  116.17250    6.43860    5.36730    8.06860   16.47590    5.36730  -64.91800  -25.78030    8.06860
 2000.00000   10.87310   10.87310  154.83950    6.45830  121.78850  121.78850    -999.25  105.49960  105.49960    6.45830    5.38480    8.29240   16.12590    5.38480  -68.52100  -29.36360    8.29240
 2050.00000   10.56040   10.56040  172.52680    5.79620  122.23810  122.23810    -999.25  182.84480  182.84480    5.79620    4.83560    7.52430   14.34370    4.83560  -61.11340  -21.93630    7.52430
 2100.00000   11.86180   11.86180  147.69090    6.77090  136.66990  136.66990    -999.25   79.31380   79.31380    6.77090    5.13470    7.28700   14.69990    5.13470  -72.93790  -33.74100    7.28700
 2150.00000    9.16340    9.16340  104.26010    9.59140   99.53050   99.53050    -999.25   73.83350   73.83350    9.59140   10.37320   14.40900    9.60980   10.37320  -86.36790  -47.15130   14.40900
 2200.00000    9.39340    9.39340  165.38220    6.04660  100.46540  100.46540    -999.25   93.97970   93.97970    6.04660    5.40050    7.22750    9.95570    5.40050  -64.66970  -25.43330    7.22750
 2250.00000   10.01140   10.01140  218.38830    4.57900  114.93970  114.93970    -999.25   84.64400   84.64400    4.57900    4.01970    5.75830   11.12710    4.01970  -62.42890  -23.17280    5.75830
 2300.00000    9.57370    9.57370  224.41150    4.45610  106.41830  106.41830    -999.25   95.37840   95.37840    4.45610    3.95280    5.57620   10.83900    3.95280  -62.42260  -23.14680    5.57620
 2350.00000    8.64080    8.64080  124.30850    8.04450  102.40910  102.40910    -999.25   60.65730   60.65730    8.04450    9.26980   14.63250    8.69020    9.26980 -108.13610  -68.84050   14.63250
 2400.00000    9.73680    9.73680  190.65780    5.24500  102.89360  102.89360    -999.25   93.61080   93.61080    5.24500    4.71880    6.52340   10.95480    4.71880  -62.74900  -23.43370    6.52340
 2450.00000   10.31400   10.31400  260.30140    3.84170  111.38470  111.38470    -999.25   85.13680   85.13680    3.84170    3.25450    4.79070   11.61940    3.25450  -63.12690  -23.79180    4.79070
 2500.00000   11.43930   11.43930  339.33960    2.94690  110.53670  110.53670    -999.25   92.39590   92.39590    2.94690    2.87480    4.67010   14.34750    2.87480  -63.55600  -24.20120    4.67010
 2550.00000    9.88170    9.88170  240.22290    4.16280  115.06630  115.06630    -999.25   88.03260   88.03260    4.16280    3.63110    5.48170   10.26540    3.63110  -62.72240  -23.34790    5.48170
 2600.00000   11.00870   11.00870  243.86080    4.10070  103.50160  103.50160    -999.25   86.94100   86.94100    4.10070    3.77790    5.84630   11.06220    3.77790  -64.11690  -24.72260    5.84630
 2650.00000   10.83910   10.83910  357.02810    2.80090  118.26030  118.26030    -999.25  100.91920  100.91920    2.80090    2.47810    4.12900   12.13880    2.47810  -58.96020  -19.54620    4.12900
 2700.00000   11.25560   11.25560  448.73230    2.22850  123.94240  123.94240    -999.25   76.18710   76.18710    2.22850    1.89370    3.43610   12.51620    1.89370  -60.53930  -21.10550    3.43610
 2750.00000   13.63910   13.63910  373.03690    2.68070  115.42170  115.42170    -999.25   71.77760   71.77760    2.68070    2.33320    3.96090   14.25600    2.33320  -61.53490  -22.08140    3.96090
 2800.00000   13.59690   13.59690  309.47300    3.23130  105.05730  105.05730    -999.25   77.17700   77.17700    3.23130    2.82210    4.24480   13.62700    2.82210  -62.69250  -23.21930    4.24480
 2850.00000   11.95460   11.95460  338.48970    2.95430  101.98180  101.98180    -999.25   80.74440   80.74440    2.95430    2.53310    3.70560   12.48020    2.53310  -63.90620  -24.41320    3.70560
 2900.00000   12.93550   12.93550  248.96680    4.01660  104.24710  104.24710    -999.25   77.41910   77.41910    4.01660    3.56420    5.22140   12.28800    3.56420  -63.86430  -24.35160    5.22140
 2950.00000    8.55450    8.55450  187.67360    5.32840   93.43430   93.43430    -999.25   27.07510   27.07510    5.32840    7.16050   14.32370    8.67150    7.16050 -134.43560  -94.90310   14.32370
 3000.00000    9.18730    9.18730  165.21550    6.05270  100.17150  100.17150    -999.25   55.65690   55.65690    6.05270    7.15530   16.14020    9.45930    7.15530 -101.95100  -62.39880   16.14020
