~Version ---------------------------------------------------
VERS. 2.0 : CWLS log ASCII Standard -VERSION 2.0
WRAP.  NO : ONE LINE PER DEPTH STEP
~Well ------------------------------------------------------
STRT.F                        1050.0 : START DEPTH
STOP.F                       11000.0 : STOP DEPTH
STEP.F                      50.00000 : STEP LENGTH
NULL.                        -999.25 : NULL VALUE
COMP.           PETROFINA CANADA LTD : COMPANY
WELL. FINA AMOCO HB GROAT 10-9-58-16 : WELL
FLD .                             WC : FIELD
LOC .                                : LOCATION
CTRY.                         CANADA : COUNTRY
SRVC.         Schlumberger of Canada : SERVICE COMPANY
DATE.                    08-Apr-1977 : LOGDATE
PROV.                        Alberta : PROVINCE
UWI .               100100905816W500 : UNIQUE WELL ID
SLAT.WGS84                  54.00097 : SURFACE LATITUDE
SLON.WGS84                 -116.3132 : SURFACE LONGITUDE
~Curve Information -----------------------------------------
DEPT   .F                 : 
GRS    .GAPI 60 310 01 00 : GAMMA RAY FROM SONIC LOG
DT     .US/F 60 500 00 00 : DELTA-T (INTERVAL TRANSIT TIME)
CALS   .IN   60 280 50 00 : CALIPER FROM SONIC LOG
SPR    .MV   07 010 01 00 : SPONTANEOUS POTENTIAL FROM RESISTIVITY LOG
ILD    .OHMM 07 120 46 00 : INDUCTION DEEP RESISTIVITY
ILM    .OHMM 07 120 44 00 : INDUCTION MEDIUM RESISTIVITY
LL8    .OHMM 07 220 08 00 : LATEROLOG 8
CALD   .IN   45 280 60 00 : CALIPER FROM DENSITY LOG
DCOR   .G/C3 45 356 01 00 : DENSITY CORRECTION
GRD    .GAPI 45 310 01 00 : GAMMA RAY FROM DENSITY LOG
RHOB   .G/C3 45 350 01 00 : BULK DENSITY
NPHI_SS.DEC  42 890 03 00 : NEUTRON POROSITY SANDSTONE
DPHI_SS.DEC  45 890 12 00 : DENSITY POROSITY SANDSTONE
NPHI_LS.DEC  42 890 01 00 : NEUTRON POROSITY LIMESTONE
DPHI_LS.DEC  45 890 10 00 : DENSITY POROSITY LIMESTONE
~Params ----------------------------------------------------
PD  .                     GL : PERMANENT DATUM
EPD .FT               3310.2 : ELEVATION PERMANENT DATUM
LMF .                     KB : LOG MEASURED FROM
DAPD.FT                 13.5 : FEET ABOVE PERMANENT DATUM
EKB .FT                 3324 : KELLY BUSHING
EGL .FT               3310.2 : GROUND LEVEL
DATE.               04/08/77 : RUN DATE
RUN .                      1 : RUN NUMBER
DD  .FT                11000 : DEPTH DRILLER
DL  .FT                11005 : DEPTH LOGGER
BLI .FT                10999 : BOTTOM LOG INTERVAL
TLI .FT                 1159 : TOP LOG INTERVAL
CBD .FT                 1159 : CASING BOTTOM DRILLER
CBL .FT                 1159 : CASING BOTTOM LOGGER
BS  .IN                 8.75 : BIT SIZE
BSD .FT                11000 : BIT SIZE AT DEPTH
DFT .                    GEL : DRILLING FLUID TYPE
DFD .                    9.2 : DRILLING FLUID DENSITY
DFV .                    245 : DRILLING FLUID VISCOSITY
DFPH.                     10 : DRILLING FLUID PH
DFL .                    7.2 : DRILLING FLUID LOSS
MSS .               FLOWLINE : MUD SAMPLE SOURCE
RMS .OHMM               2.52 : RESISTIVITY MUD SAMPLE
MST .DEGF                 56 : MUD SAMPLE TEMPERATURE
RMF .OHMM               2.35 : RESISTIVITY MUD FILTRATE SAMPLE
MFST.DEGF                 50 : MUD FILTRATE SAMPLE TEMPERATURE
TCS .HRS                 3.5 : TIME CIRCULATED STOPPED
LUN .                   7809 : LOGGING UNIT NUMBER
LUL .                    EDM : LOGGING UNIT LOCATION
ENGI.               BERNISKY : RECORDING ENGINEER
WITN.                 HALKOW : WITNESSED BY
CLNT.                A2DTECH : CLIENT CODE
ORIG.            2" 5" PRINT : ORIGIN OF DATA
UWI .       100100905816W500 : UNIQUE WELL ID
DICO. A2D Technologies, Inc. : DIGITIZING COMPANY
~Other -----------------------------------------------------
~ASCII -----------------------------------------------------
 1050.00000   37.03550    -999.25    -999.25    -999.25    -999.25    -999.25    -999.25    -999.25    -999.25    -999.25    -999.25    -999.25    -999.25    -999.25    -999.25
 1100.00000   74.96070    -999.25    -999.25    -999.25    -999.25    -999.25    -999.25    -999.25    -999.25    -999.25    -999.25    -999.25    -999.25    -999.25    -999.25
 1150.00000   48.91420    -999.25    -999.25    -999.25    -999.25    -999.25    -999.25    -999.25    -999.25    -999.25    -999.25    -999.25    -999.25    -999.25    -999.25
 1200.00000  107.17120  111.39110   10.79200  -73.93210    7.28460    8.65350    9.54050    -999.25    -999.25    -999.25    -999.25    -999.25    -999.25    -999.25    -999.25
 1250.00000   84.10220  109.15280   10.34580  -77.63340    5.24430    6.28530    8.68000    -999.25    -999.25    -999.25    -999.25    -999.25    -999.25    -999.25    -999.25
 1300.00000   86.82450  122.74210   10.14350  -75.86630    4.71840    5.30420    5.43060    -999.25    -999.25    -999.25    -999.25    -999.25    -999.25    -999.25    -999.25
 1350.00000   53.08150  129.10310   10.08700  -73.94900    4.01070    4.74370    4.36700    -999.25    -999.25    -999.25    -999.25    -999.25    -999.25    -999.25    -999.25
 1400.00000   22.57140  135.12730    9.99680  -75.93420   17.81820   32.12650   69.97820    -999.25    -999.25    -999.25    -999.25    -999.25    -999.25    -999.25    -999.25
 1450.00000   68.60070   85.56280    9.98580  -73.29190    5.15530    6.05370    5.13360    -999.25    -999.25    -999.25    -999.25    -999.25    -999.25    -999.25    -999.25
 1500.00000   77.02320  103.72820    9.94470  -75.10160    4.89240    5.61060    5.94830    -999.25    -999.25    -999.25    -999.25    -999.25    -999.25    -999.25    -999.25
 1550.00000   70.95750   98.31990    9.87240  -76.62260    3.89510    4.39580    4.12950    -999.25    -999.25    -999.25    -999.25    -999.25    -999.25    -999.25    -999.25
 1600.00000   63.69230   95.63750    9.61620  -78.25720    7.53480    6.68920    6.60840    -999.25    -999.25    -999.25    -999.25    -999.25    -999.25    -999.25    -999.25
 1650.00000   67.31240  100.41250    9.53670  -77.35200    4.65440    4.46390    4.52220    -999.25    -999.25    -999.25    -999.25    -999.25    -999.25    -999.25    -999.25
 1700.00000   76.83740  100.03330    9.58970  -72.92970    5.43520    5.13280    5.24040    -999.25    -999.25    -999.25    -999.25    -999.25    -999.25    -999.25    -999.25
 1750.00000   53.05440  132.94370    8.97990  -72.65250    5.28610    6.25530   11.51430    -999.25    -999.25    -999.25    -999.25    -999.25    -999.25    -999.25    -999.25
 1800.00000   72.29270  109.47110    9.76560  -74.34370    4.11550    4.48260    5.27920    -999.25    -999.25    -999.25    -999.25    -999.25    -999.25    -999.25    -999.25
 1850.00000   53.16570   72.19470    8.94930  -75.13860    4.73350    5.36280    4.41820    -999.25    -999.25    -999.25    -999.25    -999.25    -999.25    -999.25    -999.25
 1900.00000   87.74230   89.40660   10.17210  -75.15240    2.63160    2.26180    2.04620    -999.25    -999.25    -999.25    -999.25    -999.25    -999.25    -999.25    -999.25
 1950.00000   74.94600   91.10660   10.15920  -73.96950    4.76710    5.14730    4.73710    -999.25    -999.25    -999.25    -999.25    -999.25    -999.25    -999.25    -999.25
 2000.00000   78.17430   91.68160   10.59550  -75.22160    5.56780    6.12930    5.08320    -999.25    -999.25    -999.25    -999.25    -999.25    -999.25    -999.25    -999.25
 2050.00000   75.42910   88.70090    9.90420  -73.64330    6.52500    6.82490    5.37620    -999.25    -999.25    -999.25    -999.25    -999.25    -999.25    -999.25    -999.25
 2100.00000   74.20970  103.65720   11.34840  -74.37500    6.26920    6.86670    7.79430    -999.25    -999.25    -999.25    -999.25    -999.25    -999.25    -999.25    -999.25
 2150.00000   74.80610   80.14700    9.91330  -69.26790    4.30470    4.54800    6.59530    -999.25    -999.25    -999.25    -999.25    -999.25    -999.25    -999.25    -999.25
 2200.00000   73.71730   91.79110   10.08610  -69.82430    7.78400    8.63440    8.21780    -999.25    -999.25    -999.25    -999.25    -999.25    -999.25    -999.25    -999.25
 2250.00000   76.45590  113.74570   11.43210  -70.37080    2.85030    3.14750    3.08130    -999.25    -999.25    -999.25    -999.25    -999.25    -999.25    -999.25    -999.25
 2300.00000   92.60770   96.47260   10.22070  -70.96720    3.92240    4.40840    4.33730    -999.25    -999.25    -999.25    -999.25    -999.25    -999.25    -999.25    -999.25
 2350.00000   59.21610   86.27240    9.71440  -72.96220    6.18710    6.53280    5.81910    -999.25    -999.25    -999.25    -999.25    -999.25    -999.25    -999.25    -999.25
 2400.00000   59.43850   70.86800    8.98490  -69.27710    4.60770    5.48280    4.35770    -999.25    -999.25    -999.25    -999.25    -999.25    -999.25    -999.25    -999.25
 2450.00000   81.89680   93.41840    9.71580  -70.87720    2.52950    2.16580    2.38490    -999.25    -999.25    -999.25    -999.25    -999.25    -999.25    -999.25    -999.25
 2500.00000   63.40110   82.30200    9.49260  -67.88220    3.53600    3.81200    3.46890    9.22760    0.21380   82.45410    2.38070    0.35270    0.14690    -999.25    -999.25
 2550.00000   73.91850   85.83320   10.24500  -69.37760    4.64260    5.20990    4.32540    9.70430    0.03820   68.30090    2.40100    0.39650    0.15250    -999.25    -999.25
 2600.00000   60.83300   67.30270    9.56070  -67.92150    3.86580    4.00960    3.78540   10.14220    0.15010   79.30050    2.26440    0.33130    0.16480    -999.25    -999.25
 2650.00000   86.39740   93.95990    9.80190  -69.08320    2.85310    3.20360    2.98850   11.02620    0.23510   87.24870    1.99340    0.48060    0.38190    -999.25    -999.25
 2700.00000   84.19900  111.41730   11.71320  -67.68800    2.49900    2.66390    2.84120   11.40310    0.21790   84.65370    1.75870    0.48530    0.45010    -999.25    -999.25
 2750.00000   74.38250   82.43300    9.65530  -70.55930    3.71970    4.46430    3.98410   11.45550    0.26410   77.65250    2.13150    0.37130    0.26850    -999.25    -999.25
 2800.00000   90.84170   97.89220   10.49320  -67.47760    3.62970    4.15800    3.91220   14.95720    0.14580   68.72320    1.55350    0.48210    0.45070    -999.25    -999.25
 2850.00000   81.28160   85.78990    9.32190  -69.35760    4.55270    5.08560    5.21530    9.98030    0.21370   77.78070    2.27010    0.30350    0.22400    -999.25    -999.25
 2900.00000   96.90430  121.98400    9.85630  -68.30970    3.39730    3.67720    4.66960    9.66320    0.24910   84.16720    2.05820    0.45870    0.38010    -999.25    -999.25
 2950.00000   93.37400   96.83440    9.59700  -68.93210    3.20730    3.51440    3.42810   11.67880    0.22530   93.27710    2.05080    0.40470    0.34740    -999.25    -999.25
 3000.00000   84.31190   80.62490    9.60990  -67.55780    5.66940    5.93250    5.35870   10.77250    0.22240   91.13470    2.22760    0.34650    0.26740    -999.25    -999.25
 3050.00000   89.50320   96.21780    9.78600  -67.73910    3.03010    3.18910    3.18180   10.79130    0.25460   87.24520    2.13320    0.43060    0.30870    -999.25    -999.25
 3100.00000   67.63220   87.88550    9.54240  -69.36480    5.37000    6.12810    6.48950    9.38610    0.20060   83.49600    2.25060    0.34730    0.21800    -999.25    -999.25
 3150.00000   88.83010   98.83340    9.59920  -66.77040    1.94770    2.07860    2.12260    9.23460    0.22240   95.74960    1.91370    0.51300    0.45200    -999.25    -999.25
 3200.00000   80.35720   94.60170    9.39910  -66.38670    3.06860    3.23270    3.27480    9.97720    0.24220   85.74460    2.07070    0.42770    0.33050    -999.25    -999.25
 3250.00000   78.17340   83.59300    9.76860  -66.81550    5.15910    4.81290    4.28530   10.62210    0.23490   79.06550    1.93130    0.39030    0.38830    -999.25    -999.25
 3300.00000   85.04540   98.22250   10.31710  -66.97510    4.80830    4.50640    4.34420    9.55750    0.23410   78.67840    2.41260    0.38710    0.13560    -999.25    -999.25
