~Version ---------------------------------------------------
VERS.      2.0 : CWLS log ASCII Standard -VERSION 2.0
WRAP.       NO : One line per depth step
CREA. 01/02/18 : LAS Creation Date
~Well ------------------------------------------------------
STRT.FT                          1500.0 : START DEPTH
STOP.FT                         13000.0 : STOP DEPTH
STEP.FT                        50.00000 : STEP LENGTH
NULL.                           -999.25 : NULL VALUE
COMP.  AMOCO CANADA PETROLEUM CO., LTD. : COMPANY
WELL. AMOCO ET AL BERLAND D-1 6-7-60-22 : WELL
FLD .                                   : FIELD
LOC .                                   : LOCATION
CTRY.                            CANADA : COUNTRY
SRVC.                      Schlumberger : SERVICE COMPANY
DATE.                       10-Dec-1976 : LOGDATE
PROV.                           Alberta : PROVINCE
UWI .                  100060706022W500 : UNIQUE WELL ID
SLAT.WGS84                     54.17117 : SURFACE LATITUDE
SLON.WGS84                    -117.2921 : SURFACE LONGITUDE
~Curve Information -----------------------------------------
DEPT    .FT    : Depth Curve
CALDED  .IN    : CALIPER FROM DENSITY LOG
CALSED  .IN    : CALIPER FROM SONIC LOG
CALWS   .IN    : CALIPER [CALDED]
CONDWS  .MMHO  : CONDUCTIVITY [1000/DRESWS]
DCORED  .G/C3  : DENSITY CORRECTION FROM DENSITY LOG
DCORWS  .G/C3  : DENSITY CORRECTION [DCORED]
DENWS   .G/C3  : BULK DENSITY [M=2.71 F=1.00] [TOP RHOBED 2287.5 M CALC. DPHISSED 7505' DPHILSED]
DPHILSED.V/V   : DENSITY POROSITY [M=2.71 F=1.00] FROM DENSITY LOG
DPHISSED.V/V   : DENSITY POROSITY [M=2.65 F=1.00] FROM DENSITY LOG
DPOLSWS .V/V   : DENSITY POROSITY [M=2.71 F=1.00] [CALC. FROM DENWS]
DRESWS  .OHMM  : DEEP RESISTIVITY [ILDED]
DTED    .US/F  : DELTA TIME FROM SONIC LOG [DEPTH ADJ TO LL8]
DTWS    .US/F  : DELTA TIME [DTED]
GRDED   .GAPI  : GAMMA RAY FROM DENSITY LOG
GRSED   .GAPI  : GAMMA RAY FROM SONIC LOG
GRWS    .GAPI  : GAMMA RAY [GRSED]
ILDED   .OHMM  : INDUCTION LOG DEEP RESISTIVITY
ILMED   .OHMM  : INDUCTION LOG MEDIUM RESISTIVITY
LL8ED   .OHMM  : 8 INCH LATEROLOG RESISTIVITY
MRESWS  .OHMM  : MEDIUM RESISTIVITY [ILMED]
NPHILSED.V/V   : NEUTRON POROSITY LIMESTONE FROM DENSITY LOG
NPHISSED.V/V   : NEUTRON POROSITY SANDSTONE FROM DENSITY LOG
NPOLSWS .V/V   : NEUTRON POROSITY LIMESTONE [TOP NPHISSED CONVERTED TO LIME FROM POWER LOG, 8750' NPHILSED]
RHOBED  .G/C3  : BULK DENSITY FROM DENSITY LOG [DEPTH ADJ TO LL8]
SPRED   .MV    : SPONTANEOUS POTENTIAL FROM RESISTIVITY LOG
SPWS    .MV    : SPONTANEOUS POTENTIAL [BASELINE 0 MV] [SPRED]
SRESWS  .OHMM  : SHALLOW RESISTIVITY [LL8ED]
~Params ----------------------------------------------------
PD  .                     GL : PERMANENT DATUM
EPD .M                  3639 : ELEVATION PERMANENT DATUM
LMF .                     KB : LOG MEASURED FROM
DAPD.M                    16 : FEET ABOVE PERMANENT DATUM
EKB .M                  3655 : KELLY BUSHING
EGL .M                  3639 : GROUND LEVEL
DATE.             12/10/1976 : RUN DATE
RUN .                      2 : RUN NUMBER
DD  .M                 12990 : DEPTH DRILLER
DL  .M                 13000 : DEPTH LOGGER
BLI .M                 12994 : BOTTOM LOG INTERVAL
TLI .M                  7504 : TOP LOG INTERVAL
CBD .M                  7499 : CASING BOTTOM DRILLER
CBL .M                  7504 : CASING BOTTOM LOGGER
BS  .MM                  8.5 : BIT SIZE
BSD .M                 13000 : BIT SIZE AT DEPTH
DFT .             GEL BARITE : DRILLING FLUID TYPE
DFD .                    9.1 : DRILLING FLUID DENSITY
DFV .                     73 : DRILLING FLUID VISCOSITY
DFPH.                    9.5 : DRILLING FLUID PH
DFL .                    8.9 : DRILLING FLUID LOSS
MSS .               FLOWLINE : MUD SAMPLE SOURCE
RMS .OHMM               1.44 : RESISTIVITY MUD SAMPLE
MST .DEGC                 60 : MUD SAMPLE TEMPERATURE
RMF .OHMM               1.12 : RESISTIVITY MUD FILTRATE SAMPLE
MFST.DEGC                 55 : MUD FILTRATE SAMPLE TEMPERATURE
RMB .OHMM               0.26 : RESISTIVITY MUD AT BHT
TCS .HRS                 6.5 : TIME CIRCULATED STOPPED
LUN .                   7635 : LOGGING UNIT NUMBER
LUL .                    EDM : LOGGING UNIT LOCATION
ENGI.                 MACKAY : RECORDING ENGINEER
WITN.                SHIRLEY : WITNESSED BY
CLNT.                A2DTECH : CLIENT CODE
ORIG.            2" 5" PRINT : ORIGIN OF DATA
UWI .       100060706022W500 : UNIQUE WELL ID
DICO. A2D Technologies, Inc. : DIGITIZING COMPANY
~Other -----------------------------------------------------
SPRED INTERFERENCE CAUSING RANDOM DRIFTING OF THE BASE LINE ABOVE 7218'
~ASCII -----------------------------------------------------
# ...
 8000.00000    9.93900   10.63700    9.93900   74.60460    0.02810    0.02810    2.45530    -999.25    0.11800    0.14890   13.40400   70.04040   70.04040   64.07910   70.71630   70.71630   13.40400   14.30730   17.09250   14.30730    -999.25    0.14880    0.10280    2.46520  -12.27920  -14.07470   17.09250
 8050.00000   10.60030   10.84200   10.60030   62.94970    0.02710    0.02710    2.48240    -999.25    0.10160    0.13310   15.88570   68.26350   68.26350   54.43410   57.55560   57.55560   15.88570   16.88160   20.71190   16.88160    -999.25    0.21210    0.16060    2.47530   -9.70370  -12.03620   20.71190
 8100.00000   10.28950   10.66600   10.28950   71.04290    0.03270    0.03270    2.46450    -999.25    0.11240    0.14350   14.07600   67.08110   67.08110   52.36920   57.95100   57.95100   14.07600   15.84000   16.93220   15.84000    -999.25    0.22470    0.17260    2.45620   -1.44370   -7.90690   16.93220
 8150.00000    9.88120   10.12500    9.88120   35.03780    0.02600    0.02600    2.62640    -999.25    0.01430    0.04890   28.54060   62.47870   62.47870   60.56380   67.92050   67.92050   28.54060   31.79110   41.47070   31.79110    -999.25    0.20550    0.15440    2.63660   -9.76190  -18.43450   41.47070
 8200.00000   10.00780   10.51500   10.00780  126.19890    0.12730    0.12730    2.53580    -999.25    0.06920    0.10190    7.92400   71.61250   71.61250   74.82100   76.32020   76.32020    7.92400    8.24500    8.96220    8.24500    -999.25    0.24390    0.19130    2.52680   -2.15250  -11.95390    8.96220
 8250.00000    9.70790   10.10300    9.70790   69.92660    0.18950    0.18950    2.28930    -999.25    0.21860    0.24600   14.30070   69.14970   69.14970   91.11820   99.41950   99.41950   14.30070   15.03300   18.34600   15.03300    -999.25    0.25850    0.20590    2.28290    2.51530   -8.41490   18.34600
 8300.00000   11.04900   10.45800   11.04900   97.13260    0.21570    0.21570    2.33240    -999.25    0.19250    0.22080   10.29520   73.29980   73.29980  127.22050  123.90610  123.90610   10.29520   10.71850   13.98060   10.71850    -999.25    0.27470    0.22240    2.32760    2.70950   -9.34950   13.98060
 8350.00000    8.42970    9.84500    8.42970   43.03780   -0.00440   -0.00440    2.68630    -999.25   -0.00170    0.01390   23.23540   64.00840   64.00840   92.13520   96.98960   96.98960   23.23540   24.65380   28.16230   24.65380    -999.25    0.16110    0.11370    2.68630   -2.55420  -15.74200   28.16230
 8400.00000    8.81860   10.01800    8.81860   40.53650    0.01020    0.01020    2.62130    -999.25    0.01500    0.05190   24.66910   67.50550   67.50550  102.72240   99.10870   99.10870   24.66910   20.59570   39.62310   20.59570    -999.25    0.17630    0.12740    2.62130    8.05890   -6.25780   39.62310
 8450.00000   10.32330   12.13500   10.32330   83.46130    0.03470    0.03470    2.29410    -999.25    0.21570    0.24320   11.98160   89.48290   89.48290  141.93390  139.05270  139.05270   11.98160   17.96330   29.65200   17.96330    -999.25    0.44920    0.40920    2.24660   11.23560   -4.20990   29.65200
 8500.00000    8.65950   10.77700    8.65950   55.56480   -0.00780   -0.00780    2.63680    -999.25    0.00750    0.04280   17.99700   68.36550   68.36550  126.11980  131.12070  131.12070   17.99700   19.88920   27.16890   19.88920    -999.25    0.24450    0.19190    2.63680   12.97140   -2.95270   27.16890
 8550.00000    8.57730    9.95900    8.57730   53.45050    0.01060    0.01060    2.59320    -999.25    0.04520    0.06830   18.70890   65.32980   65.32980  100.32350  111.52600  111.52600   18.70890   22.75730   26.79370   22.75730    -999.25    0.17280    0.12420    2.59320    4.39420  -10.90150   26.79370
 8600.00000    9.37380    9.94100    9.37380   50.67350    0.16710    0.16710    2.44690    -999.25    0.12310    0.15390   19.73420   65.59020   65.59020  105.98770  104.49810  104.49810   19.73420   24.10270   23.15020   24.10270    -999.25    0.18030    0.13100    2.44200    7.42770   -7.23970   23.15020
 8650.00000   10.90330   10.55500   10.90330   73.96070    0.13810    0.13810    2.24770    -999.25    0.24380    0.27030   13.52070   70.24430   70.24430  102.33880  102.71140  102.71140   13.52070   11.80380   15.97810   11.80380    -999.25    0.32850    0.27830    2.23700    8.98140   -5.05760   15.97810
 8700.00000    7.61230    7.76600    7.61230   48.67910    0.06510    0.06510    2.47940    -999.25    0.10340    0.13490   20.54270   67.57290   67.57290   36.29230   34.26250   34.26250   20.54270   25.04310   37.60720   25.04310    -999.25    0.13470    0.09090    2.46980  -52.09570  -65.50640   37.60720
 8750.00000   13.49240   14.31600   13.49240  139.30100    0.07810    0.07810    2.45780    0.15790    -999.25    0.14750    7.17870   81.33150   81.33150  115.20350  114.51210  114.51210    7.17870    8.26700    9.95520    8.26700    0.28020    -999.25    0.28020    2.45780    8.72960   -4.05270    9.95520
 8800.00000   11.54940   12.80500   11.54940  247.64740    0.10870    0.10870    2.01590    0.40590    -999.25    0.40590    4.03800   96.69190   96.69190  108.48560  116.21000  116.21000    4.03800    5.18100    5.90620    5.18100    0.43000    -999.25    0.43000    2.03220    7.37210   -4.78180    5.90620
 8850.00000    8.29070    9.20700    8.29070    2.13390   -0.00720   -0.00720    2.46270    0.14460    -999.25    0.14460  468.61890   73.41470   73.41470  202.70600  210.85910  210.85910  468.61890  794.61100 1389.35030  794.61100    0.20080    -999.25    0.20080    2.46430   48.50720   -2.09900 1389.35030
 8900.00000    8.27020    9.12900    8.27020   11.70230    0.01280    0.01280    2.63120    0.04610    -999.25    0.04610   85.45320   60.83250   60.83250  108.36720  109.02290  109.02290   85.45320   94.32900  128.14990   94.32900    0.05480    -999.25    0.05480    2.63460   25.83190  -11.73260  128.14990
 8950.00000    8.26220    9.37100    8.26220   13.86460    0.00790    0.00790    2.57940    0.07640    -999.25    0.07640   72.12630   62.44870   62.44870   96.44920  104.75620  104.75620   72.12630   75.87700  112.75570   75.87700    0.09860    -999.25    0.09860    2.57940   18.55870   -4.72690  112.75570
 9000.00000    7.96320    9.09600    7.96320   20.57280    0.01380    0.01380    2.68010    0.01750    -999.25    0.01750   48.60790   60.84670   60.84670   90.59980   97.88710   97.88710   48.60790   50.94320   70.96130   50.94320    0.06660    -999.25    0.06660    2.68170   15.75000   -9.10680   70.96130
 9050.00000    7.94690    9.12100    7.94690   12.86730    0.01070    0.01070    2.68790    0.01290    -999.25    0.01290   77.71640   58.17020   58.17020   87.84900   90.27930   90.27930   77.71640   82.47510  104.10600   82.47510    0.03920    -999.25    0.03920    2.69260   13.64450  -12.78350  104.10600
 9100.00000    7.97100    8.94400    7.97100   13.99390    0.01340    0.01340    2.66040    0.02900    -999.25    0.02900   71.45990   59.04150   59.04150  107.35280  112.01560  112.01560   71.45990   75.50890  107.24310   75.50890    0.07600    -999.25    0.07600    2.65980   23.52030   -4.47890  107.24310
 9150.00000    7.80930    8.66100    7.80930   10.04990    0.01190    0.01190    2.71510   -0.00300    -999.25   -0.00300   99.50390   55.76260   55.76260  122.18230  119.31330  119.31330   99.50390  122.13400  174.43890  122.13400    0.07610    -999.25    0.07610    2.71610   21.70310   -7.85440  174.43890
 9200.00000   14.91090   11.22100   14.91090   13.86760    0.15970    0.15970    2.14040    0.33310    -999.25    0.33310   72.11050   53.78380   53.78380   27.44610   27.11440   27.11440   72.11050   54.58080   99.72530   54.58080    0.10880    -999.25    0.10880    2.14340   -2.15660  -33.02690   99.72530
 9250.00000   11.08710   10.11600   11.08710   14.72280    0.14040    0.14040    2.19310    0.30230    -999.25    0.30230   67.92200   51.15340   51.15340   30.01490   31.87630   31.87630   67.92200   38.31680  168.67410   38.31680    0.10960    -999.25    0.10960    2.21380    0.10700  -32.07600  168.67410
