~Version ---------------------------------------------------
VERS.      2.0 : CWLS log ASCII Standard -VERSION 2.0
WRAP.       NO : One line per depth step
CREA. 12/12/17 : LAS Creation Date
~Well ------------------------------------------------------
STRT.FT                       800.0 : START DEPTH
STOP.FT                      7450.0 : STOP DEPTH
STEP.FT                    50.00000 : STEP LENGTH
NULL.                       -999.25 : NULL VALUE
COMP. WESTERN DECALTA PETROLEUM LTD : COMPANY
WELL.  DECALTA PORE SARAH 2-33-65-7 : WELL
FLD .                               : FIELD
LOC .                               : LOCATION
CTRY.                        CANADA : COUNTRY
SRVC.                    Lane Wells : SERVICE COMPANY
DATE.                   02-Feb-1965 : LOGDATE
PROV.                       Alberta : PROVINCE
UWI .              100023306507W500 : UNIQUE WELL ID
SLAT.WGS84                  54.6631 : SURFACE LATITUDE
SLON.WGS84                 -114.993 : SURFACE LONGITUDE
~Curve Information -----------------------------------------
DEPT  .FT    : Depth Curve
ACED  .US/F  : ACOUSTIC TIME FROM SONIC LOG  [ADJ. TO RESISTIVITY LOG]
CILDED.MMHO  : DEEP INDUCTION CONDUCTIVITY FROM RESISTIVITY LOG
CONDWS.MMHO  : SHALLOW RESISTIVITY [ASNED]
DRESWS.OHMM  : DEEP RESISTIVITY [1000/CILDED,IF ILDED<2,ILDED]
DTWS  .US/F  : COMPRESSIONAL SONIC [ACED]
GRSED .GAPI  : GAMMA RAY FROM SONIC LOG [ADJ. TO RESISTIVITY LOG]
GRWS  .GAPI  : GAMMA RAY [GRSED]
ILDED .OHMM  : DEEP INDUCTION RESISTIVITY FROM RESISTIVITY LOG
SNED  .OHMM  : 16" SHORT NORMAL RESISTIVITY FROM RESISTIVITY LOG
SPRED .MV    : SPONTANEOUS POTENTIAL FROM RESISTIVITY LOG
SPWS  .MV    : SPONTANEOUS POTENTIAL [BASELINE 0 MV,SPRED]
SRESWS.OHMM  : SHALLOW RESISTIVITY [SNED]
~Params ----------------------------------------------------
PD  .                     GL : PERMANENT DATUM
EPD .FT               2781.9 : ELEVATION PERMANENT DATUM
LMF .                     KB : LOG MEASURED FROM
DAPD.FT                 13.7 : FEET ABOVE PERMANENT DATUM
DMF .                     KB : DRILLING MEASURED FROM
EKB .FT               2795.6 : KELLY BUSHING
EGL .FT               2781.9 : GROUND LEVEL
DATE.               02/02/65 : RUN DATE
RUN .                      1 : RUN NUMBER
DD  .FT                 7455 : DEPTH DRILLER
DL  .FT                 7456 : DEPTH LOGGER
BLI .FT                 7452 : BOTTOM LOG INTERVAL
TLI .FT                  759 : TOP LOG INTERVAL
CS  .IN                8.625 : CASING SIZE
CBD .FT                  759 : CASING BOTTOM DRILLER
CBL .FT                  759 : CASING BOTTOM LOGGER
BS  .IN                7.875 : BIT SIZE
BSD .FT                 7455 : BIT SIZE AT DEPTH
DFT .         MUD GEL 5% OIL : DRILLING FLUID TYPE
DFD .                    9.6 : DRILLING FLUID DENSITY
DFV .                    100 : DRILLING FLUID VISCOSITY
DFPH.                    8.0 : DRILLING FLUID PH
DFL .                    9.8 : DRILLING FLUID LOSS
MSS .                    IST : MUD SAMPLE SOURCE
RMS .OHMM                2.2 : RESISTIVITY MUD SAMPLE
MST .DEGF                 68 : MUD SAMPLE TEMPERATURE
RMF .OHMM                1.0 : RESISTIVITY MUD FILTRATE SAMPLE
MFST.DEGF                 80 : MUD FILTRATE SAMPLE TEMPERATURE
RMC .OHMM                1.8 : RESISTIVITY MUD CAKE
MCST.DEGF                 76 : MUD CAKE SAMPLE TEMPERATURE
MFSS.                   MEAS : MUD FILTRATE SAMPLE SOURCE
MCSS.                   MEAS : MUD CAKE SAMPLE SOURCE
RMB .OHMM               0.98 : RESISTIVITY MUD AT BHT
TCS .HRS                  20 : TIME CIRCULATED STOPPED
LUN .                   8034 : LOGGING UNIT NUMBER
LUL .                     RD : LOGGING UNIT LOCATION
ENGI.                ROULEAU : RECORDING ENGINEER
WITN.                 WIGHAM : WITNESSED BY
CLNT.                A2DTECH : CLIENT CODE
ORIG.            2" 5" PRINT : ORIGIN OF DATA
UWI .       100023306507W500 : UNIQUE WELL ID
DICO. A2D Technologies, Inc. : DIGITIZING COMPANY
~Other -----------------------------------------------------
IEL-AC LOG RUN
ALL DATA FROM TOP TO 7100' FROM 2" SCALE LOG
~ASCII -----------------------------------------------------
  800.00000    -999.25  136.24130  152.97540    6.53700    -999.25    -999.25    -999.25    6.53700   11.65340  -32.60110  -14.05870   11.65340
  850.00000    -999.25  370.66580  477.72080    2.09440    -999.25    -999.25    -999.25    2.09440    4.45330  -24.56760   -5.50410    4.45330
  900.00000    -999.25  193.92380  221.47900    4.51510    -999.25    -999.25    -999.25    4.51510    5.97410  -24.20770   -5.14420    5.97410
  950.00000    -999.25  184.36760  208.44000    4.79780    -999.25    -999.25    -999.25    4.79780    6.41890  -26.58880   -7.52530    6.41890
 1000.00000    -999.25  114.22780  123.21950    8.11560    -999.25    -999.25    -999.25    8.11560   11.59520  -42.43520  -23.37170   11.59520
 1050.00000    -999.25   72.09670   68.39010   14.62200    -999.25    -999.25    -999.25   14.62200   16.28900  -39.62890  -20.56540   16.28900
 1100.00000    -999.25   86.87850   75.07980   13.37920    -999.25    -999.25    -999.25   13.37920   16.39440  -28.49300   -9.42940   16.39440
 1150.00000    -999.25  190.20930  190.78510    5.24150    -999.25    -999.25    -999.25    5.24150    6.43090  -25.59310   -6.43630    6.43090
 1200.00000    -999.25  232.15990  261.31380    3.84490    -999.25    -999.25    -999.25    3.84490    5.26110  -25.20180   -5.19220    5.26110
 1250.00000    -999.25   67.11990   55.10860   18.14600    -999.25    -999.25    -999.25   18.14600   20.60580  -38.66050  -17.80680   20.60580
 1300.00000    -999.25  119.27070  125.78930    7.94980    -999.25    -999.25    -999.25    7.94980    8.59270  -38.06280  -16.36060    8.59270
 1350.00000    -999.25  127.08500  147.89440    6.76910    -999.25    -999.25    -999.25    6.76910    7.48620  -32.60410  -10.66440    7.48620
 1400.00000    -999.25  107.64180  118.98810    8.40420    -999.25    -999.25    -999.25    8.40420    9.70780  -45.41660  -23.47680    9.70780
 1450.00000    -999.25  194.03160  228.28180    4.38150    -999.25    -999.25    -999.25    4.38150    5.29670  -27.94940   -6.00960    5.29670
 1500.00000    -999.25  159.61770  154.24720    6.48310    -999.25    -999.25    -999.25    6.48310    8.64890  -24.20600   -2.26620    8.64890
 1550.00000    -999.25  168.07470  173.63220    5.75930    -999.25    -999.25    -999.25    5.75930    6.84590  -29.95710   -8.19070    6.84590
 1600.00000    -999.25  238.41670  275.44500    3.63050    -999.25    -999.25    -999.25    3.63050    4.60240  -27.93260   -6.50790    4.60240
 1650.00000    -999.25  159.99940  174.11590    5.74330    -999.25    -999.25    -999.25    5.74330    8.18010  -50.08990  -29.00350    8.18010
 1700.00000    -999.25  182.25270  204.81510    4.88250    -999.25    -999.25    -999.25    4.88250    6.02770  -41.62810  -20.88340    6.02770
 1750.00000    -999.25  235.69240  303.60070    3.29380    -999.25    -999.25    -999.25    3.29380    4.29900  -27.87200   -7.46550    4.29900
 1800.00000    -999.25  202.94600  244.83400    4.08440    -999.25    -999.25    -999.25    4.08440    5.44910  -21.77670   -1.71020    5.44910
 1850.00000    -999.25  252.07410  289.06490    3.45970    -999.25    -999.25    -999.25    3.45970    4.27840  -24.32420   -4.09590    4.27840
 1900.00000    -999.25  167.38430  194.93180    5.13000    -999.25    -999.25    -999.25    5.13000    6.01340  -30.44840   -9.98560    6.01340
 1950.00000    -999.25  163.08530  189.02710    5.29030    -999.25    -999.25    -999.25    5.29030    5.95130  -34.33120  -13.63170    5.95130
 2000.00000    -999.25  210.50070  240.94640    4.15030    -999.25    -999.25    -999.25    4.15030    5.39470  -33.70750  -12.77360    5.39470
 2050.00000    -999.25  132.43890  135.32720    7.38950    -999.25    -999.25    -999.25    7.38950    9.45340  -31.22820  -10.05870    9.45340
 2100.00000    -999.25  120.80540  130.74340    7.64880    -999.25    -999.25    -999.25    7.64880    8.48390  -34.60160  -13.19540    8.48390
 2150.00000    -999.25  169.99490  181.96710    5.49550    -999.25    -999.25    -999.25    5.49550    6.31520  -36.91820  -15.27760    6.31520
 2200.00000    -999.25   99.33720  102.27680    9.77740    -999.25    -999.25    -999.25    9.77740   13.98990  -43.37380  -21.49640   13.98990
 2250.00000    -999.25  132.58770  136.42560    7.33000    -999.25    -999.25    -999.25    7.33000    8.56520  -35.57070  -13.45890    8.56520
 2300.00000    -999.25  153.10230  164.80170    6.06790    -999.25    -999.25    -999.25    6.06790    6.72310  -41.06480  -18.71750    6.72310
 2350.00000    -999.25  153.57840  169.75750    5.89100    -999.25    -999.25    -999.25    5.89100    6.46070  -40.04350  -17.45940    6.46070
 2400.00000    -999.25  157.61660  169.35660    5.90470    -999.25    -999.25    -999.25    5.90470    6.51740  -37.96890  -15.15040    6.51740
 2450.00000    -999.25  144.84240  160.59480    6.22680    -999.25    -999.25    -999.25    6.22680    6.86210  -38.33180  -15.27660    6.86210
 2500.00000    -999.25  158.80470  177.69250    5.62770    -999.25    -999.25    -999.25    5.62770    6.46010  -38.55060  -15.26100    6.46010
 2550.00000    -999.25  179.01610  182.01010    5.49420    -999.25    -999.25    -999.25    5.49420    6.30600  -35.44080  -11.91560    6.30600
 2600.00000    -999.25  157.99590  168.19450    5.94550    -999.25    -999.25    -999.25    5.94550    7.47680  -33.44910   -9.68710    7.47680
 2650.00000    -999.25  158.40230  167.17100    5.98190    -999.25    -999.25    -999.25    5.98190    8.06140  -32.54040   -8.54410    8.06140
 2700.00000    -999.25  121.25600  124.83290    8.01120    -999.25    -999.25    -999.25    8.01120   13.59200  -35.31790  -11.08490   13.59200
 2750.00000    -999.25  180.23280  198.05120    5.04920    -999.25    -999.25    -999.25    5.04920    6.26750  -32.51440   -8.04700    6.26750
 2800.00000    -999.25  144.01060  152.49950    6.55740    -999.25    -999.25    -999.25    6.55740    9.25670  -36.10190  -11.39890    9.25670
 2850.00000    -999.25  230.75910  266.67710    3.75010    -999.25    -999.25    -999.25    3.75010    5.05090  -25.74270   -0.98010    5.05090
 2900.00000    -999.25  156.73980  169.26200    5.90800    -999.25    -999.25    -999.25    5.90800    7.48950  -31.81320   -7.15200    7.48950
 2950.00000    -999.25  206.63460  218.66240    4.57360    -999.25    -999.25    -999.25    4.57360    5.80110  -30.03240   -5.47360    5.80110
 3000.00000    -999.25  198.74940  219.36560    4.55860    -999.25    -999.25    -999.25    4.55860    6.27350  -32.62500   -8.16760    6.27350
 3050.00000    -999.25  339.15180  375.64330    2.66210    -999.25    -999.25    -999.25    2.66210    3.86880  -27.37510   -3.01960    3.86880
 3100.00000    -999.25  407.35150  469.61690    2.12960    -999.25    -999.25    -999.25    2.12960    2.84250  -29.64600   -5.39290    2.84250
 3150.00000    -999.25  349.04140  375.78450    2.66110    -999.25    -999.25    -999.25    2.66110    3.72720  -36.01780  -11.86610    3.72720
 3200.00000    -999.25  281.08430  311.23580    3.21300    -999.25    -999.25    -999.25    3.21300    4.68710  -32.27800   -8.22860    4.68710
 3250.00000    -999.25  285.21960  303.73900    3.29230    -999.25    -999.25    -999.25    3.29230    5.23180  -34.74150  -10.79350    5.23180
 3300.00000    -999.25  767.10680  767.87220    1.30230    -999.25    -999.25    -999.25    1.30230    1.72760  -24.54100   -0.67350    1.72760
 3350.00000    -999.25  248.78560  260.23050    3.84340    -999.25    -999.25    -999.25    3.84340    7.76290  -45.95240  -21.99100    7.76290
 3400.00000    -999.25  132.63340  139.27580    7.18000    -999.25    -999.25    -999.25    7.18000   12.20160  -45.70000  -21.64570   12.20160
 3450.00000    -999.25  194.98850  200.92150    4.99150    -999.25    -999.25    -999.25    4.99150   13.66140  -47.72240  -23.57420   13.66140
 3500.00000    -999.25  198.70090  205.63440    4.86300    -999.25    -999.25    -999.25    4.86300    8.54640  -55.41530  -31.17420    8.54640
 3550.00000    -999.25  225.14100  235.46590    4.24690    -999.25    -999.25    -999.25    4.24690   11.97730  -80.46490  -56.13040   11.97730
