~Version ---------------------------------------------------
VERS.      2.0 : CWLS log ASCII Standard -VERSION 2.0
WRAP.       NO : One line per depth step
CREA. 01/04/18 : LAS Creation Date
~Well ------------------------------------------------------
STRT.FT                     1950.0 : START DEPTH
STOP.FT                    11350.0 : STOP DEPTH
STEP.FT                   50.00000 : STEP LENGTH
NULL.                      -999.25 : NULL VALUE
COMP.     CHEVRON STANDARD LIMITED : COMPANY
WELL. CHEVRON CLARK NO 10-15-59-18 : WELL
FLD .                              : FIELD
LOC .                              : LOCATION
CTRY.                       CANADA : COUNTRY
SRVC.                Dresser Atlas : SERVICE COMPANY
DATE.                  26-Oct-1968 : LOGDATE
PROV.                      Alberta : PROVINCE
UWI .             100101505918W500 : UNIQUE WELL ID
SLAT.WGS84                54.10291 : SURFACE LATITUDE
SLON.WGS84               -116.6105 : SURFACE LONGITUDE
~Curve Information -----------------------------------------
DEPT    .FT        : Depth Curve
ACED    .US/F      : DELTA TIME (ACOUSTIC) FROM SONIC LOG [DEPTH ADJ. TO ILDED]
CALSED  .IN        : CALIPER FROM SONIC LOG [DEPTH ADJ. TO ILDED]
CALWS   .IN        : CALIPER [CALSED]
CILED   .MMHO      : CONDUCTIVITY FROM RESISTIVITY LOG
CONDWS  .MMHO      : CONDUCTIVITY [1000/DRESWS]
DRESWS  .OHMM      : DEEP RESISTIVITY [IF ILED<1;1000/CILED;ELSE ILED]
DTWS    .US/F      : DELTA TIME [ACED]
GRSED   .GAPI      : GAMMA RAY FROM SONIC LOG [DEPTH ADJ. TO ILDED]
GRTED   .GAPI      : GAMMA RAY FROM TDT LOG [DEPTH ADJ. TO ILDED]
GRWS    .GAPI      : GAMMA RAY [GRSED]
ILED    .OHMM      : INDUCTION LOG RESISTIVITY
NPHIED  .V/V       : NEUTRON POROSITY FROM DENSITY LOG [DEPTH ADJ. TO ILDED]
NPOWS   .V/V       : NEUTRON POROSITY [NPHIED]
RATIO1ED.UNITLESS  : ATIO FROM TDT LOG  [DEPTH ADJ. TO ILDED]
RATIOED .UNITLESS  : RATIO FROM TDT LOG  [DEPTH ADJ. TO ILDED]
SIGMED  .CU        : NEUTRON CAPTURE CROSS SECTION FROM TDT LOG [DEPTH ADJ. TO ILDED]
SNED    .OHMM      : 16 INCH SHORT NORMAL RESISTIVITY FROM IEL
SPRED   .MV        : SPONTANEOUS POTENTIAL FROM RESISTIVITY LOG
SPWS    .MV        : SPONTANEOUS POTENTIAL [BASELINE 0 MV] [SPRED]
SRESWS  .OHMM      : SHALLOW RESISTIVITY [SNED]
TAUED   .ms        : THERMAL DECAY TIME FROM TDT LOG [DEPTH ADJ. TO ILDED]
~Params ----------------------------------------------------
PD  .                     GL : PERMANENT DATUM
EPD .FT               3420.5 : ELEVATION PERMANENT DATUM
LMF .                     KB : LOG MEASURED FROM
DAPD.FT                 15.5 : FEET ABOVE PERMANENT DATUM
DMF .                     KB : DRILLING MEASURED FROM
EKB .FT                 3436 : KELLY BUSHING
EGL .FT               3420.5 : GROUND LEVEL
DATE.               10/26/68 : RUN DATE
RUN .                      1 : RUN NUMBER
DD  .FT                11393 : DEPTH DRILLER
DL  .FT                11390 : DEPTH LOGGER
BLI .FT                11386 : BOTTOM LOG INTERVAL
TLI .FT                 2028 : TOP LOG INTERVAL
CS  .IN                9.625 : CASING SIZE
CBD .FT                 2028 : CASING BOTTOM DRILLER
CBL .FT                 2028 : CASING BOTTOM LOGGER
BS  .IN                 8.75 : BIT SIZE
BSD .FT                11393 : BIT SIZE AT DEPTH
DFT .                MUD GEL : DRILLING FLUID TYPE
DFD .                    9.6 : DRILLING FLUID DENSITY
DFV .                    100 : DRILLING FLUID VISCOSITY
DFPH.                     11 : DRILLING FLUID PH
DFL .                    8.2 : DRILLING FLUID LOSS
MSS .                   CIRC : MUD SAMPLE SOURCE
RMS .OHMM                1.7 : RESISTIVITY MUD SAMPLE
MST .DEGF                 44 : MUD SAMPLE TEMPERATURE
RMF .OHMM                1.4 : RESISTIVITY MUD FILTRATE SAMPLE
MFST.DEGF                 44 : MUD FILTRATE SAMPLE TEMPERATURE
RMC .OHMM                1.8 : RESISTIVITY MUD CAKE
MCST.DEGF                 44 : MUD CAKE SAMPLE TEMPERATURE
MFSS.                   MEAS : MUD FILTRATE SAMPLE SOURCE
MCSS.                   MEAS : MUD CAKE SAMPLE SOURCE
RMB .OHMM               0.35 : RESISTIVITY MUD AT BHT
TCS .HRS                   4 : TIME CIRCULATED STOPPED
LUN .                   6002 : LOGGING UNIT NUMBER
LUL .                    EDM : LOGGING UNIT LOCATION
ENGI.                  BLAND : RECORDING ENGINEER
WITN.     HOUDEBO JOYCE LEOD : WITNESSED BY
CLNT.                A2DTECH : CLIENT CODE
ORIG.            2" 5" PRINT : ORIGIN OF DATA
UWI .       100101505918W500 : UNIQUE WELL ID
DICO. A2D Technologies, Inc. : DIGITIZING COMPANY
~Other -----------------------------------------------------
~ASCII -----------------------------------------------------
# ...
 8550.00000   52.24200    8.71350    8.71350   24.52740   21.32470   46.89400   52.24200   24.19710    -999.25   24.19710   46.89400    -999.25    -999.25    -999.25    -999.25    -999.25   95.46730  -70.63360  -17.85560   95.46730    -999.25
 8600.00000   72.29970    8.88160    8.88160   25.39440   20.65810   48.40710   72.29970   22.91580    -999.25   22.91580   48.40710    -999.25    -999.25    -999.25    -999.25    -999.25   80.33300  -75.85230  -23.33360   80.33300    -999.25
 8650.00000   54.25960    8.70800    8.70800   34.49410   31.06800   32.18750   54.25960   37.80280    -999.25   37.80280   32.18750    -999.25    -999.25    -999.25    -999.25    -999.25   51.18030  -62.05560   -9.79620   51.18030    -999.25
 8700.00000   56.46070    8.80780    8.80780   42.93440   41.15400   24.29890   56.46070   50.18460    -999.25   50.18470   24.29900    -999.25    -999.25    -999.25    -999.25    -999.25   43.80280  -59.03930   -7.04050   43.80280    -999.25
 8750.00000   54.92570    8.77740    8.77740   32.39680   29.67470   33.69870   54.92570   35.72200    -999.25   35.72200   33.69870    -999.25    -999.25    -999.25    -999.25    -999.25   69.78090  -65.90980  -14.16900   69.78090    -999.25
 8800.00000   61.57250    8.77580    8.77580   34.75360   31.23250   32.01790   61.57250   77.10520    -999.25   77.10520   32.01790    -999.25    -999.25    -999.25    -999.25    -999.25   62.68270  -53.66810   -2.11010   62.68270    -999.25
 8850.00000   51.31050    8.84250    8.84250   16.74410   11.07220   90.31660   51.31050   10.16860    -999.25   10.16860   90.31660    -999.25    -999.25    -999.25    -999.25    -999.25  146.41860  -73.95380  -21.95900  146.41860    -999.25
 8900.00000   51.38290    9.09940    9.09940   22.09940   16.73510   59.75480   51.38290   12.04660    -999.25   12.04660   59.75480    -999.25    -999.25    -999.25    -999.25    -999.25  131.04420 -113.16560  -60.73400  131.04420    -999.25
 8950.00000   49.75880    9.07030    9.07030   20.29120   15.20230   65.77940   49.75880   12.97850    -999.25   12.97850   65.77940    -999.25    -999.25    -999.25    -999.25    -999.25  113.96640 -120.45780  -67.58720  113.96640    -999.25
 9000.00000   49.26580    9.33570    9.33570   25.43730   21.08390   47.42950   49.26580   11.50880    -999.25   11.50880   47.42950    -999.25    -999.25    -999.25    -999.25    -999.25  134.04060 -134.88660  -81.58140  134.04060    -999.25
 9050.00000   50.58860    8.95290    8.95290   23.40130   20.02120   49.94700   50.58860    9.45360    -999.25    9.45360   49.94700    -999.25    -999.25    -999.25    -999.25    -999.25  113.31880 -141.36430  -87.62230  113.31880    -999.25
 9100.00000   49.19860    9.35720    9.35720   27.52400   24.06610   41.55230   49.19860   13.72630    -999.25   13.72630   41.55230    -999.25    -999.25    -999.25    -999.25    -999.25  160.35140 -130.53390  -76.35520  160.35140    -999.25
 9150.00000   51.20160   10.81430   10.81430   39.39880   39.38760   25.38870   51.20160    9.80590    -999.25    9.80590   25.38870    -999.25    -999.25    -999.25    -999.25    -999.25   91.15850 -130.75930  -76.14380   91.15850    -999.25
 9200.00000   49.27070    9.08150    9.08150   23.81740   17.49650   57.15420   49.27070    7.08880    -999.25    7.08880   57.15410    -999.25    -999.25    -999.25    -999.25    -999.25   89.84390 -153.82230  -98.76780   89.84400    -999.25
 9250.00000   49.54470   10.21710   10.21710   20.18170   15.66620   63.83170   49.54470    9.40760    -999.25    9.40760   63.83170    -999.25    -999.25    -999.25    -999.25    -999.25  126.82090 -147.59390  -92.10480  126.82090    -999.25
 9300.00000   50.49620    8.92010    8.92010   31.62250   27.92730   35.80720   50.49620   11.21480    -999.25   11.21480   35.80720    -999.25    -999.25    -999.25    -999.25    -999.25   99.78230 -137.31000  -81.38410   99.78230    -999.25
 9350.00000   60.56200   10.04690   10.04690   38.36130   36.34420   27.51470   60.56200    9.90450    -999.25    9.90450   27.51470    -999.25    -999.25    -999.25    -999.25    -999.25  102.23620 -135.38110  -79.01850  102.23620    -999.25
 9400.00000   51.26080    8.91340    8.91340   42.81730   40.03750   24.97660   51.26080   11.56400    -999.25   11.56400   24.97660    -999.25    -999.25    -999.25    -999.25    -999.25   91.73950 -132.06970  -75.27030   91.73950    -999.25
 9450.00000   51.44940    8.89230    8.89230   32.88540   31.12380   32.12980   51.44940    9.62390    -999.25    9.62380   32.12980    -999.25    -999.25    -999.25    -999.25    -999.25   79.61610 -143.14220  -85.90380   79.61620    -999.25
 9500.00000   51.15600    9.81210    9.81210   36.74350   33.81110   29.57610   51.15600    8.20810    -999.25    8.20810   29.57610    -999.25    -999.25    -999.25    -999.25    -999.25   86.51190 -149.77510  -92.10210   86.51190    -999.25
 9550.00000   50.47180    9.45680    9.45680   38.53190   34.89090   28.66080   50.47180   10.14100    -999.25   10.14100   28.66080    -999.25    -999.25    -999.25    -999.25    -999.25  139.68470 -147.94990  -89.84010  139.68470    -999.25
 9600.00000   53.53560   10.00570   10.00570   42.19630   38.39480   26.04520   53.53560   56.66370    -999.25   56.66370   26.04520    -999.25    -999.25    -999.25    -999.25    -999.25   44.48770  -93.65640  -35.10990   44.48770    -999.25
 9650.00000   48.95930    8.87580    8.87580   21.72740   17.52050   57.07600   48.95930   20.11200    -999.25   20.11200   57.07600    -999.25    -999.25    -999.25    -999.25    -999.25  168.01780 -140.90220  -81.91890  168.01780    -999.25
 9700.00000   55.93480   10.06370   10.06370   42.26930   39.11740   25.56410   55.93480   25.16170    -999.25   25.16170   25.56410    -999.25    -999.25    -999.25    -999.25    -999.25   56.09590 -135.85730  -76.43500   56.09580    -999.25
 9750.00000   57.60790   11.35300   11.35300   20.50580   16.99950   58.82510   57.60790   23.90770    -999.25   23.90770   58.82510    -999.25    -999.25    -999.25    -999.25    -999.25   36.16770 -124.72150  -64.86460   36.16770    -999.25
 9800.00000   50.41620    9.06860    9.06860   10.06820    3.65630  273.50370   50.41620   20.88910    -999.25   20.88910  273.50370    -999.25    -999.25    -999.25    -999.25    -999.25  118.00550  -84.90370  -24.61000  118.00550    -999.25
 9850.00000   53.03780    8.74630    8.74630   18.41820   14.09830   70.93050   53.03780   33.31510    -999.25   33.31510   70.93050    -999.25    -999.25    -999.25    -999.25    -999.25   64.17500  -63.21870   -2.48820   64.17500    -999.25
 9900.00000   54.14400    8.77900    8.77900   24.04390   15.55880   64.27240   54.14400   31.62360    -999.25   31.62360   64.27240    -999.25    -999.25    -999.25    -999.25    -999.25   67.93180  -64.15950   -2.99230   67.93180    -999.25
 9950.00000   52.67830    8.75570    8.75570   18.92390   14.61360   68.42950   52.67830   28.64730    -999.25   28.64730   68.42960    -999.25    -999.25    -999.25    -999.25    -999.25   78.70910  -66.59450   -5.19670   78.70920    -999.25
 10000.00000   53.41570    8.79640    8.79640   23.42870   15.74080   63.52900   53.41570   30.51880    -999.25   30.51880   63.52900    -999.25    -999.25    -999.25    -999.25    -999.25   57.62440  -70.69230  -10.19790   57.62440    -999.25
 10050.00000   53.24880    9.01340    9.01340   20.06260   14.73790   67.85210   53.24880   30.45530    -999.25   30.45530   67.85210    -999.25    -999.25    -999.25    -999.25    -999.25   58.91850  -74.03640  -14.45000   58.91850    -999.25
 10100.00000   55.27790    8.82980    8.82980   30.21650   26.73410   37.40540   55.27790   36.07040    -999.25   36.07040   37.40540    -999.25    -999.25    -999.25    -999.25    -999.25   46.67590  -67.43850   -8.76000   46.67590    -999.25
 10150.00000   61.64650    9.07370    9.07370   60.84970   58.26320   17.16350   61.64650   53.15000    -999.25   53.15000   17.16350    -999.25    -999.25    -999.25    -999.25    -999.25   26.65510  -63.18670   -5.41620   26.65510    -999.25
