~Version ---------------------------------------------------
VERS. 2.0 : CWLS log ASCII Standard -VERSION 2.0
WRAP.  NO : ONE LINE PER DEPTH STEP
~Well ------------------------------------------------------
STRT.F                          1250.0 : START DEPTH
STOP.F                         11000.0 : STOP DEPTH
STEP.F                        50.00000 : STEP LENGTH
NULL.                          -999.25 : NULL VALUE
COMP.             MOBIL OIL CANADA LTD : COMPANY
WELL. MOBIL ET AL ROSEVEAR 10-19-53-14 : WELL
FLD .                                  : FIELD
LOC .                                  : LOCATION
CTRY.                           CANADA : COUNTRY
SRVC.                     Schlumberger : SERVICE COMPANY
DATE.                      04-Mar-1978 : LOGDATE
PROV.                          Alberta : PROVINCE
UWI .                 100101905314W500 : UNIQUE WELL ID
SLAT.WGS84                    53.59265 : SURFACE LATITUDE
SLON.WGS84                   -116.0472 : SURFACE LONGITUDE
~Curve Information -----------------------------------------
DEPT   .F    0   1   0  0 : 1 MEASURED DEPTH
GRD    .GAPI 45 310 01 00 : GAMMA RAY FROM DENSITY LOG
DRHO   .G/C3 45 356 01 00 : BULK DENSITY CORRECTION
RHOB   .G/C3 45 350 01 00 : BULK DENSITY
NPHI_SS.DEC  42 890 03 00 : NEUTRON POROSITY SANDSTONE
DPHI_SS.DEC  45 890 12 00 : DENSITY POROSITY SANDSTONE
CALD   .IN   45 280 60 00 : CALIPER FROM DENSITY LOG
NPHI_LS.DEC  42 890 01 00 : NEUTRON POROSITY LIMESTONE
DPHI_LS.DEC  45 890 10 00 : DENSITY POROSITY LIMESTONE
DT     .US/F 60 500 00 00 : DELTA-T (INTERVAL TRANSIT TIME)
SPR    .MV   07 010 01 00 : SPONTANEOUS POTENTIAL FROM RESISTIVITY LOG
ILD    .OHMM 07 120 46 00 : INDUCTION DEEP RESISTIVITY
ILM    .OHMM 07 120 44 00 : INDUCTION MEDIUM RESISTIVITY
LL8    .OHMM 07 220 08 00 : LATEROLOG 8
~Params ----------------------------------------------------
PD  .                     GL : PERMANENT DATUM
EPD .FT               2885.2 : ELEVATION PERMANENT DATUM
LMF .                     KB : LOG MEASURED FROM
DAPD.FT                 13.8 : FEET ABOVE PERMANENT DATUM
EKB .FT                 2899 : KELLY BUSHING
EGL .FT               2885.2 : GROUND LEVEL
DATE.               03/04/78 : RUN DATE
RUN .                      1 : RUN NUMBER
DD  .FT                11010 : DEPTH DRILLER
DL  .FT                11002 : DEPTH LOGGER
BLI .FT                10999 : BOTTOM LOG INTERVAL
TLI .FT                 1207 : TOP LOG INTERVAL
CBD .FT                 1205 : CASING BOTTOM DRILLER
CBL .FT                 1207 : CASING BOTTOM LOGGER
BS  .IN                 8.75 : BIT SIZE
BSD .FT                11010 : BIT SIZE AT DEPTH
DFT .               GEL CHEM : DRILLING FLUID TYPE
DFD .                    9.2 : DRILLING FLUID DENSITY
DFV .                    132 : DRILLING FLUID VISCOSITY
DFPH.                     10 : DRILLING FLUID PH
DFL .                    9.4 : DRILLING FLUID LOSS
MSS .               FLOWLINE : MUD SAMPLE SOURCE
RMS .OHMM               1.94 : RESISTIVITY MUD SAMPLE
MST .DEGF                 64 : MUD SAMPLE TEMPERATURE
RMF .OHMM               2.12 : RESISTIVITY MUD FILTRATE SAMPLE
MFST.DEGF                 59 : MUD FILTRATE SAMPLE TEMPERATURE
RMB .OHMM               0.65 : RESISTIVITY MUD AT BHT
TCS .HRS                   3 : TIME CIRCULATED STOPPED
LUN .                   7730 : LOGGING UNIT NUMBER
LUL .                    EDM : LOGGING UNIT LOCATION
ENGI.               CAMPBELL : RECORDING ENGINEER
WITN.              MATHEWSON : WITNESSED BY
CLNT.                A2DTECH : CLIENT CODE
ORIG.            2" 5" PRINT : ORIGIN OF DATA
UWI .       100101905314W500 : UNIQUE WELL ID
DICO. A2D Technologies, Inc. : DIGITIZING COMPANY
~Other -----------------------------------------------------
~ASCII -----------------------------------------------------
 1250.00000   93.34640    0.23440    2.04420    0.43950    0.32490    9.81540    -999.25    -999.25   96.75280  -40.77980    5.92880    4.60580    4.81610
 1300.00000   90.13130    0.20900    2.18000    0.40300    0.31850   10.62820    -999.25    -999.25   96.07040  -34.69070    6.07860    5.11430    4.52640
 1350.00000   81.27400    0.10740    2.34160    0.33350    0.19540    9.44900    -999.25    -999.25   92.18540  -29.63910    7.12930    5.82950    6.29070
 1400.00000  103.94230    0.14550    2.13380    0.39540    0.29510    9.68250    -999.25    -999.25  100.20690  -32.40530    4.81470    3.80690    4.52950
 1450.00000   83.52540    0.01450    2.39350    0.35160    0.16460    9.97720    -999.25    -999.25   93.96370  -28.73060    7.75050    6.87340    5.97450
 1500.00000  104.04850    0.08560    2.20230    0.39320    0.27650   10.02170    -999.25    -999.25  101.75430  -29.49530    5.72930    5.11910    6.06860
 1550.00000   97.01030    0.02130    2.27060    0.43400    0.25010    9.86610    -999.25    -999.25  123.67280  -28.47190    4.83820    3.94970    4.55450
 1600.00000  105.75100    0.05380    1.90890    0.57060    0.44350    9.77330    -999.25    -999.25  137.48280  -27.55680    2.10040    1.81940    2.65780
 1650.00000   62.08280    0.04400    2.25930    0.29820    0.23580    9.86880    -999.25    -999.25   94.36420  -36.79280   11.50000    8.10850    9.80860
 1700.00000  102.44560    0.00120    2.28410    0.41810    0.16410    9.98690    -999.25    -999.25  103.74400  -28.40920    4.24750    3.24880    4.34430
 1750.00000  106.55060    0.01900    1.86130    0.50040    0.42810    9.71690    -999.25    -999.25  110.71950  -31.45820    3.76200    3.55880    6.19660
 1800.00000  100.67740    0.00950    2.42740    0.34190    0.13910   11.20120    -999.25    -999.25   92.85890  -33.67050    5.15910    4.04660    4.73860
 1850.00000   99.13740    0.00170    2.38820    0.38620    0.14280   10.43240    -999.25    -999.25   96.77790  -32.31620    4.32180    3.40910    4.05450
 1900.00000   94.84710   -0.00150    2.45940    0.26440    0.11770   11.06030    -999.25    -999.25   83.68280  -32.34110    6.88060    5.98940    6.19360
 1950.00000   95.00680    0.00410    2.44200    0.29550    0.12940    9.97460    -999.25    -999.25   89.43680  -33.33280    7.15150    6.29060    6.00340
 2000.00000  114.39820    0.02770    2.37990    0.38400    0.20080    9.54220    -999.25    -999.25  100.17740  -35.17230    5.90350    5.19120    5.72420
 2050.00000   94.32280    0.04670    2.45010    0.27370    0.11450    9.39080    -999.25    -999.25   84.36050  -33.71620    7.89700    6.89220    7.11350
 2100.00000   86.76870    0.05170    2.44320    0.30840    0.12550    9.56960    -999.25    -999.25   85.23760  -36.33390    9.19770    8.00140    8.54040
 2150.00000   82.78400    0.10510    2.51310    0.26560    0.09640    9.61570    -999.25    -999.25   80.78180  -34.57170    9.24850    8.46610    7.41550
 2200.00000  100.46040    0.14830    2.33460    0.34720    0.23280    9.46060    -999.25    -999.25  110.57800  -37.56560    4.64780    4.21850    6.22040
 2250.00000  114.45850    0.13970    2.09080    0.45150    0.32370    9.62230    -999.25    -999.25  112.35210  -36.77480    3.56560    3.13910    3.77410
 2300.00000  109.54730    0.18810    2.41650    0.33230    0.13450    9.60550    -999.25    -999.25   95.95380  -37.81740    5.05810    4.66730    5.42380
 2350.00000  120.64830    0.02980    2.35620    0.41070    0.17620    9.59550    -999.25    -999.25   92.33450  -36.77350    3.62680    3.24850    3.83780
 2400.00000  113.45960    0.02390    2.45600    0.35430    0.12740   10.18810    -999.25    -999.25   97.12170  -36.88950    4.68960    4.22620    4.07800
 2450.00000   83.69560    0.01950    2.39680    0.32810    0.17850   10.75370    -999.25    -999.25   90.70740  -38.73970    7.75780    6.82840    9.08600
 2500.00000  106.39630    0.01860    2.22790    0.45770    0.21570    9.93470    -999.25    -999.25  104.11860  -36.79150    2.54000    2.30310    2.87830
 2550.00000   70.69250    0.03490    2.40680    0.27370    0.13050   10.87800    -999.25    -999.25   74.68670  -53.85910   18.44880   16.49020   19.58820
 2600.00000   81.51930    0.01880    2.49990    0.23380    0.09890    9.79770    -999.25    -999.25   74.84730  -38.28220   11.66770   10.85920   12.23370
 2650.00000  114.18530    0.07200    2.17000    0.51720    0.37750   10.00800    -999.25    -999.25  114.67350  -37.20630    4.05030    3.47350    6.39590
 2700.00000  117.05640    0.02750    2.25700    0.42940    0.24110    8.70660    -999.25    -999.25   88.48890  -40.20780    9.21800    6.93210    8.51550
 2750.00000  119.12390    0.00480    2.36910    0.42180    0.16840   10.39530    -999.25    -999.25   99.61830  -37.86430    2.88030    2.59840    3.17820
 2800.00000   99.42050    0.00570    2.42900    0.32630    0.12170   10.28850    -999.25    -999.25   88.17770  -37.65850    5.31620    5.04330    5.46700
 2850.00000  105.28080    0.01550    2.44150    0.37540    0.11630   10.81250    -999.25    -999.25   91.61700  -38.06170    5.92640    5.55740    6.49560
 2900.00000   62.79270   -0.00370    2.42200    0.25040    0.14080   10.88920    -999.25    -999.25   81.89130  -43.56930   14.67790   13.67160   15.60400
 2950.00000  111.79690    0.03090    2.48030    0.23340    0.10550   10.40540    -999.25    -999.25   73.87910  -38.01100    8.49380    7.38860    9.04760
 3000.00000  107.39400    0.03030    2.38400    0.39130    0.14760   10.52550    -999.25    -999.25   93.15280  -37.27200    4.62770    4.29150    4.84680
 3050.00000  119.90810    0.01750    2.45900    0.33620    0.11630   10.11740    -999.25    -999.25   84.06730  -38.99260    5.86660    5.30210    4.84540
 3100.00000   99.70070    0.07150    2.30690    0.34220    0.15800   10.32250    -999.25    -999.25   83.44440  -36.92770    6.34220    5.67440    7.00590
 3150.00000   97.24750    0.06730    2.46960    0.31690    0.11200   10.48150    -999.25    -999.25   77.27530  -40.16270   16.47700   15.31060   19.50290
 3200.00000  102.13530    0.04750    2.42100    0.41080    0.13350    8.98100    -999.25    -999.25   92.63880  -36.90050    4.10250    3.64920    3.78390
 3250.00000  108.33350    0.07410    2.36720    0.42110    0.15540    9.99670    -999.25    -999.25   94.43230  -37.83100    3.84810    3.67380    4.11910
 3300.00000   93.78870    0.20580    2.19140    0.43050    0.36320    9.01370    -999.25    -999.25   94.52030  -38.13430    3.53290    3.32910    3.74790
 3350.00000   63.59000    0.05700    2.46420    0.33090    0.12060    9.09590    -999.25    -999.25   83.51890  -40.45500   10.11370    8.50300   10.21800
 3400.00000   79.86950    0.24160    2.37680    0.30030    0.18570    5.02860    -999.25    -999.25   81.70790  -40.29170    6.23630    5.52170    6.74790
 3450.00000   58.72550    0.09340    2.44780    0.26100    0.10010   10.54410    -999.25    -999.25   77.23660  -51.04330   23.04070   21.42410   20.08270
 3500.00000   57.74190    0.01780    2.47870    0.24240    0.09260   10.23140    -999.25    -999.25   75.12550  -41.25080   18.00500   16.93050   21.73670
 3550.00000   88.84220    0.01120    2.48140    0.34830    0.08180    9.77120    -999.25    -999.25   82.84140  -39.76810    6.93220    6.48590    5.80780
 3600.00000   85.69900    0.09390    2.40390    0.38230    0.12620    9.90350    -999.25    -999.25   80.34380  -39.80530    6.63580    7.14680    7.35590
 3650.00000   54.54420    0.06650    2.39510    0.28500    0.14400    9.65640    -999.25    -999.25   76.59410  -47.40940   21.54000   20.80440   19.74790
 3700.00000   77.27350    0.11930    2.37700    0.34940    0.20650    9.78460    -999.25    -999.25   80.04100  -39.80270    8.28370    8.63680    9.62130
 3750.00000   71.04930    0.12150    2.46660    0.33230    0.12750   10.04870    -999.25    -999.25   79.12250  -38.84930    7.26710    6.85580    6.75870
 3800.00000   77.16840    0.14360    2.23630    0.38950    0.19340   10.59150    -999.25    -999.25   77.45220  -39.22300    6.59950    6.06790    6.33260
