~Version ---------------------------------------------------
VERS.      2.0 : CWLS log ASCII Standard -VERSION 2.0
WRAP.       NO : One line per depth step
CREA. 09/23/14 : LAS Creation Date
~Well ------------------------------------------------------
STRT.M                      450.0 : START DEPTH
STOP.M                     5050.0 : STOP DEPTH
STEP.M                   50.00000 : STEP LENGTH
NULL.                     -999.25 : NULL VALUE
COMP. SHELL CANADA RESOURCES LTD. : COMPANY
WELL.   SHELL STOLBERG 8-23-43-16 : WELL
FLD .                             : FIELD
LOC .                             : LOCATION
CTRY.                      CANADA : COUNTRY
SRVC.                Schlumberger : SERVICE COMPANY
DATE.                 31-Dec-1980 : LOGDATE
PROV.                     Alberta : PROVINCE
UWI .            100082304316W500 : UNIQUE WELL ID
SLAT.WGS84               52.72038 : SURFACE LATITUDE
SLON.WGS84              -116.2025 : SURFACE LONGITUDE
~Curve Information -----------------------------------------
DEPT     .M      : DEPTH METER
CALDED   .MM     : CALIPER FROM DENSITY LOG [ADJ. TO DILSFL LOG]
CALDRED  .MM     : CALIPER FROM DENSITY LOG ( REPEAT SECTION) [ADJ. TO DILSFL LOG]
CALSED   .MM     : CALIPER FROM SONIC LOG [ADJ. TO DILSFL LOG]
CALWS    .MM     : CALIPER [CALSED SPL. TO CALDED FROM (3800.6M-3811.2M)]
CILDED   .MMHO   : CONDUCTIVITY FROM DILSFL LOG
CONDWS   .MMHO   : CONDUCTIVITY [1000/DRESWS]
DCORED   .KG/M3  : DENSITY CORRECTION FROM DENSITY LOG [ADJ. TO DILSFL LOG]
DCORWS   .KG/M3  : DENSITY CORRECTION [DCORED]
DENWS    .KG/M3  : FORMATION BULK DENSITY [RHOBED SPL. TO CALC. DPHILSRED (F=2710, F=1000) FROM (3832 M - 3842.7 M)]
DPHILSED .V/V    : DENSITY POROSITY LIMESTONE [M=2710, F=1000] FROM DENSITY LOG [ADJ. TO DILSFL LOG]
DPHILSRED.V/V    : DENSITY POROSITY LIMESTONE [M=2710, F=1000] FROM DENSITY LOG ( REPEAT SECTION) [ADJ. TO DILSFL LOG]
DPHISSED .V/V    : DENSITY POROSITY SANDSTONE [M=2650, F=1000] FROM DENSITY LOG [ADJ. TO DILSFL LOG]
DPOLSWS  .V/V    : DENSITY POROSITY LIMESTONE [CALC. FROM DENWS, M=2710, F=1000]
DRESWS   .OHMM   : DEEP RESISTIVITY [ILDED SPL. TO ILDRED FROM (3833 M - 3854 M) & SPL. TO {1000/CILDED IF ILDED <1, ILDED  FROM (5018M TO FR )}]
DTED     .US/M   : DELTA-T FROM SONIC LOG [ADJ. TO DILSFL LOG]
DTWS     .US/M   : COMPRESSIONAL SONIC [DTED]
GRDED    .GAPI   : GAMMA RAY FROM DENSITY LOG [ADJ. TO DILSFL LOG]
GRDRED   .GAPI   : GAMMA RAY FROM DENSITY LOG ( REPEAT SECTION) [ADJ. TO DILSFL LOG]
GRR1ED   .GAPI   : GAMMA RAY FROM DLL LOG [ADJ. TO DILSFL LOG]
GRRED    .GAPI   : GAMMA RAY FROM DILSFL LOG
GRRRED   .GAPI   : GAMMA RAY FROM DILSFL LOG ( REPEAT SECTION) [ADJ. TO GRRED]
GRSED    .GAPI   : GAMMA RAY FROM SONIC LOG [ADJ. TO DILSFL LOG]
GRWS     .GAPI   : GAMMA RAY [GRSED SPL. TO GRDED (3790.5 M - 3809.5 M) & SPL. TO GRR1ED FROM (4607 M - 4620 M)]
ILDED    .OHMM   : DEEP INDUCTION RESISTIVITY FROM DILSFL LOG
ILDRED   .OHMM   : DEEP INDUCTION RESISTIVITY FROM DILSFL LOG ( REPEAT SECTION) [ADJ. TO ILDED]
ILMED    .OHMM   : MEDIUM INDUCTION RESISTIVITY FROM DILSFL LOG
ILMRED   .OHMM   : MEDIUM INDUCTION RESISTIVITY FROM DILSFL LOG( REPEAT SECTION) [ADJ. TO ILMED]
LLDED    .OHMM   : DEEP LATEROLOG RESISTIVITY FROM DLL LOG [ADJ. TO DILSFL LOG]
LLSED    .OHMM   : SHALLOW LATEROLOG RESISTIVITY FROM DLL LOG [ADJ. TO DILSFL LOG]
MRESWS   .OHMM   : MEDIUM RESISTIVITY [ILMED SPL. TO ILMRED FROM (3837 M - 3852 M)]
NPHILSED .V/V    : NEUTRON POROSITY LIMESTONE FROM DENSITY LOG [ADJ. TO DILSFL LOG]
NPHILSRED.V/V    : NEUTRON POROSITY LIMESTONE FROM DENSITY LOG ( REPEAT SECTION) [ADJ. TO DILSFL LOG]
NPHISSED .V/V    : NEUTRON POROSITY SANDSTONE FROM DENSITY LOG [ADJ. TO DILSFL LOG]
NPOLSWS  .V/V    : NEUTRON POROSITY LIMESTONE [NPHISSED CONVERTED INTO LIMESTONE MATRIX & SPL. TO NPHILSED @ 3600 M & SPL. TO NPHILSRED@ (3818 M - 3849 M)]
RHOBED   .KG/M3  : BULK DENSITY FROM DENSITY LOG [ADJ. TO DILSFL LOG]
SFLED    .OHMM   : SPHERICALLY FOCUSED RESISTIVITY FROM DILSFL LOG
SFLRED   .OHMM   : SPHERICALLY FOCUSED RESISTIVITY FROM DILSFL LOG ( REPEAT SECTION) [ADJ. TO SFLED]
SRESWS   .OHMM   : SHALLOW RESISTIVITY [SFLED SPL. TO SFLRED FROM (3833 M - 3852 M)]
~Params ----------------------------------------------------
PD  .                         GL : PERMANENT DATUM
EPD .M                      1268 : ELEVATION PERMANENT DATUM
LMF .                         KB : LOG MEASURED FROM
DAPD.M                        10 : FEET ABOVE PERMANENT DATUM
DMF .                         KB : DRILLING MEASURED FROM
EKB .M                      1278 : KELLY BUSHING
EGL .M                      1268 : GROUND LEVEL
DATE.                   12/31/80 : RUN DATE
RUN .                          3 : RUN NUMBER
DD  .M                    5075.6 : DEPTH DRILLER
DL  .M                      5070 : DEPTH LOGGER
BLI .M                      5068 : BOTTOM LOG INTERVAL
TLI .M                      3810 : TOP LOG INTERVAL
CS  .MM                      340 : CASING SIZE
CBD .M                      3810 : CASING BOTTOM DRILLER
CBL .M                      3810 : CASING BOTTOM LOGGER
BS  .MM                      215 : BIT SIZE
BSD .M                    5075.6 : BIT SIZE AT DEPTH
DFT .                 GEL BARITE : DRILLING FLUID TYPE
DFD .                       1250 : DRILLING FLUID DENSITY
DFV .                        133 : DRILLING FLUID VISCOSITY
DFPH.                       10.5 : DRILLING FLUID PH
DFL .                          9 : DRILLING FLUID LOSS
MSS .                   FLOWLINE : MUD SAMPLE SOURCE
RMS .OHMM                    0.8 : RESISTIVITY MUD SAMPLE
MST .DEGC                   24.4 : MUD SAMPLE TEMPERATURE
MFSS.               FILTER PRESS : MUD FILTRATE SAMPLE SOURCE
MCSS.               FILTER PRESS : MUD CAKE SAMPLE SOURCE
RMB .OHMM                   0.21 : RESISTIVITY MUD AT BHT
TCS .HRS                     930 : TIME CIRCULATED STOPPED
TLAB.HRS                     400 : TIME LOGGER AT BOTTOM
LUN .                       8063 : LOGGING UNIT NUMBER
LUL .                         RD : LOGGING UNIT LOCATION
ENGI.                JASTRZEBSKI : RECORDING ENGINEER
WITN.                        WAY : WITNESSED BY
CLNT.                    A2DTECH : CLIENT CODE
ORIG. 6.5"/100M 16.5"/100M PRINT : ORIGIN OF DATA
UWI .           100082304316W500 : UNIQUE WELL ID
DICO.     A2D Technologies, Inc. : DIGITIZING COMPANY
~Other -----------------------------------------------------
CNFD-DILSFL-DLL-BCS LOG RUN
RUN#2 : BCS-GR-DILSFL LOG RUN IM COMBOINATION
CNL RUN ONLY FROM 3761 M TO T.D
~ASCII -----------------------------------------------------
# ...
 4250.00000  240.77960    -999.25  233.66330  233.66330    -999.25    5.57780  216.92240  216.92240 2704.14110    0.00200    -999.25    -999.25    0.00340  179.28360  178.65230  178.65230   33.91300    -999.25   28.71580   33.14780    -999.25   28.82780   28.82780  179.28360    -999.25 2018.06860    -999.25  322.73900  361.34960 2018.06860    0.03460    -999.25    -999.25    0.03460 2704.14110  377.11260    -999.25  377.11260
 4300.00000  280.56020    -999.25  243.74210  243.74210    -999.25    2.49570  240.06800  240.06800 2688.19870    0.00820    -999.25    -999.25    0.01270  400.68540  161.26940  161.26940   14.29990    -999.25   14.10830   14.21760    -999.25   14.44650   14.44650  400.68540    -999.25 2000.00000    -999.25 5841.65820 59219.82810 2000.00000    0.00290    -999.25    -999.25    0.00290 2688.19870 1965.84080    -999.25 1965.84080
 4350.00000  367.32340    -999.25  265.61920  265.61920    -999.25    0.69270   71.76150   71.76150 2217.21970    0.28930    -999.25    -999.25    0.28820 1443.62400  160.95450  160.95450   12.68760    -999.25   11.71700   12.50600    -999.25    9.15040    9.15040 1443.62400    -999.25   44.14590    -999.25 17043.36910 78598.94530   44.14590    0.02380    -999.25    -999.25    0.02380 2217.21970 1814.00460    -999.25 1814.00460
 4400.00000  373.89210    -999.25  284.39610  284.39610    -999.25    1.19900  161.62330  161.62330 2408.06740    0.17320    -999.25    -999.25    0.17660  834.06160  161.73980  161.73980   12.13740    -999.25    9.76460   11.89400    -999.25   12.94900   12.94900  834.06160    -999.25  103.59960    -999.25 50490.42580 78636.75780  103.59960    0.01640    -999.25    -999.25    0.01640 2408.06740 1923.50840    -999.25 1923.50840
 4450.00000  405.81740    -999.25  270.59870  270.59870    -999.25    0.50180  163.19850  163.19850 2581.29440    0.07130    -999.25    -999.25    0.07530 1992.83190  163.50850  163.50850    8.60500    -999.25   10.71750    8.77860    -999.25    6.82300    6.82300 1992.83190    -999.25 1960.38010    -999.25 49061.79690 75370.19530 1960.38010    0.01310    -999.25    -999.25    0.01310 2581.29440 1733.80810    -999.25 1733.80810
 4500.00000  278.94850    -999.25  248.10070  248.10070    -999.25    3.04260  248.94180  248.94180 2640.12840    0.03630    -999.25    -999.25    0.04090  328.66190  165.43680  165.43680   60.23110    -999.25   45.22700   56.74710    -999.25   54.42290   54.42290  328.66190    -999.25 1986.15100    -999.25  869.81900 2432.02320 1986.15100    0.03570    -999.25    -999.25    0.03570 2640.12840 1106.25550    -999.25 1106.25550
 4550.00000  467.14260    -999.25  266.72910  266.72910    -999.25    3.97460  158.44900  158.44900 2365.62770    0.19380    -999.25    -999.25    0.20140  251.59610  177.75530  177.75530   20.81450    -999.25   15.44110   20.85370    -999.25   18.63320   18.63320  251.59610    -999.25   31.16520    -999.25 3743.94700   15.58400   31.16520    0.05440    -999.25    -999.25    0.05440 2365.62770   25.39580    -999.25   25.39580
 4600.00000  347.78530    -999.25  240.52950  240.52950    -999.25    2.25650  194.64790  194.64790 2319.60420    0.22880    -999.25    -999.25    0.22830  443.16010  172.46160  172.46160   22.41710    -999.25   20.88790   22.00110    -999.25   19.75070   19.75070  443.16010    -999.25 2002.22970    -999.25 2256.53640 1667.53330 2002.22970    0.01670    -999.25    -999.25    0.01670 2319.60420 1032.87010    -999.25 1032.87010
 4650.00000  303.58930    -999.25  279.96800  279.96800    -999.25  148.03630  250.87810  250.87810 2684.83890    0.02220    -999.25    -999.25    0.01470    6.75510  218.70420  218.70420   76.79460    -999.25   69.25390   76.95610    -999.25   68.18830   68.18830    6.75510    -999.25    6.75680    -999.25   10.01510    9.23610    6.75680    0.15240    -999.25    -999.25    0.15240 2684.83890    8.69450    -999.25    8.69450
 4700.00000  305.71320    -999.25  311.81080  311.81080    -999.25  229.63170   68.79110   68.79110 2664.65230    0.02550    -999.25    -999.25    0.02650    4.35480  240.39800  240.39800   94.20840    -999.25   80.60450   92.42680    -999.25   75.05620   75.05620    4.35480    -999.25    4.35700    -999.25    6.42790    6.74480    4.35700    0.22100    -999.25    -999.25    0.22100 2664.65230    5.51240    -999.25    5.51240
 4750.00000  301.34170    -999.25  293.32210  293.32210    -999.25  180.02450   49.03140   49.03140 2718.76590   -0.00510    -999.25    -999.25   -0.00510    5.55480  234.06750  234.06750   91.24210    -999.25   78.23250   90.95720    -999.25   76.60740   76.60740    5.55480    -999.25    5.16810    -999.25    7.21110    7.64000    5.16810    0.16320    -999.25    -999.25    0.16320 2718.76590    7.06700    -999.25    7.06700
 4800.00000  286.95400    -999.25  283.56950  283.56950    -999.25  174.14930   43.57770   43.57770 2698.17090    0.00400    -999.25    -999.25    0.00690    5.74220  226.70780  226.70780   78.79150    -999.25   73.15540   78.38150    -999.25   66.78410   66.78410    5.74220    -999.25    5.63860    -999.25    7.34190    8.16560    5.63860    0.14450    -999.25    -999.25    0.14450 2698.17090    8.29770    -999.25    8.29770
 4850.00000  272.25810    -999.25  274.95180  274.95180    -999.25   80.02050   87.08380   87.08380 2750.74240   -0.02680    -999.25    -999.25   -0.02380   12.49680  211.66470  211.66470   68.74940    -999.25   59.08660   67.41090    -999.25   56.35970   56.35970   12.49680    -999.25   12.78460    -999.25   16.50560   18.32990   12.78460    0.11510    -999.25    -999.25    0.11510 2750.74240   17.96710    -999.25   17.96710
 4900.00000  269.41170    -999.25  269.72310  269.72310    -999.25   53.62680   48.04940   48.04940 2734.42070   -0.01190    -999.25    -999.25   -0.01430   18.64740  188.73660  188.73660   48.06610    -999.25   45.13380   48.66620    -999.25   40.57040   40.57040   18.64740    -999.25   17.06910    -999.25   23.67690   24.11560   17.06910    0.08120    -999.25    -999.25    0.08120 2734.42070   26.52030    -999.25   26.52030
 4950.00000  315.33590    -999.25  248.89690  248.89690    -999.25    3.68390  250.00000  250.00000 2637.41650    0.04800    -999.25    -999.25    0.04240  271.45300  163.46850  163.46850   19.70050    -999.25   16.16910   19.35240    -999.25   14.24720   14.24720  271.45300    -999.25 1414.17040    -999.25 1756.41490 74729.28120 1414.17040    0.00550    -999.25    -999.25    0.00550 2637.41650 1980.98180    -999.25 1980.98180
 5000.00000  440.35790    -999.25  272.52390  272.52390    -999.25    0.65880  154.76390  154.76390 2301.86790    0.23350    -999.25    -999.25    0.23870 1517.84250  166.37280  166.37280   11.99830    -999.25   13.87430   11.44470    -999.25    9.60020    9.60020 1517.84250    -999.25 1178.01550    -999.25 1698.41550  768.76980 1178.01550    0.08290    -999.25    -999.25    0.08290 2301.86790 1066.88450    -999.25 1066.88450
 5050.00000  466.80320    -999.25  353.58560  353.58560   16.48500    3.47870  -20.27060  -20.27060 1631.51270    0.62330    -999.25    -999.25    0.63070  287.46150  165.02300  165.02300   19.78470    -999.25   25.91800   19.05040    -999.25   15.51950   15.51950  287.46150    -999.25    -999.25    -999.25 47571.08980   49.70810    -999.25    0.23750    -999.25    -999.25    0.23750 1631.51270   87.24990    -999.25   87.24990
