~Version ---------------------------------------------------
VERS.      2.0 : CWLS log ASCII Standard -VERSION 2.0
WRAP.       NO : One line per depth step
CREA. 11/15/17 : LAS Creation Date
~Well ------------------------------------------------------
STRT.FT                        600.0 : START DEPTH
STOP.FT                      10800.0 : STOP DEPTH
STEP.FT                     50.00000 : STEP LENGTH
NULL.                        -999.25 : NULL VALUE
COMP.           PETROFINA CANADA LTD : COMPANY
WELL. FINA AMOCO HB FOXCK 6-35-60-18 : WELL
FLD .                                : FIELD
LOC .                                : LOCATION
CTRY.                         CANADA : COUNTRY
SRVC.         Schlumberger of Canada : SERVICE COMPANY
DATE.                    29-Aug-1976 : LOGDATE
PROV.                        Alberta : PROVINCE
UWI .               100063506018W500 : UNIQUE WELL ID
SLAT.WGS84                  54.22952 : SURFACE LATITUDE
SLON.WGS84                 -116.5928 : SURFACE LONGITUDE
~Curve Information -----------------------------------------
DEPT    .FT    : Depth Curve
CALDED  .IN    : CALIPER FROM DENSITY LOG, DEPTH ADJUSTED WITH [SPRED]
CALSED  .IN    : CALIPER FROM SONIC LOG, DEPTH ADJUSTED WITH [SPRED]
CALWS   .IN    : CALIPER [CALSED]
CONDWS  .MMHO  : CONDUCTIVITY [1000/DRESWS]
DCORED  .G/C3  : DENSITY CORRECTION FROM DENSITY LOG, DEPTH ADJUSTED WITH [SPRED]
DCORWS  .G/C3  : DENSITY CORRECTION [DCORED]
DENWS   .G/C3  : BULK DENSITY [RHOBED]
DPOLSWS .V/V   : DENSITY POROSITY LIMESTONE [CALCULATED FROM DENWS]
DPORLSED.V/V   : DENSITY POROSITY LIMESTONE FROM DENSITY LOG, DEPTH ADJUSTED WITH [SPRED]
DPORSSED.V/V   : DENSITY POROSITY SANDSTONE FROM DENSITY LOG, DEPTH ADJUSTED WITH [SPRED]
DRESWS  .OHMM  : DEEP RESISTIVITY [ILDED]
DTED    .US/F  : DELTA TIME FROM SONIC LOG, DEPTH ADJUSTED WITH [SPRED]
DTWS    .US/F  : DELTA TIME [DTED]
GRDED   .GAPI  : GAMMA RAY FROM DENSITY LOG, DEPTH ADJUSTED WITH [SPRED]
GRED    .GAPI  : GAMMA RAY FROM CEMENT LOG, DEPTH ADJUSTED WITH [SPRED]
GRSED   .GAPI  : GAMMA RAY FROM SONIC LOG, DEPTH ADJUSTED WITH [SPRED]
GRWS    .GAPI  : GAMMA RAY [GRSED], SPLICED WITH [GRED] FROM TOP TO 1095'
ILDED   .OHMM  : INDUCTION LOG DEEP RESISTIVITY
ILMED   .OHMM  : INDUCTION LOG MEDIUM RESISTIVITY
LL8ED   .OHMM  : 8 INCH LATEROLOG RESISTIVITY
MRESWS  .OHMM  : MEDIUM RESISTIVITY [ILMED]
NPOLSWS .V/V   : NEUTRON POROSITY LIMESTONE [NPORLSED], MATRIX CONVERTED FROM [NPORSSED] TO LIMESTONE FROM TOP TO 6954'
NPORLSED.V/V   : NEUTRON POROSITY LIMESTONE FROM DENSITY LOG, DEPTH ADJUSTED WITH [SPRED]
NPORSSED.V/V   : NEUTRON POROSITY SANDSTONE FROM DENSITY LOG, DEPTH ADJUSTED WITH [SPRED]
RHOBED  .G/C3  : BULK DENSITY FROM DENSITY LOG, DEPTH ADJUSTED WITH [SPRED]
SPRED   .MV    : SPONTANEOUS POTENTIAL FROM RESISTIVITY LOG
SPWS    .MV    : SPONTANEOUS POTENTIAL [BASELINE 0 MV] [SPRED]
SRESWS  .OHMM  : SHALLOW RESISTIVITY [LL8ED]
~Params ----------------------------------------------------
PD  .                     GL : PERMANENT DATUM
EPD .FT                 3085 : ELEVATION PERMANENT DATUM
LMF .                     KB : LOG MEASURED FROM
DAPD.FT                 15.7 : FEET ABOVE PERMANENT DATUM
EKB .FT               3100.9 : KELLY BUSHING
EDF .FT               3085.2 : DRILLING FLOOR
EGL .FT               3085.5 : GROUND LEVEL
DATE.               08/29/76 : RUN DATE
RUN .                      1 : RUN NUMBER
DD  .FT                10843 : DEPTH DRILLER
DL  .FT                10840 : DEPTH LOGGER
BLI .FT                10834 : BOTTOM LOG INTERVAL
TLI .FT                 1119 : TOP LOG INTERVAL
CBD .FT                 1119 : CASING BOTTOM DRILLER
CBL .FT                 1119 : CASING BOTTOM LOGGER
BS  .IN                 8.75 : BIT SIZE
BSD .FT                10843 : BIT SIZE AT DEPTH
DFT .               GEL CHEM : DRILLING FLUID TYPE
DFD .                    9.3 : DRILLING FLUID DENSITY
DFV .                    150 : DRILLING FLUID VISCOSITY
DFPH.                   10.5 : DRILLING FLUID PH
DFL .                    7.0 : DRILLING FLUID LOSS
MSS .            CIRCULATION : MUD SAMPLE SOURCE
RMS .OHMM               2.43 : RESISTIVITY MUD SAMPLE
MST .DEGF                 76 : MUD SAMPLE TEMPERATURE
RMF .OHMM               2.33 : RESISTIVITY MUD FILTRATE SAMPLE
MFST.DEGF                 73 : MUD FILTRATE SAMPLE TEMPERATURE
RMC .OHMM               2.22 : RESISTIVITY MUD CAKE
MCST.DEGF                 67 : MUD CAKE SAMPLE TEMPERATURE
RMB .OHMM               0.86 : RESISTIVITY MUD AT BHT
TCS .HRS                   3 : TIME CIRCULATED STOPPED
LUN .                   7691 : LOGGING UNIT NUMBER
LUL .                    WCT : LOGGING UNIT LOCATION
ENGI.              CROCKFORD : RECORDING ENGINEER
WITN.                 HALKOW : WITNESSED BY
CLNT.                A2DTECH : CLIENT CODE
ORIG.            2" 5" PRINT : ORIGIN OF DATA
UWI .       100063506018W500 : UNIQUE WELL ID
DICO. A2D Technologies, Inc. : DIGITIZING COMPANY
~Other -----------------------------------------------------
~ASCII -----------------------------------------------------
# ...
 8100.00000    8.74760    8.62850    8.62850   19.78710    0.05770    0.05770    2.71090   -0.00050   -0.00730    -999.25   50.53800   55.68730   55.68730   45.83700    -999.25   43.78260   43.78260   50.53800   50.33210  100.92050   50.33210    0.02710    0.02710    -999.25    2.71090  -12.84400  -11.56280  100.92050
 8150.00000    8.87620    8.77760    8.77760    2.63440    0.00410    0.00410    2.65050    0.03480    0.03960    -999.25  379.59760   60.72740   60.72740   71.42480    -999.25   73.02300   73.02300  379.59760  527.32070  736.70260  527.32070    0.06510    0.06510    -999.25    2.65050  -46.54590  -45.54030  736.70260
 8200.00000    8.96090    8.85660    8.85660    4.27330    0.01680    0.01680    2.49230    0.12730    0.11520    -999.25  234.01330   63.66290   63.66290  116.88180    -999.25  130.21370  130.21370  234.01330  355.06780 1316.19570  355.06780    0.08600    0.08600    -999.25    2.49230  -31.81050  -31.08050 1316.19570
 8250.00000   10.04780    9.04460    9.04460    0.69130    0.18650    0.18650    2.68110    0.01690    0.02460    -999.25 1446.54430   49.97970   49.97970   14.23820    -999.25   14.81390   14.81390 1446.54430 1228.97450 1170.28160 1228.97450   -0.00200   -0.00200    -999.25    2.68110  -91.76020  -91.30580 1170.28160
 8300.00000    9.83480    8.97980    8.97980    1.44530    0.18590    0.18590    2.71870   -0.00510   -0.00100    -999.25  691.90600   49.40010   49.40010   16.68250    -999.25   19.34170   19.34170  691.90600 1318.80800  925.74100 1318.80800    0.00100    0.00100    -999.25    2.71870  -86.38570  -86.20560  925.74100
 8350.00000   11.35010    9.21800    9.21800    0.70790    0.17970    0.17970    2.57470    0.07910    0.08280    -999.25 1412.62020   49.91810   49.91810   15.08040    -999.25   19.74280   19.74280 1412.62020  835.22620 1011.71050  835.22620   -0.00280   -0.00280    -999.25    2.57470 -108.14600 -108.24280 1011.71050
 8400.00000   11.10030    9.23820    9.23820    2.03620    0.15280    0.15280    2.50870    0.11770    0.11720    -999.25  491.10590   52.60980   52.60980   15.21280    -999.25   11.19400   11.19400  491.10590  275.70860  376.42220  275.70860    0.00090    0.00090    -999.25    2.50870 -108.06990 -108.44240  376.42220
 8450.00000   11.55270    9.15970    9.15970    2.44960    0.14560    0.14560    2.61360    0.05640    0.05990    -999.25  408.22580   49.66550   49.66550   12.65320    -999.25   14.49570   14.49570  408.22580  362.87750  365.21080  362.87750   -0.00100   -0.00100    -999.25    2.61360  -79.92510  -80.57320  365.21080
 8500.00000   12.25600    9.56420    9.56420    0.69850    0.20680    0.20680    2.58320    0.07420    0.08900    -999.25 1431.70980   51.38410   51.38410   12.82390    -999.25   12.67000   12.67000 1431.70980  614.73840  545.61690  614.73840   -0.00050   -0.00050    -999.25    2.58320 -117.19800 -118.12170  545.61690
 8550.00000   11.00640    9.01920    9.01920    2.53740    0.13490    0.13490    2.66110    0.02860    0.02560    -999.25  394.84360   53.04540   53.04540   11.85280    -999.25   10.57450   10.57450  394.84360  238.19430  260.89270  238.19430    0.00230    0.00230    -999.25    2.66110 -107.44550 -108.64340  260.89270
 8600.00000   10.26850    9.00930    9.00930    0.86760    0.19190    0.19190    2.61490    0.05560    0.06600    -999.25 1152.59520   51.56760   51.56760   12.91580    -999.25   12.76870   12.76870 1152.59520  690.44490  433.14200  690.44490    0.00060    0.00060    -999.25    2.61490 -110.39980 -111.87470  433.14200
 8650.00000   11.03470    9.07450    9.07450    0.69510    0.17890    0.17890    2.48870    0.12940    0.14370    -999.25 1438.64790   49.70220   49.70220   16.90970    -999.25   15.57360   15.57360 1438.64790 1344.99820  784.14130 1344.99820    0.00050    0.00050    -999.25    2.48870 -111.15730 -112.90780  784.14130
 8700.00000   11.28270    9.11950    9.11950    0.69230    0.19840    0.19840    2.60780    0.05980    0.06170    -999.25 1444.36830   50.52830   50.52830   12.03860    -999.25   13.41770   13.41770 1444.36830  618.11110  465.15750  618.11110    0.00160    0.00160    -999.25    2.60780 -110.68160 -112.70770  465.15750
 8750.00000   11.39420    9.15800    9.15800    0.68660    0.23660    0.23660    2.51580    0.11360    0.12180    -999.25 1456.43180   50.69190   50.69190   14.78680    -999.25   15.57140   15.57140 1456.43180  547.56540  842.13660  547.56540   -0.00210   -0.00210    -999.25    2.51580 -111.79930 -114.10100  842.13660
 8800.00000   10.65150    8.96300    8.96300    6.47460    0.18670    0.18670    2.59430    0.06770    0.06670    -999.25  154.54110   50.51830   50.51830    9.16090    -999.25   12.76390   12.76390  154.54110  112.36130  158.75620  112.36130   -0.00030   -0.00030    -999.25    2.59430 -111.18690 -113.76280  158.75620
 8850.00000   11.16190    9.02850    9.02850    2.64510    0.17830    0.17830    2.59890    0.06500    0.06130    -999.25  378.05910   49.50460   49.50460   12.51070    -999.25   14.08980   14.08980  378.05910  369.75760  455.63710  369.75760    0.00030    0.00030    -999.25    2.59890 -124.74660 -127.59950  455.63710
 8900.00000    8.79210    8.86870    8.86870    0.82530    0.06600    0.06600    2.86630   -0.09140   -0.09600    -999.25 1211.69750   48.90590   48.90590   12.64200    -999.25   12.56570   12.56570 1211.69750 1204.54370 1494.28740 1204.54370    0.00210    0.00210    -999.25    2.86630 -110.19360 -113.32210 1494.28740
 8950.00000    8.98290    8.75830    8.75830  236.13870    0.02070    0.02070    2.58040    0.07580    0.08010    -999.25    4.23480   64.77940   64.77940   82.64110    -999.25   76.13860   76.13860    4.23480    3.97920   10.90980    3.97920    0.06300    0.06300    -999.25    2.58040  -76.23910  -79.64320   10.90980
 9000.00000    8.63480    8.94570    8.94570   14.93160    0.06180    0.06180    2.72390   -0.00810   -0.01320    -999.25   66.97190   51.92130   51.92130   22.04660    -999.25   17.86000   17.86000   66.97190   62.25990   95.10690   62.25990    0.06680    0.06680    -999.25    2.72390 -120.47530 -124.15500   95.10690
 9050.00000   12.10140    9.11900    9.11900    4.82010    0.23260    0.23260    2.25910    0.26370    0.26390    -999.25  207.47050   50.42750   50.42750   18.75100    -999.25   21.03400   21.03400  207.47050  139.73880  134.84000  139.73880    0.06770    0.06770    -999.25    2.25910 -119.19730 -123.15120  134.84000
 9100.00000    9.51100    8.82370    8.82370   37.23330    0.24120    0.24120    2.66980    0.02350    0.03910    -999.25   26.85770   49.26150   49.26150   26.55260    -999.25   29.39740   29.39740   26.85770   21.11420   35.55920   21.11420    0.05430    0.05430    -999.25    2.66980  -75.67140  -79.90240   35.55920
 9150.00000    8.78710    8.81890    8.81890    4.42430    0.01440    0.01440    2.74720   -0.02180   -0.02490    -999.25  226.02470   51.72800   51.72800   33.38160    -999.25   32.35490   32.35490  226.02470  227.52070  324.87420  227.52070    0.02420    0.02420    -999.25    2.74720  -26.22730  -30.73390  324.87420
 9200.00000    8.86270    8.85070    8.85070   10.76720    0.00900    0.00900    2.70630    0.00220   -0.00120    -999.25   92.87450   53.22890   53.22890   40.78150    -999.25   38.54220   38.54220   92.87450   96.23490  129.31530   96.23490    0.03540    0.03540    -999.25    2.70630  -22.56050  -27.34270  129.31530
 9250.00000    8.79730    8.81200    8.81200    3.59200    0.00910    0.00910    2.71270   -0.00160   -0.00420    -999.25  278.39900   51.08760   51.08760   27.74860    -999.25   27.52450   27.52450  278.39900  290.77400  370.93210  290.77400    0.00520    0.00520    -999.25    2.71270  -43.34550  -48.40330  370.93210
 9300.00000    8.81460    8.87020    8.87020    4.83830    0.02130    0.02130    2.73510   -0.01460   -0.01870    -999.25  206.68460   52.39750   52.39750   26.43160    -999.25   28.20260   28.20260  206.68460  199.13830  238.05870  199.13830    0.00880    0.00880    -999.25    2.73510  -35.13780  -40.46980  238.05870
