~Version ---------------------------------------------------
VERS. 2.0 : CWLS log ASCII Standard -VERSION 2.0
WRAP.  NO : ONE LINE PER DEPTH STEP
~Well ------------------------------------------------------
STRT.F                              1150.0 : START DEPTH
STOP.F                             10850.0 : STOP DEPTH
STEP.F                            50.00000 : STEP LENGTH
NULL.                              -999.25 : NULL VALUE
COMP.             CANADIAN KEWANEE LIMITED : COMPANY
WELL. KEWANEE ET AL SAKWATAMAU 10-15-63-15 : WELL
FLD .                                   WC : FIELD
LOC .                                      : LOCATION
CTRY.                               CANADA : COUNTRY
SRVC.                         Schlumberger : SERVICE COMPANY
DATE.                          21-Mar-1965 : LOGDATE
PROV.                              Alberta : PROVINCE
UWI .                     100101506315W500 : UNIQUE WELL ID
SLAT.WGS84                        54.45235 : SURFACE LATITUDE
SLON.WGS84                        -116.177 : SURFACE LONGITUDE
~Curve Information -----------------------------------------
DEPT  .F                 : 
GRS   .GAPI 60 310 01 00 : GAMMA RAY FROM SONIC LOG
DT    .US/F 60 500 33 00 : DELTA-T (INTERVAL TRANSIT TIME)
CALS  .IN   60 280 50 00 : CALIPER FROM SONIC LOG
CILD  .MMHO 05 110 46 00 : INDUCTION DEEP CONDUCTIVITY
ILD   .OHMM 05 120 46 00 : INDUCTION DEEP RESISTIVITY
SN    .OHMM 05 040 16 00 : SHORT NORMAL RESISTIVITY
SPR   .MV   05 010 01 00 : SPONTANEOUS POTENTIAL FROM RESISTIVITY LOG
SPR_1 .MV   05 010 01 00 : SPONTANEOUS POTENTIAL FROM RESISTIVITY
CILD_1.MMHO 05 110 46 00 : INDUCTION DEEP CONDUCTIVITY
ILD_1 .OHMM 05 120 46 00 : INDUCTION DEEP RESISTIVITY
SN_1  .OHMM 05 040 16 00 : SHORT NORMAL
~Params ----------------------------------------------------
PD  .                    SCF : PERMANENT DATUM
EPD .FT                 3104 : ELEVATION PERMANENT DATUM
LMF .                    SCF : LOG MEASURED FROM
EKB .FT               3117.1 : KELLY BUSHING
EGL .FT                 3103 : GROUND LEVEL
DATE.               03/12/65 : RUN DATE
RUN .                      1 : RUN NUMBER
DD  .FT                10858 : DEPTH DRILLER
DL  .FT                10864 : DEPTH LOGGER
BLI .FT                10863 : BOTTOM LOG INTERVAL
TLI .FT                 9600 : TOP LOG INTERVAL
BS  .IN                 8.75 : BIT SIZE
BSD .FT                10858 : BIT SIZE AT DEPTH
DFT .                    GEL : DRILLING FLUID TYPE
DFD .                    9.8 : DRILLING FLUID DENSITY
DFV .                     73 : DRILLING FLUID VISCOSITY
DFPH.                     10 : DRILLING FLUID PH
DFL .                    7.8 : DRILLING FLUID LOSS
RMS .OHMM               2.32 : RESISTIVITY MUD SAMPLE
MST .DEGF                 52 : MUD SAMPLE TEMPERATURE
RMF .OHMM               1.72 : RESISTIVITY MUD FILTRATE SAMPLE
MFST.DEGF                 52 : MUD FILTRATE SAMPLE TEMPERATURE
RMC .OHMM                2.1 : RESISTIVITY MUD CAKE
MCST.DEGF                 52 : MUD CAKE SAMPLE TEMPERATURE
RMB .OHMM               0.56 : RESISTIVITY MUD AT BHT
TCS .HRS                   2 : TIME CIRCULATED STOPPED
LUN .                   3534 : LOGGING UNIT NUMBER
LUL .                    WCT : LOGGING UNIT LOCATION
ENGI.                  HAYES : RECORDING ENGINEER
WITN.                 FISHER : WITNESSED BY
CLNT.                A2DTECH : CLIENT CODE
ORIG.               5" PRINT : ORIGIN OF DATA
UWI .       100101506315W500 : UNIQUE WELL ID
DICO. A2D Technologies, Inc. : DIGITIZING COMPANY
~Other -----------------------------------------------------
~ASCII -----------------------------------------------------
# ...
 4200.00000   74.90470  105.62060   12.11010  163.63570    7.19370    8.74560  -43.49020    -999.25    -999.25    -999.25    -999.25
 4250.00000  102.95670  105.01460    9.91340  133.69610    8.61510   12.45260  -42.65360    -999.25    -999.25    -999.25    -999.25
 4300.00000   61.50130  102.58310   12.98890  207.26070    6.00720    6.65920  -43.42570    -999.25    -999.25    -999.25    -999.25
 4350.00000   63.17950   99.28420   12.89590  241.96160    5.34210    5.10780  -46.12270    -999.25    -999.25    -999.25    -999.25
 4400.00000   69.24580   94.33070   13.51680  272.78750    4.91710    5.53780  -42.92470    -999.25    -999.25    -999.25    -999.25
 4450.00000   66.31480   93.16340   13.47090  289.39500    4.62510    4.98980  -43.36570    -999.25    -999.25    -999.25    -999.25
 4500.00000   66.42670   94.22340   12.37200  213.11180    5.69170    6.62080  -44.11170    -999.25    -999.25    -999.25    -999.25
 4550.00000   62.66320   92.88500   13.25560  259.81630    4.90430    5.45790  -44.42610    -999.25    -999.25    -999.25    -999.25
 4600.00000   60.04180  100.92400    -999.25  308.50640    4.11480    4.55860  -44.56430    -999.25    -999.25    -999.25    -999.25
 4650.00000   63.37660   96.10250   13.73190  240.15710    5.11150    6.16640  -41.81840    -999.25    -999.25    -999.25    -999.25
 4700.00000   86.72460  112.86910   12.85590  510.97560    3.17630    3.77460  -41.06660    -999.25    -999.25    -999.25    -999.25
 4750.00000   54.65830  111.79970   12.37830  472.18830    3.25020    3.44350  -41.46290    -999.25    -999.25    -999.25    -999.25
 4800.00000   56.37590   89.68430   12.52970  278.09770    4.37320    4.83200  -42.09940    -999.25    -999.25    -999.25    -999.25
 4850.00000   70.33130  100.54460   12.46020  296.78020    4.51070    5.30830  -42.99100    -999.25    -999.25    -999.25    -999.25
 4900.00000   33.88200   77.59330   10.97610  130.10510    8.61970   12.44690  -59.10060    -999.25    -999.25    -999.25    -999.25
 4950.00000   53.49410  135.41910   11.74620  648.18180    2.68000    3.12680  -42.28630    -999.25    -999.25    -999.25    -999.25
 5000.00000   41.14230   79.76930   11.29300  113.48260    9.58450   16.88810  -56.76350    -999.25    -999.25    -999.25    -999.25
 5050.00000   54.13170   83.29830   11.02200  162.44280    7.02920   12.27450  -61.95680    -999.25    -999.25    -999.25    -999.25
 5100.00000   45.31280   81.57930   11.20110  202.48990    5.81540    7.06880  -38.24300    -999.25    -999.25    -999.25    -999.25
 5150.00000   37.65020   75.80030   12.42870  182.20010    6.33070    7.93780  -38.36750    -999.25    -999.25    -999.25    -999.25
 5200.00000   32.93820   82.64750   12.67820  170.46000    6.65370    8.72850  -41.53640    -999.25    -999.25    -999.25    -999.25
 5250.00000   31.08340   91.04780   12.46010  177.51570    6.43940    8.94430  -48.92480    -999.25    -999.25    -999.25    -999.25
 5300.00000   31.42130   77.87390   12.39810  179.73440    6.47380    8.66240  -46.07620    -999.25    -999.25    -999.25    -999.25
 5350.00000   35.15230   76.16830   11.45540  173.98020    6.62420   12.78090  -56.01770    -999.25    -999.25    -999.25    -999.25
 5400.00000   39.78640   74.44090   10.72680  156.81610    7.17380   15.48290  -88.77690    -999.25    -999.25    -999.25    -999.25
 5450.00000   42.90440   82.25670   11.35790  245.87290    5.05230    9.50300  -55.77340    -999.25    -999.25    -999.25    -999.25
 5500.00000   50.01540   78.46990   11.22040  191.28740    6.07800    9.44960  -50.82890    -999.25    -999.25    -999.25    -999.25
 5550.00000   57.50410   77.87940   11.34410  152.77910    7.40650   11.89910  -39.48740    -999.25    -999.25    -999.25    -999.25
 5600.00000   53.20130   84.82220   12.03240  182.56550    6.29510    8.14500  -38.81200    -999.25    -999.25    -999.25    -999.25
 5650.00000   56.81720   78.04490   10.95650  158.26110    7.17220   11.50980  -38.64090    -999.25    -999.25    -999.25    -999.25
 5700.00000   57.93260   77.92330   10.72010   79.03200   13.92930   22.03300  -42.02670    -999.25    -999.25    -999.25    -999.25
 5750.00000   41.48200   70.57630   10.44650  132.74980    8.55970   15.71800  -48.67010    -999.25    -999.25    -999.25    -999.25
 5800.00000   61.83920   78.31340   12.56000  213.98820    5.48470    7.82100  -36.07380    -999.25    -999.25    -999.25    -999.25
 5850.00000   58.79600   76.30380   10.67470   94.61890   11.45370   17.12660  -33.94640    -999.25    -999.25    -999.25    -999.25
 5900.00000   54.70850  101.08930   13.02660  163.69170    6.83380    9.23320  -34.51370    -999.25    -999.25    -999.25    -999.25
 5950.00000   26.62040   61.34960    9.68700   16.44670   87.15080  115.97090  -60.79140    -999.25    -999.25    -999.25    -999.25
 6000.00000  117.72720   61.24800    9.37220   97.73280   11.36450   72.78550 -108.07920    -999.25    -999.25    -999.25    -999.25
 6050.00000    8.18080   53.30010    9.69180   58.46780   19.21850   53.38990 -109.13700    -999.25    -999.25    -999.25    -999.25
 6100.00000   44.16930   58.52180   10.50160  189.65960    6.21860   15.53350  -79.67020  -76.56520  130.06580    7.81840   16.09780
 6150.00000   32.78870   58.83500   10.81630  210.28380    5.68020   18.36550  -83.05840  -80.66980  170.13560    5.96200   20.12820
 6200.00000    6.73850   52.35170   10.14230   13.92130  103.25070   75.43980  -88.55250  -83.99640   13.80910  129.32180   98.77290
 6250.00000    8.32180   54.84580    9.35750   62.24630   17.91400   66.24950 -160.43450 -177.75330   48.89550   22.67500   75.28470
 6300.00000    5.62470   54.98700    9.12200   55.40550   20.36040   68.00120 -169.57060 -188.63360   49.39330   22.37580   83.97630
 6350.00000   33.99240   67.88990   10.54790 1290.34080    1.97850    4.82660  -97.28400 -124.97290  842.29300    1.97620    6.54040
 6400.00000   33.69000   61.62750   10.57220  307.23290    4.16860   12.65110  -78.00790  -98.36320  218.43860    4.72970   16.12700
 6450.00000   28.47060   64.81400   11.23740  502.38640    3.01300   11.95190  -82.28900  -98.50200  367.81700    3.13330   12.14640
 6500.00000   24.24920   56.26000   10.29400   47.23270   23.27320   33.82230  -31.87680    -999.25    -999.25    -999.25    -999.25
 6550.00000   11.69810   52.54150    9.43680   11.10220  136.02960  131.10330  -46.91200    -999.25    -999.25    -999.25    -999.25
 6600.00000    9.39830   51.52660   10.55250   24.97890   47.69730   63.38950  -52.34520    -999.25    -999.25    -999.25    -999.25
 6650.00000   13.66010   54.34870   10.08980   50.58290   23.08480   37.73410  -55.69310    -999.25    -999.25    -999.25    -999.25
 6700.00000    6.18950   52.92870    9.25870   37.16560   30.78810   57.55920  -96.81290    -999.25    -999.25    -999.25    -999.25
 6750.00000   12.45260   53.75730    9.51450   20.44010   62.46920   69.24210  -50.45450    -999.25    -999.25    -999.25    -999.25
 6800.00000   17.70550   53.96390    9.38130   19.94580   63.54640   77.55610  -61.32090    -999.25    -999.25    -999.25    -999.25
 6850.00000   22.64440   54.53430    9.50420   26.30290   45.68040   58.54840  -51.95070    -999.25    -999.25    -999.25    -999.25
 6900.00000   87.40910   79.74940   10.43050   45.98710   24.15220   32.78430  -27.95270    -999.25    -999.25    -999.25    -999.25
 6950.00000   58.30590   61.91220   10.08530   97.88840   11.18900   15.12170  -48.98290    -999.25    -999.25    -999.25    -999.25
 7000.00000   19.82340   51.83680   10.06910   21.96870   54.34750   60.82830  -66.80960    -999.25    -999.25    -999.25    -999.25
 7050.00000    5.47200   51.53610    9.90950   17.69530   72.01090   87.69350 -116.48170    -999.25    -999.25    -999.25    -999.25
 7100.00000    5.10660   50.97750    9.90080   12.42040  109.38160  108.57690 -115.25660    -999.25    -999.25    -999.25    -999.25
 7150.00000    4.46430   53.43470   10.19880   26.21580   46.28020   71.30320 -138.97540    -999.25    -999.25    -999.25    -999.25
 7200.00000    4.76550   50.09740    9.50640   23.18300   48.10800   61.50320 -125.36380    -999.25    -999.25    -999.25    -999.25
