~Version ---------------------------------------------------
VERS.      2.0 : CWLS log ASCII Standard -VERSION 2.0
WRAP.       NO : One line per depth step
CREA. 10/24/17 : LAS Creation Date
~Well ------------------------------------------------------
STRT.FT                        1200.0 : START DEPTH
STOP.FT                       11700.0 : STOP DEPTH
STEP.FT                      50.00000 : STEP LENGTH
NULL.                         -999.25 : NULL VALUE
COMP.            MOBIL OIL CANADA LTD : COMPANY
WELL. MOBIL ICG MARSH HEAD 11-3-60-20 : WELL
FLD .                                 : FIELD
LOC .                                 : LOCATION
CTRY.                          CANADA : COUNTRY
SRVC.                    Schlumberger : SERVICE COMPANY
DATE.                     05-Jan-1976 : LOGDATE
PROV.                         Alberta : PROVINCE
UWI .                100110306020W500 : UNIQUE WELL ID
SLAT.WGS84                   54.15991 : SURFACE LATITUDE
SLON.WGS84                  -116.9171 : SURFACE LONGITUDE
~Curve Information -----------------------------------------
DEPT    .FT    : Depth Curve
CALDED  .IN    : CALIPER FROM DENSITY LOG [ADJ. TO RESISTIVITY LOG]
CALSED  .IN    : CALIPER FROM SONIC LOG [ADJ. TO RESISTIVITY LOG]
CALWS   .IN    : CALIPER [CALDED SPL. TO CALSED FROM 2516'-2535']
CONDWS  .MMHO  : CONDUCTIVITY [1000/DRESWS]
DCORWS  .G/C3  : DENSITY CORRECTION [DRHOED]
DENWS   .G/C3  : FORMATION BULK DENSITY [RHOBED]
DPHILSED.V/V   : DENSITY POROSITY LIMESTONE  FROM DENSITY LOG [ADJ. TO RESISTIVITY LOG]
DPOLSWS .V/V   : DENSITY POROSITY LIMESTONE [CALC FROM DENWS,M=2.71, F=1.00]
DRESWS  .OHMM  : DEEP RESISTIVITY [ILDED]
DRHOED  .G/C3  : DENSITY CORRECTION FROM DENSITY LOG [ADJ. TO RESISTIVITY LOG]
DTED    .US/F  : DELTA TIME FROM SONIC LOG [ADJ. TO RESISTIVITY LOG]
DTWS    .US/F  : COMPRESSIONAL SONIC [DTED]
GRDED   .GAPI  : GAMMA RAY FROM DENSITY LOG [ADJ. TO RESISTIVITY LOG]
GRSED   .GAPI  : GAMMA RAY FROM SONIC LOG [ADJ. TO RESISTIVITY LOG]
GRWS    .GAPI  : GAMMA RAY [GRDED SPL. TO GRSED FROM 2507'-2550']
ILDED   .OHMM  : DEEP INDUCTION RESISTIVITY FROM RESISTIVITY LOG
ILMED   .OHMM  : MEDIUM INDUCTION RESISTIVITY FROM RESISTIVITY LOG
LL8ED   .OHMM  : 8 INCH LATEROLOG RESISTIVITY FROM RESISTIVITY LOG
MRESWS  .OHMM  : MEDIUM RESISTIVITY [ILMED]
NPHILSED.V/V   : NEUTRON POROSITY LIMESTONE FROM DENSITY LOG [ADJ. TO RESISTIVITY LOG]
NPOLSWS .V/V   : NEUTRON POROSITY LIMESTONE [NPHILSED]
RHOBED  .G/C3  : BULK DENSITY FROM DENSITY LOG [ADJ. TO RESISTIVITY LOG]
SPRED   .MV    : SPONTANEOUS POTENTIAL FROM RESISTIVITY LOG
SPWS    .MV    : SPONTANEOUS POTENTIAL [BASELINE 0 MV, SPRED]
SRESWS  .OHMM  : SHALLOW RESISTIVITY [LL8ED]
~Params ----------------------------------------------------
PD  .                     GL : PERMANENT DATUM
EPD .FT               3132.5 : ELEVATION PERMANENT DATUM
LMF .                     KB : LOG MEASURED FROM
DAPD.FT                 14.5 : FEET ABOVE PERMANENT DATUM
EKB .FT                 3147 : KELLY BUSHING
EGL .FT               3132.5 : GROUND LEVEL
DATE.               01/05/76 : RUN DATE
RUN .                      1 : RUN NUMBER
DD  .FT                11725 : DEPTH DRILLER
DL  .FT                11730 : DEPTH LOGGER
BLI .FT                11724 : BOTTOM LOG INTERVAL
TLI .FT                 1203 : TOP LOG INTERVAL
CBD .FT                 1203 : CASING BOTTOM DRILLER
CBL .FT                 1203 : CASING BOTTOM LOGGER
BS  .IN                 8.75 : BIT SIZE
BSD .FT                11725 : BIT SIZE AT DEPTH
DFT .                    GEL : DRILLING FLUID TYPE
DFD .                    9.6 : DRILLING FLUID DENSITY
DFV .                    110 : DRILLING FLUID VISCOSITY
DFPH.                   10.5 : DRILLING FLUID PH
DFL .                    9.8 : DRILLING FLUID LOSS
MSS .               FLOWLINE : MUD SAMPLE SOURCE
RMS .OHMM               2.42 : RESISTIVITY MUD SAMPLE
MST .DEGF                 74 : MUD SAMPLE TEMPERATURE
RMF .OHMM               1.63 : RESISTIVITY MUD FILTRATE SAMPLE
MFST.DEGF                 74 : MUD FILTRATE SAMPLE TEMPERATURE
RMB .OHMM               0.67 : RESISTIVITY MUD AT BHT
TCS .HRS                   3 : TIME CIRCULATED STOPPED
LUN .                   7658 : LOGGING UNIT NUMBER
LUL .                     RD : LOGGING UNIT LOCATION
ENGI.              DODSWORTH : RECORDING ENGINEER
WITN.   OLINYK LINDENSCHMIDT : WITNESSED BY
CLNT.                A2DTECH : CLIENT CODE
ORIG.            2" 5" PRINT : ORIGIN OF DATA
UWI .       100110306020W500 : UNIQUE WELL ID
DICO. A2D Technologies, Inc. : DIGITIZING COMPANY
~Other -----------------------------------------------------
DIL-LL-CNFD-BHC LOG RUN
CNFD DATA MISSING AROUND 25256' (MAY BE DUE TO LOG SPLICING)
~ASCII -----------------------------------------------------
# ...
 2600.00000   11.41360   14.06860   11.41360  319.24400    0.08970    1.69630    0.44920    0.59280    3.13240    0.08970  131.52180  131.52180   65.32790   68.14050   65.32790    3.13240    2.62360    3.42640    2.62360    0.36900    0.36900    1.69630 -128.17930   -2.60450    3.42640
 2650.00000   10.53970   11.16440   10.53970   58.45120    0.00890    2.32650    0.22670    0.22430   17.10830    0.00890   81.49100   81.49100   71.61640   73.07770   71.61640   17.10830   16.20530   23.19830   16.20530    0.20470    0.20470    2.32650 -131.84920   -5.98340   23.19830
 2700.00000   11.69580   11.36100   11.69580  265.18870    0.13500    1.97190    0.44810    0.43160    3.77090    0.13500  102.27090  102.27090   79.40710   82.53070   79.40710    3.77090    3.18720    3.73570    3.18720    0.33740    0.33740    1.97190 -129.07300   -3.64600    3.73570
 2750.00000   12.75530   14.14610   12.75530  247.20660    0.16790    2.00710    0.41030    0.41110    4.04520    0.16790   96.29940   96.29940   95.48460   90.31310   95.48460    4.04520    3.59090    4.30140    3.59090    0.31610    0.31610    2.00710 -128.35920   -3.37100    4.30140
 2800.00000   12.40920   13.02130   12.40920  192.20260    0.15350    2.11230    0.35400    0.34950    5.20390    0.15350   95.23590   95.23590   75.56150   87.51090   75.56150    5.20390    4.18320    4.73120    4.18320    0.29330    0.29330    2.11230 -127.94340   -3.39190    4.73120
 2850.00000   11.14220   12.49810   11.14220   89.28170    0.20390    2.29210    0.24480    0.24440   11.20050    0.20390   78.89890   78.89890   86.57240   80.96610   86.57240   11.20050    9.16770   10.35690    9.16770    0.19750    0.19750    2.29210 -126.70310   -2.59260   10.35690
 2900.00000   14.98520   14.92590   14.98520  214.14650    0.13780    2.02530    0.40340    0.40040    4.66970    0.13780   94.12180   94.12180   89.13630   93.94810   89.13630    4.66970    3.96160    4.31580    3.96160    0.30860    0.30860    2.02530 -128.06130   -4.38960    4.31580
 2950.00000    9.70810   10.76050    9.70810  260.35560    0.02990    1.96440    0.44970    0.43600    3.84090    0.02990   97.69740   97.69740   56.86710   59.16850   56.86710    3.84090    3.39870    8.10720    3.39870    0.32790    0.32790    1.96440 -130.16400   -6.93120    8.10720
 3000.00000   14.39780   14.80400   14.39780  194.90900    0.15390    1.87400    0.44940    0.48890    5.13060    0.15390   96.17390   96.17390   90.34360   92.74300   90.34360    5.13060    4.37980    4.87110    4.37980    0.29280    0.29280    1.87400 -126.93750   -4.14350    4.87110
 3050.00000   10.41840   10.76550   10.41840   38.86240   -0.00130    2.32440    0.22860    0.22550   25.73450   -0.00130   82.95160   82.95160   68.09240   69.07600   68.09240   25.73450   23.71230   27.30460   23.71230    0.21430    0.21430    2.32440 -133.48290  -11.12550   27.30460
 3100.00000   12.57490   10.68690   12.57490  205.92230    0.17560    2.13030    0.33850    0.33900    4.85620    0.17560   90.71080   90.71080   83.43340   83.36770   83.43340    4.85620    3.97680    4.65770    3.97680    0.27230    0.27230    2.13030 -124.97170   -3.05530    4.65770
 3150.00000   10.86090   11.93200   10.86090  202.97150    0.09160    2.02520    0.40440    0.40050    4.92680    0.09160   94.97560   94.97560   89.60160   89.45100   89.60160    4.92680    4.16480    4.54990    4.16480    0.31400    0.31400    2.02520 -122.85700   -1.37950    4.54990
 3200.00000   10.57530   11.90050   10.57530  170.56990    0.10950    1.98740    0.45040    0.42260    5.86270    0.10950   95.30400   95.30400   70.01330   68.15170   70.01330    5.86270    4.47070    5.09620    4.47070    0.33430    0.33430    1.98740 -125.23530   -3.74340    5.09620
 3250.00000    9.69590   10.27080    9.69590  108.12800    0.11590    2.19940    0.30300    0.29860    9.24830    0.11590   83.27280   83.27280   51.38160   48.24010   51.38160    9.24830    8.61530    9.66410    8.61530    0.24750    0.24750    2.19940 -127.58760   -5.64600    9.66410
 3300.00000   11.00690    9.47000   11.00690  186.93800    0.16320    2.01220    0.41910    0.40810    5.36550    0.16320  100.00020  100.00020   92.11820   93.88580   92.11820    5.36550    4.12040    4.14520    4.12040    0.27640    0.27640    2.01220 -124.91980   -2.53070    4.14520
 3350.00000   14.84490   10.92760   14.84490  154.90430    0.07600    1.68310    0.45000    0.60050    6.45560    0.07600  100.10250  100.10250   70.25320   69.74420   70.25320    6.45560    5.07480    5.27450    5.07480    0.29560    0.29560    1.68310 -126.04150   -3.20040    5.27450
 3400.00000   10.39600    9.57240   10.39600  220.52660    0.10900    1.98740    0.43660    0.42260    4.53460    0.10900   95.41510   95.41510   73.35910   70.70980   73.35910    4.53460    3.93380    4.31140    3.93380    0.31700    0.31700    1.98740 -125.54580   -2.25490    4.31140
 3450.00000   11.62700    9.46110   11.62700  144.83730    0.14180    2.10670    0.35470    0.35280    6.90430    0.14180   90.95210   90.95210   77.39140   74.96100   77.39140    6.90430    5.89080    6.12050    5.89080    0.29310    0.29310    2.10670 -128.33830   -4.59770    6.12050
 3500.00000   10.06680    9.48020   10.06680   57.42410    0.00090    2.46370    0.14910    0.14400   17.41430    0.00090   73.99400   73.99400   54.85450   53.35840   54.85450   17.41430   15.67130   20.85980   15.67130    0.18490    0.18490    2.46370 -129.53010   -5.33970   20.85980
 3550.00000   10.12240    9.48350   10.12240   75.13910    0.04900    2.32960    0.22500    0.22250   13.31380    0.04900   83.14420   83.14420   59.00420   62.90110   59.00420   13.31380   11.47310   12.57420   11.47310    0.25630    0.25630    2.32960 -128.65990   -4.02200   12.57420
 3600.00000   10.37120    9.51010   10.37120   87.44160    0.02350    2.38270    0.19280    0.19140   11.43620    0.02350   81.63120   81.63120   63.24860   65.73770   63.24860   11.43620    9.12350   10.44670    9.12350    0.25110    0.25110    2.38270 -126.96740   -4.40060   10.44670
 3650.00000   10.31570    9.49690   10.31570   52.59670    0.00330    2.44280    0.15830    0.15630   19.01260    0.00330   73.88190   73.88190   46.87700   48.89380   46.87700   19.01260   18.25830   21.01520   18.25830    0.18700    0.18700    2.44280 -124.83600   -3.25050   21.01520
 3700.00000   11.66530    9.47060   11.66530  133.59520    0.20540    2.16210    0.32290    0.32040    7.48530    0.20540   88.93000   88.93000   69.16290   64.23360   69.16290    7.48530    6.57080    7.31410    6.57080    0.30200    0.30200    2.16210 -124.94400   -2.82000    7.31410
 3750.00000   11.70150    9.52240   11.70150  150.49810    0.18140    2.06980    0.37790    0.37440    6.64460    0.18140   86.96130   86.96130   76.40310   79.18650   76.40310    6.64460    5.49760    5.78160    5.49760    0.27860    0.27860    2.06980 -129.35590   -6.69340    5.78160
 3800.00000   11.97370    9.59780   11.97370  126.14300    0.10960    2.03960    0.39450    0.39200    7.93320    0.10960   84.73020   84.73020   64.60130   65.02990   64.60130    7.93320    6.71280    7.72310    6.71280    0.30480    0.30480    2.03960 -128.87330   -5.67510    7.72310
 3850.00000   11.11360    9.65990   11.11360   88.15850    0.02440    2.39920    0.18560    0.18180   11.34320    0.02440   82.41090   82.41090   61.85890   57.91800   61.85890   11.34320    9.48660   10.71640    9.48660    0.23450    0.23450    2.39920 -127.63490   -4.11650   10.71640
 3900.00000   12.81320    9.95580   12.81320  116.03220    0.12460    2.41930    0.16680    0.17000    8.61830    0.12460   80.02120   80.02120   64.84590   66.63430   64.84590    8.61830    7.77650    8.77740    7.77650    0.22340    0.22340    2.41930 -125.45270   -2.31660    8.77740
 3950.00000   14.14880    9.90630   14.14880  138.98930    0.09640    2.30150    0.23940    0.23890    7.19480    0.09640   98.20540   98.20540   68.49800   60.62010   68.49800    7.19480    6.07580    5.62770    6.07580    0.28380    0.28380    2.30150 -126.95500   -4.20130    5.62770
