~Version ---------------------------------------------------
VERS.      2.0 : CWLS log ASCII Standard -VERSION 2.0
WRAP.       NO : One line per depth step
CREA. 09/25/17 : LAS Creation Date
~Well ------------------------------------------------------
STRT.FT                      300.0 : START DEPTH
STOP.FT                    10650.0 : STOP DEPTH
STEP.FT                   50.00000 : STEP LENGTH
NULL.                      -999.25 : NULL VALUE
COMP.     CHEVRON STANDARD LIMITED : COMPANY
WELL. CHEVRON BA KAYBOBS 6-6-62-19 : WELL
FLD .                              : FIELD
LOC .                              : LOCATION
CTRY.                       CANADA : COUNTRY
SRVC.                     P.G.A.C. : SERVICE COMPANY
DATE.                  16-Mar-1967 : LOGDATE
PROV.                      Alberta : PROVINCE
UWI .             100060606219W500 : UNIQUE WELL ID
SLAT.WGS84                54.33243 : SURFACE LATITUDE
SLON.WGS84               -116.8409 : SURFACE LONGITUDE
~Curve Information -----------------------------------------
DEPT  .FT    : Depth Curve
CALWS .IN    : CALIPER [MCALED]
CILDED.MMHO  : CONDUCTIVITY FROM RESISTIVITY LOG
CONDWS.MMHO  : CONDUCTIVITY [1000/DRESWS]
DRESWS.OHMM  : DEEP RESISTIVITY [1000/CILDED IF ILDED<1, ILDED]
DT1ED .US/F  : DELTA TIME (DUAL RECIEVER R1R2=1') FROM SONIC LOG [ADJ. TO RESISTIVITY LOG]
DT22ED.US/F  : DELTA TIME (DUAL RECIEVER R1R2=1') FROM SONIC LOG [ADJ. TO RESISTIVITY LOG]
DTED  .US/F  : DELTA TIME (DUAL RECIEVER R1R2=3') FROM SONIC LOG [ADJ. TO RESISTIVITY LOG]
DTWS  .US/F  : COMPRESSIONAL SONIC [DTED SPL. TO DT2ED @2148.11M]
GRED  .GAPI  : GAMMA RAY FROM CBL LOG [ADJ. TO RESISTIVITY LOG]
GRSED .GAPI  : GAMMA RAY FROM SONIC LOG [ADJ. TO RESISTIVITY LOG]
GRWS  .GAPI  : GAMMA RAY [GRED SPL. TO GRSED @ (118' and 1099')
ILDED .OHMM  : DEEP INDUCTION RESISTIVITY FROM RESISTIVITY LOG
MCALED.IN    : CALIPER FROM MICROLOG [ADJ. TO RESISTIVITY LOG]
SNED  .OHMM  : 16 INCH SHORT NORMAL RESISTIVITY FROM RESISTIVITY LOG
SPRED .MV    : SPONTANEOUS POTENTIAL FROM RESISTIVITY LOG
SPWS  .MV    : SPONTANEOUS POTENTIAL [BASELINE 0 MV, SPRED]
SRESWS.OHMM  : SHALLOW RESISTIVITY [SNED]
~Params ----------------------------------------------------
PD  .                     GL : PERMANENT DATUM
EPD .FT               1839.3 : ELEVATION PERMANENT DATUM
LMF .                    KDB : LOG MEASURED FROM
DAPD.FT                 16.7 : FEET ABOVE PERMANENT DATUM
DMF .                    KDB : DRILLING MEASURED FROM
EKB .FT                 2856 : KELLY BUSHING
EGL .FT               2839.3 : GROUND LEVEL
DATE.               03/16/67 : RUN DATE
RUN .                      1 : RUN NUMBER
DD  .FT                10641 : DEPTH DRILLER
DL  .FT                10655 : DEPTH LOGGER
BLI .FT                10649 : BOTTOM LOG INTERVAL
TLI .FT                 1121 : TOP LOG INTERVAL
CS  .IN                10.75 : CASING SIZE
CBD .FT                 1120 : CASING BOTTOM DRILLER
CBL .FT                 1121 : CASING BOTTOM LOGGER
BS  .IN                    9 : BIT SIZE
BSD .FT                10641 : BIT SIZE AT DEPTH
DFT .     SUPER COL CHEM MUD : DRILLING FLUID TYPE
DFD .                   10.1 : DRILLING FLUID DENSITY
DFV .                     72 : DRILLING FLUID VISCOSITY
DFPH.                     10 : DRILLING FLUID PH
DFL .                    9.9 : DRILLING FLUID LOSS
MSS .             CIRCULATED : MUD SAMPLE SOURCE
RMS .OHMM               1.53 : RESISTIVITY MUD SAMPLE
MST .DEGF                 40 : MUD SAMPLE TEMPERATURE
RMF .OHMM                1.4 : RESISTIVITY MUD FILTRATE SAMPLE
MFST.DEGF                 40 : MUD FILTRATE SAMPLE TEMPERATURE
RMC .OHMM                2.3 : RESISTIVITY MUD CAKE
MCST.DEGF                 40 : MUD CAKE SAMPLE TEMPERATURE
MFSS.                      M : MUD FILTRATE SAMPLE SOURCE
MCSS.                      M : MUD CAKE SAMPLE SOURCE
RMB .OHMM                1.2 : RESISTIVITY MUD AT BHT
TCS .HRS                   4 : TIME CIRCULATED STOPPED
LUN .                 ES 131 : LOGGING UNIT NUMBER
LUL .                     RD : LOGGING UNIT LOCATION
ENGI.                  MANLY : RECORDING ENGINEER
WITN.        MCMILLAN KLCIAK : WITNESSED BY
CLNT.                A2DTECH : CLIENT CODE
ORIG.            2" 5" PRINT : ORIGIN OF DATA
UWI .       100060606219W500 : UNIQUE WELL ID
DICO. A2D Technologies, Inc. : DIGITIZING COMPANY
~Other -----------------------------------------------------
~ASCII -----------------------------------------------------
  300.00000    -999.25    -999.25    -999.25    -999.25    -999.25    -999.25    -999.25    -999.25   39.53510    -999.25   39.53510    -999.25    -999.25    -999.25    -999.25    -999.25    -999.25
  350.00000    -999.25    -999.25    -999.25    -999.25    -999.25    -999.25    -999.25    -999.25   37.25600    -999.25   37.25600    -999.25    -999.25    -999.25    -999.25    -999.25    -999.25
  400.00000    -999.25    -999.25    -999.25    -999.25    -999.25    -999.25    -999.25    -999.25   32.48680    -999.25   32.48680    -999.25    -999.25    -999.25    -999.25    -999.25    -999.25
  450.00000    -999.25    -999.25    -999.25    -999.25    -999.25    -999.25    -999.25    -999.25   39.94520    -999.25   39.94520    -999.25    -999.25    -999.25    -999.25    -999.25    -999.25
  500.00000    -999.25    -999.25    -999.25    -999.25    -999.25    -999.25    -999.25    -999.25   43.03440    -999.25   43.03440    -999.25    -999.25    -999.25    -999.25    -999.25    -999.25
  550.00000    -999.25    -999.25    -999.25    -999.25    -999.25    -999.25    -999.25    -999.25   39.38520    -999.25   39.38520    -999.25    -999.25    -999.25    -999.25    -999.25    -999.25
  600.00000    -999.25    -999.25    -999.25    -999.25    -999.25    -999.25    -999.25    -999.25   19.87360    -999.25   19.87360    -999.25    -999.25    -999.25    -999.25    -999.25    -999.25
  650.00000    -999.25    -999.25    -999.25    -999.25    -999.25    -999.25    -999.25    -999.25   62.98560    -999.25   62.98560    -999.25    -999.25    -999.25    -999.25    -999.25    -999.25
  700.00000    -999.25    -999.25    -999.25    -999.25    -999.25    -999.25    -999.25    -999.25   34.52040    -999.25   34.52040    -999.25    -999.25    -999.25    -999.25    -999.25    -999.25
  750.00000    -999.25    -999.25    -999.25    -999.25    -999.25    -999.25    -999.25    -999.25   22.89790    -999.25   22.89790    -999.25    -999.25    -999.25    -999.25    -999.25    -999.25
  800.00000    -999.25    -999.25    -999.25    -999.25    -999.25    -999.25    -999.25    -999.25   28.38950    -999.25   28.38950    -999.25    -999.25    -999.25    -999.25    -999.25    -999.25
  850.00000    -999.25    -999.25    -999.25    -999.25    -999.25    -999.25    -999.25    -999.25   22.92680    -999.25   22.92680    -999.25    -999.25    -999.25    -999.25    -999.25    -999.25
  900.00000    -999.25    -999.25    -999.25    -999.25    -999.25    -999.25    -999.25    -999.25   38.77300    -999.25   38.77300    -999.25    -999.25    -999.25    -999.25    -999.25    -999.25
  950.00000    -999.25    -999.25    -999.25    -999.25    -999.25    -999.25    -999.25    -999.25   41.65390    -999.25   41.65390    -999.25    -999.25    -999.25    -999.25    -999.25    -999.25
 1000.00000    -999.25    -999.25    -999.25    -999.25    -999.25    -999.25    -999.25    -999.25   30.24500    -999.25   30.24500    -999.25    -999.25    -999.25    -999.25    -999.25    -999.25
 1050.00000    -999.25    -999.25    -999.25    -999.25    -999.25    -999.25    -999.25    -999.25   25.22020    -999.25   25.22020    -999.25    -999.25    -999.25    -999.25    -999.25    -999.25
 1100.00000    -999.25    -999.25    -999.25    -999.25    -999.25    -999.25    -999.25    -999.25   30.25570   34.63440   30.25570    -999.25    -999.25    -999.25    -999.25    -999.25    -999.25
 1150.00000   14.13090  194.23430  194.25400    5.14790    -999.25    -999.25  118.54950  118.54950   69.50000   90.08400   90.08400    5.14790   14.13090    6.06250  -74.46310   -2.76970    6.06250
 1200.00000   11.21620  165.84910  147.11290    6.79750    -999.25    -999.25  106.03420  106.03420   51.23990   81.53660   81.53660    6.79750   11.21620    7.71820  -77.93730   -6.46840    7.71820
 1250.00000   10.85530  212.62100  212.48570    4.70620    -999.25    -999.25  105.77910  105.77910   51.33660   77.15770   77.15770    4.70620   10.85530    5.41880  -78.88850   -7.75400    5.41880
 1300.00000   12.72540  222.44240  222.11860    4.50210    -999.25    -999.25  114.64560  114.64560   74.55010   95.13150   95.13150    4.50210   12.72540    4.93360  -80.23350   -9.43350    4.93360
 1350.00000   12.07270  254.35580  255.19320    3.91860    -999.25    -999.25  108.43150  108.43150   55.19320   76.50530   76.50530    3.91860   12.07270    4.57960  -81.69180  -11.22850    4.57960
 1400.00000   13.35310  277.14930  258.93320    3.86200    -999.25    -999.25  124.64750  124.64750   67.37350   99.29380   99.29380    3.86200   13.35310    4.31930  -79.84280   -9.71400    4.31930
 1450.00000   14.29540  260.81900  238.94290    4.18510    -999.25    -999.25  121.03190  121.03190   58.49060   78.54570   78.54570    4.18510   14.29540    5.16520  -78.06010   -8.26800    5.16520
 1500.00000   13.21370  232.71240  233.87980    4.27570    -999.25    -999.25  107.04940  107.04940   56.45610   76.62550   76.62550    4.27570   13.21370    5.02600  -76.76450   -7.30690    5.02600
 1550.00000   13.58590  244.89060  244.64830    4.08750    -999.25    -999.25  120.39530  120.39530   51.91690   71.98450   71.98450    4.08750   13.58590    4.87860  -75.41790   -6.29480    4.87860
 1600.00000   13.64980  260.69940  260.98080    3.83170    -999.25    -999.25  106.93940  106.93940   73.07550   96.96850   96.96850    3.83170   13.64980    4.33400  -76.10570   -7.31930    4.33400
 1650.00000   14.19040  403.83700  385.43070    2.59450    -999.25    -999.25  137.92620  137.92620   59.96580   84.94200   84.94200    2.59450   14.19040    3.21420  -75.61390   -7.16200    3.21420
 1700.00000   15.01340  394.92610  394.89790    2.53230    -999.25    -999.25  147.00920  147.00920   86.29940   98.46280   98.46280    2.53230   15.01340    3.48530  -75.48670   -7.37140    3.48530
 1750.00000   13.54160  346.24170  314.22830    3.18240    -999.25    -999.25  140.13130  140.13130   67.18670   78.03630   78.03630    3.18240   13.54160    3.68820  -75.60080   -7.82000    3.68820
 1800.00000   12.82890  273.70940  248.12050    4.03030    -999.25    -999.25  129.85740  129.85740   63.00840   89.75920   89.75920    4.03030   12.82890    4.95390  -75.97530   -8.52900    4.95390
 1850.00000   12.46830  368.31680  346.29640    2.88770    -999.25    -999.25  122.74030  122.74030   55.49740   79.54290   79.54290    2.88770   12.46830    3.39330  -75.80280   -8.69320    3.39330
 1900.00000   13.27570  128.65900  126.28020    7.91890    -999.25    -999.25   98.23910   98.23910   44.30590   68.69090   68.69090    7.91890   13.27570    9.03790  -77.58640  -10.81130    9.03790
 1950.00000   11.45390  229.68290  213.79860    4.67730    -999.25    -999.25  105.40960  105.40960   63.96210   87.98400   87.98400    4.67730   11.45390    5.46850  -74.90380   -8.46540    5.46850
 2000.00000   11.74280  421.85770  421.79850    2.37080    -999.25    -999.25  119.87260  119.87260   75.15730   96.36420   96.36420    2.37080   11.74280    3.38750  -70.52270   -4.41880    3.38750
 2050.00000   10.92750   69.74650   69.74330   14.33830    -999.25    -999.25  103.80440  103.80440   43.12770   57.14750   57.14750   14.33830   10.92750   15.40430  -85.89070  -20.12130   15.40430
 2100.00000   13.32100  243.03950  226.17780    4.42130    -999.25    -999.25  101.66890  101.66890   68.61710   86.19060   86.19060    4.42130   13.32100    5.80640  -72.39680   -6.96410    5.80640
 2150.00000   13.47030  223.27930  223.35390    4.47720    -999.25    -999.25  100.82670  100.82670   62.36530   86.87630   86.87630    4.47720   13.47030    5.19880  -71.11040   -6.01210    5.19880
 2200.00000   14.06470  108.98900  104.20900    9.59610    -999.25    -999.25   96.14590   96.14590   49.53500   67.25380   67.25380    9.59610   14.06470   10.90120  -70.83260   -6.07100   10.90120
 2250.00000   14.47680  286.36930  284.74610    3.51190    -999.25    -999.25  141.12020  141.12020   77.60880  101.20270  101.20270    3.51190   14.47680    4.23840  -71.15370   -6.60490    4.23840
 2300.00000   13.88160  117.67760  109.77910    9.10920    -999.25    -999.25  104.81790  104.81790   69.34330   87.70060   87.70060    9.10920   13.88160   12.00700  -76.84110  -12.39560   12.00700
