~Version ---------------------------------------------------
VERS.      2.0 : CWLS log ASCII Standard -VERSION 2.0
WRAP.       NO : One line per depth step
CREA. 12/11/17 : LAS Creation Date
~Well ------------------------------------------------------
STRT.FT                          1000.0 : START DEPTH
STOP.FT                         10450.0 : STOP DEPTH
STEP.FT                        50.00000 : STEP LENGTH
NULL.                           -999.25 : NULL VALUE
COMP.     CANADIAN SUPERIOR OIL COMPANY : COMPANY
WELL. CDN-SUP CEGO FOX CR 10-11SH-62-18 : WELL
FLD .                                   : FIELD
LOC .                                   : LOCATION
CTRY.                            CANADA : COUNTRY
SRVC.                      Schlumberger : SERVICE COMPANY
DATE.                       29-Mar-1977 : LOGDATE
PROV.                           Alberta : PROVINCE
UWI .                  102101106218W500 : UNIQUE WELL ID
SLAT.WGS84                     54.35151 : SURFACE LATITUDE
SLON.WGS84                    -116.5828 : SURFACE LONGITUDE
~Curve Information -----------------------------------------
DEPT    .FT    : Depth Curve
CALDED  .IN    : CALIPER) FROM DENSITY LOG [ADJ. TO RESISTIVITY LOG]
CALSED  .IN    : CALIPER) FROM SONIC LOG [ADJ. TO RESISTIVITY LOG]
CALWS   .IN    : CALIPER [CALDED]
CILDED  .MMHO  : CONDUCTIVITY FROM RESISTIVITY LOG
CONDWS  .MMHO  : CONDUCIVITY [1000/DRESWS]
DCORED  .G/C3  : DENSITY CORRECTION FROM DENSITY LOG [ADJ. TO RESISTIVITY LOG]
DCORWS  .G/C3  : DENSITY CORRECTION [DCORED]
DENWS   .G/C3  : FORMATION BULK DENSITY [RHOBED]
DPOLSWS .V/V   : DENSITY POROSITY LIMESTONE [CALC. FROM DENWS M=2.71, F=1.00]
DPORLSED.V/V   : DENSITY POROSITY LIMESTONE [M=2.71, F=1.00] FROM DENSITY LOG [ADJ. TO RESISTIVITY LOG]
DPORSSED.V/V   : DENSITY POROSITY SANDSTONE [M=2.65, F=1.00] FROM DENSITY LOG [ADJ. TO RESISTIVITY LOG]
DRESWS  .OHMM  : DEEP RESISTIVITY [ILDED]
DTED    .US/F  : DELTA-T FROM SONIC LOG [ADJ. TO RESISTIVITY LOG]
DTWS    .US/F  : COMPRESSIONAL SONIC [DTED]
GRDED   .GAPI  : GAMMA RAY FROM DENSITY LOG [ADJ. TO RESISTIVITY LOG]
GRSED   .GAPI  : GAMMA RAY FROM SONIC LOG [ADJ. TO RESISTIVITY LOG]
GRWS    .GAPI  : GAMMA RAY [GRSED SPL. TO GRDED @ 1070']
ILDED   .OHMM  : DEEP INDUCTION FROM RESISTIVITY LOG
ILMED   .OHMM  : MEDIUM INDUCTION FROM RESISTIVITY LOG
LL8ED   .OHMM  : LATEROLOG-8 FROM RESISTIVITY LOG
MRESWS  .OHMM  : MEDIUM RESISTIVITY [ILMED]
NPOLSWS .V/V   : NEUTRON POROSITY LIMESTONE [NPHISSED MATRIX CONVERSION FOR LIMESTONE, SPL. TO NPHILSED @ 6496']
NPORLSED.V/V   : NEUTRON POROSITY LIMESTONE FROM DENISTY LOG [ADJ. TO RESISTIVITY LOG]
NPORSSED.V/V   : NEUTRON POROSITY SANDSTONE FROM DENSITY LOG [ADJ. TO RESISTIVITY LOG]
RHOBED  .G/C3  : BULK DENSITY FROM DENSITY LOG [ADJ. TO RESISTIVITY LOG]
SPRED   .MV    : SPONTANEOUS POTENTIAL FROM RESISTIVITY LOG
SPWS    .MV    : SPONTANEOUS POTENTIAL [BASELINE 0 MV, SPRED]
SRESWS  .OHMM  : SHALLOW RESISTIVITY [LL8ED]
~Params ----------------------------------------------------
PD  .                     GL : PERMANENT DATUM
EPD .FT                 2963 : ELEVATION PERMANENT DATUM
LMF .                     KB : LOG MEASURED FROM
DAPD.FT                   13 : FEET ABOVE PERMANENT DATUM
EKB .FT                 2976 : KELLY BUSHING
EGL .FT                 2963 : GROUND LEVEL
DATE.               03/29/77 : RUN DATE
RUN .                      1 : RUN NUMBER
DD  .FT                10475 : DEPTH DRILLER
DL  .FT                10478 : DEPTH LOGGER
BLI .FT                10472 : BOTTOM LOG INTERVAL
TLI .FT                 1071 : TOP LOG INTERVAL
CBD .FT                 1070 : CASING BOTTOM DRILLER
CBL .FT                 1071 : CASING BOTTOM LOGGER
BS  .IN                 8.75 : BIT SIZE
BSD .FT                10475 : BIT SIZE AT DEPTH
DFT .               GEL CHEM : DRILLING FLUID TYPE
DFD .                    9.2 : DRILLING FLUID DENSITY
DFV .                     81 : DRILLING FLUID VISCOSITY
DFPH.                    9.5 : DRILLING FLUID PH
DFL .                      8 : DRILLING FLUID LOSS
MSS .             CIRCULATED : MUD SAMPLE SOURCE
RMS .OHMM                1.1 : RESISTIVITY MUD SAMPLE
MST .DEGF                 62 : MUD SAMPLE TEMPERATURE
RMF .OHMM               0.76 : RESISTIVITY MUD FILTRATE SAMPLE
MFST.DEGF                 62 : MUD FILTRATE SAMPLE TEMPERATURE
TCS .HRS                   4 : TIME CIRCULATED STOPPED
LUN .                   7690 : LOGGING UNIT NUMBER
LUL .                    EDM : LOGGING UNIT LOCATION
ENGI.                WOROWUK : RECORDING ENGINEER
WITN.                  KELLY : WITNESSED BY
CLNT.                A2DTECH : CLIENT CODE
ORIG.            2" 5" PRINT : ORIGIN OF DATA
UWI .       102101106218W500 : UNIQUE WELL ID
DICO. A2D Technologies, Inc. : DIGITIZING COMPANY
~Other -----------------------------------------------------
DIL-BHC-CNL-FDC LOG RUN
SCH(CNL-NPHI) USED FOR NEUTRON MATRIX CONVERSION
CILD DIG'ED FROM 2" LINEAR LOG
~ASCII -----------------------------------------------------
# ...
 2250.00000   10.87430    9.92710   10.87430    -999.25  331.40020    0.20950    0.20950    2.22090    0.28600    -999.25    0.25120    3.01750   98.04670   98.04670   64.31780   47.92270   64.31780    3.01750    3.15510    3.42830    3.15510    0.33430    -999.25    0.37760    2.22090 -138.00400   -2.89200    3.42830
 2300.00000   12.29690    9.92580   12.29690    -999.25  587.50950    0.24110    0.24110    2.02930    0.39810    -999.25    0.38430    1.70210  142.93410  142.93410  114.76430   82.80300  114.76430    1.70210    1.90040    1.92190    1.90040    0.50400    -999.25    0.54160    2.02930 -137.82310   -2.84710    1.92190
 2350.00000    8.91820    9.81550    8.91820    -999.25  133.41690    0.08170    0.08170    2.34670    0.21250    -999.25    0.18670    7.49530   92.28780   92.28780   60.10230   43.08150   60.10230    7.49530    8.23670    7.76620    8.23670    0.26940    -999.25    0.31330    2.34670 -144.01840   -9.17940    7.76620
 2400.00000    8.47780    8.77070    8.47780    -999.25   81.65130    0.08190    0.08190    2.25500    0.26610    -999.25    0.23670   12.24720   91.95970   91.95970   41.27800   34.42300   41.27800   12.24720   11.77790   11.31580   11.77790    0.30850    -999.25    0.35210    2.25500 -140.13070   -5.43630   11.31580
 2450.00000   10.61650    9.78560   10.61650    -999.25  295.46460    0.13330    0.13330    2.22090    0.28600    -999.25    0.26920    3.38450   95.97270   95.97270   69.04940   53.72600   69.04940    3.38450    3.60270    3.86460    3.60270    0.37950    -999.25    0.42190    2.22090 -137.49200   -2.94920    3.86460
 2500.00000    8.84780    8.64980    8.84780    -999.25   91.26500    0.06440    0.06440    2.38800    0.18830    -999.25    0.15650   10.95710   83.84460   83.84460   47.84590   37.63050   47.84590   10.95710   11.90150   11.17250   11.90150    0.27760    -999.25    0.32150    2.38800 -142.53270   -8.14040   11.17250
 2550.00000    9.57230    9.80710    9.57230    -999.25  205.99870    0.09810    0.09810    2.33560    0.21890    -999.25    0.18970    4.85440   90.87960   90.87960   52.79080   40.07660   52.79080    4.85440    5.22250    5.34760    5.22250    0.30880    -999.25    0.35240    2.33560 -140.26050   -6.01880    5.34760
 2600.00000    9.59010    9.42100    9.59010    -999.25  262.83970    0.11930    0.11930    2.35970    0.20490    -999.25    0.16990    3.80460   91.64920   91.64920   65.02710   50.24070   65.02710    3.80460    3.99230    3.99620    3.99230    0.30660    -999.25    0.35020    2.35970 -139.91150   -5.82140    3.99620
 2650.00000    9.61880    9.94220    9.61880    -999.25  190.20810    0.05400    0.05400    2.34530    0.21330    -999.25    0.18700    5.25740   90.77170   90.77170   55.92920   44.89690   55.92920    5.25740    5.84120    5.99570    5.84120    0.29930    -999.25    0.34300    2.34530 -139.65360   -5.71410    5.99570
 2700.00000    9.78420    9.95750    9.78420    -999.25  258.75900    0.05360    0.05360    2.40380    0.17910    -999.25    0.14900    3.86460   93.14610   93.14610   54.41770   47.48450   54.41770    3.86460    4.00370    3.71290    4.00370    0.32370    -999.25    0.36710    2.40380 -138.24020   -4.45230    3.71290
 2750.00000   10.27060   10.29650   10.27060    -999.25  142.15450    0.08380    0.08380    2.28250    0.25000    -999.25    0.22130    7.03460   92.35390   92.35390   44.02520   32.89530   44.02520    7.03460    7.25830    6.76670    7.25830    0.30720    -999.25    0.35080    2.28250 -141.63630   -7.99900    6.76670
 2800.00000   10.28330   10.82530   10.28330    -999.25  268.77390    0.04370    0.04370    2.38670    0.18910    -999.25    0.16010    3.72060   95.32390   95.32390   62.99000   44.72450   62.99000    3.72060    3.59840    3.52180    3.59840    0.38570    -999.25    0.42800    2.38670 -136.71520   -3.22850    3.52180
 2850.00000   10.50720   10.64220   10.50720    -999.25  264.52230    0.07570    0.07570    2.47100    0.13980    -999.25    0.10730    3.78040   90.22580   90.22580   58.05590   43.15600   58.05590    3.78040    4.15980    4.95020    4.15980    0.28940    -999.25    0.33320    2.47100 -137.04070   -3.70550    4.95020
 2900.00000   10.85140   10.20320   10.85140    -999.25  336.16840    0.10930    0.10930    2.24340    0.27290    -999.25    0.24600    2.97470  106.67810  106.67810   73.28770   53.58550   73.28770    2.97470    3.12620    2.85380    3.12620    0.38930    -999.25    0.43150    2.24340 -136.76170   -3.45620    2.85380
 2950.00000   10.33220    9.71670   10.33220    -999.25  105.37850    0.03010    0.03010    2.48800    0.12980    -999.25    0.08860    9.48960   73.26400   73.26400   42.61230   28.50570   42.61230    9.48960   10.30250   10.31760   10.30250    0.16790    -999.25    0.21150    2.48800 -139.62840   -6.32290   10.31760
 3000.00000   11.52510    9.92800   11.52510    -999.25  255.55840    0.23660    0.23660    2.31740    0.22960    -999.25    0.20020    3.91300   96.61410   96.61410   54.77820   40.95860   54.77820    3.91300    4.06990    4.06920    4.06990    0.30410    -999.25    0.34780    2.31740 -137.69230   -4.38680    4.06920
 3050.00000    9.78890    9.56630    9.78890    -999.25  118.17260    0.04710    0.04710    2.27510    0.25440    -999.25    0.22440    8.46220   89.07130   89.07130   41.31340   23.93080   41.31340    8.46220    9.69810    8.58800    9.69810    0.24810    -999.25    0.29210    2.27510 -143.23890   -9.93340    8.58800
 3100.00000   11.93490    9.86350   11.93490    -999.25  281.84890    0.07900    0.07900    2.35670    0.20660    -999.25    0.17730    3.54800   92.92390   92.92390   57.85760   46.17610   57.85760    3.54800    3.66240    3.80170    3.66240    0.33270    -999.25    0.37600    2.35670 -136.48480   -3.17930    3.80170
 3150.00000   10.82400   10.30750   10.82400    -999.25   95.24260    0.07830    0.07830    2.41380    0.17320    -999.25    0.13910   10.49950   82.62980   82.62980   42.10390   35.26190   42.10390   10.49950   11.79300   12.62940   11.79300    0.26640    -999.25    0.31030    2.41380 -143.89480  -10.96730   12.62940
 3200.00000   10.34770    9.77760   10.34770    -999.25  250.41320    0.12450    0.12450    2.37210    0.19760    -999.25    0.17130    3.99340   91.70570   91.70570   48.05260   37.69220   48.05260    3.99340    4.38400    4.22840    4.38400    0.29860    -999.25    0.34230    2.37210 -138.80060   -7.86730    4.22840
 3250.00000    9.44220    9.63080    9.44220    -999.25  240.56970    0.10270    0.10270    2.43330    0.16180    -999.25    0.12800    4.15680   98.24340   98.24340   62.57350   45.96950   62.57350    4.15680    4.35590    4.03110    4.35590    0.35720    -999.25    0.40010    2.43330 -130.81150   -1.85930    4.03110
 3300.00000    9.40150    9.47390    9.40150    -999.25  214.98900    0.01820    0.01820    2.43140    0.16290    -999.25    0.13540    4.65140   85.84660   85.84660   54.40500   43.18970   54.40500    4.65140    4.87580    6.17540    4.87580    0.38560    -999.25    0.42790    2.43140 -133.95500   -2.92430    6.17540
 3350.00000   10.83260   10.27220   10.83260    -999.25  210.25190    0.06670    0.06670    2.44870    0.15280    -999.25    0.12040    4.75620   85.89940   85.89940   53.26810   43.37350   53.26810    4.75620    4.54060    4.31980    4.54060    0.27390    -999.25    0.31780    2.44870 -137.55200   -4.26130    4.31980
 3400.00000   10.99270   10.12720   10.99270    -999.25  152.68340    0.07020    0.07020    2.53220    0.10400    -999.25    0.06790    6.54950   78.80350   78.80350   57.81140   39.13110   57.81140    6.54950    7.02120    8.00520    7.02120    0.22130    -999.25    0.26530    2.53220 -135.21920   -3.06050    8.00520
 3450.00000   11.67360   10.47230   11.67360    -999.25  189.33660    0.02690    0.02690    2.50760    0.11830    -999.25    0.08220    5.28160   86.66520   86.66520   67.78830   49.99520   67.78830    5.28160    5.50020    6.08590    5.50020    0.30610    -999.25    0.34970    2.50760 -135.06270   -4.06600    6.08590
