~Version ---------------------------------------------------
VERS.      2.0 : CWLS log ASCII Standard -VERSION 2.0
WRAP.       NO : One line per depth step
CREA. 11/15/17 : LAS Creation Date
~Well ------------------------------------------------------
STRT.FT                      1300.0 : START DEPTH
STOP.FT                     10750.0 : STOP DEPTH
STEP.FT                    50.00000 : STEP LENGTH
NULL.                       -999.25 : NULL VALUE
COMP.        PHILLIPS PETROLEUM CO. : COMPANY
WELL. PHILLIPS ATIKAMEG 10-17-65-19 : WELL
FLD .                            WC : FIELD
LOC .                               : LOCATION
CTRY.                        CANADA : COUNTRY
SRVC.                         Welex : SERVICE COMPANY
DATE.                   13-Apr-1959 : LOGDATE
PROV.                       Alberta : PROVINCE
UWI .              100101706519W500 : UNIQUE WELL ID
SLAT.WGS84                 54.62711 : SURFACE LATITUDE
SLON.WGS84                -116.8324 : SURFACE LONGITUDE
~Curve Information -----------------------------------------
DEPT  .FT    : Depth Curve
CALWS .IN    : CALIPER [MCALED]
CONDWS.MMHO  : CONDUCTIVITY [1000/DRESWS]
DRESWS.OHMM  : DEEP RESISTIVITY [LAT9ED]
GRNED .CPS   : GAMMA RAY FROM NEUTRON LOG
GRWS  .CPS   : GAMMA RAY [GRNED*15]
LAT9ED.OHMM  : LATERAL 9" FROM RESISTIVITY LOG
LT16ED.OHMM  : LATERAL 16"FROM RESISTIVITY LOG
MCALED.IN    : MICROLOG CALIPER FROM ML LOG [ADJ. TO RESISTIVITY LOG]
NEUTED.CPS   : NEUTRON FROM NEUTRON LOG
NEUTWS.CPS   : NEUTRON [NEUTED]
SNED  .OHMM  : SHORT NORMAL 18" FROM RESISTIVITY LOG
SPRED .MV    : SPONTANEOUS POTENTIAL FROM RESISTIVITY LOG
SPWS  .MV    : SPONTANEOUS POTENTIAL [BASELINE 0 MV,SPRED]
SRESWS.OHMM  : SHALLOW RESISTIVITY [SNED]
~Params ----------------------------------------------------
PD  .                                      CSF : PERMANENT DATUM
LMF .                                       KB : LOG MEASURED FROM
DAPD.FT                                     14 : FEET ABOVE PERMANENT DATUM
DMF .                                       KB : DRILLING MEASURED FROM
EKB .FT                                   2439 : KELLY BUSHING
EDF .FT                                 2436.5 : DRILLING FLOOR
EGL .FT                                   2426 : GROUND LEVEL
DATE.                                        1 : RUN DATE
RUN .                                 04/13/59 : RUN NUMBER
DD  .FT                                  10752 : DEPTH DRILLER
DL  .FT                                  10755 : DEPTH LOGGER
BLI .FT                                  10754 : BOTTOM LOG INTERVAL
TLI .FT                                   1303 : TOP LOG INTERVAL
CS  .IN                                 13.375 : CASING SIZE
CBD .FT                                   1304 : CASING BOTTOM DRILLER
CBL .FT                                   1303 : CASING BOTTOM LOGGER
BS  .IN                                      9 : BIT SIZE
BSD .FT                                  10752 : BIT SIZE AT DEPTH
DFT . OIL EMULSION GEL CAUSTIC RAYFLO DRISCOSE : DRILLING FLUID TYPE
DFD .                                     10.3 : DRILLING FLUID DENSITY
DFV .                                      144 : DRILLING FLUID VISCOSITY
DFPH.                                      9.5 : DRILLING FLUID PH
DFL .                                      4.8 : DRILLING FLUID LOSS
MSS .                               CIRCULATED : MUD SAMPLE SOURCE
RMS .OHMM                                  2.8 : RESISTIVITY MUD SAMPLE
MST .DEGF                                   60 : MUD SAMPLE TEMPERATURE
RMF .OHMM                                 1.46 : RESISTIVITY MUD FILTRATE SAMPLE
MFST.DEGF                                   70 : MUD FILTRATE SAMPLE TEMPERATURE
RMC .OHMM                                  2.6 : RESISTIVITY MUD CAKE
MCST.DEGF                                   68 : MUD CAKE SAMPLE TEMPERATURE
RMB .OHMM                                  2.8 : RESISTIVITY MUD AT BHT
ENGI.                                   FOWLER : RECORDING ENGINEER
WITN.                           HUNTER HANKINS : WITNESSED BY
CLNT.                                  A2DTECH : CLIENT CODE
ORIG.                              2" 5" PRINT : ORIGIN OF DATA
UWI .                         100101706519W500 : UNIQUE WELL ID
DICO.                   A2D Technologies, Inc. : DIGITIZING COMPANY
~Other -----------------------------------------------------
~ASCII -----------------------------------------------------
# ...
 3750.00000   10.27200   51.58570   19.38520  170.39200  170.39200   19.38520   14.26040   10.27200  299.32950  299.32950   12.37900  -85.85430   -2.67190   12.37900
 3800.00000   10.71150  175.52030    5.69740  109.28410  109.28410    5.69740    7.89540   10.71150  290.73710  290.73710    3.64110  -87.94670   -4.85030    3.64110
 3850.00000   10.72030  188.45880    5.30620  111.50240  111.50240    5.30620    6.04700   10.72030  286.93260  286.93260    4.72310  -86.70560   -3.69600    4.72310
 3900.00000   12.41160  119.55070    8.36950  106.78080  106.78080    8.36950    9.04460   12.41160  306.54690  306.54690    5.20070  -86.85980   -3.93620    5.20070
 3950.00000   12.53310  150.38950    6.64940  118.55610  118.55610    6.64940    6.84650   12.53310  313.18110  313.18110    4.92180  -87.58510   -4.74830    4.92180
 4000.00000   11.64340  105.31640    9.49520  129.49790  129.49790    9.49520   10.58910   11.64340  305.00040  305.00040    5.27530  -87.21770   -4.46730    5.27530
 4050.00000   10.71970  242.67320    4.12110  113.24670  113.24670    4.12110    4.78020   10.71970  273.54390  273.54390    2.52260  -86.42310   -3.75860    2.52260
 4100.00000   12.36760  207.25390    4.82500  125.92820  125.92820    4.82500    5.85130   12.36760  286.44340  286.44340    3.86540  -86.11160   -3.53390    3.86540
 4150.00000   12.15370  204.74530    4.88420  143.08690  143.08690    4.88420    5.31380   12.15370  294.62570  294.62570    3.40980  -85.36400   -2.87230    3.40980
 4200.00000   11.72110  408.51340    2.44790  178.02080  178.02080    2.44790    3.04970   11.72110  303.50020  303.50020    1.65780  -84.11650   -1.71160    1.65780
 4250.00000   10.48520  506.66260    1.97370  136.44210  136.44210    1.97370    2.91450   10.48520  293.61740  293.61740    1.27500  -85.39660   -3.07810    1.27500
 4300.00000   11.03720  221.95510    4.51170  124.00710  124.00710    4.51170    4.59710   11.03720  308.70550  308.70550    2.11570  -84.25250   -2.02000    2.11570
 4350.00000   10.91880  218.55060    4.57560  130.74720  130.74720    4.57560    5.39400   10.91880  317.50410  317.50410    5.22120  -85.10780   -2.96200    5.22120
 4400.00000   12.05190  195.63660    5.11360  128.97300  128.97300    5.11360    6.26260   12.05190  292.89120  292.89120    2.95580  -83.74940   -1.68960    2.95580
 4450.00000   11.56240   56.31390   17.75760   91.92690   91.92690   17.75760   13.56610   11.56240  383.82470  383.82470   11.65440  -98.52720  -16.69710   11.65440
 4500.00000   12.25470  274.51410    3.64280  121.53440  121.53440    3.64280    5.00070   12.25470  287.97480  287.97480    2.59230  -83.53760   -2.16020    2.59230
 4550.00000   10.47430   67.64090   14.78600   92.40530   92.40530   14.78600   12.71140   10.47430  404.58240  404.58240    8.99840  -86.27290   -5.34600    8.99840
 4600.00000   10.65270  123.04810    8.12690   81.28700   81.28700    8.12690    7.91260   10.65270  389.75270  389.75270    9.96890  -88.61070   -8.13890    9.96890
 4650.00000   10.71070  262.56650    3.80870   96.47520   96.47520    3.80870    4.08230   10.71070  383.48120  383.48120    4.77940  -83.01940   -2.99810    4.77940
 4700.00000   10.27520   71.91810   13.90470  105.91230  105.91230   13.90470   21.22970   10.27520  386.76250  386.76250   14.50240  -87.98410   -8.41780   14.50240
 4750.00000   10.31060   75.26100   13.28710   66.92290   66.92290   13.28710   14.72280   10.31060  465.15520  465.15520   17.73720  -94.16390  -15.05040   17.73720
 4800.00000   12.16590   22.34620   44.79550   93.77900   93.77900   44.79550   44.86520   12.16590  354.41510  354.41510   19.63170  -86.17620   -7.51320   19.63170
 4850.00000   11.71810  103.06300    9.70280   81.21280   81.21280    9.70280   12.39990   11.71810  415.56650  415.56650    7.36960  -83.52470   -5.31670    7.36960
 4900.00000   12.11030   69.58840   14.39050   94.06160   94.06160   14.39050   19.15120   12.11030  313.05880  313.05880    8.38950  -82.44870   -4.69130    8.38950
 4950.00000   10.95690  155.51620    6.43020   93.60970   93.60970    6.43020    2.98710   10.95690  370.36760  370.36760    6.09010  -82.33180   -5.02940    6.09010
 5000.00000   11.70680   71.05200   14.07420   90.68690   90.68690   14.07420    9.45340   11.70680  385.21710  385.21710    8.52860  -95.17010  -18.53360    8.52860
 5050.00000   10.95820   68.58710   14.58020   81.12000   81.12000   14.58020   10.46600   10.95820  414.93430  414.93430   10.93350  -94.06330  -18.10070   10.93350
 5100.00000   11.16010  101.58780    9.84370  102.67730  102.67730    9.84370   10.03080   11.16010  391.43650  391.43650   10.70370  -78.12420   -2.84210   10.70370
 5150.00000   11.56740   81.93920   12.20430  110.29050  110.29050   12.20430   12.99980   11.56740  364.78520  364.78520    8.57410  -76.63950   -2.03120    8.57410
 5200.00000   11.48020   81.62470   12.25120  117.12770  117.12770   12.25120   12.50710   11.48020  364.76380  364.76380   10.13360  -76.35950   -2.43180   10.13360
 5250.00000   11.33780  109.04650    9.17040  107.37450  107.37450    9.17040    7.97500   11.33780  346.87290  346.87290    7.44700  -75.69050   -2.44000    7.44700
 5300.00000   11.33720   50.27990   19.89870   95.55590   95.55590   19.89870    8.20940   11.33720  317.86210  317.86210    7.91300  -78.30450   -5.72770    7.91300
 5350.00000   10.31200   25.81060   38.74380   85.62820   85.62820   38.74380   25.35550   10.31200  380.42590  380.42590   17.70990  -77.64370   -5.41640   17.70990
 5400.00000    9.81020   48.54620   20.60460   51.36680   51.36680   20.60460    9.55970    9.81020  421.66980  421.66980   15.05080 -125.46890  -53.57550   15.05080
 5450.00000   12.17730  269.44010    3.71140  123.86400  123.86400    3.71140    5.05940   12.17730  297.30050  297.30050    4.75670  -73.54720   -1.99130    4.75670
 5500.00000   12.44840  354.55960    2.82040  119.71720  119.71720    2.82040    3.80060   12.44840  265.44170  265.44170    2.37030  -73.55420   -2.33400    2.37030
 5550.00000   12.87520  251.60090    3.97450  114.71770  114.71770    3.97450    4.37240   12.87520  267.21280  267.21280    2.54460  -72.62200   -1.73590    2.54460
 5600.00000   11.71150  158.32050    6.31630  175.71730  175.71730    6.31630    6.43510   11.71150  367.66850  367.66850   13.95500  -73.36770   -2.81900   13.95500
 5650.00000   10.64890    7.07120  141.43360  165.51270  165.51270  141.43360  130.13940   10.64890  329.98800  329.98800   42.87370  -71.19020   -0.97550   42.87370
 5700.00000   10.11710    1.43010  699.24800  200.21550  200.21550  699.24800 1285.80110   10.11710  437.98780  437.98780  267.94180 -103.25230  -36.32230  267.94180
 5750.00000    9.87570   80.01220   12.49810   87.47640   87.47640   12.49810    8.48830    9.87570  406.47450  406.47450   16.29310 -141.81070  -78.38550   16.29310
 5800.00000   12.20690   82.78450   12.08070   96.39380   96.39380   12.08070    8.28490   12.20690  417.47970  417.47970   10.26000 -112.03230  -52.09430   10.26000
 5850.00000   11.20000   42.71170   23.41280   86.78850   86.78850   23.41280   12.37460   11.20000  436.56150  436.56150   15.53730 -124.22400  -67.80840   15.53730
 5900.00000   11.87990   47.93590   20.86240  109.35730  109.35730   20.86240   18.94520   11.87990  406.81720  406.81720   10.80970 -105.65890  -52.73060   10.80970
 5950.00000    9.75440   39.23250   25.48910   41.62840   41.62840   25.48910    7.47680    9.75440  515.04800  515.04800   36.92990 -178.82950 -129.42350   36.92990
 6000.00000    9.92000    9.13690  109.44630   50.45060   50.45060  109.44630   64.96750    9.92000  501.55490  501.55490   29.72260 -109.62560  -63.72450   29.72260
 6050.00000    9.86900    2.78210  359.68800   50.24240   50.24240  359.68800  357.25600    9.86900  394.23420  394.23420   52.39460 -156.68790 -114.27400   52.39460
 6100.00000   11.02180   19.01700   52.58460   48.87720   48.87720   52.58460   29.55170   11.02180  585.12790  585.12790   36.55150  -98.91330  -60.02180   36.55150
 6150.00000   10.90830    8.44620  118.40760   68.45820   68.45820  118.40760  117.94300   10.90830  568.09560  568.09560   49.75780  -66.95970  -31.55540   49.75780
