~Version ---------------------------------------------------
VERS. 2.0 : CWLS log ASCII Standard -VERSION 2.0
WRAP.  NO : ONE LINE PER DEPTH STEP
~Well ------------------------------------------------------
STRT.M                         350.0 : START DEPTH
STOP.M                        2100.0 : STOP DEPTH
STEP.M                      50.00000 : STEP LENGTH
NULL.                        -999.25 : NULL VALUE
COMP.     MERLAND EXPLORATION LIMTED : COMPANY
WELL. MERLAND ET AL BRUCE 6-35-46-15 : WELL
FLD .                                : FIELD
LOC .                                : LOCATION
CTRY.                         CANADA : COUNTRY
SRVC.                        Unknown : SERVICE COMPANY
DATE.                    27-Jun-1983 : LOGDATE
PROV.                        Alberta : PROVINCE
UWI .               100063504615W400 : UNIQUE WELL ID
SLAT.WGS84                   53.0101 : SURFACE LATITUDE
SLON.WGS84                 -112.0762 : SURFACE LONGITUDE
~Curve Information -----------------------------------------
DEPT   .M                  : 
DRHO   .KG/M3 45 356 01 00 : BULK DENSITY CORRECTION
RHOB   .KG/M3 45 350 01 00 : BULK DENSITY
NPHI_SS.DEC                : NEUTRON POROSITY SANDSTONE
SGRDD  .GAPI  99 310 01 00 : SMOOTHED GAMMA RAY COMBINED FROM FDC
DPHI_SS.DEC   45 890 12 00 : DENSITY POROSITY SANDSTONE
CALD   .MM    70 280 01 00 : CALIPER
PEF    .B/E   45 358 01 00 : PHOTOELECTRIC FACTOR
NPHI_LS.DEC                : NEUTRON POROSITY LIMESTONE
DPHI_LS.DEC   45 890 12 00 : DENSITY POROSITY LIMESTONE
SPR    .MV                 : SPONTANEOUS POTENTIAL FROM RESISTIVITY
ILD    .OHMM               : DEEP INDUCTION RESISTIVITY
SFLU   .OHMM               : SHALLOW FOCUS LOG
ILM    .OHMM               : INDUCTION MEDIUM RESISTIVITY
GRR    .GAPI  99 310 01 00 : GAMMA RAY FROM RESISTIVITY LOG
LLD    .OHMM               : LATEROLOG DEEP RESISTIVITY
LLS    .OHMM               : LATEROLOG SHALLOW
CALR   .MM    07 280 01 00 : CALIPER FROM RESISTIVITY
MSFL   .OHMM  07 270 04 00 : MICROSPHERICALLY FOCUSED LOG RES.
GRS    .GAPI               : GAMMA RAY FROM SONIC LOG
DT     .US/M  60 520 00 00 : SONIC INTERVAL TRANSIT TIME
CALS   .MM    60 280 01 00 : CALIPER FROM SONIC LOG
~Params ----------------------------------------------------
PD  .                           GL : PERMANENT DATUM
EPD .M                      703.69 : ELEVATION PERMANENT DATUM
LMF .                           KB : LOG MEASURED FROM
DAPD.M                        6.86 : FEET ABOVE PERMANENT DATUM
DMF .                           KB : DRILLING MEASURED FROM
EKB .M                      710.55 : KELLY BUSHING
EDF .M                      710.15 : DRILLING FLOOR
EGL .M                      703.69 : GROUND LEVEL
DATE.                     06/27/83 : RUN DATE
RUN .                            2 : RUN NUMBER
DD  .M                        2114 : DEPTH DRILLER
DL  .M                      2113.9 : DEPTH LOGGER
BLI .M                      2113.4 : BOTTOM LOG INTERVAL
TLI .M                         950 : TOP LOG INTERVAL
CS  .MM                        244 : CASING SIZE
CBD .M                       344.5 : CASING BOTTOM DRILLER
CBL .M                       344.2 : CASING BOTTOM LOGGER
BS  .MM                        222 : BIT SIZE
BSD .M                        2114 : BIT SIZE AT DEPTH
DFT .                         SALT : DRILLING FLUID TYPE
DFD .                         1290 : DRILLING FLUID DENSITY
DFV .                           54 : DRILLING FLUID VISCOSITY
DFPH.                            9 : DRILLING FLUID PH
DFL .                           29 : DRILLING FLUID LOSS
MSS .                     FLOWLINE : MUD SAMPLE SOURCE
RMS .OHMM                      0.1 : RESISTIVITY MUD SAMPLE
MST .DEGC                       21 : MUD SAMPLE TEMPERATURE
RMF .OHMM                     0.06 : RESISTIVITY MUD FILTRATE SAMPLE
MFST.DEGC                       21 : MUD FILTRATE SAMPLE TEMPERATURE
RMC .OHMM                    0.028 : RESISTIVITY MUD CAKE
MCST.DEGC                     66.6 : MUD CAKE SAMPLE TEMPERATURE
MFSS.                     MEASURED : MUD FILTRATE SAMPLE SOURCE
RMB .OHMM                    0.048 : RESISTIVITY MUD AT BHT
TCS .HRS                      1100 : TIME CIRCULATED STOPPED
TLAB.HRS                      1730 : TIME LOGGER AT BOTTOM
LUN .                         8108 : LOGGING UNIT NUMBER
LUL .                         WAIN : LOGGING UNIT LOCATION
ENGI.                       WEBBER : RECORDING ENGINEER
WITN.                        GAWNE : WITNESSED BY
CLNT.                      A2DTECH : CLIENT CODE
ORIG. 6.5" /100M 16.5" /100M PRINT : ORIGIN OF DATA
UWI .             100063504615W400 : UNIQUE WELL ID
DICO.       A2D Technologies, Inc. : DIGITIZING COMPANY
~Other -----------------------------------------------------
~ASCII -----------------------------------------------------
  350.00000  -25.23390 2267.99930    0.42510   73.62270    0.23520  250.95240    2.86800    -999.25    -999.25  -31.93910    4.84090    5.02600    4.44330    -999.25    -999.25    -999.25    -999.25    -999.25   71.29490  376.67970  226.65730
  400.00000   17.23530 2310.48610    0.39200   94.25560    0.20500  269.37870    2.74250    -999.25    -999.25  -36.70610    5.98070    6.11960    5.71790    -999.25    -999.25    -999.25    -999.25    -999.25  101.22240  359.38980  238.17380
  450.00000   20.37120 2332.25710    0.47230  108.14020    0.19410  237.23540    2.69580    -999.25    -999.25  -32.40160    5.37940    5.09530    4.69510    -999.25    -999.25    -999.25    -999.25    -999.25  106.20150  379.81160  219.97230
  500.00000   86.54950 2368.72780    0.44710  125.81050    0.16920  221.17890    2.70670    -999.25    -999.25  -25.33110    7.04250    7.20700    6.63350    -999.25    -999.25    -999.25    -999.25    -999.25  129.92470  358.69240  207.36750
  550.00000   18.73310 2314.66140    0.42840  101.96350    0.20330  234.88820    2.57940    -999.25    -999.25  -39.11500    5.22780    5.39790    5.05320    -999.25    -999.25    -999.25    -999.25    -999.25  109.54850  354.76940  221.95770
  600.00000   54.08590 2479.33690    0.33810   94.77010    0.13190  229.30020    2.60600    -999.25    -999.25  -33.42460    6.68240    7.73990    6.42390    -999.25    -999.25    -999.25    -999.25    -999.25   90.34940  318.93460  216.40320
  650.00000    1.56020 2371.25950    0.43020  156.06520    0.16960  229.72940    2.75520    -999.25    -999.25   -0.73500    5.30180    5.85580    5.12230    -999.25    -999.25    -999.25    -999.25    -999.25  147.84490  341.05760  214.99380
  700.00000   59.37850 2316.63550    0.50380  141.80620    0.20300  271.17010    2.44720    -999.25    -999.25   -0.26900    2.14240    2.53230    2.07580    -999.25    -999.25    -999.25    -999.25    -999.25  141.81070  395.13620  246.64310
  750.00000   90.42050 2476.39040    0.41710   90.48240    0.10880  239.46320    3.10660    -999.25    -999.25   -9.04360    3.08610    4.43590    3.00410    -999.25    -999.25    -999.25    -999.25    -999.25   92.44330  338.97300  241.30560
  800.00000   74.76140 2411.82470    0.47520   88.10310    0.14680  252.59750    2.78160    -999.25    -999.25    1.07290    2.43140    2.59930    2.36620    -999.25    -999.25    -999.25    -999.25    -999.25   95.62610  353.01230  231.79670
  850.00000    6.91800 2377.42580    0.34750   63.41810    0.16560  220.71980    2.37830    -999.25    -999.25  -65.79000    2.52500    7.99060    2.45730    -999.25    -999.25    -999.25    -999.25    -999.25   61.21110  291.89000  214.74100
  900.00000   65.07310 2463.45360    0.39140   86.39230    0.12200  226.89190    2.35160    0.33520    0.14970   -4.66170    3.75830    3.92650    3.61960    -999.25    -999.25    -999.25    -999.25    -999.25   98.99610  331.45430  221.71910
  950.00000   16.50440 2505.55050    0.37810   41.09590    0.09300  219.33560    2.71170    0.32170    0.12370  -88.63920    1.65110    4.69660    1.75640   33.61190    1.55470    1.13500  215.46050    0.93020   43.85050  236.62630  211.14850
 1000.00000   31.28960 2752.96140    0.25900   60.79530   -0.04410  224.01300    3.16360    0.21690   -0.00690    2.80280    8.91130    9.56950    8.59660   57.67450    8.13870    7.56840  232.47460    7.17760   55.55360  228.92140  218.70810
 1050.00000   22.74640 2621.19630    -999.25   97.78070    -999.25  254.50080    3.11620    0.19060    0.05320  -72.27800    -999.25    -999.25    -999.25   90.99760    7.14900    6.21640  232.76430    5.58730   98.32250  251.20040  242.29570
 1100.00000   54.19000 2579.66720    -999.25  102.80800    -999.25  263.68250    3.26810    0.27730    0.07670  -73.42640    -999.25    -999.25    -999.25  105.64590    4.69110    4.59600  250.22890    4.04130  102.47130  303.04990  257.96810
 1150.00000  -12.80240 2709.81690    -999.25   27.21420    -999.25  248.29120    4.80640    0.05500   -0.00170  -72.15900    -999.25    -999.25    -999.25   23.47750   44.66460   35.98720  236.29260   22.98910   28.28700  182.26470  240.06740
 1200.00000   -6.51300 2475.48220    -999.25   77.14260    -999.25  248.14400    3.44720    0.27550    0.13440  -69.07160    -999.25    -999.25    -999.25   74.96580   20.38890   16.31300  233.78090   10.41700   79.86430  260.23300  237.53590
 1250.00000  -10.59350 2676.18820    -999.25   16.37060    -999.25  240.44500    5.16920    0.01500    0.02030  -61.52520    -999.25    -999.25    -999.25   15.74020  103.17490   75.61370  248.80550   21.90750   16.01390  173.80510  237.03810
 1300.00000  129.53070 2596.43730    -999.25   19.08430    -999.25  216.38250    3.79530    0.19960    0.07140  -64.67210    -999.25    -999.25    -999.25   18.59580    3.29340    3.58880  199.80300    2.16870   14.40720  192.13310  192.39380
 1350.00000    8.69720 2692.08720    -999.25   39.73430    -999.25  251.79890    4.55120    0.09710    0.01080  -62.80170    -999.25    -999.25    -999.25   46.70700   15.82310   14.57200  251.45630    7.57510   44.34640  202.30180  256.76390
 1400.00000  -15.71470 2652.53690    -999.25   15.36980    -999.25  234.18030    4.75060    0.02810    0.03540  -50.38230    -999.25    -999.25    -999.25   17.96170   21.85230   18.29680  227.12890   15.26110   14.97940  173.79070  228.53760
 1450.00000    6.91200 2710.37990    -999.25   44.04980    -999.25  229.07820    4.62860    0.09700   -0.00290  -59.50450    -999.25    -999.25    -999.25   46.92030   23.23570   23.94610  226.59630   27.12430   39.31410  196.66730  224.54070
 1500.00000   34.97980 2668.18630    -999.25   99.46540    -999.25  229.10900    3.35540    0.20900    0.02520  -59.70500    -999.25    -999.25    -999.25   98.62520    6.05030    5.49990  234.44180    6.23690  100.14510  243.67750  227.91070
 1550.00000    5.82120 2670.64260    -999.25   32.04470    -999.25  225.05790    2.88840    0.08460    0.02340  -31.77640    -999.25    -999.25    -999.25   27.22520  454.76650  277.54900  223.34700  338.94500   29.28680  168.57120  225.32900
 1600.00000   63.88220 1879.82200    -999.25   19.23540    -999.25  376.82750    2.45940   -0.00690    0.46580   -7.91680    -999.25    -999.25    -999.25   17.78400  695.51020    8.69720  354.56250    1.68570   20.08470  232.96980  345.34800
 1650.00000   35.65490 2542.53320    -999.25   34.12240    -999.25  238.31290    4.02590    0.14270    0.08410  -84.40890    -999.25    -999.25    -999.25   32.11490 1581.27280   23.62510  238.75150    6.45270   31.35460  212.73760  224.00210
 1700.00000    6.03650 2732.74880    0.18450   55.93930   -0.04920  229.03080    2.90370    0.14290   -0.01310 -129.93380    -999.25    -999.25    -999.25   54.86930    9.94200    9.04020  223.09190    5.28180   55.22830  198.33050  222.35390
 1750.00000  -16.97360 2542.03980    0.12440  124.47010    0.06660  224.52130    3.38310    0.08200    0.09940 -132.61630    -999.25    -999.25    -999.25  132.65270   15.72680   13.34110  223.60110    5.93460  135.60410  210.33190  218.20720
 1800.00000   10.52620 2509.77560    0.26350  119.60350    0.08890  218.80890    2.89520    0.21950    0.12040   62.37700    -999.25    -999.25    -999.25  125.70740    3.20190    3.02800  215.55220    2.60230  121.23400  250.90090  206.96350
 1850.00000  160.36840 2478.17990    0.31160  118.28120    0.10170  242.95870    2.62240    0.27960    0.13300  119.91340    -999.25    -999.25    -999.25  129.51220    5.82190    7.63370  225.66730    0.66890  125.92580  254.51720  239.14610
 1900.00000  143.87920 2622.66920    0.29890  112.39190    0.01960  224.21670    3.11870    0.26090    0.05200 -180.06920    -999.25    -999.25    -999.25  119.45470   12.48720   14.76890  217.82430    5.45320  120.61580  220.28750  223.71280
 1950.00000   69.92670 2625.97390    0.28410  143.87590    0.01570  223.75710    3.08620    0.24810    0.05050 -179.33240    -999.25    -999.25    -999.25  138.55660   10.57850   11.13050  224.60460    0.35960  137.49440  252.48550  220.22270
