~Version ---------------------------------------------------
VERS.      2.0 : CWLS log ASCII Standard -VERSION 2.0
WRAP.       NO : One line per depth step
CREA. 12/20/17 : LAS Creation Date
~Well ------------------------------------------------------
STRT.FT                         300.0 : START DEPTH
STOP.FT                        9850.0 : STOP DEPTH
STEP.FT                      50.00000 : STEP LENGTH
NULL.                         -999.25 : NULL VALUE
COMP.          PACIFIC PETROLEUMS LTD : COMPANY
WELL. PACIFIC SUNRAY KAYBOB 2-2-64-19 : WELL
FLD .                                 : FIELD
LOC .                                 : LOCATION
CTRY.                          CANADA : COUNTRY
SRVC.          Schlumberger of Canada : SERVICE COMPANY
DATE.                     27-Jan-1959 : LOGDATE
PROV.                         Alberta : PROVINCE
UWI .                100020206419W500 : UNIQUE WELL ID
SLAT.WGS84                   54.50328 : SURFACE LATITUDE
SLON.WGS84                  -116.7572 : SURFACE LONGITUDE
~Curve Information -----------------------------------------
DEPT  .FT    : Depth Curve
CALWS .IN    : CALIPER [MCALED]
CONDWS.MMHO  : CONDUCTIVITY [1000/DRESWS]
DRESWS.OHMM  : DEEP RESISTIVITY [LNED]
GRED  .GAPI  : GAMMA RAY FROM CBL LOG [ADJ TO SPRED]
GRWS  .GAPI  : GAMMA RAY [GRED]
LNED  .OHMM  : 64 INCH LONG NORMAL RESISTIVITY FROM EL LOG
LT18ED.OHMM  : 18 FOOT 8 INCH LATERAL RESISTIVITY FROM EL LOG
MCALED.IN    : CALIPER FROM MICROLOG
NEUTED.CPS   : NEUTRON FROM NEUTRON LOG
NEUTWS.CPS   : NEUTRON [NEUTED]
SNED  .OHMM  : 16 INCH SHORT NORMAL RESISTIVITY FROM EL LOG
SPRED .MV    : SPONTANEOUS POTENTIAL FROM EL LOG
SPWS  .MV    : SPONTANEOUS POTENTIAL [BASELINE 0 MV] [SPRED]
SRESWS.OHMM  : SHALLOW RESISTIVITY [SNED]
~Params ----------------------------------------------------
LMF .                     KB : LOG MEASURED FROM
DMF .                     KB : DRILLING MEASURED FROM
EKB .FT               2473.7 : KELLY BUSHING
DATE.               01/27/59 : RUN DATE
RUN .                      1 : RUN NUMBER
DD  .FT                 9862 : DEPTH DRILLER
DL  .FT                 9866 : DEPTH LOGGER
BLI .FT                 9865 : BOTTOM LOG INTERVAL
TLI .FT                  684 : TOP LOG INTERVAL
CBD .FT                  685 : CASING BOTTOM DRILLER
CBL .FT                  684 : CASING BOTTOM LOGGER
BS  .IN                7.875 : BIT SIZE
BSD .FT                 9862 : BIT SIZE AT DEPTH
DFT .               OIL EMUL : DRILLING FLUID TYPE
DFD .                   10.7 : DRILLING FLUID DENSITY
DFV .                    170 : DRILLING FLUID VISCOSITY
DFPH.                      9 : DRILLING FLUID PH
DFL .                    6.6 : DRILLING FLUID LOSS
RMS .OHMM                3.9 : RESISTIVITY MUD SAMPLE
MST .DEGF                 61 : MUD SAMPLE TEMPERATURE
RMF .OHMM                2.7 : RESISTIVITY MUD FILTRATE SAMPLE
MFST.DEGF                 68 : MUD FILTRATE SAMPLE TEMPERATURE
RMC .OHMM                3.5 : RESISTIVITY MUD CAKE
MCST.DEGF                 68 : MUD CAKE SAMPLE TEMPERATURE
RMB .OHMM                1.3 : RESISTIVITY MUD AT BHT
TCS .HRS                 3.5 : TIME CIRCULATED STOPPED
LUN .                   2742 : LOGGING UNIT NUMBER
LUL .                     PR : LOGGING UNIT LOCATION
ENGI.                THOMSON : RECORDING ENGINEER
WITN.                FOGARTY : WITNESSED BY
CLNT.                A2DTECH : CLIENT CODE
ORIG.            2" 5" PRINT : ORIGIN OF DATA
UWI .       100020206419W500 : UNIQUE WELL ID
DICO. A2D Technologies, Inc. : DIGITIZING COMPANY
~Other -----------------------------------------------------
EL-ML-NEUT-CBL LOGS RUN
~ASCII -----------------------------------------------------
  300.00000    -999.25    -999.25    -999.25   27.40590   27.40590    -999.25    -999.25    -999.25    -999.25    -999.25    -999.25    -999.25    -999.25    -999.25
  350.00000    -999.25    -999.25    -999.25   51.08390   51.08390    -999.25    -999.25    -999.25    -999.25    -999.25    -999.25    -999.25    -999.25    -999.25
  400.00000    -999.25    -999.25    -999.25   47.11740   47.11740    -999.25    -999.25    -999.25    -999.25    -999.25    -999.25    -999.25    -999.25    -999.25
  450.00000    -999.25    -999.25    -999.25   38.90050   38.90050    -999.25    -999.25    -999.25    -999.25    -999.25    -999.25    -999.25    -999.25    -999.25
  500.00000    -999.25    -999.25    -999.25   38.89380   38.89380    -999.25    -999.25    -999.25    -999.25    -999.25    -999.25    -999.25    -999.25    -999.25
  550.00000    -999.25    -999.25    -999.25   41.16420   41.16420    -999.25    -999.25    -999.25    -999.25    -999.25    -999.25    -999.25    -999.25    -999.25
  600.00000    -999.25    -999.25    -999.25   59.32180   59.32180    -999.25    -999.25    -999.25    -999.25    -999.25    -999.25    -999.25    -999.25    -999.25
  650.00000    -999.25    -999.25    -999.25   42.10910   42.10910    -999.25    -999.25    -999.25    -999.25    -999.25    -999.25    -999.25    -999.25    -999.25
  700.00000    -999.25  440.52860    2.27000   68.03950   68.03950    2.27000    -999.25    -999.25    -999.25    -999.25    2.12690 -100.55580   -4.88620    2.12690
  750.00000    -999.25   45.46590   21.99450   50.12530   50.12530   21.99450   17.22280    -999.25    -999.25    -999.25   16.80870 -108.74660   -5.56350   16.80870
  800.00000    -999.25  133.23560    7.50550   73.84100   73.84100    7.50550    7.29490    -999.25    -999.25    -999.25    2.38430 -105.28080   -4.16750    2.38430
  850.00000    -999.25  172.28610    5.80430   74.50070   74.50070    5.80430    3.45870    -999.25    -999.25    -999.25    2.20090 -102.05060   -3.01710    2.20090
  900.00000    -999.25  216.70350    4.61460   64.14180   64.14180    4.61460    1.48820    -999.25    -999.25    -999.25    1.25370 -101.20820   -2.59410    1.25370
  950.00000    -999.25  181.96710    5.49550   51.98920   51.98920    5.49550    2.70660    -999.25    -999.25    -999.25    2.09310 -101.36490   -3.17270    2.09310
 1000.00000    -999.25  166.31460    6.01270   46.23500   46.23500    6.01270    5.19660    -999.25    -999.25    -999.25    2.98740 -100.44280   -2.67000    2.98740
 1050.00000    -999.25  192.35950    5.19860   60.54050   60.54050    5.19860    7.30520    -999.25    -999.25    -999.25    4.76920  -99.10470   -1.75050    4.76920
 1100.00000    -999.25  138.99890    7.19430   75.08600   75.08600    7.19430    0.92400    -999.25    -999.25    -999.25    4.46460 -100.71600   -3.78370    4.46460
 1150.00000    -999.25  154.58100    6.46910   68.10770   68.10770    6.46910    0.12020    -999.25    -999.25    -999.25    3.06170  -97.56480   -1.05190    3.06170
 1200.00000    -999.25  209.40650    4.77540   57.40590   57.40590    4.77540    4.55820    -999.25    -999.25    -999.25    3.21370  -99.18030   -3.08940    3.21370
 1250.00000    -999.25  112.72180    8.87140   52.59630   52.59630    8.87140    2.90410    -999.25    -999.25    -999.25    9.04660 -101.65500   -5.92030    9.04660
 1300.00000    -999.25   78.82520   12.68630   53.59720   53.59720   12.68630    7.62390    -999.25    -999.25    -999.25   10.97640 -109.55370  -13.89920   10.97640
 1350.00000    -999.25  193.56960    5.16610   73.24180   73.24180    5.16610    7.88310    -999.25    -999.25    -999.25    2.31320  -99.35780   -3.78410    2.31320
 1400.00000    -999.25  230.31920    4.34180   69.40560   69.40560    4.34180    1.64020    -999.25    -999.25    -999.25    1.78700  -99.16470   -3.67130    1.78700
 1450.00000    -999.25  101.29350    9.87230   77.47200   77.47200    9.87230    6.43380    -999.25    -999.25    -999.25   10.31920 -106.46960  -11.05710   10.31920
 1500.00000    -999.25  245.88750    4.06690   64.20770   64.20770    4.06690    2.37800    -999.25    -999.25    -999.25    1.61860  -96.34080   -1.00860    1.61860
 1550.00000    -999.25  213.92200    4.67460   72.83320   72.83320    4.67460    4.23420    -999.25    -999.25    -999.25    3.52910  -99.61190   -4.35990    3.52910
 1600.00000    -999.25  120.56180    8.29450   47.05340   47.05340    8.29450    3.57450    -999.25    -999.25    -999.25    5.51960  -97.11920   -1.92620    5.51960
 1650.00000    -999.25  211.19320    4.73500   60.48510   60.48510    4.73500    4.80120    -999.25    -999.25    -999.25    2.55210  -97.84130   -2.67190    2.55210
 1700.00000    -999.25  160.18710    6.24270   53.23200   53.23200    6.24270    7.07350    -999.25    -999.25    -999.25    3.56600 -102.36330   -7.21760    3.56600
 1750.00000    -999.25  155.56210    6.42830   65.52280   65.52280    6.42830   11.41640    -999.25    -999.25    -999.25    5.15000 -103.52080   -8.39880    5.15000
 1800.00000    -999.25  326.09400    3.06660  116.43730  116.43730    3.06660    1.01440    -999.25    -999.25    -999.25    0.77160  -96.45420   -1.35570    0.77160
 1850.00000    -999.25   78.54780   12.73110   51.93430   51.93430   12.73110   10.18830    -999.25    -999.25    -999.25    5.87100  -98.29410   -3.21940    5.87100
 1900.00000    -999.25   46.45420   21.52660   37.61490   37.61490   21.52660   20.71620    -999.25    -999.25    -999.25   15.20900 -113.43870  -18.38760   15.20900
 1950.00000    -999.25  123.74090    8.08140   51.68980   51.68980    8.08140   16.12190    -999.25    -999.25    -999.25    5.73340  -99.07640   -4.04900    5.73340
 2000.00000    -999.25  122.84710    8.14020   62.18110   62.18110    8.14020    7.79430    -999.25    -999.25    -999.25    7.82360  -97.19530   -2.19150    7.82360
 2050.00000    -999.25  127.02450    7.87250   61.70000   61.70000    7.87250    2.41720    -999.25    -999.25    -999.25    4.24550  -96.90890   -1.92870    4.24550
 2100.00000    -999.25  163.12950    6.13010   58.90810   58.90810    6.13010    4.91580    -999.25    -999.25    -999.25    3.57590  -96.79030   -1.83380    3.57590
 2150.00000    -999.25  148.24260    6.74570   48.05840   48.05840    6.74570    2.47100    -999.25    -999.25    -999.25    4.92260  -97.42930   -2.49650    4.92260
 2200.00000    -999.25   34.27240   29.17800   42.31280   42.31280   29.17800    9.26390    -999.25    -999.25    -999.25   21.78910 -111.22160  -16.31250   21.78910
 2250.00000    -999.25  171.79770    5.82080   50.23630   50.23630    5.82080    5.22350    -999.25    -999.25    -999.25    4.12720  -96.80250   -1.91700    4.12720
 2300.00000    -999.25  155.47750    6.43180   51.93850   51.93850    6.43180    2.58480    -999.25    -999.25    -999.25    3.23620  -96.38230   -1.52040    3.23620
 2350.00000    -999.25  107.36990    9.31360   40.70830   40.70830    9.31360    3.18490    -999.25    -999.25    -999.25    7.52830  -96.30510   -1.46690    7.52830
 2400.00000    -999.25   73.14590   13.67130   43.77080   43.77080   13.67130    5.39040    -999.25    -999.25    -999.25    7.42980 -100.34660   -5.53200    7.42980
 2450.00000    -999.25   93.77610   10.66370   57.02450   57.02450   10.66370    3.56910    -999.25    -999.25    -999.25    6.00560  -97.11240   -2.32160    6.00560
 2500.00000    -999.25  142.73680    7.00590   48.36180   48.36180    7.00590    7.04270    -999.25    -999.25    -999.25    3.46760  -96.57390   -1.80670    3.46760
 2550.00000    -999.25  150.26300    6.65500   58.38140   58.38140    6.65500    5.58000    -999.25    -999.25    -999.25    5.96940  -95.95450   -1.21090    5.96940
 2600.00000    -999.25   82.01970   12.19220   49.95400   49.95400   12.19220    9.55430    -999.25    -999.25    -999.25   10.73470 -110.33910  -15.61920   10.73470
 2650.00000    -999.25  120.48770    8.29960   50.02550   50.02550    8.29960    7.57740    -999.25    -999.25    -999.25    5.33810  -97.29480   -2.59850    5.33810
 2700.00000    -999.25  108.28840    9.23460   57.98530   57.98530    9.23460    6.09490    -999.25    -999.25    -999.25   11.93070  -96.68850   -2.01600   11.93070
