~Version ---------------------------------------------------
VERS.      2.0 : CWLS log ASCII Standard -VERSION 2.0
WRAP.       NO : One line per depth step
CREA. 08/31/17 : LAS Creation Date
~Well ------------------------------------------------------
STRT.FT                            1500.0 : START DEPTH
STOP.FT                           12250.0 : STOP DEPTH
STEP.FT                          50.00000 : STEP LENGTH
NULL.                             -999.25 : NULL VALUE
COMP.            CHEVRON STANDARD LIMITED : COMPANY
WELL. CHEVRON NORCEN PL BRAZEAU 7-4-49-12 : WELL
FLD .                                     : FIELD
LOC .                                     : LOCATION
CTRY.                              CANADA : COUNTRY
SRVC.                        Schlumberger : SERVICE COMPANY
DATE.                         05-Jun-1978 : LOGDATE
PROV.                             Alberta : PROVINCE
UWI .                    100070404912W500 : UNIQUE WELL ID
SLAT.WGS84                       53.19691 : SURFACE LATITUDE
SLON.WGS84                      -115.6898 : SURFACE LONGITUDE
~Curve Information -----------------------------------------
DEPT    .FT    : Depth Curve
CALDED  .IN    : CALIPER FROM CNFD LOG
CALSED  .IN    : CALIPER FROM SONIC LOG [ADJ.TO GRDED]
CALWS   .IN    : CALIPER [CALSED]
CONDWS  .MMHO  : CONDUCTIVITY [1000/DRESWS]
DCORED  .G/C3  : DENSITY CORRECTION FROM CNFD LOG
DCORWS  .G/C3  : DENSITY CORRECTION [DCORED]
DENWS   .G/C3  : FORMATION BULK DENSITY [CALCULATED FROM DPOLSWS, M=2.71, F=1.00]
DPHILSED.V/V   : DENSITY POROSITY LIMESTONE [M=2.71, F=1.0] FROM CNFD LOG [ADJ.TO RHOBED]
DPHISSED.V/V   : DENSITY POROSITY SANDSTONE [M=2.65, F=1.0] FROM CNFD LOG [ADJ.TO RHOBED]
DPOLSWS .V/V   : DENSITY POROSITY LIMESTONE [DPHISSED CONVERTED TO LIMESTONE MATRIX,M=2.71, F=1.0, SPL.TO DPHILSED @ 2605.3']
DRESWS  .OHMM  : DEEP RESISTIVITY [ILDED]
DTED    .US/F  : DELTA-T FROM BCS LOG [ADJ.TO GRDED]
DTWS    .US/F  : COMPRESSIONAL SONIC [DTED]
GRDED   .GAPI  : GAMMA RAY FROM CNFD LOG
GRSED   .GAPI  : GAMMA RAY FROM BCS LOG [ADJ.TO GRDED]
GRWS    .GAPI  : GAMMA RAY [GRSED]
ILDED   .OHMM  : DEEP INDUCTION FROM DIL-LAT LOG
ILMED   .OHMM  : MEDIUM INDUCTION FROM DIL-LAT LOG
LL8ED   .OHMM  : LATEROLOG-8 FROM DIL-LAT LOG
MRESWS  .OHMM  : MEDIUM RESISTIVITY [ILMED]
NPHILSED.V/V   : NEUTRON POROSITY LIMESTONE FROM CNFD LOG [ADJ.TO RHOBED]
NPHISSED.V/V   : NEUTRON POROSITY SANDSTONE FROM CNFD LOG [ADJ.TO RHOBED]
NPOLSWS .V/V   : NEUTRON POROSITY LIMESTONE [NPHISSED CONVERTED TO LIMESTONE MATRIX & SPL. TO NPHILSED @ 2605']
RHOBED  .G/C3  : FORMATION BULK DENSITY FROM CNFD LOG
SPRED   .MV    : SPONTANEOUS POTENTIAL FROM DIL-LAT LOG
SPWS    .MV    : SPONTANEOUS POTENTIAL [BASELINE 0 MV,SPRED]
SRESWS  .OHMM  : SHALLOW RESISTIVITY [LL8ED]
~Params ----------------------------------------------------
PD  .                     GL : PERMANENT DATUM
EPD .FT               3221.1 : ELEVATION PERMANENT DATUM
LMF .                     KB : LOG MEASURED FROM
DAPD.FT                 18.9 : FEET ABOVE PERMANENT DATUM
DMF .                     KB : DRILLING MEASURED FROM
EKB .FT                 3240 : KELLY BUSHING
EGL .FT               3221.1 : GROUND LEVEL
DATE.               06/05/78 : RUN DATE
RUN .                      1 : RUN NUMBER
DD  .FT                12300 : DEPTH DRILLER
DL  .FT                12303 : DEPTH LOGGER
BLI .FT                12297 : BOTTOM LOG INTERVAL
TLI .FT                 1518 : TOP LOG INTERVAL
CBD .FT                 1518 : CASING BOTTOM DRILLER
CBL .FT                 1518 : CASING BOTTOM LOGGER
BS  .IN                 8.75 : BIT SIZE
BSD .FT                12300 : BIT SIZE AT DEPTH
DFT .                    GEL : DRILLING FLUID TYPE
DFD .                     11 : DRILLING FLUID DENSITY
DFV .                     68 : DRILLING FLUID VISCOSITY
DFPH.                   10.5 : DRILLING FLUID PH
MSS .               FLOWLINE : MUD SAMPLE SOURCE
RMS .OHMM               3.34 : RESISTIVITY MUD SAMPLE
MST .DEGF                 68 : MUD SAMPLE TEMPERATURE
TCS .HRS                 350 : TIME CIRCULATED STOPPED
LUN .                   7802 : LOGGING UNIT NUMBER
LUL .                    EDM : LOGGING UNIT LOCATION
ENGI.            STEENBERGEN : RECORDING ENGINEER
WITN.             RICHARDSON : WITNESSED BY
CLNT.                A2DTECH : CLIENT CODE
ORIG.            2" 5" PRINT : ORIGIN OF DATA
UWI .       100070404912W500 : UNIQUE WELL ID
DICO. A2D Technologies, Inc. : DIGITIZING COMPANY
~Other -----------------------------------------------------
~ASCII -----------------------------------------------------
# ...
 10600.00000    -999.25   10.85310   10.85310  222.91570    -999.25    -999.25    -999.25    -999.25    -999.25    -999.25    4.48600   75.00180   75.00180    -999.25   99.54610   99.54610    4.48600    4.93540    6.05250    4.93540    -999.25    -999.25    -999.25    -999.25  -38.94730  -33.70250    6.05250
 10650.00000    -999.25   10.31570   10.31570  140.83910    -999.25    -999.25    -999.25    -999.25    -999.25    -999.25    7.10030   68.13390   68.13390    -999.25   92.85490   92.85490    7.10030    7.77280   10.40970    7.77280    -999.25    -999.25    -999.25    -999.25    -999.25    -999.25   10.40970
 10700.00000    -999.25   10.56000   10.56000  209.04560    -999.25    -999.25    -999.25    -999.25    -999.25    -999.25    4.78360   71.95640   71.95640    -999.25   91.25140   91.25140    4.78360    5.10260    6.56010    5.10260    -999.25    -999.25    -999.25    -999.25  -32.19610  -37.89510    6.56010
 10750.00000    -999.25   10.66880   10.66880  247.75170    -999.25    -999.25    -999.25    -999.25    -999.25    -999.25    4.03630   73.84730   73.84730    -999.25   78.60800   78.60800    4.03630    4.56020    5.69730    4.56020    -999.25    -999.25    -999.25    -999.25  -92.48770 -100.95590    5.69730
 10800.00000    -999.25   10.33520   10.33520  219.16850    -999.25    -999.25    -999.25    -999.25    -999.25    -999.25    4.56270   72.40640   72.40640    -999.25   97.19750   97.19750    4.56270    5.13770    6.75650    5.13770    -999.25    -999.25    -999.25    -999.25 -158.01670 -167.97690    6.75650
 10850.00000    -999.25   10.48710   10.48710  284.37370    -999.25    -999.25    -999.25    -999.25    -999.25    -999.25    3.51650   75.50850   75.50850    -999.25   87.34490   87.34490    3.51650    4.12090    5.59720    4.12090    -999.25    -999.25    -999.25    -999.25  -62.06060  -73.52270    5.59720
 10900.00000    -999.25   10.38140   10.38140  206.96220    -999.25    -999.25    -999.25    -999.25    -999.25    -999.25    4.83180   76.98800   76.98800    -999.25   98.13030   98.13030    4.83180    5.21380    6.65630    5.21380    -999.25    -999.25    -999.25    -999.25  -98.61300 -111.56720    6.65630
 10950.00000   13.99410   10.36570   10.36570  145.52750    0.14700    0.14700    2.56680    0.08380    -999.25    0.08380    6.87160   76.49100   76.49100   97.45600  100.50690  100.50690    6.87160    7.65380   10.38860    7.65380    0.22630    -999.25    0.22630    2.57120 -135.13580 -149.59180   10.38860
 11000.00000   11.12480    9.62950    9.62950   82.33640    0.01560    0.01560    2.70950    0.00030    -999.25    0.00030   12.14530   65.85750   65.85750   74.41970   79.71100   79.71100   12.14530   13.63090   18.94200   13.63090    0.12160    -999.25    0.12160    2.71440 -140.17880 -156.12690   18.94200
 11050.00000   10.71050    9.72270    9.72270   18.29210    0.02620    0.02620    2.69510    0.00870    -999.25    0.00870   54.66840   65.06160   65.06160   60.64140   60.18320   60.18320   54.66840   70.61630  123.98030   70.61630    0.07040    -999.25    0.07040    2.71350 -113.10760 -130.54770  123.98030
 11100.00000   11.96140   10.25850   10.25850   39.58970    0.02790    0.02790    2.55180    0.09250    -999.25    0.09250   25.25910   82.86270   82.86270  137.37020  141.62120  141.62120   25.25910   27.49580   52.53160   27.49580    0.20550    -999.25    0.20550    2.56240 -116.10940 -135.05140   52.53160
 11150.00000    -999.25   11.79150   11.79150  259.03380    0.08540    0.08540    2.46270    0.14460    -999.25    0.14460    3.86050   85.30910   85.30910  105.56340  111.99220  111.99220    3.86050    4.22350    5.16000    4.22350    0.27390    -999.25    0.27390    2.46860 -103.46470 -123.89870    5.16000
 11200.00000   13.72800   10.35770   10.35770   95.19570    0.12830    0.12830    2.49190    0.12760    -999.25    0.12760   10.50710   80.78110   80.78110  115.12190  118.32140  118.32140   10.50710   12.08190   15.16170   12.08190    0.22300    -999.25    0.22300    2.50720  -99.50450 -121.44040   15.16170
 11250.00000   12.58570   10.28540   10.28540   15.94290    0.01390    0.01390    2.72850   -0.01080    -999.25   -0.01080   62.72370   54.34220   54.34220   29.07110   34.20200   34.20200   62.72370   68.37380  149.62240   68.37380    0.01700    -999.25    0.01700    2.71530  -96.72990 -120.15790  149.62240
 11300.00000   11.81990   10.27720   10.27720   50.38340    0.03550    0.03550    2.73500   -0.01460    -999.25   -0.01460   19.84780   53.86330   53.86330   48.04990   35.95220   35.95220   19.84780   19.46010   25.85050   19.46010    0.07230    -999.25    0.07230    2.74280 -110.26310 -135.18310   25.85050
 11350.00000   12.42490    9.96270    9.96270    9.42610    0.05710    0.05710    2.68490    0.01470    -999.25    0.01470  106.08850   49.67990   49.67990   23.61030   22.26330   22.26330  106.08850  178.26500  324.08200  178.26500    0.01490    -999.25    0.01490    2.68110 -110.96330 -137.38520  324.08200
 11400.00000   10.82950    9.68930    9.68930   52.30590    0.04120    0.04120    2.75240   -0.02480    -999.25   -0.02480   19.11830   58.40280   58.40280   51.55130   51.46210   51.46210   19.11830   21.57830   27.31040   21.57830    0.08300    -999.25    0.08300    2.75120  -93.45410 -121.36800   27.31040
 11450.00000   10.17080    9.57670    9.57670   42.29800    0.05500    0.05500    2.75500   -0.02630    -999.25   -0.02630   23.64540   56.82590   56.82590   58.04820   49.31540   49.31540   23.64540   29.73710   46.48980   29.73710    0.01420    -999.25    0.01420    2.74550  -91.44810 -120.86390   46.48980
 11500.00000   11.46140    9.74690    9.74690   12.28400    0.01420    0.01420    2.74850   -0.02250    -999.25   -0.02250   81.40690   51.45490   51.45490   37.21760   40.32970   40.32970   81.40690   90.01630  129.31920   90.01630    0.02090    -999.25    0.02090    2.75380    5.18370  -25.72410  129.31920
 11550.00000   11.92910    9.78570    9.78570    9.78140    0.04820    0.04820    2.67120    0.02270    -999.25    0.02270  102.23460   48.96540   48.96540   19.41360   20.14220   20.14220  102.23460  178.15110  978.01330  178.15110    0.00080    -999.25    0.00080    2.66890  -99.10760 -121.86780  978.01330
 11600.00000   10.31440    9.44240    9.44240   19.94130    0.00490    0.00490    2.75500   -0.02630    -999.25   -0.02630   50.14730   54.37110   54.37110   47.34580   48.09090   48.09090   50.14730   55.63120   74.47650   55.63120    0.04390    -999.25    0.04390    2.76200  -95.98330 -108.25450   74.47650
 11650.00000   11.79630    9.81610    9.81610    1.40970    0.09670    0.09670    2.70010    0.00580    -999.25    0.00580  709.38390   49.64310   49.64310   18.84150   19.75500   19.75500  709.38390  415.54150 1403.69520  415.54150    0.00740    -999.25    0.00740    2.68810  -91.44890  -93.29970 1403.69520
 11700.00000   10.14580    9.40930    9.40930    1.29970    0.03440    0.03440    2.73180   -0.01280    -999.25   -0.01280  769.73310   52.01990   52.01990   49.76770   52.52510   52.52510  769.73310  669.51840  659.14350  669.51840    0.00630    -999.25    0.00630    2.72730 -127.55000 -118.91190  659.14350
 11750.00000    9.87710    9.25190    9.25190    4.50320    0.02770    0.02770    2.80080   -0.05310    -999.25   -0.05310  222.06520   51.01930   51.01930   81.94230   92.67840   92.67840  222.06520  186.42790  265.31490  186.42790    0.08270    -999.25    0.08270    2.78510  -72.48610  -53.42750  265.31490
 11800.00000   10.05720    9.24590    9.24590    2.28630    0.02940    0.02940    2.77690   -0.03910    -999.25   -0.03910  437.38500   50.62430   50.62430   59.27870   55.45580   55.45580  437.38500  290.24050  565.22590  290.24050    0.00130    -999.25    0.00130    2.76570  -61.66730  -34.91140  565.22590
 11850.00000    9.90240    9.27500    9.27500    3.08390    0.02440    0.02440    2.72320   -0.00770    -999.25   -0.00770  324.26920   52.03170   52.03170   71.74060   78.86080   78.86080  324.26920  278.87800  544.32550  278.87800    0.04490    -999.25    0.04490    2.75360  -59.51740  -26.20310  544.32550
