~Version ---------------------------------------------------
VERS.      2.0 : CWLS log ASCII Standard -VERSION 2.0
WRAP.       NO : One line per depth step
CREA. 01/04/18 : LAS Creation Date
~Well ------------------------------------------------------
STRT.FT                     1950.0 : START DEPTH
STOP.FT                    11350.0 : STOP DEPTH
STEP.FT                   50.00000 : STEP LENGTH
NULL.                      -999.25 : NULL VALUE
COMP.     CHEVRON STANDARD LIMITED : COMPANY
WELL. CHEVRON CLARK NO 10-15-59-18 : WELL
FLD .                              : FIELD
LOC .                              : LOCATION
CTRY.                       CANADA : COUNTRY
SRVC.                Dresser Atlas : SERVICE COMPANY
DATE.                  26-Oct-1968 : LOGDATE
PROV.                      Alberta : PROVINCE
UWI .             100101505918W500 : UNIQUE WELL ID
SLAT.WGS84                54.10291 : SURFACE LATITUDE
SLON.WGS84               -116.6105 : SURFACE LONGITUDE
~Curve Information -----------------------------------------
DEPT    .FT        : Depth Curve
ACED    .US/F      : DELTA TIME (ACOUSTIC) FROM SONIC LOG [DEPTH ADJ. TO ILDED]
CALSED  .IN        : CALIPER FROM SONIC LOG [DEPTH ADJ. TO ILDED]
CALWS   .IN        : CALIPER [CALSED]
CILED   .MMHO      : CONDUCTIVITY FROM RESISTIVITY LOG
CONDWS  .MMHO      : CONDUCTIVITY [1000/DRESWS]
DRESWS  .OHMM      : DEEP RESISTIVITY [IF ILED<1;1000/CILED;ELSE ILED]
DTWS    .US/F      : DELTA TIME [ACED]
GRSED   .GAPI      : GAMMA RAY FROM SONIC LOG [DEPTH ADJ. TO ILDED]
GRTED   .GAPI      : GAMMA RAY FROM TDT LOG [DEPTH ADJ. TO ILDED]
GRWS    .GAPI      : GAMMA RAY [GRSED]
ILED    .OHMM      : INDUCTION LOG RESISTIVITY
NPHIED  .V/V       : NEUTRON POROSITY FROM DENSITY LOG [DEPTH ADJ. TO ILDED]
NPOWS   .V/V       : NEUTRON POROSITY [NPHIED]
RATIO1ED.UNITLESS  : ATIO FROM TDT LOG  [DEPTH ADJ. TO ILDED]
RATIOED .UNITLESS  : RATIO FROM TDT LOG  [DEPTH ADJ. TO ILDED]
SIGMED  .CU        : NEUTRON CAPTURE CROSS SECTION FROM TDT LOG [DEPTH ADJ. TO ILDED]
SNED    .OHMM      : 16 INCH SHORT NORMAL RESISTIVITY FROM IEL
SPRED   .MV        : SPONTANEOUS POTENTIAL FROM RESISTIVITY LOG
SPWS    .MV        : SPONTANEOUS POTENTIAL [BASELINE 0 MV] [SPRED]
SRESWS  .OHMM      : SHALLOW RESISTIVITY [SNED]
TAUED   .ms        : THERMAL DECAY TIME FROM TDT LOG [DEPTH ADJ. TO ILDED]
~Params ----------------------------------------------------
PD  .                     GL : PERMANENT DATUM
EPD .FT               3420.5 : ELEVATION PERMANENT DATUM
LMF .                     KB : LOG MEASURED FROM
DAPD.FT                 15.5 : FEET ABOVE PERMANENT DATUM
DMF .                     KB : DRILLING MEASURED FROM
EKB .FT                 3436 : KELLY BUSHING
EGL .FT               3420.5 : GROUND LEVEL
DATE.               10/26/68 : RUN DATE
RUN .                      1 : RUN NUMBER
DD  .FT                11393 : DEPTH DRILLER
DL  .FT                11390 : DEPTH LOGGER
BLI .FT                11386 : BOTTOM LOG INTERVAL
TLI .FT                 2028 : TOP LOG INTERVAL
CS  .IN                9.625 : CASING SIZE
CBD .FT                 2028 : CASING BOTTOM DRILLER
CBL .FT                 2028 : CASING BOTTOM LOGGER
BS  .IN                 8.75 : BIT SIZE
BSD .FT                11393 : BIT SIZE AT DEPTH
DFT .                MUD GEL : DRILLING FLUID TYPE
DFD .                    9.6 : DRILLING FLUID DENSITY
DFV .                    100 : DRILLING FLUID VISCOSITY
DFPH.                     11 : DRILLING FLUID PH
DFL .                    8.2 : DRILLING FLUID LOSS
MSS .                   CIRC : MUD SAMPLE SOURCE
RMS .OHMM                1.7 : RESISTIVITY MUD SAMPLE
MST .DEGF                 44 : MUD SAMPLE TEMPERATURE
RMF .OHMM                1.4 : RESISTIVITY MUD FILTRATE SAMPLE
MFST.DEGF                 44 : MUD FILTRATE SAMPLE TEMPERATURE
RMC .OHMM                1.8 : RESISTIVITY MUD CAKE
MCST.DEGF                 44 : MUD CAKE SAMPLE TEMPERATURE
MFSS.                   MEAS : MUD FILTRATE SAMPLE SOURCE
MCSS.                   MEAS : MUD CAKE SAMPLE SOURCE
RMB .OHMM               0.35 : RESISTIVITY MUD AT BHT
TCS .HRS                   4 : TIME CIRCULATED STOPPED
LUN .                   6002 : LOGGING UNIT NUMBER
LUL .                    EDM : LOGGING UNIT LOCATION
ENGI.                  BLAND : RECORDING ENGINEER
WITN.     HOUDEBO JOYCE LEOD : WITNESSED BY
CLNT.                A2DTECH : CLIENT CODE
ORIG.            2" 5" PRINT : ORIGIN OF DATA
UWI .       100101505918W500 : UNIQUE WELL ID
DICO. A2D Technologies, Inc. : DIGITIZING COMPANY
~Other -----------------------------------------------------
~ASCII -----------------------------------------------------
# ...
 10200.00000   69.81640    9.64890    9.64890   97.95140   90.39830   11.06210   69.81640   71.00930    -999.25   71.00930   11.06220    -999.25    -999.25    -999.25    -999.25    -999.25   15.70810  -64.03980   -7.18180   15.70810    -999.25
 10250.00000   61.99550    8.95360    8.95360   62.52140   59.73000   16.74200   61.99550   54.80460    -999.25   54.80460   16.74200    -999.25    -999.25    -999.25    -999.25    -999.25   28.30860  -67.97950  -12.02490   28.30860    -999.25
 10300.00000   76.12860    8.93350    8.93350   53.90430   51.58390   19.38590   76.12860   86.09890    -999.25   86.09890   19.38590    -999.25    -999.25    -999.25    -999.25    -999.25   32.50770  -72.79190  -17.74520   32.50770    -999.25
 10350.00000   70.85730   10.61810   10.61810   82.03480   80.28070   12.45630   70.85730   81.98050    -999.25   81.98050   12.45630    -999.25    -999.25    -999.25    -999.25    -999.25   16.21870  -82.10440  -27.96560   16.21870    -999.25
 10400.00000   77.24370   11.97010   11.97010   89.99560   83.11450   12.03160   77.24370   74.95040    -999.25   74.95040   12.03160    -999.25    -999.25    -999.25    -999.25    -999.25   13.01400  -71.56580  -18.33500   13.01400    -999.25
 10450.00000   65.43430    9.11850    9.11850   47.21550   45.66650   21.89790   65.43430   60.66190    -999.25   60.66190   21.89790    -999.25    -999.25    -999.25    -999.25    -999.25   36.25480  -73.31130  -20.99300   36.25480    -999.25
 10500.00000   60.41400    8.96490    8.96490   39.91770   37.24660   26.84810   60.41400   67.43150    -999.25   67.43150   26.84810    -999.25    -999.25    -999.25    -999.25    -999.25   35.60530  -67.50570  -16.09080   35.60530    -999.25
 10550.00000   64.89190    9.08190    9.08190   59.05210   55.59290   17.98790   64.89190   83.72390    -999.25   83.72390   17.98790    -999.25    -999.25    -999.25    -999.25    -999.25   25.25320  -62.39150  -11.88450   25.25320    -999.25
 10600.00000   68.38280    9.67670    9.67670   73.35210   66.13100   15.12150   68.38280   98.78550    -999.25   98.78550   15.12150    -999.25    -999.25    -999.25    -999.25    -999.25   19.66980  -59.71260  -10.11360   19.66980    -999.25
 10650.00000   67.72520    9.53090    9.53090   71.35500   66.15070   15.11700   67.72520   76.32600    -999.25   76.32600   15.11700    -999.25    -999.25    -999.25    -999.25    -999.25   22.16000  -55.77470   -7.08360   22.16000    -999.25
 10700.00000   72.04130    9.65450    9.65450   83.30920   75.46140   13.25180   72.04130   92.37110    -999.25   92.37110   13.25180    -999.25    -999.25    -999.25    -999.25    -999.25   19.10420  -56.68540   -8.90680   19.10420    -999.25
 10750.00000   67.54510    9.13810    9.13810   64.90100   60.70170   16.47400   67.54510   92.96780    -999.25   92.96780   16.47400    -999.25    -999.25    -999.25    -999.25    -999.25   26.57190  -48.23130   -1.35610   26.57190    -999.25
 10800.00000   71.43700    8.80450    8.80450   12.79550    7.18950  139.09120   71.43700  153.69760   73.96170  153.69760  139.09120    -999.25    -999.25    -999.25    -999.25    -999.25  189.18740  -56.50240  -10.46250  189.18740    -999.25
 10850.00000   75.18960    8.82400    8.82400    9.95340    5.33710  187.36600   75.18960  159.10350   89.67550  159.10350  187.36600    -999.25    -999.25    1.25190    -999.25    -999.25  232.91480  -74.98480  -28.94490  232.91480    -999.25
 10900.00000   74.75910    8.77040    8.77040   15.15210    9.55950  104.60840   74.75910  124.62440   52.45260  124.62440  104.60840    0.09640    0.09640    0.54700    2.79390   29.66780  109.48210  -71.43690  -25.39700  109.48210  147.69910
 10950.00000   48.86670    8.81460    8.81460   10.53570    6.17650  161.90370   48.86670    8.38110   16.83400    8.38110  161.90360   -0.00040   -0.00040    1.01870    1.27910   10.97760  188.39540 -117.42720  -71.38730  188.39540  422.13730
 11000.00000   49.48360    8.81240    8.81240   11.90400    5.85210  170.87880   49.48360   11.30870   18.79340   11.30870  170.87880    0.05180    0.05180    1.08850    1.28440   10.52770  120.25150 -136.75620  -90.71630  120.25150  429.98350
 11050.00000   55.99320    8.80710    8.80710    7.98230    3.96920  251.94290   55.99320   10.56640   18.39400   10.56640  251.94290    0.07000    0.07000    1.27050    1.58810   11.87310  164.92810 -132.45120  -86.41130  164.92810  393.21140
 11100.00000   48.62820    8.78180    8.78180   10.24580    5.53950  180.52270   48.62820    9.67680   20.90670    9.67680  180.52270    0.07510    0.07510    1.31210    1.72710   17.02780  116.10660 -120.91660  -74.87670  116.10660  284.00740
 11150.00000   50.51620    8.81320    8.81320    9.94480    5.77170  173.25890   50.51620    9.15400   37.54520    9.15400  173.25890    0.07350    0.07350    1.60710    1.99560   15.28110  148.13250 -168.39970 -122.35980  148.13250  309.87050
 11200.00000   46.91170    8.76580    8.76580   12.75420    6.98630  143.13640   46.91170   11.23440   22.10870   11.23440  143.13650    0.06330    0.06320    1.34580    1.62330   12.70810  101.64960 -175.63300 -129.59310  101.64960  357.09050
 11250.00000   52.41730    8.78910    8.78910   16.80370   12.85510   77.79040   52.41730   10.98860   16.03490   10.98860   77.79040    0.08760    0.08760    -999.25    -999.25    -999.25   71.15880 -181.52980 -135.48990   71.15880    -999.25
 11300.00000   49.56510    8.93350    8.93350    9.37890    4.75890  210.13180   49.56510   13.38230    -999.25   13.38230  210.13180    0.08070    0.08070    -999.25    -999.25    -999.25  187.05040 -160.65890 -114.61900  187.05040    -999.25
 11350.00000   50.16830    9.02780    9.02780    8.63280    3.81100  262.39820   50.16830   14.57500    -999.25   14.57500  262.39820    0.04440    0.04440    -999.25    -999.25    -999.25   75.74490 -109.65700  -63.61710   75.74490    -999.25
