~Version ---------------------------------------------------
VERS.      2.0 : CWLS log ASCII Standard -VERSION 2.0
WRAP.       NO : One line per depth step
CREA. 01/03/18 : LAS Creation Date
~Well ------------------------------------------------------
STRT.FT                      750.0 : START DEPTH
STOP.FT                     9100.0 : STOP DEPTH
STEP.FT                   50.00000 : STEP LENGTH
NULL.                      -999.25 : NULL VALUE
COMP.            SABINE CANADA LTD : COMPANY
WELL. SABINE VIRGHILLS 14-32-64-12 : WELL
FLD .                              : FIELD
LOC .                              : LOCATION
CTRY.                       CANADA : COUNTRY
SRVC.                 Schlumberger : SERVICE COMPANY
DATE.                  13-Nov-1977 : LOGDATE
PROV.                      Alberta : PROVINCE
UWI .             100143206412W500 : UNIQUE WELL ID
SLAT.WGS84                54.58613 : SURFACE LATITUDE
SLON.WGS84               -115.7817 : SURFACE LONGITUDE
~Curve Information -----------------------------------------
DEPT  .FT    : Depth Curve
CALSED.IN    : CALIPER FROM SONIC LOG
CALWS .IN    : CALIPER [CALSED]
CONDWS.MMHO  : CONDUCTIVITY [1000/DRESWS]
DRESWS.OHMM  : DEEP RESISTIVITY [ILDED]
DTED  .US/F  : DELTA TIME FROM SONIC LOG
DTWS  .US/F  : DELTA TIME [DTED]
GRNED .CU    : GAMMA RAY FROM CBL LOG [DEP. ADJ. TO GRSED]
GRSED .GAPI  : GAMMA RAY FROM SONIC LOG
GRWS  .GAPI  : GAMMA RAY [GRSED]
ILDED .OHMM  : INDUCTION LOG DEEP RESISTIVITY
ILMED .OHMM  : INDUCTION LOG MEDIUM RESISTIVITY
LL8ED .OHMM  : 8 INCH LATEROLOG RESISTIVITY
MRESWS.OHMM  : MEDIUM RESISTIVITY [ILMED]
NEUTED.CU    : NEUTRON FROM CBL LOG [DEP. ADJ. TO GRSED]
NEUTWS.CU    : NEUTRON [NEUTED]
SPRED .MV    : SPONTANEOUS POTENTIAL FROM RESISTIVITY LOG
SPWS  .MV    : SPONTANEOUS POTENTIAL [BASELINE 0 MV] [SPRED]
SRESWS.OHMM  : SHALLOW RESISTIVITY [LL8ED]
~Params ----------------------------------------------------
PD  .                     GL : PERMANENT DATUM
EPD .FT               3348.7 : ELEVATION PERMANENT DATUM
LMF .                     KB : LOG MEASURED FROM
DAPD.FT                 14.3 : FEET ABOVE PERMANENT DATUM
EKB .FT                 3363 : KELLY BUSHING
EGL .FT               3348.7 : GROUND LEVEL
DATE.               11/13/77 : RUN DATE
RUN .                      1 : RUN NUMBER
DD  .FT                 9128 : DEPTH DRILLER
DL  .FT                 9134 : DEPTH LOGGER
BLI .FT                 9128 : BOTTOM LOG INTERVAL
TLI .FT                  720 : TOP LOG INTERVAL
CBD .FT                  716 : CASING BOTTOM DRILLER
CBL .FT                  720 : CASING BOTTOM LOGGER
BS  .IN                7.875 : BIT SIZE
BSD .FT                 9134 : BIT SIZE AT DEPTH
DFT .                    GEL : DRILLING FLUID TYPE
DFD .                    9.1 : DRILLING FLUID DENSITY
DFV .                     94 : DRILLING FLUID VISCOSITY
DFPH.                    9.4 : DRILLING FLUID PH
MSS .               FLOWLINE : MUD SAMPLE SOURCE
RMS .OHMM               2.75 : RESISTIVITY MUD SAMPLE
MST .DEGF                 58 : MUD SAMPLE TEMPERATURE
RMF .OHMM               2.59 : RESISTIVITY MUD FILTRATE SAMPLE
MFST.DEGF                 58 : MUD FILTRATE SAMPLE TEMPERATURE
RMC .OHMM               2.13 : RESISTIVITY MUD CAKE
MCST.DEGF                 62 : MUD CAKE SAMPLE TEMPERATURE
RMB .OHMM               1.04 : RESISTIVITY MUD AT BHT
TCS .HRS                   4 : TIME CIRCULATED STOPPED
LUN .                   7730 : LOGGING UNIT NUMBER
LUL .                    EDM : LOGGING UNIT LOCATION
ENGI.        ACKERMAN BERGEN : RECORDING ENGINEER
WITN.              VANDERLEE : WITNESSED BY
CLNT.                A2DTECH : CLIENT CODE
ORIG.            2" 5" PRINT : ORIGIN OF DATA
UWI .       100143206412W500 : UNIQUE WELL ID
DICO. A2D Technologies, Inc. : DIGITIZING COMPANY
~Other -----------------------------------------------------
~ASCII -----------------------------------------------------
# ...
 2700.00000    -999.25    -999.25  179.26610    5.57830    -999.25    -999.25    -999.25    -999.25    -999.25    5.57830    5.45180    5.03370    5.45180    -999.25    -999.25  -99.10700  -15.26300    5.03370
 2750.00000    -999.25    -999.25  210.61940    4.74790    -999.25    -999.25    -999.25    -999.25    -999.25    4.74790    4.48530    4.68820    4.48530    -999.25    -999.25  -88.61530   -5.01800    4.68820
 2800.00000    -999.25    -999.25  294.48660    3.39590    -999.25    -999.25    -999.25    -999.25    -999.25    3.39590    3.31700    3.26560    3.31700    -999.25    -999.25  -87.06930   -3.71750    3.26560
 2850.00000    -999.25    -999.25  278.50500    3.59060    -999.25    -999.25    -999.25    -999.25    -999.25    3.59060    3.72570    3.84830    3.72570    -999.25    -999.25  -87.46220   -4.35830    3.84830
 2900.00000    -999.25    -999.25  265.88670    3.76100    -999.25    -999.25    -999.25    -999.25    -999.25    3.76100    4.09270    3.91330    4.09270    -999.25    -999.25  -88.27350   -5.41630    3.91330
 2950.00000    -999.25    -999.25  225.84070    4.42790    -999.25    -999.25    -999.25    -999.25    -999.25    4.42790    4.22820    4.10070    4.22820    -999.25    -999.25  -97.04380  -14.43330    4.10070
 3000.00000    -999.25    -999.25  159.54560    6.26780    -999.25    -999.25    -999.25    -999.25    -999.25    6.26780    5.92430    5.46170    5.92430    -999.25    -999.25  -96.91480  -14.55100    5.46170
 3050.00000    -999.25    -999.25  191.90780    5.21110    -999.25    -999.25    -999.25    -999.25    -999.25    5.21110    4.59730    4.75650    4.59730    -999.25    -999.25  -99.46280  -17.34450    4.75650
 3100.00000    -999.25    -999.25  234.26880    4.26860    -999.25    -999.25    -999.25    -999.25    -999.25    4.26860    4.35270    4.59530    4.35270    -999.25    -999.25  -96.48230  -14.61190    4.59530
 3150.00000    -999.25    -999.25  139.58490    7.16410    -999.25    -999.25    -999.25    -999.25    -999.25    7.16410    7.68140    7.44750    7.68140    -999.25    -999.25  -91.04350   -9.41980    7.44750
 3200.00000    -999.25    -999.25  139.92470    7.14670    -999.25    -999.25    -999.25    -999.25    -999.25    7.14670    6.85990    6.37500    6.85990    -999.25    -999.25  -95.67760  -14.30060    6.37500
 3250.00000   10.82150   10.82150  145.30870    6.88190  100.49700  100.49700    -999.25   89.72660   89.72660    6.88190    6.44010    5.95670    6.44010    -999.25    -999.25  -95.60600  -14.47570    5.95670
 3300.00000   11.22910   11.22910  175.37570    5.70200   84.83400   84.83400    -999.25   85.96610   85.96610    5.70200    5.33900    4.90000    5.33900    -999.25    -999.25  -96.29990  -15.41510    4.90000
 3350.00000    9.23680    9.23680  123.45830    8.09990   73.58630   73.58630    -999.25   83.11570   83.11570    8.09990    7.55160    7.19150    7.55160    -999.25    -999.25  -97.45360  -16.81660    7.19150
 3400.00000   10.23950   10.23950  166.20680    6.01660   86.67230   86.67230    -999.25   92.77740   92.77740    6.01660    5.81440    5.48980    5.81440    -999.25    -999.25  -96.40100  -16.01070    5.48980
 3450.00000   11.07350   11.07350  154.17820    6.48600   91.40280   91.40280    -999.25   86.80970   86.80970    6.48600    5.92640    5.18050    5.92640    -999.25    -999.25  -97.61950  -17.47590    5.18050
 3500.00000    -999.25    -999.25  161.72330    6.18340    -999.25    -999.25    -999.25    -999.25    -999.25    6.18340    5.93670    5.36010    5.93670    -999.25    -999.25  -96.64000  -16.74310    5.36010
 3550.00000    -999.25    -999.25  192.43720    5.19650    -999.25    -999.25    -999.25    -999.25    -999.25    5.19650    4.74720    4.47580    4.74720    -999.25    -999.25  -97.54610  -17.89470    4.47580
 3600.00000    -999.25    -999.25  129.44310    7.72540    -999.25    -999.25    -999.25    -999.25    -999.25    7.72540    7.04240    5.94850    7.04240    -999.25    -999.25  -97.28070  -17.87720    5.94850
 3650.00000    -999.25    -999.25  163.21470    6.12690    -999.25    -999.25    -999.25    -999.25    -999.25    6.12690    5.59460    5.09680    5.59460    -999.25    -999.25  -95.83560  -16.67880    5.09680
 3700.00000    -999.25    -999.25  157.82080    6.33630    -999.25    -999.25    -999.25    -999.25    -999.25    6.33630    6.14240    5.81720    6.14240    -999.25    -999.25  -93.92510  -15.01500    5.81720
 3750.00000    -999.25    -999.25  200.22830    4.99430    -999.25    -999.25    -999.25    -999.25    -999.25    4.99430    5.22380    5.47140    5.22380    -999.25    -999.25  -88.09880   -9.43540    5.47140
 3800.00000    -999.25    -999.25  168.26890    5.94290    -999.25    -999.25    -999.25    -999.25    -999.25    5.94290    6.30040    6.44860    6.30040    -999.25    -999.25  -86.26640   -7.84850    6.44860
 3850.00000    -999.25    -999.25  177.16360    5.64450    -999.25    -999.25    -999.25    -999.25    -999.25    5.64450    6.08440    6.54850    6.08440    -999.25    -999.25  -85.14950   -6.97950    6.54850
 3900.00000    9.60070    9.60070  175.41090    5.70090   64.20770   64.20770    -999.25  134.52470  134.52470    5.70090    6.19820    6.79640    6.19820    -999.25    -999.25  -85.13470   -7.21140    6.79640
 3950.00000    8.66210    8.66210  121.09320    8.25810   70.69200   70.69200    -999.25  210.95940  210.95940    8.25810    8.71410   11.27600    8.71410    -999.25    -999.25  -83.63280   -5.95620   11.27600
 4000.00000   10.40540   10.40540  183.36510    5.45360   90.42380   90.42380    -999.25   97.18800   97.18800    5.45360    5.63950    4.82500    5.63950    -999.25    -999.25  -89.91230  -12.48240    4.82500
 4050.00000    8.78730    8.78730  176.54490    5.66460   93.43300   93.43300    -999.25  107.06240  107.06240    5.66460    6.06140    6.90240    6.06140    -999.25    -999.25  -87.08240   -9.89790    6.90240
 4100.00000    8.89480    8.89480  170.35780    5.87000   88.13690   88.13690    -999.25  112.90160  112.90160    5.87000    6.79350    6.46430    6.79350    -999.25    -999.25  -85.90250   -8.96590    6.46430
 4150.00000   10.42560   10.42560  237.54100    4.20980   93.52620   93.52620    -999.25  122.23350  122.23350    4.20980    4.43320    4.67660    4.43320    -999.25    -999.25  -84.64000   -7.95010    4.67660
 4200.00000   10.55650   10.55650  255.44740    3.91470  110.48180  110.48180    -999.25  132.03840  132.03840    3.91470    4.14520    4.47020    4.14520    -999.25    -999.25  -84.99890   -8.55570    4.47020
 4250.00000    7.99610    7.99610  283.26200    3.53030   99.14000   99.14000    -999.25  139.01860  139.01860    3.53030    3.78380    4.02620    3.78380    -999.25    -999.25  -85.87520   -9.67870    4.02620
 4300.00000   10.10040   10.10040  180.68840    5.53450   86.26530   86.26530    -999.25  135.21050  135.21050    5.53450    5.68050    6.16890    5.68050    -999.25    -999.25  -83.02040   -7.06940    6.16890
 4350.00000    9.47460    9.47460  459.93930    2.17420  111.71670  111.71670    -999.25  150.25730  150.25730    2.17420    2.38970    3.06110    2.38970    -999.25    -999.25  -79.36370   -3.66060    3.06110
 4400.00000   10.88830   10.88830  480.14600    2.08270   92.17130   92.17130    -999.25   91.04780   91.04780    2.08270    2.16900    2.51730    2.16900    -999.25    -999.25  -77.72830   -2.27190    2.51730
 4450.00000    8.97980    8.97980  275.02750    3.63600   98.64680   98.64680    -999.25   95.31460   95.31460    3.63600    3.82570    4.18940    3.82570    -999.25    -999.25  -78.10720   -2.92350    4.18940
 4500.00000    8.46050    8.46050  194.31060    5.14640   75.42230   75.42230    -999.25  106.64990  106.64990    5.14640    5.58420    6.61520    5.58420    -999.25    -999.25  -78.63780   -4.13380    6.61520
 4550.00000    8.45040    8.45040  128.28460    7.79520   78.53490   78.53490    -999.25   93.35850   93.35850    7.79520    8.56630    8.11580    8.56630    -999.25    -999.25  -79.97420   -6.14660    8.11580
 4600.00000   11.25780   11.25780  806.12660    1.24050   91.26830   91.26830    -999.25   76.87690   76.87690    1.24050    1.38030    1.90190    1.38030    -999.25    -999.25  -77.51660   -4.37210    1.90190
