~Version ---------------------------------------------------
VERS.      2.0 : CWLS log ASCII Standard -VERSION 2.0
WRAP.       NO : One line per depth step
CREA. 12/21/17 : LAS Creation Date
~Well ------------------------------------------------------
STRT.FT                         1250.0 : START DEPTH
STOP.FT                        12650.0 : STOP DEPTH
STEP.FT                       50.00000 : STEP LENGTH
NULL.                          -999.25 : NULL VALUE
COMP. AMOCO CANADA PETROLEUM CO., LTD. : COMPANY
WELL. AMOCO A-1 DEEP VALLEY 6-32-61-23 : WELL
FLD .                                  : FIELD
LOC .                                  : LOCATION
CTRY.                           CANADA : COUNTRY
SRVC.           Schlumberger of Canada : SERVICE COMPANY
DATE.                      06-Sep-1970 : LOGDATE
PROV.                          Alberta : PROVINCE
UWI .                 100063206123W500 : UNIQUE WELL ID
SLAT.WGS84                    54.31655 : SURFACE LATITUDE
SLON.WGS84                   -117.4164 : SURFACE LONGITUDE
~Curve Information -----------------------------------------
DEPT    .FT    : Depth Curve
CALDED  .IN    : CALIPER FROM DENSITY LOG [ADJ. TO RESISTIVITY LOG]
CALNED  .IN    : CALIPER FROM SNP LOG [ADJ. TO RESISTIVITY LOG]
CALSED  .IN    : CALIPER FROM SONIC LOG
CALWS   .IN    : CALIPER [CALSED]
CONDWS  .MMHO  : CONDUCTIVITY [1000/DRESWS]
CORRED  .G/C3  : DENSITY CORRECTION FROM DENSITY LOG [ADJ. TO RESISTIVITY LOG]
DCORWS  .G/C3  : DENSITY CORRECTION [CORRED]
DENWS   .G/C3  : FORMATION BULK DENSITY [RHOBED]
DPHILSED.V/V   : DENSITY POROSITY LIMESTONE [M=2.71, F=1.00] FROM DENSITY LOG [ADJ. TO RESISTIVITY LOG]
DPOLSWS .V/V   : DENSITY POROSITY LIMESTONE [CALC FROM DENWS,M=2.71, F=1.00]
DRESWS  .OHMM  : DEEP RESISTIVITY [ILDED]
DTED    .US/F  : DELTA-T FROM SONIC LOG [ADJ. TO RESISTIVITY LOG]
DTWS    .US/F  : COMPRESSIONAL SONIC [DTED]
GRDED   .GAPI  : GAMMA RAY FROM DENSITY LOG [ADJ. TO RESISTIVITY LOG]
GRNED   .GAPI  : GAMMA RAY FROM SNP LOG [ADJ. TO RESISTIVITY LOG]
GRSED   .GAPI  : GAMMA RAY FROM SONIC LOG
GRWS    .GAPI  : GAMMA RAY [GRSED SPL. TO GRDED @ 1502'& SPL. TO GRNED @ 12657']
ILDED   .OHMM  : DEEP INDUCTION RESISTIVITY FROM RESISTIVITY LOG
ILMED   .OHMM  : MEDIUM INDUCTION FROM RESISTIVITY LOG
LL8ED   .OHMM  : LATEROLOG 8 FROM RESISTIVITY LOG
MRESWS  .OHMM  : MEDIUM RESISTIVITY [ILMED]
NPHILSED.V/V   : NEUTRON POROSITY LIMESTONE FROM SNP LOG [ADJ. TO RESISTIVITY LOG]
NPOLSWS .V/V   : NEUTRON POROSITY LIMESTONE [NPHILSED]
RHOBED  .G/C3  : BULK DENSITY FROM DENSITY LOG [ADJ. TO RESISTIVITY LOG]
SPRED   .MV    : SPONTANEOUS POTENTIAL FROM RESISTIVITY LOG
SPWS    .MV    : SPONTANEOUS POTENTIAL [BASELINE 0 MV,SPRED]
SRESWS  .OHMM  : SHALLOW RESISTIVITY [LLBED]
~Params ----------------------------------------------------
PD  .                     GL : PERMANENT DATUM
EPD .FT                 3450 : ELEVATION PERMANENT DATUM
LMF .                     KB : LOG MEASURED FROM
DAPD.FT                   14 : FEET ABOVE PERMANENT DATUM
EKB .FT                 3464 : KELLY BUSHING
EGL .FT                 3450 : GROUND LEVEL
DATE.               11/06/70 : RUN DATE
RUN .                      1 : RUN NUMBER
DD  .FT                12700 : DEPTH DRILLER
DL  .FT                12697 : DEPTH LOGGER
BLI .FT                12691 : BOTTOM LOG INTERVAL
TLI .FT                 1513 : TOP LOG INTERVAL
CBD .FT                 1514 : CASING BOTTOM DRILLER
CBL .FT                 1513 : CASING BOTTOM LOGGER
BS  .IN                 8.75 : BIT SIZE
BSD .FT                12700 : BIT SIZE AT DEPTH
DFT .                    GEL : DRILLING FLUID TYPE
DFD .                    9.1 : DRILLING FLUID DENSITY
DFV .                     85 : DRILLING FLUID VISCOSITY
DFPH.                    8.5 : DRILLING FLUID PH
DFL .                   11.8 : DRILLING FLUID LOSS
MSS .               MEASURED : MUD SAMPLE SOURCE
RMS .OHMM               2.56 : RESISTIVITY MUD SAMPLE
MST .DEGF                 59 : MUD SAMPLE TEMPERATURE
RMF .OHMM               2.14 : RESISTIVITY MUD FILTRATE SAMPLE
MFST.DEGF                 58 : MUD FILTRATE SAMPLE TEMPERATURE
RMC .OHMM               2.35 : RESISTIVITY MUD CAKE
MCST.DEGF                 62 : MUD CAKE SAMPLE TEMPERATURE
TCS .HRS                 500 : TIME CIRCULATED STOPPED
TLAB.HRS                  30 : TIME LOGGER AT BOTTOM
LUN .                   7501 : LOGGING UNIT NUMBER
LUL .                    EDM : LOGGING UNIT LOCATION
ENGI.                HAYWOOD : RECORDING ENGINEER
WITN.                   DION : WITNESSED BY
CLNT.                A2DTECH : CLIENT CODE
ORIG.            2" 5" PRINT : ORIGIN OF DATA
UWI .       100063206123W500 : UNIQUE WELL ID
DICO. A2D Technologies, Inc. : DIGITIZING COMPANY
~Other -----------------------------------------------------
DIL-LAT,FDC-SNP-BCS LOG RAN
~ASCII -----------------------------------------------------
# ...
 10350.00000    -999.25    -999.25    9.40920    9.40920    1.77600    -999.25    -999.25    -999.25    -999.25    -999.25  563.06380   48.76860   48.76860    -999.25    -999.25   10.02440   10.02440  563.06380 1197.11330  621.62650 1197.11330    -999.25    -999.25    -999.25 -121.80260  -91.25650  621.62650
 10400.00000    -999.25    -999.25    9.18590    9.18590    1.59420    -999.25    -999.25    -999.25    -999.25    -999.25  627.29180   51.30390   51.30390    -999.25    -999.25   12.42110   12.42110  627.29180  229.86490  341.84760  229.86490    -999.25    -999.25    -999.25 -141.02150 -108.91010  341.84760
 10450.00000    -999.25    -999.25    9.44860    9.44860    0.76570    -999.25    -999.25    -999.25    -999.25    -999.25 1306.01870   48.88000   48.88000    -999.25    -999.25   11.97640   11.97640 1306.01870  960.50120 1668.04500  960.50120    -999.25    -999.25    -999.25 -139.77800 -106.09660 1668.04500
 10500.00000    -999.25    -999.25    9.16150    9.16150   22.75740    -999.25    -999.25    -999.25    -999.25    -999.25   43.94170   51.72230   51.72230    -999.25    -999.25    9.54350    9.54350   43.94170   50.92050  177.23550   50.92050    -999.25    -999.25    -999.25 -158.99820 -123.75150  177.23550
 10550.00000    -999.25    -999.25    9.40820    9.40820    6.39620    -999.25    -999.25    -999.25    -999.25    -999.25  156.34250   49.81380   49.81380    -999.25    -999.25   13.17310   13.17310  156.34250  183.30030  291.93170  183.30030    -999.25    -999.25    -999.25 -149.26720 -112.45520  291.93170
 10600.00000    -999.25    -999.25    9.37820    9.37820    5.59780    -999.25    -999.25    -999.25    -999.25    -999.25  178.64250   49.76590   49.76590    -999.25    -999.25   13.58780   13.58780  178.64250  186.93030  241.74120  186.93030    -999.25    -999.25    -999.25 -119.78350  -81.40160  241.74120
 10650.00000    -999.25    -999.25    9.22990    9.22990    3.09000    -999.25    -999.25    -999.25    -999.25    -999.25  323.62330   50.30520   50.30520    -999.25    -999.25   11.41040   11.41040  323.62330  193.05830  484.77070  193.05830    -999.25    -999.25    -999.25 -134.25960  -94.31240  484.77070
 10700.00000    -999.25    -999.25    9.32020    9.32020    2.15840    -999.25    -999.25    -999.25    -999.25    -999.25  463.31680   49.74350   49.74350    -999.25    -999.25   12.88130   12.88130  463.31680  256.93450  591.41500  256.93450    -999.25    -999.25    -999.25 -114.53700  -73.01990  591.41500
 10750.00000    -999.25    -999.25    9.66200    9.66200    1.59340    -999.25    -999.25    -999.25    -999.25    -999.25  627.59490   50.46830   50.46830    -999.25    -999.25   16.65700   16.65700  627.59490  279.55940  869.24410  279.55940    -999.25    -999.25    -999.25 -115.39820  -72.31580  869.24410
 10800.00000    -999.25    -999.25   10.55060   10.55060    2.18270    -999.25    -999.25    -999.25    -999.25    -999.25  458.14040   51.55680   51.55680    -999.25    -999.25   12.65840   12.65840  458.14040  396.47390  246.94290  396.47390    -999.25    -999.25    -999.25 -140.94970  -96.30210  246.94290
 10850.00000    -999.25    -999.25    9.76270    9.76270    1.06530    -999.25    -999.25    -999.25    -999.25    -999.25  938.71180   50.68450   50.68450    -999.25    -999.25   12.62760   12.62760  938.71180  219.09030  693.59610  219.09030    -999.25    -999.25    -999.25 -143.43530  -97.21770  693.59610
 10900.00000    -999.25    -999.25    9.23920    9.23920   23.96720    -999.25    -999.25    -999.25    -999.25    -999.25   41.72370   50.58270   50.58270    -999.25    -999.25   11.50050   11.50050   41.72370   40.94220   62.90060   40.94220    -999.25    -999.25    -999.25 -127.62400  -79.84110   62.90060
 10950.00000    -999.25    -999.25    9.41650    9.41650   27.58140    -999.25    -999.25    -999.25    -999.25    -999.25   36.25630   51.43440   51.43440    -999.25    -999.25   17.98980   17.98980   36.25630   34.77440  113.61790   34.77440    -999.25    -999.25    -999.25 -111.67140  -62.31850  113.61790
 11000.00000    -999.25    -999.25    9.27600    9.27600    7.43670    -999.25    -999.25    -999.25    -999.25    -999.25  134.46780   50.77260   50.77260    -999.25    -999.25   12.55410   12.55410  134.46780  121.05900  281.08150  121.05900    -999.25    -999.25    -999.25 -143.59050  -92.67240  281.08150
 11050.00000    -999.25    -999.25    9.02980    9.02980   49.04680    -999.25    -999.25    -999.25    -999.25    -999.25   20.38870   54.46980   54.46980    -999.25    -999.25   22.35530   22.35530   20.38870   20.21320   40.99700   20.21320    -999.25    -999.25    -999.25 -192.15860 -139.67520   40.99700
 11100.00000    -999.25    -999.25   10.42600   10.42600   27.54780    -999.25    -999.25    -999.25    -999.25    -999.25   36.30060   56.50120   56.50120    -999.25    -999.25   20.25550   20.25550   36.30060   30.42020   27.98980   30.42020    -999.25    -999.25    -999.25 -180.94090 -126.88750   27.98980
 11150.00000    -999.25    -999.25    9.45530    9.45530    2.27040    -999.25    -999.25    -999.25    -999.25    -999.25  440.45460   50.90150   50.90150    -999.25    -999.25   24.05340   24.05340  440.45460  333.32720  713.81200  333.32720    -999.25    -999.25    -999.25 -107.20210  -51.58350  713.81200
 11200.00000    -999.25    -999.25    9.42020    9.42020    2.53860    -999.25    -999.25    -999.25    -999.25    -999.25  393.92100   51.47160   51.47160    -999.25    -999.25   26.26490   26.26490  393.92100  417.09200  902.04330  417.09200    -999.25    -999.25    -999.25  -75.35220  -21.32670  902.04330
 11250.00000    -999.25    -999.25    9.25430    9.25430    2.92600    -999.25    -999.25    -999.25    -999.25    -999.25  341.76450   51.79220   51.79220    -999.25    -999.25   26.18270   26.18270  341.76450  276.25840  504.84790  276.25840    -999.25    -999.25    -999.25  -53.90520   -5.87320  504.84790
 11300.00000    -999.25    -999.25    9.09740    9.09740    6.59600    -999.25    -999.25    -999.25    -999.25    -999.25  151.60720   51.91830   51.91830    -999.25    -999.25   26.01120   26.01120  151.60720  161.53620  258.53750  161.53620    -999.25    -999.25    -999.25  -45.89420   -3.85550  258.53750
 11350.00000    -999.25    -999.25    9.39010    9.39010    7.07810    -999.25    -999.25    -999.25    -999.25    -999.25  141.28080   52.83090   52.83090    -999.25    -999.25   28.66680   28.66680  141.28080  136.02210  229.60240  136.02210    -999.25    -999.25    -999.25  -52.80860  -16.76490  229.60240
 11400.00000    -999.25    -999.25    9.13810    9.13810    6.43480    -999.25    -999.25    -999.25    -999.25    -999.25  155.40560   52.90390   52.90390    -999.25    -999.25   33.16790   33.16790  155.40560  141.67680  276.71460  141.67680    -999.25    -999.25    -999.25  -43.97170  -13.92140  276.71460
 11450.00000    -999.25    -999.25    9.18470    9.18470    5.11060    -999.25    -999.25    -999.25    -999.25    -999.25  195.67000   52.52030   52.52030    -999.25    -999.25   30.48670   30.48670  195.67000  188.24270  437.77710  188.24270    -999.25    -999.25    -999.25  -48.37900  -24.32360  437.77710
 11500.00000    -999.25    -999.25    9.23170    9.23170    4.15300    -999.25    -999.25    -999.25    -999.25    -999.25  240.79040   51.94390   51.94390    -999.25    -999.25   25.65070   25.65070  240.79040  680.89040  529.95810  680.89040    -999.25    -999.25    -999.25  -46.76130  -28.69930  529.95810
 11550.00000    -999.25    -999.25    9.16700    9.16700   20.33030    -999.25    -999.25    -999.25    -999.25    -999.25   49.18770   55.24390   55.24390    -999.25    -999.25   34.55870   34.55870   49.18770   63.36220  116.14930   63.36220    -999.25    -999.25    -999.25  -33.65660  -19.26330  116.14930
 11600.00000    -999.25    -999.25    9.27090    9.27090   66.53540    -999.25    -999.25    -999.25    -999.25    -999.25   15.02960   61.30980   61.30980    -999.25    -999.25   58.57090   58.57090   15.02960   17.41690   22.08090   17.41690    -999.25    -999.25    -999.25  -19.81280   -6.85610   22.08090
