~Version ---------------------------------------------------
VERS.      2.0 : CWLS log ASCII Standard -VERSION 2.0
WRAP.       NO : One line per depth step
CREA. 10/06/17 : LAS Creation Date
~Well ------------------------------------------------------
STRT.FT                               700.0 : START DEPTH
STOP.FT                              6300.0 : STOP DEPTH
STEP.FT                            50.00000 : STEP LENGTH
NULL.                               -999.25 : NULL VALUE
COMP. CANADA CITIES SERVICE PETROLEUM CORP. : COMPANY
WELL.       CITIES SERVICE LOOMA 7-30-50-22 : WELL
FLD .                                       : FIELD
LOC .                                       : LOCATION
CTRY.                                CANADA : COUNTRY
SRVC.                               Unknown : SERVICE COMPANY
DATE.                           14-Nov-1960 : LOGDATE
PROV.                               Alberta : PROVINCE
UWI .                      100073005022W400 : UNIQUE WELL ID
SLAT.WGS84                         53.34317 : SURFACE LATITUDE
SLON.WGS84                        -113.2044 : SURFACE LONGITUDE
~Curve Information -----------------------------------------
DEPT  .FT            : Depth Curve
CALWS .IN            : CALIPER [MCALED]
CILDED.MMHO          : CONDUCTIVITY FROM RESISTIVITY LOG
CONDWS.MMHO          : CONDUCTIVITY [1000/DRESWS]
DRESWS.OHMM          : DEEP RESISTIVITY [1000/CILDED, IF ILDED <1.2, ILDED]
DT1ED .US/F          : SONIC INTERVAL TRANSIT TIME FROM SONIC LOG
DTED  .US/F          : SONIC INTER TRANSIT TIME FROM SONIC LOG
DTWS  .US/F          : COMPRESSIONAL SONIC [DTED]
GRSED .UG_RA-EQ/TON  : GAMMA RAY FROM SONIC LOG
GRWS  .GAPI          : GAMMA RAY [GRSED*16.5]
ILDED .OHMM          : DEEP INDUCTION FROM RESISTIVITY LOG
MCALED.IN            : CALIPER FROM MICROLOG
SNED  .OHMM          : SHORT NORMAL FROM RESISTIVITY LOG
SPRED .MV            : SPONTANEOUS POTENTIAL FROM RESISTIVITY LOG
SPWS  .MV            : SPONTANEOUS POTENTIAL [BASELINE 0 MV, SPRED]
SRESWS.OHMM          : SHALLOW RESISTIVITY [SNED]
~Params ----------------------------------------------------
LMF .                     KB : LOG MEASURED FROM
DMF .                     KB : DRILLING MEASURED FROM
EKB .FT                 2512 : KELLY BUSHING
EGL .FT                 2498 : GROUND LEVEL
DATE.               11/14/60 : RUN DATE
RUN .                      2 : RUN NUMBER
DD  .FT                 6353 : DEPTH DRILLER
DL  .FT                 6355 : DEPTH LOGGER
BLI .FT                 6350 : BOTTOM LOG INTERVAL
TLI .FT                 4196 : TOP LOG INTERVAL
CBD .FT                652.5 : CASING BOTTOM DRILLER
CBL .FT                  652 : CASING BOTTOM LOGGER
BS  .IN                7.875 : BIT SIZE
BSD .FT                 6353 : BIT SIZE AT DEPTH
DFT .                    GEL : DRILLING FLUID TYPE
DFD .                   10.4 : DRILLING FLUID DENSITY
DFV .                     74 : DRILLING FLUID VISCOSITY
DFPH.                    9.5 : DRILLING FLUID PH
DFL .                    6.2 : DRILLING FLUID LOSS
RMS .OHMM                2.5 : RESISTIVITY MUD SAMPLE
MST .DEGF                 57 : MUD SAMPLE TEMPERATURE
RMF .OHMM               0.92 : RESISTIVITY MUD FILTRATE SAMPLE
MFST.DEGF                 80 : MUD FILTRATE SAMPLE TEMPERATURE
RMC .OHMM                2.1 : RESISTIVITY MUD CAKE
MCST.DEGF                 70 : MUD CAKE SAMPLE TEMPERATURE
RMB .OHMM                1.0 : RESISTIVITY MUD AT BHT
TCS .HRS                   2 : TIME CIRCULATED STOPPED
LUN .                   1574 : LOGGING UNIT NUMBER
LUL .                    EDM : LOGGING UNIT LOCATION
ENGI.              PATTERSON : RECORDING ENGINEER
WITN.                DUNNETT : WITNESSED BY
CLNT.                A2DTECH : CLIENT CODE
ORIG.            2" 5" PRINT : ORIGIN OF DATA
UWI .       100073005022W400 : UNIQUE WELL ID
DICO. A2D Technologies, Inc. : DIGITIZING COMPANY
~Other -----------------------------------------------------
IEL & ML & SONIC LOG RUN
~ASCII -----------------------------------------------------
# ...
 3000.00000    -999.25  132.42300  128.31530    7.79330    -999.25    -999.25    -999.25    -999.25    -999.25    7.79330    -999.25   10.54630  -45.78100   -9.60430   10.54630
 3050.00000    -999.25  171.06890  174.49880    5.73070    -999.25    -999.25    -999.25    -999.25    -999.25    5.73070    -999.25    7.95060  -40.88830   -5.04080    7.95060
 3100.00000    -999.25  192.31410  206.29620    4.84740    -999.25    -999.25    -999.25    -999.25    -999.25    4.84740    -999.25    6.44970  -42.14320   -6.62710    6.44970
 3150.00000    -999.25  403.65590  436.71940    2.28980    -999.25    -999.25    -999.25    -999.25    -999.25    2.28980    -999.25    3.20050  -41.21810   -5.76970    3.20050
 3200.00000    -999.25  423.18350  459.05250    2.17840    -999.25    -999.25    -999.25    -999.25    -999.25    2.17840    -999.25    2.94820  -40.20060   -4.58950    2.94820
 3250.00000   11.12330  381.86080  440.25710    2.27140    -999.25    -999.25    -999.25    -999.25    -999.25    2.27140   11.12330    3.17980  -40.26490   -4.49230    3.17980
 3300.00000    7.67670  374.17140  435.19890    2.29780    -999.25    -999.25    -999.25    -999.25    -999.25    2.29780    7.67670    7.40490 -115.87150  -79.93730    7.40490
 3350.00000    8.39780  137.53820  139.58490    7.16410    -999.25    -999.25    -999.25    -999.25    -999.25    7.16410    8.39780    8.30290  -45.25220   -9.15540    8.30290
 3400.00000   10.17100  643.88540  762.48570    1.31150    -999.25    -999.25    -999.25    -999.25    -999.25    1.31150   10.17100    1.88270  -38.44530   -2.18690    1.88270
 3450.00000    8.24560  172.59780  184.50520    5.41990    -999.25    -999.25    -999.25    -999.25    -999.25    5.41990    8.24560    8.58070  -68.62590  -32.74020    8.58070
 3500.00000    8.39270  164.97420  167.31920    5.97660    -999.25    -999.25    -999.25    -999.25    -999.25    5.97660    8.39270    8.69940  -43.60790   -8.42620    8.69940
 3550.00000    8.02480  147.59760  153.30130    6.52310    -999.25   80.54710   80.54710    5.79370   95.59610    6.52310    8.02480    9.04890  -48.14640  -13.66870    9.04890
 3600.00000    7.93310  200.96770  216.05740    4.62840   79.93880   85.07000   85.07000    5.35830   88.41280    4.62840    7.93310    8.02280  -65.74480  -31.97570    8.02280
 3650.00000    7.84550  102.59850  103.02370    9.70650   79.82540   85.77080   85.77080    4.54700   75.02550    9.70650    7.84550   24.36990  -80.15400  -47.08900   24.36990
 3700.00000    8.06790  169.12870  177.63570    5.62950   79.26120   78.45620   78.45620    5.29850   87.42530    5.62950    8.06790    9.29970  -56.16340  -23.49110    9.29970
 3750.00000   10.47170  272.30490  296.52470    3.37240    -999.25    -999.25    -999.25    -999.25    -999.25    3.37240   10.47170    5.14640  -45.60300  -11.92010    5.14640
 3800.00000    7.90800  183.46780  196.81550    5.08090    -999.25    -999.25    -999.25    -999.25    -999.25    5.08090    7.90800   13.32470  -63.67110  -28.97760   13.32470
 3850.00000    7.77150  149.03580  157.55720    6.34690    -999.25    -999.25    -999.25    -999.25    -999.25    6.34690    7.77150    9.66340  -58.98250  -23.27180    9.66340
 3900.00000    9.12420  201.33890  224.22530    4.45980    -999.25    -999.25    -999.25    -999.25    -999.25    4.45980    9.12420    6.56230  -46.89250  -10.17110    6.56230
 3950.00000    7.61950  152.61750  165.29200    6.04990    -999.25    -999.25    -999.25    -999.25    -999.25    6.04990    7.61950   19.08170 -100.69270  -59.88470   19.08170
 4000.00000    7.87460  172.39780  192.35580    5.19870    -999.25    -999.25    -999.25    -999.25    -999.25    5.19870    7.87460    9.37280  -71.91440  -23.33410    9.37280
 4050.00000    7.61020 1375.44490 1375.44490    0.72700    -999.25    -999.25    -999.25    -999.25    -999.25    0.78270    7.61020    2.14660 -132.15950  -82.97770    2.14660
 4100.00000    7.54550 1721.05080 1721.05080    0.58100    -999.25    -999.25    -999.25    -999.25    -999.25    0.72560    7.54550    2.52570 -134.19350  -92.21750    2.52570
 4150.00000    8.00160  176.13940  193.54710    5.16670   79.22750   78.52540   78.52540    8.01560  132.25740    5.16670    8.00160    6.53270  -40.79530   -1.59800    6.53270
 4200.00000    7.69920   13.66550    6.93770  144.13960   54.40680   54.80630   54.80630    1.58880   26.21600  144.13960    7.69920   91.91490 -121.27910  -81.69550   91.91490
 4250.00000    7.63680   56.65260   44.85170   22.29570   51.82740   52.29600   52.29600    1.04850   17.30020   22.29570    7.63680   72.72950 -179.48690 -139.38810   72.72950
 4300.00000    7.38300  131.38280  122.50850    8.16270   57.08920   57.21310   57.21310    1.29260   21.32790    8.16270    7.38300   37.03850 -179.31510 -138.70120   37.03850
 4350.00000    7.45750   99.28970   90.29260   11.07510   57.96970   58.30650   58.30650    1.47050   24.26320   11.07510    7.45750   39.86960 -173.31810 -132.18570   39.86960
 4400.00000    8.20730  103.31610   97.56760   10.24930   72.94020   72.74770   72.74770    5.90210   97.38460   10.24930    8.20730   15.90610  -95.30060  -53.65300   15.90610
 4450.00000    7.38970  117.59500  104.01170    9.61430   61.65990   61.69460   61.69460    3.63570   59.98990    9.61430    7.38970   30.20910 -172.71690 -130.55080   30.20910
 4500.00000    7.48390  114.36860  106.58710    9.38200   60.25460   60.38280   60.38280    1.28020   21.12330    9.38200    7.48390   30.73250 -183.10880 -140.42760   30.73250
 4550.00000    -999.25   36.59240   27.71080   36.08700   50.70000   50.76700   50.76700    1.57640   26.01060   36.08700    -999.25   54.20730 -131.39030  -88.19400   54.20730
 4600.00000    -999.25   66.82520   60.42920   16.54830   59.34980   59.58240   59.58240    3.72260   61.42370   16.54830    -999.25   23.47460 -101.26220  -57.54730   23.47460
 4650.00000    -999.25   96.87320   86.83800   11.51570   63.39710   63.46070   63.46070    4.10980   67.81170   11.51570    -999.25   18.13320  -84.43710  -40.20710   18.13320
 4700.00000    -999.25  148.98470  141.00000    7.09220   75.38720   74.81390   74.81390    5.58720   92.18880    7.09220    -999.25   10.38820  -82.64100  -37.89250   10.38820
 4750.00000    -999.25  176.69640  160.00510    6.24980   78.88400   78.13310   78.13310    6.43450  106.16930    6.24980    -999.25    8.91810  -84.82830  -39.56470    8.91810
 4800.00000    -999.25  217.75650  198.16890    5.04620    -999.25   83.45610   83.45610    7.23900  119.44350    5.04620    -999.25    6.80960  -84.70580  -38.92700    6.80960
 4850.00000    -999.25  218.78440  196.70330    5.08380    -999.25   82.93130   82.93130    7.18560  118.56240    5.08380    -999.25    7.09840  -83.95440  -37.65710    7.09840
 4900.00000    -999.25  222.22910  199.64860    5.00880    -999.25   83.32000   83.32000    7.37130  121.62640    5.00880    -999.25    6.93600  -81.49570  -34.68330    6.93600
 4950.00000    -999.25  225.35230  200.54150    4.98650    -999.25   84.20150   84.20150    7.40170  122.12720    4.98650    -999.25    6.89290  -81.41480  -34.08390    6.89290
 5000.00000    -999.25  232.23510  204.60360    4.88750   79.94870   86.00590   86.00590    6.30230  103.98800    4.88750    -999.25    6.84020  -79.83700  -31.99090    6.84020
 5050.00000    -999.25  126.27190  112.68240    8.87450   72.85570   72.67250   72.67250    5.44880   89.90520    8.87450    -999.25   13.05770  -78.22670  -29.86550   13.05770
 5100.00000    -999.25   79.22360   71.42600   14.00050   63.73150   63.68360   63.68360    3.99670   65.94560   14.00050    -999.25   19.34960  -81.66830  -32.78860   19.34960
 5150.00000    -999.25  131.60140  121.19740    8.25100   78.77540   78.10240   78.10240    7.11860  117.45690    8.25100    -999.25   12.37470  -76.17350  -26.77860   12.37470
 5200.00000    -999.25   47.59980   37.19500   26.88530   59.20560   59.40270   59.40270    2.79810   46.16780   26.88530    -999.25   35.99110  -87.45490  -37.54150   35.99110
 5250.00000    -999.25   43.17360   34.15110   29.28160   59.71240   59.85300   59.85300    3.71790   61.34540   29.28160    -999.25   36.07240  -83.91810  -33.48960   36.07240
