~Version ---------------------------------------------------
VERS.      2.0 : CWLS log ASCII Standard -VERSION 2.0
WRAP.       NO : One line per depth step
CREA. 10/25/17 : LAS Creation Date
~Well ------------------------------------------------------
STRT.FT                         1100.0 : START DEPTH
STOP.FT                        10800.0 : STOP DEPTH
STEP.FT                       50.00000 : STEP LENGTH
NULL.                          -999.25 : NULL VALUE
COMP. AMOCO CANADA PETROLEUM CO., LTD. : COMPANY
WELL.       AMOCO N-2 ANTE 11-25-65-23 : WELL
FLD .                                  : FIELD
LOC .                                  : LOCATION
CTRY.                           CANADA : COUNTRY
SRVC.           Schlumberger of Canada : SERVICE COMPANY
DATE.                      30-Oct-1976 : LOGDATE
PROV.                          Alberta : PROVINCE
UWI .                 100112506523W500 : UNIQUE WELL ID
SLAT.WGS84                    54.65705 : SURFACE LATITUDE
SLON.WGS84                   -117.3447 : SURFACE LONGITUDE
~Curve Information -----------------------------------------
DEPT    .FT    : Depth Curve
CALDED  .IN    : CALIPER FROM DENSITY LOG [DEP. ADJ. TO RESIST. LOG]
CALSED  .IN    : CALIPER FROM SONIC LOG [DEP. ADJ. TO RESIST. LOG]
CALWS   .IN    : CALIPER [1152' CALDED 10764' CALSED]
CONDWS  .MMHO  : CONDUCTIVITY [1000/DRESWS]
DCORWS  .G/C3  : DENSITY CORRECTION [DRHOED]
DENWS   .G/C3  : BULK DENSITY [M=2.71, F=1.00] [RHOBED]
DPHILSED.V/V   : DENSITY POROSITY [M=2.71, F=1.00] FROM DENSITY LOG [DEP. ADJ. TO RESIST. LOG]
DPHISSED.V/V   : DENSITY POROSITY [M=2.65, F=1.00] FROM DENSITY LOG [DEP. ADJ. TO RESIST. LOG]
DPOLSWS .V/V   : DENSITY POROSITY [M=2.71, F=1.00] [CAL. FROM DENWS]
DRESWS  .OHMM  : DEEP RESISTIVITY [ILDED]
DRHOED  .G/C3  : DENSITY CORRECTION FROM DENSITY LOG [DEP. ADJ. TO RESIST. LOG]
DTED    .US/F  : DELTA TIME FROM SONIC LOG [DEP. ADJ. TO RESIST. LOG]
DTWS    .US/F  : DELTA TIME [DTED]
GRDED   .GAPI  : GAMMA RAY FROM DENSITY LOG [DEP. ADJ. TO RESIST. LOG]
GRSED   .GAPI  : GAMMA RAY FROM SONIC LOG [DEP. ADJ. TO RESIST. LOG]
GRWS    .GAPI  : GAMMA RAY [1096' GRSED 1142' GRDED]
ILDED   .OHMM  : INDUCTION LOG DEEP RESISTIVITY
ILMED   .OHMM  : INDUCTION LOG MEDIUM RESISTIVITY
LL8ED   .OHMM  : 8 INCH LATEROLOG RESISTIVITY
MRESWS  .OHMM  : MEDIUM RESISTIVITY [ILMED]
NPHILSED.V/V   : NEUTRON POROSITY LIMESTONE FROM DENSITY LOG [DEP. ADJ. TO RESIST. LOG]
NPHISSED.V/V   : NEUTRON POROSITY SANDSTONE FROM DENSITY LOG [DEP. ADJ. TO RESIST. LOG]
NPOLSWS .V/V   : NEUTRON POROSITY LIMESTONE [NPHISSED CONVERTED FOR LIMESTONE, SPL. TO NPHILSED @ 6253']
RHOBED  .G/C3  : BULK DENSITY FROM DENSITY LOG [DEP. ADJ. TO RESIST. LOG]
SPRED   .MV    : SPONTANEOUS POTENTIAL FROM RESISTIVITY LOG
SPWS    .MV    : SPONTANEOUS POTENTIAL [BASELINE 0 MV] [SPRED]
SRESWS  .OHMM  : SHALLOW RESISTIVITY [LL8ED]
~Params ----------------------------------------------------
PD  .                     GL : PERMANENT DATUM
EPD .FT                 2441 : ELEVATION PERMANENT DATUM
LMF .                     KB : LOG MEASURED FROM
DAPD.FT                 13.6 : FEET ABOVE PERMANENT DATUM
EKB .FT               2454.6 : KELLY BUSHING
EGL .FT                 2441 : GROUND LEVEL
DATE.               10/30/76 : RUN DATE
RUN .                      1 : RUN NUMBER
DD  .FT                10805 : DEPTH DRILLER
DL  .FT                10818 : DEPTH LOGGER
BLI .FT                10812 : BOTTOM LOG INTERVAL
TLI .FT                 1155 : TOP LOG INTERVAL
CBD .FT                 1153 : CASING BOTTOM DRILLER
CBL .FT                 1155 : CASING BOTTOM LOGGER
BS  .IN                 8.75 : BIT SIZE
BSD .FT                10805 : BIT SIZE AT DEPTH
DFT .                    GEL : DRILLING FLUID TYPE
DFD .                      9 : DRILLING FLUID DENSITY
DFV .                    115 : DRILLING FLUID VISCOSITY
DFPH.                    9.5 : DRILLING FLUID PH
DFL .                    8.6 : DRILLING FLUID LOSS
MSS .             CIRCULATED : MUD SAMPLE SOURCE
RMS .OHMM               3.02 : RESISTIVITY MUD SAMPLE
MST .DEGF                 62 : MUD SAMPLE TEMPERATURE
RMF .OHMM               2.62 : RESISTIVITY MUD FILTRATE SAMPLE
MFST.DEGF                 52 : MUD FILTRATE SAMPLE TEMPERATURE
MFSS.             CALCULATED : MUD FILTRATE SAMPLE SOURCE
MCSS.             CALCULATED : MUD CAKE SAMPLE SOURCE
TCS .HRS                   3 : TIME CIRCULATED STOPPED
LUN .                   7809 : LOGGING UNIT NUMBER
LUL .                    EDM : LOGGING UNIT LOCATION
ENGI.               SEDGWICK : RECORDING ENGINEER
WITN.              SCHWIEDER : WITNESSED BY
CLNT.                A2DTECH : CLIENT CODE
ORIG.            2" 5" PRINT : ORIGIN OF DATA
UWI .       100112506523W500 : UNIQUE WELL ID
DICO. A2D Technologies, Inc. : DIGITIZING COMPANY
~Other -----------------------------------------------------
~ASCII -----------------------------------------------------
# ...
 2400.00000    8.74430    8.89900    8.74430   55.64610    0.05260    2.48590    -999.25    0.09860    0.13110   17.97070    0.05260   67.64980   67.64980   48.69000   44.92590   48.69000   17.97070   20.59160   24.32740   20.59160    -999.25    0.21870    0.17500    2.48590  -90.62490   -9.79990   24.32740
 2450.00000    9.55460    9.72400    9.55460  227.64640    0.18720    2.25510    -999.25    0.24480    0.26600    4.39300    0.18720  102.05890  102.05890   74.69250   66.46940   74.69250    4.39300    4.27120    3.95380    4.27120    -999.25    0.47070    0.42970    2.25510  -83.50560   -2.68060    3.95380
 2500.00000    8.91410    8.34900    8.91410   69.12810    0.08940    2.27480    -999.25    0.23630    0.25450   14.46590    0.08940  102.87850  102.87850   49.18500   51.10270   49.18500   14.46590   13.65100   10.92880   13.65100    -999.25    0.39240    0.34940    2.27480  -99.49160  -18.66660   10.92880
 2550.00000    9.82870    9.64900    9.82870  166.99790    0.12680    2.44140    -999.25    0.12820    0.15710    5.98810    0.12680  100.03070  100.03070   66.00000   66.72970   66.00000    5.98810    5.46630    6.21620    5.46630    -999.25    0.42910    0.38690    2.44140  -85.65430   -4.82930    6.21620
 2600.00000   10.28180    9.99900   10.28180  217.49140    0.05600    2.44760    -999.25    0.12840    0.15350    4.59810    0.05600  100.75300  100.75300   74.13750   77.65250   74.13750    4.59810    4.37220    4.92650    4.37220    -999.25    0.45400    0.41250    2.44760  -82.73950   -1.91450    4.92650
 2650.00000   10.64000   10.04900   10.64000  149.82840    0.02400    2.41770    -999.25    0.14710    0.17100    6.67430    0.02400   91.68730   91.68730   65.74500   64.56290   65.74500    6.67430    6.36190    5.89450    6.36190    -999.25    0.35340    0.30980    2.41770  -83.70450   -2.87950    5.89450
 2700.00000   11.02220   10.42450   11.02220  224.32620    0.02910    2.39610    -999.25    0.16910    0.18360    4.45780    0.02910  103.16570  103.16570   79.21130   78.29850   79.21130    4.45780    4.84530    4.49080    4.84530    -999.25    0.44540    0.40360    2.39610  -83.48060   -1.95620    4.49080
 2750.00000   11.43980   10.39900   11.43980  138.42550    0.11700    2.44600    -999.25    0.13480    0.15440    7.22410    0.11700   95.13020   95.13020   99.69000   97.24110   99.69000    7.22410    6.86520    6.50730    6.86520    -999.25    0.40300    0.36020    2.44600  -88.67730   -6.28870    6.50730
 2800.00000   12.07150   10.25000   12.07150  117.37230    0.03150    2.44420    -999.25    0.12530    0.15540    8.51990    0.03150   93.43570   93.43570  108.19500  100.66310  108.19500    8.51990    8.24170    7.48610    8.24170    -999.25    0.38730    0.34420    2.44420  -87.47250   -4.21960    7.48610
 2850.00000   12.06720   10.39900   12.06720  128.57070    0.08320    2.50680    -999.25    0.10130    0.11880    7.77790    0.08320  101.48290  101.48290  120.99750  116.42360  120.99750    7.77790    8.15460    7.82970    8.15460    -999.25    0.43280    0.39070    2.50680  -88.27910   -4.15630    7.82970
 2900.00000   11.45610   10.69900   11.45610  108.76300    0.05550    2.53280    -999.25    0.08030    0.10360    9.19430    0.05550   98.62810   98.62810  131.38500  138.11890  131.38500    9.19430    9.81280   10.99040    9.81280    -999.25    0.40570    0.36290    2.53280  -87.54140   -2.55430   10.99040
 2950.00000   10.92570   10.22450   10.92570  121.42490    0.07090    2.50190    -999.25    0.09140    0.12170    8.23560    0.07090   95.28260   95.28260  107.86870  117.10550  107.86870    8.23560    8.58860    9.14440    8.58860    -999.25    0.40090    0.35800    2.50190  -89.89850   -4.04150    9.14440
 3000.00000   10.75250   10.19900   10.75250  147.00050    0.06610    2.51720    -999.25    0.08710    0.11270    6.80270    0.06610   98.44540   98.44540  109.14000  121.51830  109.14000    6.80270    7.24400    8.04410    7.24400    -999.25    0.42070    0.37830    2.51720  -89.25880   -2.53750    8.04410
 3050.00000   10.14550    9.84900   10.14550  135.47200    0.09340    2.31080    -999.25    0.22690    0.23350    7.38160    0.09340   87.12250   87.12250  105.28500  108.91470  105.28500    7.38160    7.04070    6.65750    7.04070    -999.25    0.45790    0.41640    2.31080  -93.08410   -5.49860    6.65750
 3100.00000    9.53200    9.62400    9.53200   84.75970    0.04590    2.52970    -999.25    0.08690    0.10540   11.79990    0.04590   83.03650   83.03650   96.99000   99.52850   96.99000   11.79990   11.44650   10.69250   11.44650    -999.25    0.31690    0.27300    2.52970  -91.35370   -3.43840   10.69250
 3150.00000   10.16160    9.79900   10.16160   69.79540    0.04860    2.49550    -999.25    0.10450    0.12540   14.32760    0.04860   81.16750   81.16750   67.99500   65.36560   67.99500   14.32760   13.63980   14.93620   13.63980    -999.25    0.28580    0.24180    2.49550 -101.24890  -13.33360   14.93620
 3200.00000   10.33700   10.29950   10.33700  118.14980    0.12250    2.52160    -999.25    0.08050    0.11020    8.46430    0.12250   91.56980   91.56980  111.44250  116.63840  111.44250    8.46430    8.16770    7.72580    8.16770    -999.25    0.36960    0.32620    2.52160  -90.04310   -2.12780    7.72580
 3250.00000   10.80400   10.29900   10.80400  122.72650    0.10750    2.47640    -999.25    0.11360    0.13660    8.14820    0.10750   88.88770   88.88770  106.59000  107.03580  106.59000    8.14820    7.79220    7.37970    7.79220    -999.25    0.37140    0.32800    2.47640  -90.93030   -3.01500    7.37970
 3300.00000    9.92870    9.54900    9.92870  146.92700    0.08510    2.33730    -999.25    0.19920    0.21800    6.80610    0.08510   99.67970   99.67970  116.39250  119.05980  116.39250    6.80610    6.43380    6.08720    6.43380    -999.25    0.48980    0.44950    2.33730  -91.85990   -3.94460    6.08720
 3350.00000   10.18610    9.25000   10.18610  119.27180    0.12950    2.36570    -999.25    0.18220    0.20130    8.38420    0.12950   89.38660   89.38660  109.38750  113.76740  109.38750    8.38420    8.00350    7.42100    8.00350    -999.25    0.40080    0.35790    2.36570  -90.86290   -2.94760    7.42100
 3400.00000   10.57200    9.94900   10.57200   73.49320    0.23700    2.24080    -999.25    0.25270    0.27440   13.60670    0.23700   84.42890   84.42890   99.99000   97.42700   99.99000   13.60670   13.19090   12.32480   13.19090    -999.25    0.30540    0.26140    2.24080  -91.46880   -3.55350   12.32480
 3450.00000   10.80360    9.47450   10.80360   73.51470    0.14680    2.33770    -999.25    0.19850    0.21770   13.60290    0.14680   84.70500   84.70500   91.03500   89.42920   91.03500   13.60290   12.59870   12.95680   12.59870    -999.25    0.33100    0.28720    2.33770  -92.34070   -4.91440   12.95680
 3500.00000   10.54290   10.00000   10.54290  103.29400    0.11800    2.48370    -999.25    0.10520    0.13230    9.68110    0.11800   83.50180   83.50180  109.69500  115.96930  109.69500    9.68110    9.34640    8.68570    9.34640    -999.25    0.33940    0.29570    2.48370  -89.89990   -2.99710    8.68570
 3550.00000    9.63580    9.50000    9.63580  112.07500    0.12360    2.43930    -999.25    0.12980    0.15830    8.92260    0.12360   89.64480   89.64480  112.39500  118.80890  112.39500    8.92260    8.35600    7.61530    8.35600    -999.25    0.38250    0.33930    2.43930  -90.65790   -4.27850    7.61530
 3600.00000   10.72270   10.32400   10.72270  127.16260    0.14590    2.42250    -999.25    0.13950    0.16810    7.86400    0.14590   90.55790   90.55790  111.89250  111.91590  111.89250    7.86400    7.61980    7.19320    7.61980    -999.25    0.40710    0.36440    2.42250  -89.18220   -3.32970    7.19320
 3650.00000   10.73200   10.14900   10.73200  142.27380    0.08850    2.49100    -999.25    0.10350    0.12810    7.02870    0.08850   94.31710   94.31710  110.89500  112.84050  110.89500    7.02870    7.40840    7.64510    7.40840    -999.25    0.40570    0.36290    2.49100  -90.34280   -5.01380    7.64510
