~Version ---------------------------------------------------
VERS.      2.0 : CWLS log ASCII Standard -VERSION 2.0
WRAP.       NO : One line per depth step
CREA. 12/21/17 : LAS Creation Date
~Well ------------------------------------------------------
STRT.FT                         1250.0 : START DEPTH
STOP.FT                        12650.0 : STOP DEPTH
STEP.FT                       50.00000 : STEP LENGTH
NULL.                          -999.25 : NULL VALUE
COMP. AMOCO CANADA PETROLEUM CO., LTD. : COMPANY
WELL. AMOCO A-1 DEEP VALLEY 6-32-61-23 : WELL
FLD .                                  : FIELD
LOC .                                  : LOCATION
CTRY.                           CANADA : COUNTRY
SRVC.           Schlumberger of Canada : SERVICE COMPANY
DATE.                      06-Sep-1970 : LOGDATE
PROV.                          Alberta : PROVINCE
UWI .                 100063206123W500 : UNIQUE WELL ID
SLAT.WGS84                    54.31655 : SURFACE LATITUDE
SLON.WGS84                   -117.4164 : SURFACE LONGITUDE
~Curve Information -----------------------------------------
DEPT    .FT    : Depth Curve
CALDED  .IN    : CALIPER FROM DENSITY LOG [ADJ. TO RESISTIVITY LOG]
CALNED  .IN    : CALIPER FROM SNP LOG [ADJ. TO RESISTIVITY LOG]
CALSED  .IN    : CALIPER FROM SONIC LOG
CALWS   .IN    : CALIPER [CALSED]
CONDWS  .MMHO  : CONDUCTIVITY [1000/DRESWS]
CORRED  .G/C3  : DENSITY CORRECTION FROM DENSITY LOG [ADJ. TO RESISTIVITY LOG]
DCORWS  .G/C3  : DENSITY CORRECTION [CORRED]
DENWS   .G/C3  : FORMATION BULK DENSITY [RHOBED]
DPHILSED.V/V   : DENSITY POROSITY LIMESTONE [M=2.71, F=1.00] FROM DENSITY LOG [ADJ. TO RESISTIVITY LOG]
DPOLSWS .V/V   : DENSITY POROSITY LIMESTONE [CALC FROM DENWS,M=2.71, F=1.00]
DRESWS  .OHMM  : DEEP RESISTIVITY [ILDED]
DTED    .US/F  : DELTA-T FROM SONIC LOG [ADJ. TO RESISTIVITY LOG]
DTWS    .US/F  : COMPRESSIONAL SONIC [DTED]
GRDED   .GAPI  : GAMMA RAY FROM DENSITY LOG [ADJ. TO RESISTIVITY LOG]
GRNED   .GAPI  : GAMMA RAY FROM SNP LOG [ADJ. TO RESISTIVITY LOG]
GRSED   .GAPI  : GAMMA RAY FROM SONIC LOG
GRWS    .GAPI  : GAMMA RAY [GRSED SPL. TO GRDED @ 1502'& SPL. TO GRNED @ 12657']
ILDED   .OHMM  : DEEP INDUCTION RESISTIVITY FROM RESISTIVITY LOG
ILMED   .OHMM  : MEDIUM INDUCTION FROM RESISTIVITY LOG
LL8ED   .OHMM  : LATEROLOG 8 FROM RESISTIVITY LOG
MRESWS  .OHMM  : MEDIUM RESISTIVITY [ILMED]
NPHILSED.V/V   : NEUTRON POROSITY LIMESTONE FROM SNP LOG [ADJ. TO RESISTIVITY LOG]
NPOLSWS .V/V   : NEUTRON POROSITY LIMESTONE [NPHILSED]
RHOBED  .G/C3  : BULK DENSITY FROM DENSITY LOG [ADJ. TO RESISTIVITY LOG]
SPRED   .MV    : SPONTANEOUS POTENTIAL FROM RESISTIVITY LOG
SPWS    .MV    : SPONTANEOUS POTENTIAL [BASELINE 0 MV,SPRED]
SRESWS  .OHMM  : SHALLOW RESISTIVITY [LLBED]
~Params ----------------------------------------------------
PD  .                     GL : PERMANENT DATUM
EPD .FT                 3450 : ELEVATION PERMANENT DATUM
LMF .                     KB : LOG MEASURED FROM
DAPD.FT                   14 : FEET ABOVE PERMANENT DATUM
EKB .FT                 3464 : KELLY BUSHING
EGL .FT                 3450 : GROUND LEVEL
DATE.               11/06/70 : RUN DATE
RUN .                      1 : RUN NUMBER
DD  .FT                12700 : DEPTH DRILLER
DL  .FT                12697 : DEPTH LOGGER
BLI .FT                12691 : BOTTOM LOG INTERVAL
TLI .FT                 1513 : TOP LOG INTERVAL
CBD .FT                 1514 : CASING BOTTOM DRILLER
CBL .FT                 1513 : CASING BOTTOM LOGGER
BS  .IN                 8.75 : BIT SIZE
BSD .FT                12700 : BIT SIZE AT DEPTH
DFT .                    GEL : DRILLING FLUID TYPE
DFD .                    9.1 : DRILLING FLUID DENSITY
DFV .                     85 : DRILLING FLUID VISCOSITY
DFPH.                    8.5 : DRILLING FLUID PH
DFL .                   11.8 : DRILLING FLUID LOSS
MSS .               MEASURED : MUD SAMPLE SOURCE
RMS .OHMM               2.56 : RESISTIVITY MUD SAMPLE
MST .DEGF                 59 : MUD SAMPLE TEMPERATURE
RMF .OHMM               2.14 : RESISTIVITY MUD FILTRATE SAMPLE
MFST.DEGF                 58 : MUD FILTRATE SAMPLE TEMPERATURE
RMC .OHMM               2.35 : RESISTIVITY MUD CAKE
MCST.DEGF                 62 : MUD CAKE SAMPLE TEMPERATURE
TCS .HRS                 500 : TIME CIRCULATED STOPPED
TLAB.HRS                  30 : TIME LOGGER AT BOTTOM
LUN .                   7501 : LOGGING UNIT NUMBER
LUL .                    EDM : LOGGING UNIT LOCATION
ENGI.                HAYWOOD : RECORDING ENGINEER
WITN.                   DION : WITNESSED BY
CLNT.                A2DTECH : CLIENT CODE
ORIG.            2" 5" PRINT : ORIGIN OF DATA
UWI .       100063206123W500 : UNIQUE WELL ID
DICO. A2D Technologies, Inc. : DIGITIZING COMPANY
~Other -----------------------------------------------------
DIL-LAT,FDC-SNP-BCS LOG RAN
~ASCII -----------------------------------------------------
# ...
 6450.00000    -999.25    -999.25   10.54450   10.54450   78.53120    -999.25    -999.25    -999.25    -999.25    -999.25   12.73380   73.81270   73.81270    -999.25    -999.25  100.32330  100.32330   12.73380   13.20790   14.42560   13.20790    -999.25    -999.25    -999.25  -93.98360  -10.75560   14.42560
 6500.00000    -999.25    -999.25   10.47810   10.47810   81.45780    -999.25    -999.25    -999.25    -999.25    -999.25   12.27630   74.61960   74.61960    -999.25    -999.25   81.30030   81.30030   12.27630   12.86160   13.90920   12.86160    -999.25    -999.25    -999.25  -93.48180  -10.42140   13.90920
 6550.00000    -999.25    -999.25   10.85480   10.85480   92.46590    -999.25    -999.25    -999.25    -999.25    -999.25   10.81480   74.42800   74.42800    -999.25    -999.25   61.01730   61.01730   10.81480   11.43240   14.21670   11.43240    -999.25    -999.25    -999.25  -94.60600  -11.71320   14.21670
 6600.00000    -999.25    -999.25   12.29010   12.29010  210.67710    -999.25    -999.25    -999.25    -999.25    -999.25    4.74660   89.03670   89.03670    -999.25    -999.25   91.48740   91.48740    4.74660    4.91650    5.87150    4.91650    -999.25    -999.25    -999.25  -86.26490   -3.53950    5.87150
 6650.00000    -999.25    -999.25   11.56240   11.56240  144.98850    -999.25    -999.25    -999.25    -999.25    -999.25    6.89710   78.84920   78.84920    -999.25    -999.25   89.55520   89.55520    6.89710    7.22400    7.69300    7.22400    -999.25    -999.25    -999.25  -87.35660   -4.79880    7.69300
 6700.00000    -999.25    -999.25   11.91490   11.91490  161.25650    -999.25    -999.25    -999.25    -999.25    -999.25    6.20130   82.57910   82.57910    -999.25    -999.25  104.07090  104.07090    6.20130    6.40700    7.40680    6.40700    -999.25    -999.25    -999.25  -86.30650   -3.91600    7.40680
 6750.00000    -999.25    -999.25   12.01600   12.01600  228.48260    -999.25    -999.25    -999.25    -999.25    -999.25    4.37670   93.23750   93.23750    -999.25    -999.25  107.59750  107.59750    4.37670    4.52610    5.87880    4.52610    -999.25    -999.25    -999.25  -83.68620   -1.46340    5.87880
 6800.00000    -999.25    -999.25    8.95260    8.95260  303.91440    -999.25    -999.25    -999.25    -999.25    -999.25    3.29040   87.44900   87.44900    -999.25    -999.25   88.83960   88.83960    3.29040    3.08260    3.77790    3.08260    -999.25    -999.25    -999.25  -83.23990   -1.68050    3.77790
 6850.00000    -999.25    -999.25    8.85570    8.85570  266.64530    -999.25    -999.25    -999.25    -999.25    -999.25    3.75030   92.17150   92.17150    -999.25    -999.25   94.83070   94.83070    3.75030    3.58160    4.52590    3.58160    -999.25    -999.25    -999.25  -82.85830   -2.19510    4.52590
 6900.00000    -999.25    -999.25   11.44900   11.44900  206.94940    -999.25    -999.25    -999.25    -999.25    -999.25    4.83210   87.99860   87.99860    -999.25    -999.25   91.54990   91.54990    4.83210    5.03560    5.48930    5.03560    -999.25    -999.25    -999.25  -81.64990   -1.88330    5.48930
 6950.00000    -999.25    -999.25   11.17850   11.17850  124.09100    -999.25    -999.25    -999.25    -999.25    -999.25    8.05860   82.15990   82.15990    -999.25    -999.25   95.75370   95.75370    8.05860    8.41730    9.24800    8.41730    -999.25    -999.25    -999.25  -81.27110   -2.45280    9.24800
 7000.00000    -999.25    -999.25   10.46370   10.46370   79.80080    -999.25    -999.25    -999.25    -999.25    -999.25   12.53120   67.26360   67.26360    -999.25    -999.25   70.44710   70.44710   12.53120   13.34220   13.86830   13.34220    -999.25    -999.25    -999.25  -86.73510   -8.89650   13.86830
 7050.00000    -999.25    -999.25   10.41950   10.41950   56.42580    -999.25    -999.25    -999.25    -999.25    -999.25   17.72240   71.56770   71.56770    -999.25    -999.25   32.14280   32.14280   17.72240   21.82120   27.98050   21.82120    -999.25    -999.25    -999.25 -120.04800  -43.18900   27.98050
 7100.00000    -999.25    -999.25   10.85650   10.85650   44.97090    -999.25    -999.25    -999.25    -999.25    -999.25   22.23660   67.56720   67.56720    -999.25    -999.25   63.05940   63.05940   22.23660   23.88740   29.32830   23.88740    -999.25    -999.25    -999.25  -86.57030  -10.58400   29.32830
 7150.00000    -999.25    -999.25   11.93590   11.93590  108.06490    -999.25    -999.25    -999.25    -999.25    -999.25    9.25370   87.33090   87.33090    -999.25    -999.25   77.51830   77.51830    9.25370    8.35600    6.26360    8.35600    -999.25    -999.25    -999.25  -82.52160   -7.26550    6.26360
 7200.00000    -999.25    -999.25   10.80840   10.80840   83.00960    -999.25    -999.25    -999.25    -999.25    -999.25   12.04680   67.49190   67.49190    -999.25    -999.25   56.82370   56.82370   12.04680   13.03310   17.81570   13.03310    -999.25    -999.25    -999.25  -84.47450   -9.94870   17.81570
 7250.00000    -999.25    -999.25   11.33790   11.33790   90.16640    -999.25    -999.25    -999.25    -999.25    -999.25   11.09060   81.26260   81.26260    -999.25    -999.25   69.47050   69.47050   11.09060   11.55750   12.67230   11.55750    -999.25    -999.25    -999.25  -83.81180  -10.01620   12.67230
 7300.00000    -999.25    -999.25   14.20810   14.20810   53.98980    -999.25    -999.25    -999.25    -999.25    -999.25   18.52200  119.44260  119.44260    -999.25    -999.25   50.20530   50.20530   18.52200    8.50450   30.03810    8.50450    -999.25    -999.25    -999.25  -85.37560  -12.31010   30.03810
 7350.00000    -999.25    -999.25   11.60110   11.60110   80.37290    -999.25    -999.25    -999.25    -999.25    -999.25   12.44200   79.59160   79.59160    -999.25    -999.25   59.20750   59.20750   12.44200   13.24020   13.81580   13.24020    -999.25    -999.25    -999.25  -91.94390  -19.60880   13.81580
 7400.00000    -999.25    -999.25   11.18060   11.18060   86.96110    -999.25    -999.25    -999.25    -999.25    -999.25   11.49940   72.99910   72.99910    -999.25    -999.25   63.41240   63.41240   11.49940   11.60460   12.52990   11.60460    -999.25    -999.25    -999.25  -97.20280  -25.59790   12.52990
 7450.00000    -999.25    -999.25   10.25220   10.25220   71.96110    -999.25    -999.25    -999.25    -999.25    -999.25   13.89640   71.28200   71.28200    -999.25    -999.25   67.74270   67.74270   13.89640   14.22710   16.58070   14.22710    -999.25    -999.25    -999.25  -87.43720  -16.56270   16.58070
 7500.00000    -999.25    -999.25   11.09060   11.09060   91.19760    -999.25    -999.25    -999.25    -999.25    -999.25   10.96520   74.19770   74.19770    -999.25    -999.25   79.55020   79.55020   10.96520   10.29310   13.21670   10.29310    -999.25    -999.25    -999.25  -87.32040  -17.17600   13.21670
 7550.00000    -999.25    -999.25   10.92760   10.92760   71.94190    -999.25    -999.25    -999.25    -999.25    -999.25   13.90010   75.05610   75.05610    -999.25    -999.25   79.86760   79.86760   13.90010   13.06980   21.20230   13.06980    -999.25    -999.25    -999.25  -85.44560  -16.03140   21.20230
 7600.00000    -999.25    -999.25   12.61250   12.61250  105.21330    -999.25    -999.25    -999.25    -999.25    -999.25    9.50450   80.30410   80.30410    -999.25    -999.25   67.42800   67.42800    9.50450    9.63590    9.28210    9.63590    -999.25    -999.25    -999.25  -76.77280   -8.46380    9.28210
 7650.00000    -999.25    -999.25   11.09050   11.09050   76.34810    -999.25    -999.25    -999.25    -999.25    -999.25   13.09790   76.06520   76.06520    -999.25    -999.25   61.29820   61.29820   13.09790   12.43050   16.67760   12.43050    -999.25    -999.25    -999.25  -80.82630  -14.80980   16.67760
 7700.00000    -999.25    -999.25   12.39130   12.39130   99.03640    -999.25    -999.25    -999.25    -999.25    -999.25   10.09730   71.74650   71.74650    -999.25    -999.25   56.71000   56.71000   10.09730   10.27890   11.03820   10.27890    -999.25    -999.25    -999.25  -95.85070  -32.12670   11.03820
