~Version ---------------------------------------------------
VERS.      2.0 : CWLS log ASCII Standard -VERSION 2.0
WRAP.       NO : One line per depth step
CREA. 01/03/18 : LAS Creation Date
~Well ------------------------------------------------------
STRT.FT                     900.0 : START DEPTH
STOP.FT                    8900.0 : STOP DEPTH
STEP.FT                  50.00000 : STEP LENGTH
NULL.                     -999.25 : NULL VALUE
COMP.        MOBIL OIL CANADA LTD : COMPANY
WELL. MOBIL PINE RIDGE 16-9-62-12 : WELL
FLD .                             : FIELD
LOC .                             : LOCATION
CTRY.                      CANADA : COUNTRY
SRVC.      Schlumberger of Canada : SERVICE COMPANY
DATE.                 07-Apr-1960 : LOGDATE
PROV.                     Alberta : PROVINCE
UWI .            100160906212W500 : UNIQUE WELL ID
SLAT.WGS84               54.35402 : SURFACE LATITUDE
SLON.WGS84              -115.7285 : SURFACE LONGITUDE
~Curve Information -----------------------------------------
DEPT  .FT         : Depth Curve
CALMED.IN         : CALIPER FROM MICROLOG
CALWS .IN         : CALIPER (CALMED)
CILDED.MMHO       : CONDUCTIVITY FROM LOG
CONDWS.MMHO       : CONDUCTIVITY (1000/DRESWS)
DRESWS.OHMM       : DEEP RESISTIVITY (IF ILDED<4, THEN 1000/CILDED)
DTED  .US/F       : DELTA TIME  (ADJ TO RES.)
DTWS  .US/F       : DELTA TIME  (DTED)
GRSED .UgRa-Eq/T  : GAMMA RAY SONIC (ADJ TO RES.)
GRWS  .GAPI       : GAMMA RAY (GRSED*16.5)
ILDED .OHMM       : DEEP INDUCTION RESISTIVITY
SNED  .OHMM       : SHORT NORMAL 16"
SPRED .MV         : Spontaneous Potential  IELOG
SPWS  .MV         : SPONTANEOUS POTENTIAL BASELINE 0 MV (SPRED)
SRESWS.OHMM       : SHALLOW RESISTIVITY (SNED)
~Params ----------------------------------------------------
LMF .                     KB : LOG MEASURED FROM
DMF .                     KB : DRILLING MEASURED FROM
EKB .FT                 2909 : KELLY BUSHING
EGL .FT               2897.6 : GROUND LEVEL
DATE.               04/07/60 : RUN DATE
RUN .                      2 : RUN NUMBER
DD  .FT                 8932 : DEPTH DRILLER
DL  .FT                 8932 : DEPTH LOGGER
BLI .FT                 8926 : BOTTOM LOG INTERVAL
TLI .FT                 1700 : TOP LOG INTERVAL
BS  .IN                    9 : BIT SIZE
BSD .FT                 8932 : BIT SIZE AT DEPTH
DFT .               OIL FMUL : DRILLING FLUID TYPE
DFD .                   10.4 : DRILLING FLUID DENSITY
DFV .                     86 : DRILLING FLUID VISCOSITY
MSS .            CURCULATION : MUD SAMPLE SOURCE
RMS .OHMM                4.8 : RESISTIVITY MUD SAMPLE
MST .DEGF                 52 : MUD SAMPLE TEMPERATURE
RMF .OHMM                  2 : RESISTIVITY MUD FILTRATE SAMPLE
MFST.DEGF                 72 : MUD FILTRATE SAMPLE TEMPERATURE
RMC .OHMM                3.8 : RESISTIVITY MUD CAKE
MCST.DEGF                 72 : MUD CAKE SAMPLE TEMPERATURE
RMB .OHMM                0.8 : RESISTIVITY MUD AT BHT
TCS .HRS                   4 : TIME CIRCULATED STOPPED
LUN .                   1574 : LOGGING UNIT NUMBER
LUL .                    SKW : LOGGING UNIT LOCATION
ENGI.                   GRAY : RECORDING ENGINEER
WITN.              MADELENER : WITNESSED BY
CLNT.                A2DTECH : CLIENT CODE
ORIG.            2" 5" PRINT : ORIGIN OF DATA
UWI .       100160906212W500 : UNIQUE WELL ID
DICO. A2D Technologies, Inc. : DIGITIZING COMPANY
~Other -----------------------------------------------------
~ASCII -----------------------------------------------------
  900.00000    8.91290    8.91290  179.22740  173.28470    5.77140  139.49320  139.49320    4.33730   71.56630    5.77140    6.40650  -39.50090   -4.22810    6.40650
  950.00000    8.49060    8.49060   82.84680   75.22420   13.29360  105.69280  105.69280    3.49670   57.69560   13.29360   13.22890  -43.04900   -7.77630   13.22890
 1000.00000    8.84940    8.84940   68.08380   60.33980   16.57280  116.04460  116.04460    5.42220   89.46630   16.57280   16.11750  -39.92900   -4.65630   16.11750
 1050.00000    9.28140    9.28140  230.87530  232.19730    4.30680  138.00980  138.00980    4.29800   70.91780    4.30680    5.02540  -38.20760   -2.93490    5.02540
 1100.00000    8.98140    8.98140  195.31300  195.72920    5.10910  136.06440  136.06440    3.94270   65.05450    5.10910    5.42590  -38.35330   -3.08060    5.42590
 1150.00000    9.33700    9.33700  291.35500  291.35500    3.43290  136.39250  136.39250    4.51550   74.50580    3.25890    3.62130  -38.41700   -3.14430    3.62130
 1200.00000    8.79510    8.79510  190.76090  188.07240    5.31710  106.77550  106.77550    4.26590   70.38730    5.31710    5.75580  -37.74930   -2.47660    5.75580
 1250.00000    9.14540    9.14540  187.21710  183.84720    5.43930  125.14300  125.14300    4.21330   69.51950    5.43930    5.53740  -38.16870   -2.89600    5.53740
 1300.00000    8.93460    8.93460  223.67650  225.57620    4.43310  133.69700  133.69700    4.27840   70.59440    4.43310    4.53260  -37.56730   -2.29460    4.53260
 1350.00000    8.88420    8.88420  172.31440  168.03050    5.95130  148.11650  148.11650    4.38090   72.28480    5.95130    6.22330  -37.93750   -2.66480    6.22330
 1400.00000    8.86470    8.86470  125.42620  117.63530    8.50150  114.51810  114.51810    3.68950   60.87680    8.50150    9.50870  -37.50320   -2.23050    9.50870
 1450.00000    8.84440    8.84440   59.85750   50.81970   19.67740  117.03200  117.03200    4.72890   78.02690   19.67740   20.40530  -40.29050   -5.01780   20.40530
 1500.00000    8.85020    8.85020  241.65380  243.22620    4.11140  121.21880  121.21880    4.86910   80.34020    4.11140    5.40530  -36.31810   -1.04540    5.40530
 1550.00000    8.86960    8.86960  253.92270  253.92270    3.93820  135.09850  135.09850    4.68490   77.30090    3.85650    4.13430  -35.33960   -0.06690    4.13430
 1600.00000    8.69040    8.69040  123.94460  116.24660    8.60240  134.20500  134.20500    4.05060   66.83490    8.60240    8.44180  -39.72190   -4.44920    8.44180
 1650.00000    8.82690    8.82690  261.66240  261.66240    3.82210  129.67620  129.67620    4.55170   75.10300    3.80030    4.07220  -35.28150   -0.00880    4.07220
 1700.00000    9.03490    9.03490  249.30790  249.42630    4.00920  124.78070  124.78070    4.08400   67.38600    4.00920    4.14830  -35.92460   -0.65190    4.14830
 1750.00000    9.45000    9.45000  235.54270  233.37220    4.28500  122.50200  122.50200    4.37680   72.21720    4.28500    4.53770  -35.98000   -0.70730    4.53770
 1800.00000    8.66380    8.66380  113.62610   96.35080   10.42130   99.41130   99.41130    3.80230   62.73880   10.42130   10.89450  -47.24210  -11.96940   10.89450
 1850.00000    8.88720    8.88720  210.88720  211.52380    4.72760  117.34210  117.34210    4.17950   68.96170    4.72760    4.80080  -36.09460   -0.82190    4.80080
 1900.00000    9.11760    9.11760  166.88220  164.51730    6.07840  116.28940  116.28940    4.60410   75.96680    6.07840    5.97000  -36.42780   -1.15500    5.97000
 1950.00000    8.88310    8.88310  149.32580  144.51490    6.91970  107.18690  107.18690    4.22110   69.64820    6.91970    7.02830  -35.82830   -0.55560    7.02830
 2000.00000    8.97680    8.97680  199.73150  197.95710    5.05160  121.05550  121.05550    3.91390   64.57940    5.05160    5.43350  -35.20420    0.06850    5.43350
 2050.00000    8.64460    8.64460  146.25600  141.86120    7.05020  115.57070  115.57070    3.22120   53.15060    7.05020    8.98760  -41.78090   -6.50820    8.98760
 2100.00000    8.70330    8.70330   94.51900   86.19200   11.60200  101.39670  101.39670    3.14020   51.81330   11.60200   12.27030  -45.75260  -10.47990   12.27030
 2150.00000    8.86470    8.86470  175.09570  167.08520    5.98630   98.11660   98.11660    4.06590   67.08740    5.98630    6.27810  -36.47920   -1.20650    6.27810
 2200.00000    8.64260    8.64260   94.92260   87.31790   11.45240   93.62910   93.62910    3.19180   52.66470   11.45240   12.12420  -46.06760  -10.79490   12.12420
 2250.00000    8.93450    8.93450  166.93390  162.26650    6.16270  110.56050  110.56050    3.99970   65.99500    6.16270    6.12570  -36.78270   -1.51000    6.12570
 2300.00000    8.86180    8.86180   64.16250   58.17680   17.18980   75.72930   75.72930    3.22120   53.14980   17.18980   16.79120  -44.01970   -8.74700   16.79120
 2350.00000    8.59110    8.59110   84.96540   76.80670   13.01970  112.87140  112.87140    3.00900   49.64850   13.01970   13.96960  -52.00770  -16.73500   13.96960
 2400.00000    8.81040    8.81040  174.95490  180.97810    5.53560  112.11150  112.11150    2.91360   48.07520    5.53560    6.03100  -38.91980   -3.64710    6.03100
 2450.00000    8.90500    8.90500  191.55480  186.50110    5.36190  126.50390  126.50390    3.65830   60.36200    5.36190    5.42520  -36.38120   -1.10850    5.42520
 2500.00000    8.89130    8.89130  213.58990  217.85070    4.59030  115.59390  115.59390    3.80150   62.72480    4.59030    4.99800  -34.30500    0.96770    4.99800
 2550.00000    8.80360    8.80360  180.68590  175.94450    5.68380  101.31150  101.31150    3.38660   55.87890    5.68380    5.97200  -35.56740   -0.29470    5.97200
 2600.00000    9.00000    9.00000  204.39010  201.22340    4.96960  114.60570  114.60570    3.75410   61.94270    4.96960    5.74910  -36.03740   -0.76470    5.74910
 2650.00000    8.86340    8.86340  223.40510  224.65340    4.45140  106.82150  106.82150    3.75330   61.92950    4.45140    5.17530  -37.13960   -1.86680    5.17530
 2700.00000    8.85830    8.85830  225.05850  227.06110    4.40410  107.71570  107.71570    3.91800   64.64700    4.40410    4.88200  -36.88680   -1.61410    4.88200
 2750.00000    8.85530    8.85530  235.94820  237.75560    4.20600  104.81910  104.81910    3.58300   59.11950    4.20600    4.60640  -36.41960   -1.14690    4.60640
 2800.00000    8.86110    8.86110  183.37250  178.90540    5.58960  103.69020  103.69020    4.03470   66.57250    5.58960    6.05480  -37.40030   -2.12760    6.05480
 2850.00000    8.84420    8.84420  126.21780  117.76210    8.49170   94.42220   94.42220    4.76030   78.54500    8.49170    9.75140  -39.33550   -4.06280    9.75140
 2900.00000    -999.25    -999.25  162.28860  160.58590    6.22720   93.72160   93.72160    5.45540   90.01410    6.22720    7.42310  -42.33750   -7.06480    7.42310
 2950.00000    -999.25    -999.25  187.42630  180.07960    5.55310  102.70330  102.70330    5.13700   84.76050    5.55310    7.02800  -42.84530   -7.57260    7.02800
 3000.00000    -999.25    -999.25  189.14380  182.98930    5.46480  109.14970  109.14970    5.85310   96.57620    5.46480    7.12270  -43.42080   -8.14810    7.12270
 3050.00000    -999.25    -999.25  135.18530  138.53340    7.21850  105.39690  105.39690    8.01110  132.18320    7.21850   10.03110  -39.82700   -4.53690   10.03110
 3100.00000    -999.25    -999.25  155.60930  155.77540    6.41950  101.12190  101.12190    5.78000   95.37000    6.41950    8.45160  -39.97520   -4.55510    8.45160
 3150.00000    -999.25    -999.25  145.52220  145.46400    6.87510   93.13220   93.13220    5.54940   91.56590    6.87510    8.47480  -42.49000   -6.94130    8.47480
 3200.00000    -999.25    -999.25  144.23720  147.31880    6.78800   95.74880   95.74880    4.54630   75.01390    6.78800    8.16900  -42.56920   -6.89060    8.16900
 3250.00000    -999.25    -999.25  182.94240  178.68310    5.59650   94.66910   94.66910    5.55540   91.66410    5.59650    7.13020  -43.96850   -8.16070    7.13020
 3300.00000    -999.25    -999.25  158.58540  157.94450    6.33140   96.92050   96.92050    5.36870   88.58350    6.33140    7.94920  -41.95300   -6.01650    7.94920
