~Version ---------------------------------------------------
VERS.      2.0 : CWLS log ASCII Standard -VERSION 2.0
WRAP.       NO : One line per depth step
CREA. 08/02/17 : LAS Creation Date
~Well ------------------------------------------------------
STRT.FT                  1250.0 : START DEPTH
STOP.FT                 11600.0 : STOP DEPTH
STEP.FT                50.00000 : STEP LENGTH
NULL.                   -999.25 : NULL VALUE
COMP.           SUN OIL COMPANY : COMPANY
WELL. SUN PAN AM TONY 6-5-63-22 : WELL
FLD .                        WC : FIELD
LOC .                           : LOCATION
CTRY.                    CANADA : COUNTRY
SRVC.              Schlumberger : SERVICE COMPANY
DATE.               27-Jan-1962 : LOGDATE
PROV.                   Alberta : PROVINCE
UWI .          100060506322W500 : UNIQUE WELL ID
SLAT.WGS84             54.41969 : SURFACE LATITUDE
SLON.WGS84            -117.2926 : SURFACE LONGITUDE
~Curve Information -----------------------------------------
DEPT  .FT    : Depth Curve
CALSED.IN    : CALIPER FROM SL-GR-CAL LOG
CALWS .IN    : CALIPER [CALSED]
CILDED.MMHO  : DEEP INDUCTION CONDUCTIVITY FROM IEL LOG
CONDWS.MMHO  : CONDUCTIVITY [CILDED]
DRESWS.OHMM  : DEEP RESISTIVITY [CALCULATED FROM 1000/CILDED, IF ILDED<1, ILDED]
DTED  .US/F  : DELTA-T (INTERVAL TRANSIT TIME) FROM SL-GR-CAL LOG
DTWS  .US/F  : COMPRESSIONAL  SONIC [DTED]
GRNED .GAPI  : GAMMA RAY FROM GRN LOG [ADJ. TO GRSED]
GRSED .GAPI  : GAMMA RAY FROM SL-GR-CAL LOG
GRWS  .GAPI  : GAMMA RAY [GRSED, GRWS+14 FOR DEPTH 7054'TO 7101']
ILDED .OHMM  : DEEP INDUCTION FROM IEL LOG
MCALED.IN    : MLT (MICROLOG) CALIPER FROM ML-CAL LOG [ADJ. TO CALSED]
NEUTED.NAPI  : NEUTRON FROM GRN LOG [ADJ. TO GRSED]
NEUTWS.NAPI  : NEUTRON [NEUTED]
SNED  .OHMM  : SHORT NORMAL INDUCTION FROM IEL LOG
SPRED .MV    : SPONTANEOUS POTENTIAL FROM IEL LOG
SPWS  .MV    : SPONTANEOUS POTENTIAL [BASELINE 0 MV, SPRED]
SRESWS.OHMM  : SHALLOW RESISTIVITY [SNED]
~Params ----------------------------------------------------
PD  .                     GL : PERMANENT DATUM
EPD .FT                 2875 : ELEVATION PERMANENT DATUM
LMF .                     KB : LOG MEASURED FROM
DAPD.FT                   15 : FEET ABOVE PERMANENT DATUM
EKB .FT                 2890 : KELLY BUSHING
EGL .FT                 2875 : GROUND LEVEL
DATE.               03/09/62 : RUN DATE
RUN .                      2 : RUN NUMBER
DD  .FT                11625 : DEPTH DRILLER
DL  .FT                11622 : DEPTH LOGGER
BLI .FT                11621 : BOTTOM LOG INTERVAL
TLI .FT                 7100 : TOP LOG INTERVAL
BS  .IN                 8.75 : BIT SIZE
BSD .FT                11625 : BIT SIZE AT DEPTH
DFT .               EMUL GEL : DRILLING FLUID TYPE
DFD .                    9.8 : DRILLING FLUID DENSITY
DFV .                    120 : DRILLING FLUID VISCOSITY
DFPH.                      9 : DRILLING FLUID PH
DFL .                      8 : DRILLING FLUID LOSS
RMS .OHMM               2.62 : RESISTIVITY MUD SAMPLE
MST .DEGF                 88 : MUD SAMPLE TEMPERATURE
RMF .OHMM               2.52 : RESISTIVITY MUD FILTRATE SAMPLE
MFST.DEGF                 72 : MUD FILTRATE SAMPLE TEMPERATURE
RMC .OHMM               2.97 : RESISTIVITY MUD CAKE
MCST.DEGF                 76 : MUD CAKE SAMPLE TEMPERATURE
RMB .OHMM               1.13 : RESISTIVITY MUD AT BHT
TCS .HRS                   5 : TIME CIRCULATED STOPPED
LUN .                   3534 : LOGGING UNIT NUMBER
LUL .                    WCT : LOGGING UNIT LOCATION
ENGI.                   GRAY : RECORDING ENGINEER
WITN.                SANFORD : WITNESSED BY
CLNT.                A2DTECH : CLIENT CODE
ORIG.            2" 5" PRINT : ORIGIN OF DATA
UWI .       100060506322W500 : UNIQUE WELL ID
DICO. A2D Technologies, Inc. : DIGITIZING COMPANY
~Other -----------------------------------------------------
~ASCII -----------------------------------------------------
# ...
 7100.00000    9.15800    9.15800   45.46320   45.46320   24.87680   81.55740   81.55740   19.37280   67.26980   71.48330   24.87680    9.61360  628.54880  628.54880   48.57270 -138.50010  -65.59010   48.57270
 7150.00000    8.85190    8.85190   34.18530   34.18530   32.32950   66.16690   66.16690   29.51440   78.74610   78.74610   32.32950    9.22510  686.63100  686.63100   44.03370  -75.82930   -4.11980   44.03370
 7200.00000    9.09910    9.09910   32.81180   32.81180   34.24540   66.51900   66.51900   24.24780   78.78990   78.78990   34.24540    9.15030  598.86470  598.86470   49.58990  -77.10260   -5.75590   49.58990
 7250.00000    8.32320    8.32320  131.30670  131.30670    7.84370   71.14870   71.14870   15.03020   35.80410   35.80410    7.84370    8.38450  681.77400  681.77400   34.87590 -159.39560  -88.40940   34.87590
 7300.00000    9.06070    9.06070  232.91920  232.91920    4.60600   70.90640   70.90640   12.69770   32.06450   32.06450    4.60600    9.41740  694.19420  694.19420   29.42910 -192.33010 -121.70430   29.42910
 7350.00000    8.91940    8.91940   10.78240   10.78240  140.21770   88.80210   88.80210   56.54990  160.00760  160.00760  140.21770    -999.25  604.53480  604.53480  394.41450  -86.17550  -15.91260  394.41450
 7400.00000    8.83180    8.83180    1.10910    1.10910  498.17870   80.15010   80.15010  115.24540  240.00000  240.00000  498.17870    -999.25  859.77470  859.77470  304.04460 -122.46840  -52.56590  304.04460
 7450.00000    9.11820    9.11820   31.53590   31.53590   32.79320   66.20750   66.20750   27.91980   85.41740   85.41740   32.79320    -999.25  815.03060  815.03060   41.11070  -82.42150  -12.88190   41.11070
 7500.00000    9.05200    9.05200   25.96820   25.96820   39.51460   66.43210   66.43210   20.54120   75.40340   75.40340   39.51460    -999.25  875.65480  875.65480   44.03520  -97.40810  -28.22890   44.03520
 7550.00000    9.08110    9.08110   31.04440   31.04440   33.97090   66.54060   66.54060   27.43860   76.26300   76.26300   33.97090    -999.25  873.59700  873.59700   40.60290 -102.78310  -33.96440   40.60290
 7600.00000    9.05130    9.05130   25.23610   25.23610   40.77390   63.77520   63.77520   28.96020   78.72840   78.72840   40.77390    -999.25  931.25120  931.25120   44.83960 -101.28090  -32.82500   44.83960
 7650.00000    8.95950    8.95950   68.08340   68.08340   15.25470   70.12380   70.12380   22.59890   71.85950   71.85950   15.25470    -999.25  854.33380  854.33380   27.95940 -127.90050  -59.80510   27.95940
 7700.00000    8.98440    8.98440   19.19370   19.19370   51.60830   64.09650   64.09650   29.32630   92.39480   92.39480   51.60830    -999.25  782.65600  782.65600   63.12290  -89.05460  -21.32210   63.12290
 7750.00000    7.61730    7.61730   50.68420   50.68420   19.89260   56.34630   56.34630   19.86550   40.43920   40.43920   19.89260    -999.25  837.91090  837.91090  103.62380 -225.07050 -157.69840  103.62380
 7800.00000    7.89090    7.89090   33.66520   33.66520   31.20370   56.65920   56.65920   10.16790   25.48050   25.48050   31.20370    -999.25  699.93500  699.93500  102.66870 -251.48420 -184.47260  102.66870
 7850.00000    8.61790    8.61790    4.11980    4.11980  232.23950   54.67330   54.67330   11.58260   39.92930   39.92930  232.23950    -999.25  695.41260  695.41260  190.61890 -163.34890  -96.70010  190.61890
 7900.00000    9.09930    9.09930    7.15300    7.15300  152.43700   54.98880   54.98880    6.63440   19.70980   19.70980  152.43700    -999.25  823.69820  823.69820   99.90040 -171.51280 -105.22450   99.90040
 7950.00000    8.55630    8.55630   60.63810   60.63810   20.60880   64.62120   64.62120    9.98370   57.39020   57.39020   20.60880    -999.25  909.88120  909.88120   40.07770 -168.07040 -102.14490   40.07770
 8000.00000    8.92970    8.92970   48.95480   48.95480   22.67450   63.81820   63.81820   18.98890   59.81000   59.81000   22.67450    -999.25  869.66800  869.66800   37.74770 -118.14830  -52.58330   37.74770
 8050.00000    8.87800    8.87800    3.31910    3.31910  275.52740   54.60890   54.60890   11.65930   41.70020   41.70020  275.52740    -999.25  895.08790  895.08790  158.73940  -90.24110  -25.03660  158.73940
 8100.00000    8.96870    8.96870   21.03190   21.03190   47.43280   60.94680   60.94680   27.54810   91.68930   91.68930   47.43280    -999.25  747.41090  747.41090   69.57970 -112.21600  -45.97410   69.57970
 8150.00000    8.41090    8.41090  100.14770  100.14770   10.29260   51.08100   51.08100    7.74380   19.65730   19.65730   10.29260    -999.25  806.65810  806.65810   47.44410 -192.65050 -124.68250   47.44410
 8200.00000    9.02890    9.02890   17.20740   17.20740   55.31700   50.48300   50.48300    8.84450   17.75870   17.75870   55.31700    -999.25  803.36950  803.36950  104.94470 -158.14310  -88.43770  104.94470
 8250.00000    8.89860    8.89860  109.46080  109.46080   10.16290   64.89600   64.89600   13.92250   46.45870   46.45870   10.16290    -999.25  736.65310  736.65310   39.56090 -137.83110  -66.39960   39.56090
 8300.00000    8.43920    8.43920    4.96230    4.96230  207.70070   52.80100   52.80100    5.08510   16.08080   16.08080  207.70070    -999.25 1031.48890 1031.48890  149.76390 -155.96580  -82.80830  149.76390
 8350.00000    8.20240    8.20240   64.37600   64.37600   15.83100   52.95560   52.95560    8.29840   20.47480   20.47480   15.83100    -999.25 1049.87660 1049.87660  114.82880 -228.00970 -153.11470  114.82880
 8400.00000    9.26400    9.26400    6.45870    6.45870  162.67790   52.58510   52.58510    6.26450   17.08650   17.08650  162.67790    -999.25 1133.66490 1133.66490  164.62190 -204.03600 -127.41500  164.62190
 8450.00000    9.42050    9.42050   67.45520   67.45520   15.71650   64.60520   64.60520   24.08300   86.96600   86.96600   15.71650    -999.25  855.64670  855.64670   30.60620  -86.85800   -8.49950   30.60620
 8500.00000    9.15020    9.15020  117.19130  117.19130    8.77830   65.93400   65.93400   20.46410   54.14220   54.14220    8.77830    -999.25  929.56740  929.56740   14.75410 -127.34700  -50.73460   14.75410
 8550.00000    9.00200    9.00200   70.99190   70.99190   14.73830   68.64150   68.64150   26.60390   79.88210   79.88210   14.73830    -999.25  732.08390  732.08390   25.25010  -96.31010  -21.76840   25.25010
 8600.00000    9.09160    9.09160   17.90960   17.90960   57.92390   60.94720   60.94720   10.91360   37.12230   37.12230   57.92390    -999.25  836.62740  836.62740   71.30330  -90.03940  -17.58210   71.30330
 8650.00000    8.98080    8.98080   21.08400   21.08400   52.78620   57.31280   57.31280   12.54210   34.36770   34.36770   52.78620    -999.25  868.85490  868.85490   64.72100  -83.49870  -12.89270   64.72100
 8700.00000    9.06090    9.06090   18.69250   18.69250   54.65620   57.73310   57.73310    9.34720   34.25940   34.25940   54.65620    -999.25  884.15870  884.15870   77.09230  -94.46730  -24.92810   77.09230
 8750.00000    8.93340    8.93340   16.78410   16.78410   63.56700   58.73490   58.73490   10.46490   31.71940   31.71940   63.56700    -999.25  954.04580  954.04580   81.71200  -99.56490  -31.08560   81.71200
 8800.00000    9.00920    9.00920    9.40930    9.40930  105.34440   58.38300   58.38300   12.20330   31.91340   31.91340  105.34440    -999.25 1137.01790 1137.01790  108.46880  -94.44500  -27.02550  108.46880
 8850.00000    9.01390    9.01390   18.79620   18.79620   51.20450   57.45650   57.45650   12.14480   43.81110   43.81110   51.20450    -999.25  959.03820  959.03820   65.91660  -86.59320  -20.24060   65.91660
 8900.00000    9.00070    9.00070    5.44570    5.44570  200.61640   56.74440   56.74440   11.34740   38.48380   38.48380  200.61640    -999.25 1126.88640 1126.88640  181.52350 -111.15820  -45.86540  181.52350
 8950.00000    9.26360    9.26360    8.37940    8.37940  128.84120   61.97730   61.97730   13.59770   50.01340   50.01340  128.84120    -999.25  936.37100  936.37100  121.94290  -87.55950  -23.33350  121.94290
 9000.00000    8.93900    8.93900    6.07640    6.07640  170.32460   58.02490   58.02490   11.91850   53.31860   53.31860  170.32460    -999.25  984.23370  984.23370  159.63570  -71.59590   -8.42980  159.63570
