~Version ---------------------------------------------------
VERS.      2.0 : CWLS log ASCII Standard -VERSION 2.0
WRAP.       NO : One line per depth step
CREA. 08/01/17 : LAS Creation Date
~Well ------------------------------------------------------
STRT.FT                           1050.0 : START DEPTH
STOP.FT                           9900.0 : STOP DEPTH
STEP.FT                         50.00000 : STEP LENGTH
NULL.                            -999.25 : NULL VALUE
COMP.                 SKELLY OIL COMPANY : COMPANY
WELL. SKELLY BERTA J1 KAYBOB 12-18-64-17 : WELL
FLD .                                    : FIELD
LOC .                                    : LOCATION
CTRY.                             CANADA : COUNTRY
SRVC.                       Schlumberger : SERVICE COMPANY
DATE.                        11-Feb-1962 : LOGDATE
PROV.                            Alberta : PROVINCE
UWI .                   100121806417W500 : UNIQUE WELL ID
SLAT.WGS84                      54.53987 : SURFACE LATITUDE
SLON.WGS84                     -116.5677 : SURFACE LONGITUDE
~Curve Information -----------------------------------------
DEPT  .FT    : Depth Curve
CALWS .IN    : CALIPER [MCALED]
CILDED.MMHO  : CONDUCTIVITY FROM IEL LOG
CONDWS.MMHO  : CONDUCTIVITY [CILDED]
DRESWS.OHMM  : DEEP RESISTIVITY [1000/CONDWS, IF ILDED <=4 THEN ILDED]
DTED  .US/F  : DELTA-T FROM BCS-GR LOG [ADJ.TO ILDED]
DTWS  .US/F  : COMPRESSIONAL SONIC [DTED]
GRSED .GAPI  : GAMMA RAY FROM BCS-GR LOG [ADJ.TO ILDED]
GRWS  .GAPI  : GAMMA RAY [GRSED]
ILDED .OHMM  : DEEP INDUCTION FROM IEL LOG
MCALED.IN    : MICROLOG CALIPER FROM MICRO-CAL LOG
SNED  .OHMM  : SHORT NORMAL FROM IEL LOG
SPRED .MV    : SPONTANEOUS POTENTIAL FROM IEL LOG
SPWS  .MV    : SPONTANEOUS POTENTIAL [BASELINE 0 MV, SPRED]
SRESWS.OHMM  : SHALLOW RESISTIVITY [SNED]
~Params ----------------------------------------------------
PD  .                     GL : PERMANENT DATUM
EPD .FT                 2627 : ELEVATION PERMANENT DATUM
LMF .                     KB : LOG MEASURED FROM
DAPD.FT                   15 : FEET ABOVE PERMANENT DATUM
EKB .FT                 2643 : KELLY BUSHING
EGL .FT                 2627 : GROUND LEVEL
DATE.               02/11/62 : RUN DATE
RUN .                      1 : RUN NUMBER
DD  .FT                 9931 : DEPTH DRILLER
DL  .FT                 9911 : DEPTH LOGGER
BLI .FT                 9910 : BOTTOM LOG INTERVAL
TLI .FT                 1017 : TOP LOG INTERVAL
CBD .FT                 1018 : CASING BOTTOM DRILLER
CBL .FT                 1017 : CASING BOTTOM LOGGER
BS  .IN                 8.75 : BIT SIZE
BSD .FT                 9931 : BIT SIZE AT DEPTH
DFT .          GEL OIL EMULS : DRILLING FLUID TYPE
DFD .                     10 : DRILLING FLUID DENSITY
DFV .                     92 : DRILLING FLUID VISCOSITY
DFPH.                      9 : DRILLING FLUID PH
DFL .                    5.8 : DRILLING FLUID LOSS
MSS .                   CIRC : MUD SAMPLE SOURCE
RMS .OHMM               2.58 : RESISTIVITY MUD SAMPLE
MST .DEGF                 64 : MUD SAMPLE TEMPERATURE
RMF .OHMM               1.42 : RESISTIVITY MUD FILTRATE SAMPLE
MFST.DEGF                 58 : MUD FILTRATE SAMPLE TEMPERATURE
RMC .OHMM                2.7 : RESISTIVITY MUD CAKE
MCST.DEGF                 55 : MUD CAKE SAMPLE TEMPERATURE
RMB .OHMM                0.9 : RESISTIVITY MUD AT BHT
TCS .HRS                   5 : TIME CIRCULATED STOPPED
LUN .                   1534 : LOGGING UNIT NUMBER
LUL .                    WCT : LOGGING UNIT LOCATION
ENGI.               HATLELID : RECORDING ENGINEER
WITN.                  PIPER : WITNESSED BY
CLNT.                A2DTECH : CLIENT CODE
ORIG.          1" 2.5" PRINT : ORIGIN OF DATA
UWI .       100121806417W500 : UNIQUE WELL ID
DICO. A2D Technologies, Inc. : DIGITIZING COMPANY
~Other -----------------------------------------------------
~ASCII -----------------------------------------------------
 1050.00000    -999.25  410.02820  410.02820    2.43890    -999.25    -999.25    -999.25    -999.25    2.60920    -999.25    3.49730 -156.03100   -5.61850    3.49730
 1100.00000    -999.25  248.97400  248.97400    4.03640    -999.25    -999.25    -999.25    -999.25    4.03640    -999.25    4.72460 -156.51270   -6.10020    4.72460
 1150.00000    -999.25  219.14160  219.14160    4.42100    -999.25    -999.25    -999.25    -999.25    4.42100    -999.25    5.26270 -156.12190   -5.70940    5.26270
 1200.00000    -999.25  283.30340  283.30340    3.52980    -999.25    -999.25    -999.25    -999.25    3.50000    -999.25    3.79380 -156.27310   -5.86060    3.79380
 1250.00000    -999.25  412.32980  412.32980    2.42520    -999.25    -999.25    -999.25    -999.25    2.74880    -999.25    3.04420 -156.03570   -5.69470    3.04420
 1300.00000    -999.25  277.15820  277.15820    3.60970    -999.25    -999.25    -999.25    -999.25    3.61490    -999.25    4.46710 -155.24630   -5.24520    4.46710
 1350.00000    -999.25  198.08420  198.08420    5.05000    -999.25    -999.25    -999.25    -999.25    5.05000    -999.25    6.15860 -158.48240   -8.82330    6.15860
 1400.00000    -999.25  294.37630  294.37630    3.39700    -999.25    -999.25    -999.25    -999.25    3.45530    -999.25    3.72240 -154.28550   -4.96620    3.72240
 1450.00000    -999.25  217.06400  217.06400    4.47530    -999.25    -999.25    -999.25    -999.25    4.47530    -999.25    5.09610 -155.22640   -6.24920    5.09610
 1500.00000    -999.25   74.78190   74.78190   13.76870    -999.25    -999.25    -999.25    -999.25   13.76870    -999.25    9.70540 -163.05630  -14.41890    9.70540
 1550.00000    -999.25  363.29840  363.29840    2.75260    -999.25    -999.25    -999.25    -999.25    2.79510    -999.25    3.08710 -152.80570   -4.50810    3.08710
 1600.00000    -999.25  241.83790  241.83790    4.08520    -999.25    -999.25    -999.25    -999.25    4.08520    -999.25    4.36440 -156.32460   -8.36910    4.36440
 1650.00000    -999.25   87.37860   87.37860   12.53130    -999.25    -999.25    -999.25    -999.25   12.53130    -999.25    9.24330 -156.45690   -8.84120    9.24330
 1700.00000    -999.25   95.86630   95.86630    8.80000    -999.25    -999.25    -999.25    -999.25    8.80000    -999.25    8.47120 -163.60020  -16.32650    8.47120
 1750.00000    -999.25  147.25730  147.25730    7.12180    -999.25    -999.25    -999.25    -999.25    7.12180    -999.25    8.83040 -164.19550  -17.26160    8.83040
 1800.00000    -999.25  368.43630  368.43630    2.71530    -999.25    -999.25    -999.25    -999.25    2.71050    -999.25    3.01660 -155.63340   -9.03930    3.01660
 1850.00000    -999.25  199.58870  199.58870    5.10940    -999.25    -999.25    -999.25    -999.25    5.10940    -999.25    5.37260 -153.17450   -6.92250    5.37260
 1900.00000    -999.25  262.77410  262.77410    3.80560    -999.25    -999.25    -999.25    -999.25    3.80540    -999.25    4.93280 -155.73190   -9.81970    4.93280
 1950.00000    -999.25  249.22430  249.22430    4.01260    -999.25    -999.25    -999.25    -999.25    4.01260    -999.25    4.27950 -154.88950   -9.31940    4.27950
 2000.00000    -999.25  185.57220  185.57220    5.93930    -999.25    -999.25    -999.25    -999.25    5.93930    -999.25    7.37770 -160.51680  -15.28650    7.37770
 2050.00000    -999.25  273.49820  273.49820    3.65640    -999.25    -999.25    -999.25    -999.25    3.65400    -999.25    4.23950 -154.91070  -10.02020    4.23950
 2100.00000    -999.25  189.16630  189.16630    5.57990    -999.25    -999.25    -999.25    -999.25    5.57990    -999.25    6.15710 -155.62280  -11.07430    6.15710
 2150.00000    -999.25   79.96320   79.96320   12.08020    -999.25    -999.25    -999.25    -999.25   12.08020    -999.25   11.57960 -163.53600  -19.32740   11.57960
 2200.00000    -999.25   98.06710   98.06710   10.34150    -999.25    -999.25    -999.25    -999.25   10.34150    -999.25   10.07200 -157.91670  -14.05010   10.07200
 2250.00000    -999.25  295.94860  295.94860    3.37900    -999.25    -999.25    -999.25    -999.25    3.37980    -999.25    3.89690 -154.10980  -10.58300    3.89690
 2300.00000    -999.25  297.71480  297.71480    3.35890    -999.25    -999.25    -999.25    -999.25    3.35790    -999.25    3.63450 -153.23470  -10.04770    3.63450
 2350.00000    -999.25  303.65580  303.65580    3.29320    -999.25    -999.25    -999.25    -999.25    3.29440    -999.25    4.05400 -152.96200  -10.11710    4.05400
 2400.00000    -999.25  230.12700  230.12700    4.33310    -999.25    -999.25    -999.25    -999.25    4.33310    -999.25    5.34210 -153.41990  -10.91480    5.34210
 2450.00000    -999.25  264.11580  264.11580    3.78620    -999.25    -999.25    -999.25    -999.25    3.78750    -999.25    4.75570 -151.93350   -9.77050    4.75570
 2500.00000    -999.25  215.52690  215.52690    4.55970    -999.25    -999.25    -999.25    -999.25    4.55970    -999.25    4.98180 -151.70710   -9.88390    4.98180
 2550.00000    -999.25  203.98770  203.98770    4.82590    -999.25    -999.25    -999.25    -999.25    4.82590    -999.25    5.97170 -151.53890  -10.05550    5.97170
 2600.00000    -999.25  253.97350  253.97350    3.93740    -999.25    -999.25    -999.25    -999.25    3.93360    -999.25    5.18790 -152.47650  -11.33510    5.18790
 2650.00000    -999.25  195.75060  195.75060    5.01900    -999.25    -999.25    -999.25    -999.25    5.01900    -999.25    6.12420 -151.82670  -11.02520    6.12420
 2700.00000    -999.25  215.96850  215.96850    4.62490    -999.25    -999.25    -999.25    -999.25    4.62490    -999.25    5.17240 -151.76500  -11.30550    5.17240
 2750.00000    -999.25  240.54570  240.54570    4.22620    -999.25    -999.25    -999.25    -999.25    4.22620    -999.25    5.08910 -151.98210  -11.86240    5.08910
 2800.00000    -999.25  159.79100  159.79100    5.78530    -999.25    -999.25    -999.25    -999.25    5.78530    -999.25    6.27520 -153.38630  -13.60640    6.27520
 2850.00000    -999.25  143.11700  143.11700    6.73260    -999.25    -999.25    -999.25    -999.25    6.73260    -999.25    6.99710 -155.73850  -16.30070    6.99710
 2900.00000    -999.25  167.49920  167.49920    5.76420    -999.25    -999.25    -999.25    -999.25    5.76420    -999.25    6.33700 -154.01460  -14.91660    6.33700
 2950.00000    -999.25  186.95120  186.95120    4.86830    -999.25    -999.25    -999.25    -999.25    4.86830    -999.25    7.40870 -151.69270  -12.93670    7.40870
 3000.00000    -999.25  108.53720  108.53720    9.10830    -999.25    -999.25    -999.25    -999.25    9.10830    -999.25   10.34800 -153.01350  -14.59740   10.34800
 3050.00000    -999.25  136.99230  136.99230    7.09500    -999.25    -999.25    -999.25    -999.25    7.09500    -999.25    7.44860 -154.14280  -16.06650    7.44860
 3100.00000    -999.25  149.98330  149.98330    6.29750    -999.25    -999.25    -999.25    -999.25    6.29750    -999.25    6.56270 -156.49530  -18.76100    6.56270
 3150.00000    -999.25  160.26290  160.26290    5.79280    -999.25    -999.25    -999.25    -999.25    5.79280    -999.25    6.49610 -156.54500  -19.15050    6.49610
 3200.00000    -999.25  158.59650  158.59650    6.16120    -999.25    -999.25    -999.25    -999.25    6.16120    -999.25    6.59910 -155.76020  -18.70780    6.59910
 3250.00000    -999.25  141.95720  141.95720    6.62420    -999.25    -999.25    -999.25    -999.25    6.62420    -999.25    7.26840 -154.93230  -18.21970    7.26840
 3300.00000    -999.25  158.23120  158.23120    6.06870    -999.25    -999.25    -999.25    -999.25    6.06870    -999.25    6.73400 -153.40040  -17.02760    6.73400
 3350.00000    -999.25  161.27390  161.27390    5.90950    -999.25    -999.25    -999.25    -999.25    5.90950    -999.25    6.17240 -153.80480  -17.77410    6.17240
 3400.00000    -999.25  138.12370  138.12370    6.97880    -999.25    -999.25    -999.25    -999.25    6.97880    -999.25    7.24150 -153.70100  -18.01010    7.24150
 3450.00000    -999.25  165.82110  165.82110    5.88660    -999.25    -999.25    -999.25    -999.25    5.88660    -999.25    6.29620 -153.44490  -18.09600    6.29620
