~Version ---------------------------------------------------
VERS.      2.0 : CWLS log ASCII Standard -VERSION 2.0
WRAP.       NO : One line per depth step
CREA. 12/07/17 : LAS Creation Date
~Well ------------------------------------------------------
STRT.FT                            300.0 : START DEPTH
STOP.FT                           7900.0 : STOP DEPTH
STEP.FT                         50.00000 : STEP LENGTH
NULL.                            -999.25 : NULL VALUE
COMP.     CANADIAN OIL COMPANIES LIMITED : COMPANY
WELL. WHITE ROSE ET AL WATINO 4-10-78-24 : WELL
FLD .                                    : FIELD
LOC .                                    : LOCATION
CTRY.                             CANADA : COUNTRY
SRVC.                       Schlumberger : SERVICE COMPANY
DATE.                        23-Dec-1961 : LOGDATE
PROV.                            Alberta : PROVINCE
UWI .                   100041007824W500 : UNIQUE WELL ID
SLAT.WGS84                      55.73903 : SURFACE LATITUDE
SLON.WGS84                     -117.6449 : SURFACE LONGITUDE
~Curve Information -----------------------------------------
DEPT  .FT         : Depth Curve
CALSED.IN         : CALIPER FROM SONIC LOG
CALWS .IN         : CALIPER [MCALED SPL. TO CALSED @ 5425']
CILDED.MMHO       : DEEP INDUCTION  CONDUCTIVITY FROM RESISTIVITY LOG
CONDWS.MMHO       : CONDUCTIVITY [1000/DRESWS]
DRESWS.OHMM       : DEEP RESISTIVITY [1000/CILDED IF ILDED <1.5, ILDED]
DTED  .US/F       : DELTA-T (SPAN 1') FROM SONIC LOG
DTWS  .US/F       : COMPRESSIONAL SONIC [DTED]
GRNED .GAPI       : GAMMA RAY FROM GRN LOG
GRSED .UgRa-Eq/T  : GAMMA RAY FROM SONIC LOG
GRWS  .GAPI       : GAMMA RAY [GRNED SPL. TO GRSED (UgRa-Eq/T *16.5) @ 5497']
ILDED .OHMM       : DEEP INDUCTION  RESISTIVITY FROM RESISTIVITY LOG
MCALED.IN         : MLT (MICROLOG) CALIPER FROM MICROLOG
NEUTED.NAPI       : NEUTRON FROM GRN LOG
NEUTWS.NAPI       : NEUTRON [NEUTED]
SNED  .OHMM       : SHORT NORMAL RESISTIVITY FROM RESISTIVITY LOG
SPRED .MV         : SPONTANEOUS POTENTIAL FROM RESISTIVITY LOG
SPWS  .MV         : SPONTANEOUS POTENTIAL [BASELINE 0 MV] [SPRED]
SRESWS.OHMM       : SHALLOW RESISTIVITY [SNED]
~Params ----------------------------------------------------
PD  .                     GL : PERMANENT DATUM
EPD .FT               1245.4 : ELEVATION PERMANENT DATUM
LMF .                     KB : LOG MEASURED FROM
DAPD.FT                 12.6 : FEET ABOVE PERMANENT DATUM
EKB .FT                 1258 : KELLY BUSHING
EGL .FT               1245.4 : GROUND LEVEL
DATE.               12/23/61 : RUN DATE
RUN .                      2 : RUN NUMBER
DD  .FT                 7915 : DEPTH DRILLER
DL  .FT                 7911 : DEPTH LOGGER
BLI .FT                 7906 : BOTTOM LOG INTERVAL
TLI .FT                 4764 : TOP LOG INTERVAL
BS  .IN                 8.75 : BIT SIZE
BSD .FT                 7915 : BIT SIZE AT DEPTH
DFT .                   GYPN : DRILLING FLUID TYPE
DFD .                   12.5 : DRILLING FLUID DENSITY
DFV .                     96 : DRILLING FLUID VISCOSITY
DFPH.                      8 : DRILLING FLUID PH
DFL .                   14.6 : DRILLING FLUID LOSS
RMS .OHMM                1.1 : RESISTIVITY MUD SAMPLE
MST .DEGF                 84 : MUD SAMPLE TEMPERATURE
RMF .OHMM                0.6 : RESISTIVITY MUD FILTRATE SAMPLE
MFST.DEGF                 66 : MUD FILTRATE SAMPLE TEMPERATURE
RMC .OHMM                1.8 : RESISTIVITY MUD CAKE
MCST.DEGF                 60 : MUD CAKE SAMPLE TEMPERATURE
RMB .OHMM                0.6 : RESISTIVITY MUD AT BHT
TCS .HRS                   2 : TIME CIRCULATED STOPPED
LUN .                   1511 : LOGGING UNIT NUMBER
LUL .                     DC : LOGGING UNIT LOCATION
ENGI.                PRATHER : RECORDING ENGINEER
WITN.                 LEPPER : WITNESSED BY
CLNT.                A2DTECH : CLIENT CODE
ORIG.            2" 5" PRINT : ORIGIN OF DATA
UWI .       100041007824W500 : UNIQUE WELL ID
DICO. A2D Technologies, Inc. : DIGITIZING COMPANY
~Other -----------------------------------------------------
IEL-BHC-GRN-ML LOG RUN
CALSED 5" (5') SHALLOW RECORDED
SPWS: SPRED APPLIED (+11) UNIT FILTER
~ASCII -----------------------------------------------------
# ...
 6150.00000    9.64680    9.64680   10.87210   11.54740   86.59960   52.42740   52.42740    -999.25    1.19770   19.76200   86.59960    -999.25    -999.25    -999.25   67.08930  -90.67050  -58.92070   67.08930
 6200.00000    9.87540    9.87540    2.06430    4.26860  234.26900   50.49960   50.49960    -999.25    1.29910   21.43520  234.26900    -999.25    -999.25    -999.25   82.41290  -89.58230  -57.64120   82.41290
 6250.00000    9.72140    9.72140    1.65540    5.23250  191.11270   52.13980   52.13980    -999.25    1.38310   22.82110  191.11270    -999.25    -999.25    -999.25   78.56640  -82.10730  -49.97620   78.56640
 6300.00000    9.72670    9.72670    2.52260    3.80730  262.65100   50.61370   50.61370    -999.25    1.33110   21.96310  262.65100    -999.25    -999.25    -999.25   87.09030  -78.77530  -46.45420   87.09030
 6350.00000    9.70560    9.70560    5.34660    5.50830  181.54430   51.99760   51.99760    -999.25    1.48050   24.42820  181.54430    -999.25    -999.25    -999.25   79.68810  -67.38190  -34.86950   79.68810
 6400.00000    9.78100    9.78100    9.17030    9.91620  100.84500   51.27820   51.27820    -999.25    1.27980   21.11670  100.84500    -999.25    -999.25    -999.25   52.81220 -100.19910  -67.49670   52.81220
 6450.00000    9.71800    9.71800    7.55860    7.15640  139.73530   51.16240   51.16240    -999.25    1.20590   19.89730  139.73530    -999.25    -999.25    -999.25   60.40310 -101.18160  -68.28790   60.40310
 6500.00000    8.65990    8.65990   15.24220   15.08360   66.29720   61.97730   61.97730    -999.25    1.23860   20.43690   66.29720    -999.25    -999.25    -999.25   54.32280 -106.11130  -73.02750   54.32280
 6550.00000    8.58800    8.58800   27.22310   26.65840   37.51160   56.27010   56.27010    -999.25    2.33640   38.55060   37.51160    -999.25    -999.25    -999.25   44.16240 -110.56270  -77.28890   44.16240
 6600.00000    8.86100    8.86100   78.45310   76.72650   13.03330   58.37580   58.37580    -999.25    1.92550   31.77080   13.03330    -999.25    -999.25    -999.25   16.65710  -81.74030  -48.27520   16.65710
 6650.00000    8.73380    8.73380   18.05430   18.39320   54.36780   55.16540   55.16540    -999.25    2.85030   47.02990   54.36780    -999.25    -999.25    -999.25   41.48020  -40.80170   -7.14660   41.48020
 6700.00000    8.90080    8.90080   50.71690   47.83890   20.90350   60.70800   60.70800    -999.25    2.81190   46.39630   20.90350    -999.25    -999.25    -999.25   22.87610  -44.31150  -10.46510   22.87610
 6750.00000    8.90400    8.90400   50.41060   49.19900   20.32560   64.85720   64.85720    -999.25    3.72600   61.47900   20.32560    -999.25    -999.25    -999.25   21.13140  -35.75810   -1.72170   21.13140
 6800.00000    8.88940    8.88940   25.16830   25.24530   39.61140   62.93910   62.93910    -999.25    3.19920   52.78680   39.61140    -999.25    -999.25    -999.25   32.04910  -32.24670    1.97970   32.04910
 6850.00000   10.97090   10.97090  134.20920  133.02120    7.51760   71.58330   71.58330    -999.25    4.90120   80.86980    7.51760    -999.25    -999.25    -999.25    8.62690  -40.57160   -6.15390    8.62690
 6900.00000   12.71890   12.71890  158.09780  154.90430    6.45560   76.05690   76.05690    -999.25    5.31820   87.75030    6.45560    -999.25    -999.25    -999.25    7.04850  -51.33760  -16.72990    7.04850
 6950.00000   12.70510   12.70510  201.39580  205.58790    4.86410   76.95570   76.95570    -999.25    4.77910   78.85510    4.86410    -999.25    -999.25    -999.25    5.92440  -44.43560   -9.63660    5.92440
 7000.00000   12.99970   12.99970  224.38810  224.70900    4.45020   80.90330   80.90330    -999.25    4.85280   80.07120    4.45020    -999.25    -999.25    -999.25    5.13540  -47.06970  -12.08070    5.13540
 7050.00000   12.71380   12.71380  135.61000  134.31110    7.44540   74.83030   74.83030    -999.25    4.10100   67.66650    7.44540    -999.25    -999.25    -999.25    8.10340  -44.31200   -9.13290    8.10340
 7100.00000   12.55160   12.55160  201.73660  203.79050    4.90700   85.23720   85.23720    -999.25    5.08080   83.83320    4.90700    -999.25    -999.25    -999.25    5.61910  -56.53960  -21.16920    5.61910
 7150.00000    9.51080    9.51080  137.44970  135.31070    7.39040   75.81240   75.81240    -999.25    6.01570   99.25910    7.39040    -999.25    -999.25    -999.25    9.25920  -47.23730  -11.67690    9.25920
 7200.00000    9.15030    9.15030   69.93970   67.53430   14.80730   76.99990   76.99990    -999.25    6.66940  110.04510   14.80730    -999.25    -999.25    -999.25   17.56180  -44.96110   -9.20940   17.56180
 7250.00000    8.73340    8.73340   13.90230   14.84790   67.34980   56.96360   56.96360    -999.25    3.56740   58.86210   67.34980    -999.25    -999.25    -999.25   49.48680  -40.07740   -4.13570   49.48680
 7300.00000    8.69950    8.69950   18.36810   19.92220   50.19530   67.89040   67.89040    -999.25    6.29950  103.94180   50.19530    -999.25    -999.25    -999.25   42.73200  -31.46330    4.66840   42.73200
 7350.00000    8.78070    8.78070   28.89360   30.72510   32.54670   79.93990   79.93990    -999.25    7.67010  126.55660   32.54670    -999.25    -999.25    -999.25   42.38700  -40.10700   -3.78400   42.38700
 7400.00000    8.62530    8.62530    5.19710    5.88010  170.06550   52.35410   52.35410    -999.25    1.80520   29.78580  170.06550    -999.25    -999.25    -999.25   68.18680  -27.25540    9.25760   68.18680
 7450.00000    8.86930    8.86930    3.49560    3.37470  296.32390   50.11450   50.11450    -999.25    1.74420   28.77930  296.32390    -999.25    -999.25    -999.25   70.28010  -16.35710   20.34720   70.28010
 7500.00000    9.14190    9.14190   26.71520   27.73030   36.06170   63.72970   63.72970    -999.25    7.72310  127.43110   36.06170    -999.25    -999.25    -999.25   33.62110   -7.00450   29.88980   33.62110
 7550.00000    9.16770    9.16770   78.00650   76.02420   13.15370   69.70480   69.70480    -999.25    4.33340   71.50110   13.15370    -999.25    -999.25    -999.25   17.29050  -19.48620   17.59820   17.29050
 7600.00000    8.89720    8.89720   86.21250   81.99750   12.19550   61.71690   61.71690    -999.25    4.77590   78.80240   12.19550    -999.25    -999.25    -999.25   15.03450  -17.22630   20.04930   15.03450
 7650.00000    7.03480    7.03480  559.26110  500.07500    1.99970   62.70480   62.70480    -999.25    9.51380  156.97770    1.99970    -999.25    -999.25    -999.25    5.34570  -92.37470  -54.90900    5.34570
 7700.00000    6.91540    6.91540  773.97700  620.00120    1.61290   71.74930   71.74930    -999.25    6.37590  105.20240    1.61290    -999.25    -999.25    -999.25    2.97110  -83.74690  -46.08990    2.97110
 7750.00000    7.23720    7.23720  750.94100  629.36620    1.58890   76.49840   76.49840    -999.25   10.88430  179.59090    1.58890    -999.25    -999.25    -999.25    4.32180 -188.63320 -150.78620    4.32180
 7800.00000    8.96820    8.96820   40.75300   39.99040   25.00600   65.84620   65.84620    -999.25    8.58070  141.58150   25.00600    -999.25    -999.25    -999.25   20.79880 -142.40730 -104.37030   20.79880
 7850.00000    9.70580    9.70580   72.36930   69.45750   14.39730   67.91120   67.91120    -999.25   10.53340  173.80110   14.39730    -999.25    -999.25    -999.25   12.90050  -70.95770  -32.72940   12.90050
 7900.00000    8.94290    8.94290    7.55000    7.97310  125.42170   69.21230   69.21230    -999.25    -999.25    -999.25  125.42170    -999.25    -999.25    -999.25   72.04620  -50.69680  -12.44350   72.04620
