~Version ---------------------------------------------------
VERS.      2.0 : CWLS log ASCII Standard -VERSION 2.0
WRAP.       NO : One line per depth step
CREA. 11/10/17 : LAS Creation Date
~Well ------------------------------------------------------
STRT.FT                               1200.0 : START DEPTH
STOP.FT                              13150.0 : STOP DEPTH
STEP.FT                             50.00000 : STEP LENGTH
NULL.                                -999.25 : NULL VALUE
COMP.         VINTAGE PETROLEUM CANADA, INC. : COMPANY
WELL. GENESIS ET AL MARLBORO 14-17-55-19 #14 : WELL
FLD .                                        : FIELD
LOC .                                        : LOCATION
CTRY.                                 CANADA : COUNTRY
SRVC.                           Schlumberger : SERVICE COMPANY
DATE.                            01-Sep-1970 : LOGDATE
PROV.                                Alberta : PROVINCE
UWI .                       100141705519W500 : UNIQUE WELL ID
SLAT.WGS84                          53.75669 : SURFACE LATITUDE
SLON.WGS84                         -116.7889 : SURFACE LONGITUDE
~Curve Information -----------------------------------------
DEPT  .FT    : Depth Curve
CALSED.IN    : CALIPER FROM SONIC LOG [ADJ. TO RESISTIVITY LOG]
CALWS .IN    : CALIPER [CALSED]
CONDWS.MMHO  : CONDUCTIVITY [1000/DRESWS]
DRESWS.OHMM  : DEEP RESISTIVITY [ILDED]
DTED  .US/F  : DELTA T FROM SONIC LOG [ADJ. TO RESISTIVITY LOG]
DTWS  .US/F  : COMPRESSIONAL SONIC [DTED]
GRSED .GAPI  : GAMMA RAY FROM SONIC [ADJ. TO RESISTIVITY LOG]
GRWS  .GAPI  : GAMMA RAY [GRSED] CSG < 1306'
ILDED .OHMM  : DEEP INDUCTION FROM RESISTIVITY LOG
ILMED .OHMM  : MEDIUM INDUCTION FROM RESISTIVITY LOG
LL8ED .OHMM  : LATEROLOG 8' FROM RESISTIVITY LOG
MRESWS.OHMM  : MEDIUM RESISTIVITY [ILMED]
SPRED .MV    : SPONTANEOUS POTENTIAL FROM RESISTIVITY LOG
SPWS  .MV    : SPONTANEOUS POTENTIAL [BASELINE 0 MV, SPRED]
SRESWS.OHMM  : SHALLOW RESISTIVITY [LL8ED]
~Params ----------------------------------------------------
PD  .                     GL : PERMANENT DATUM
EPD .FT                 3735 : ELEVATION PERMANENT DATUM
LMF .                     KB : LOG MEASURED FROM
DAPD.FT                   17 : FEET ABOVE PERMANENT DATUM
EKB .FT                 3752 : KELLY BUSHING
EGL .FT                 3735 : GROUND LEVEL
DATE.               09/01/70 : RUN DATE
RUN .                      1 : RUN NUMBER
DD  .FT                13157 : DEPTH DRILLER
DL  .FT                13154 : DEPTH LOGGER
BLI .FT                13148 : BOTTOM LOG INTERVAL
TLI .FT                 1306 : TOP LOG INTERVAL
CBD .FT                 1308 : CASING BOTTOM DRILLER
CBL .FT                 1306 : CASING BOTTOM LOGGER
BS  .IN                 8.75 : BIT SIZE
BSD .FT                13157 : BIT SIZE AT DEPTH
DFT .                    FGM : DRILLING FLUID TYPE
DFD .                    9.2 : DRILLING FLUID DENSITY
DFV .                    183 : DRILLING FLUID VISCOSITY
DFPH.                     10 : DRILLING FLUID PH
DFL .                   11.2 : DRILLING FLUID LOSS
MSS .               FLOWLINE : MUD SAMPLE SOURCE
RMS .OHMM               0.93 : RESISTIVITY MUD SAMPLE
MST .DEGF                 82 : MUD SAMPLE TEMPERATURE
RMF .OHMM               0.72 : RESISTIVITY MUD FILTRATE SAMPLE
MFST.DEGF                 82 : MUD FILTRATE SAMPLE TEMPERATURE
RMC .OHMM               1.13 : RESISTIVITY MUD CAKE
MCST.DEGF                 82 : MUD CAKE SAMPLE TEMPERATURE
RMB .OHMM               0.35 : RESISTIVITY MUD AT BHT
TCS .HRS                 4.5 : TIME CIRCULATED STOPPED
LUN .                   7502 : LOGGING UNIT NUMBER
LUL .                    EDM : LOGGING UNIT LOCATION
ENGI.                  PLUME : RECORDING ENGINEER
WITN.                 LITTLE : WITNESSED BY
CLNT.                A2DTECH : CLIENT CODE
ORIG.            2" 5" PRINT : ORIGIN OF DATA
UWI .       100141705519W500 : UNIQUE WELL ID
DICO. A2D Technologies, Inc. : DIGITIZING COMPANY
~Other -----------------------------------------------------
~ASCII -----------------------------------------------------
# ...
 5800.00000    9.34510    9.34510   85.26550   11.72810   78.31300   78.31300   91.65910   91.65910   11.72810   12.38000   13.53250   12.38000 -113.21410   -3.81730   13.53250
 5850.00000    9.48100    9.48100   70.80000   14.12430   78.57300   78.57300   99.60500   99.60500   14.12430   14.64550   17.32800   14.64550 -111.60440   -2.20760   17.32800
 5900.00000    9.49000    9.49000   85.01020   11.76350   84.85700   84.85700  104.54680  104.54680   11.76350   12.41980   15.26710   12.41980 -113.05670   -3.65990   15.26710
 5950.00000    9.57710    9.57710   74.39090   13.44250   84.26210   84.26210  108.57260  108.57260   13.44250   14.35650   18.75580   14.35650 -112.97870   -3.58190   18.75580
 6000.00000    9.55770    9.55770   91.93460   10.87730   78.74400   78.74400   83.72720   83.72720   10.87730   11.65780   15.63600   11.65780 -112.12130   -2.16180   15.63600
 6050.00000   10.11150   10.11150  118.54910    8.43530   81.74240   81.74240   87.56360   87.56360    8.43530    8.94890   10.33490    8.94890 -112.72910   -2.09070   10.33490
 6100.00000    9.49680    9.49680   84.87450   11.78210   74.00400   74.00400   84.44400   84.44400   11.78210   12.77460   13.90460   12.77460 -113.83420   -2.51250   13.90460
 6150.00000   10.15000   10.15000  165.29630    6.04970   84.11640   84.11640   95.44910   95.44910    6.04970    6.36360    7.24810    6.36360 -113.82120   -1.82060    7.24810
 6200.00000    9.95160    9.95160  155.75350    6.42040   87.72140   87.72140   87.37040   87.37040    6.42040    6.75970    7.20960    6.75970 -113.23860   -0.55470    7.20960
 6250.00000    9.22990    9.22990  158.07780    6.32600   81.30030   81.30030   93.94940   93.94940    6.32600    6.49680    7.11840    6.49680 -115.42630   -3.01690    7.11840
 6300.00000    9.50830    9.50830  178.35500    5.60680   84.86880   84.86880   91.87660   91.87660    5.60680    5.98170    6.74420    5.98170 -114.44640   -3.42810    6.74420
 6350.00000   10.02750   10.02750  147.87650    6.76240   69.43250   69.43250   93.46810   93.46810    6.76240    7.20600    7.76000    7.20600 -111.35400   -1.73610    7.76000
 6400.00000   10.98860   10.98860  168.59550    5.93140   85.19850   85.19850   97.06720   97.06720    5.93140    6.24500    7.00420    6.24500 -110.25490   -1.58880    7.00420
 6450.00000   10.49810   10.49810  136.22860    7.34060   79.89330   79.89330   94.34310   94.34310    7.34060    7.87190    8.51800    7.87190 -110.90480   -2.23870    8.51800
 6500.00000   10.49570   10.49570  156.33310    6.39660   80.03240   80.03240   90.98740   90.98740    6.39660    6.07330    6.75600    6.07330 -110.75890   -2.09280    6.75600
 6550.00000    9.54420    9.54420  143.42740    6.97220   79.92660   79.92660   89.99210   89.99210    6.97220    6.61250    8.62460    6.61250 -111.37040   -2.82000    8.62460
 6600.00000    9.96530    9.96530  153.77990    6.50280   82.81470   82.81470   96.53300   96.53300    6.50280    6.25580    7.98250    6.25580 -110.56570   -2.30070    7.98250
 6650.00000   10.16820   10.16820  117.86070    8.48460   79.73840   79.73840   87.11800   87.11800    8.48460    7.98730    9.72830    7.98730 -111.49330   -3.51190    9.72830
 6700.00000    9.51300    9.51300  139.93450    7.14620   83.51320   83.51320   86.60750   86.60750    7.14620    6.54970    7.97610    6.54970 -111.43020   -3.73420    7.97610
 6750.00000    9.60300    9.60300   75.40340   13.26200   72.57100   72.57100   96.07290   96.07290   13.26200   12.09750   15.86600   12.09750 -111.63880   -4.22630   15.86600
 6800.00000    9.15410    9.15410   63.88780   15.65750   66.77320   66.77320   64.22980   64.22980   15.65750   15.08340   28.27770   15.08340 -111.33020   -4.20130   28.27770
 6850.00000    8.95510    8.95510   68.18960   14.66500   70.16990   70.16990   75.26630   75.26630   14.66500   12.67630   19.73700   12.67630 -110.16520   -3.32170   19.73700
 6900.00000    9.82140    9.82140  113.54940    8.80730   75.28090   75.28090   88.99450   88.99450    8.80730    8.22280   10.22110    8.22280 -108.27640   -1.71650   10.22110
 6950.00000   10.34760   10.34760  127.26690    7.85750   79.91470   79.91470   94.85740   94.85740    7.85750    7.62200    9.89680    7.62200 -109.07440   -2.79990    9.89680
 7000.00000   10.34750   10.34750  125.15800    7.98990   80.65260   80.65260   91.67470   91.67470    7.98990    7.50340    9.91570    7.50340 -109.40140   -3.41050    9.91570
 7050.00000    9.96540    9.96540  102.46850    9.75910   78.22480   78.22480   91.76910   91.76910    9.75910    8.93660   12.11110    8.93660 -109.19680   -3.48940   12.11110
 7100.00000   10.31090   10.31090  130.60800    7.65650   88.24280   88.24280  102.73710  102.73710    7.65650    7.22160    9.91010    7.22160 -107.04200   -1.62010    9.91010
 7150.00000    9.45260    9.45260   88.42340   11.30920   85.25640   85.25640  104.80290  104.80290   11.30920   10.41490   16.45470   10.41490 -107.04670   -1.90830   16.45470
 7200.00000    9.68170    9.68170  101.67350    9.83540   87.29210   87.29210   98.56820   98.56820    9.83540    9.48940   12.73780    9.48940 -106.63750   -1.78450   12.73780
 7250.00000    9.49950    9.49950   88.72800   11.27040   88.65270   88.65270  108.12120  108.12120   11.27040   10.86800   15.17000   10.86800 -106.95600   -2.38660   15.17000
 7300.00000    9.54690    9.54690   89.83640   11.13130   90.01550   90.01550  105.13090  105.13090   11.13130   10.20750   14.36240   10.20750 -107.07670   -2.79090   14.36240
 7350.00000    9.17630    9.17630   96.10490   10.40530   93.35250   93.35250  102.58990  102.58990   10.40530    9.69880   12.70530    9.69880 -105.57390   -1.59850   12.70530
 7400.00000    9.47810    9.47810  103.81040    9.63330   90.20040   90.20040  105.54020  105.54020    9.63330    9.01310   14.41880    9.01310 -106.18100   -2.51420   14.41880
 7450.00000    9.46980    9.46980   83.89330   11.91990   92.43250   92.43250  109.17250  109.17250   11.91990   11.53570   17.24190   11.53570 -107.00580   -3.64970   17.24190
 7500.00000    9.60140    9.60140  126.00970    7.93590   92.00210   92.00210  103.04270  103.04270    7.93590    7.67290   10.21640    7.67290 -106.52350   -3.47610   10.21640
 7550.00000   10.80540   10.80540   84.53430   11.83240  112.48700  112.48700  130.58350  130.58350   11.83240   13.00370   19.79460   13.00370 -105.34970   -2.61100   19.79460
 7600.00000    9.61810    9.61810   94.28450   10.60620   74.74160   74.74160   76.51020   76.51020   10.60620    9.87620   12.54040    9.87620 -105.40630   -2.97830   12.54040
 7650.00000    9.53570    9.53570  111.37550    8.97930   82.28260   82.28260   87.28660   87.28660    8.97930    8.68090   10.52490    8.68090 -105.54810   -3.42880   10.52490
 7700.00000    8.95340    8.95340   84.96320   11.76980   72.89960   72.89960   72.80550   72.80550   11.76980   15.13890   11.63920   15.13890 -107.22110   -5.41250   11.63920
 7750.00000    9.29980    9.29980  128.54960    7.77910   80.82260   80.82260  100.85720  100.85720    7.77910    7.29090    9.81250    7.29090 -106.73370   -5.23380    9.81250
 7800.00000    9.66550    9.66550  155.88360    6.41680   83.19170   83.19170   84.82750   84.82750    6.41680    6.18210    7.50290    6.18210 -103.93840   -2.74720    7.50290
 7850.00000    8.93680    8.93680  123.47360    8.09890   79.02440   79.02440   96.38360   96.38360    8.09890    7.69940   10.01020    7.69940 -106.14960   -5.26910   10.01020
 7900.00000   10.05110   10.05110  210.10760    4.75950   88.92200   88.92200   98.39520   98.39520    4.75950    4.61590    6.23740    4.61590 -103.54800   -2.95570    6.23740
 7950.00000    9.63190    9.63190  125.87010    7.94470   90.05230   90.05230  211.14200  211.14200    7.94470    7.51300   12.87390    7.51300 -104.41880   -4.02510   12.87390
 8000.00000   10.12530   10.12530  302.19700    3.30910   95.01640   95.01640   98.61610   98.61610    3.30910    3.20970    4.24430    3.20970 -102.25450   -2.05820    4.24430
 8050.00000    9.94650    9.94650  117.26560    8.53080   77.29370   77.29370   90.92290   90.92290    8.53080    7.91860   10.87640    7.91860 -103.29620   -3.29730   10.87640
