~Version ---------------------------------------------------
VERS.      2.0 : CWLS log ASCII Standard -VERSION 2.0
WRAP.       NO : One line per depth step
CREA. 08/17/13 : LAS Creation Date
~Well ------------------------------------------------------
STRT.M                 450.0 : START DEPTH
STOP.M                2900.0 : STOP DEPTH
STEP.M              50.00000 : STEP LENGTH
NULL.                -999.25 : NULL VALUE
COMP. DOME PETROLEUM LIMITED : COMPANY
WELL.  DOME ET AL 15-35-44-2 : WELL
FLD .                        : FIELD
LOC .                        : LOCATION
CTRY.                 CANADA : COUNTRY
SRVC.           Schlumberger : SERVICE COMPANY
DATE.            17-Feb-1988 : LOGDATE
PROV.                Alberta : PROVINCE
UWI .       100153504402W500 : UNIQUE WELL ID
SLAT.WGS84          52.84009 : SURFACE LATITUDE
SLON.WGS84         -114.1793 : SURFACE LONGITUDE
~Curve Information -----------------------------------------
DEPT    .M      : DEPTH METER
ACED    .US/M   : DELTA TIME FROM SONIC LOG
C2DED   .MM     : CALIPER 2 FROM DENSITY LOG [ADJ. TO RESISTIVITY LOG]
CALDED  .MM     : CALIPER FROM DENSITY LOG [ADJ. TO RESISTIVITY LOG]
CALSED  .MM     : CALIPER FROM SONIC LOG
CALWS   .MM     : CALIPER [CALDED]
CONDWS  .MMHO   : CONDUCTIVITY [1000/DRESWS]
DCORWS  .KG/M3  : DENSITY CORRECTION [DRHOED]
DENWS   .KG/M3  : FORMATION BULK DENSITY [CALC FROM DPOLSWS, M=2710,F=1000]
DPHILSED.V/V    : DENSITY POROSITY LIMESTONE [M=2710,F=1000] FROM DENSITY LOG [ADJ. TO RESISTIVITY LOG]
DPHISSED.V/V    : DENSITY POROSITY SANDSTONE [M=2650,F=1000] FROM DENSITY LOG [ADJ. TO RESISTIVITY LOG]
DPOLSWS .V/V    : DENSITY POROSITY LIMESTONE [DPHISSED CONVERTED TO LIMESTONE (M=2710,F=1000) & SPL TO DPHILSED @1840M]
DRESWS  .OHMM   : DEEP RESISTIVITY [IDPHED]
DRHOED  .KG/M3  : DENSITY CORRECTION FROM DENSITY LOG [ADJ. TO RESISTIVITY LOG]
DTCOED  .US/M   : DELTA TIME COMPRESSIONAL FROM SONIC LOG
DTED    .US/M   : DELTA TIME FROM SONIC LOG
DTLED   .US/M   : DELTA TIME LONG SPACING FROM SONIC LOG
DTLFED  .US/M   : DELTA TIME LONG SPACING FAR DETECTOR FROM SONIC LOG
DTLNED  .US/M   : DELTA TIME LONG SPACING NEAR DETECTOR FROM SONIC LOG
DTSMED  .US/M   : DELTA TIME SHEAR WAVE FROM SONIC LOG
DTSWS   .US/M   : SHEAR SONIC [DTSMED]
DTWS    .US/M   : COMPRESSIONAL  SONIC [ACED]
GRDED   .GAPI   : GAMMA RAY FROM DENSITY LOG [ADJ. TO RESISTIVITY LOG]
GRRED   .GAPI   : GAMMA RAY FROM RESISTIVITY LOG
GRWS    .GAPI   : GAMMA RAY [GRRED SPL. TO GRDED @2915M]
IDPHED  .OHMM   : DEEP INDUCTION PHASE RESISTIVITY FROM RESISTIVITY LOG
IMPHED  .OHMM   : MEDIUM INDUCTION PHASE RESISTIVITY FROM RESISTIVITY LOG
MRESWS  .OHMM   : MEDIUM RESISTIVITY [IMPHED]
NPHILSED.V/V    : NEUTRON POROSITY LIMESTONE FROM DENSITY LOG [ADJ. TO RESISTIVITY LOG]
NPHISSED.V/V    : NEUTRON POROSITY SANDSTONE FROM DENSITY LOG [ADJ. TO RESISTIVITY LOG]
NPOLSWS .V/V    : NEUTRON POROSITY LIMESTONE [NPHISSED MATRIX CONVERSION FOR LIMESTONE & SPL. TO NPHILSED @1840M]
PEFED   .B/E    : PHOTOELECTRIC FACTOR FROM DENSITY LOG [ADJ. TO RESISTIVITY LOG]
PEFWS   .B/E    : PHOTOLELECTRIC FACTOR [PEFED]
RHOBED  .KG/M3  : BULK DENSITY FROM DENSITY LOG [ADJ. TO RESISTIVITY LOG]
SFLUED  .OHMM   : SPHERICALLY FOCUSED RESISTIVITY FROM RESISTIVITY LOG
SPRED   .MV     : SPONTANEOUS POTENTIAL FROM RESISTIVITY LOG
SPWS    .MV     : SPONTANEOUS POTENTIAL [BASELINE 0 MV, SPRED]
SRESWS  .OHMM   : SHALLOW RESISTIVITY [SFLUED]
TENDED  .N      : TENSION FROM DENSITY LOG
TENRED  .N      : TENSION FROM RESISTIVITY LOG
~Params ----------------------------------------------------
PD  .                         GL : PERMANENT DATUM
EPD .M                     908.4 : ELEVATION PERMANENT DATUM
LMF .                         KB : LOG MEASURED FROM
DAPD.M                       6.2 : FEET ABOVE PERMANENT DATUM
DMF .                         KB : DRILLING MEASURED FROM
EKB .M                     914.6 : KELLY BUSHING
EGL .M                     908.4 : GROUND LEVEL
DATE.                   02/17/88 : RUN DATE
RUN .                          2 : RUN NUMBER
DD  .M                      2938 : DEPTH DRILLER
DL  .M                    2934.5 : DEPTH LOGGER
BLI .M                      2932 : BOTTOM LOG INTERVAL
TLI .M                      2575 : TOP LOG INTERVAL
CS  .MM                      244 : CASING SIZE
CBD .M                       450 : CASING BOTTOM DRILLER
CBL .M                       450 : CASING BOTTOM LOGGER
BS  .MM                      222 : BIT SIZE
BSD .M                      2938 : BIT SIZE AT DEPTH
DFT .                   GEL CHEM : DRILLING FLUID TYPE
DFD .                       1130 : DRILLING FLUID DENSITY
DFV .                        102 : DRILLING FLUID VISCOSITY
DFPH.                         10 : DRILLING FLUID PH
DFL .                        8.2 : DRILLING FLUID LOSS
RMS .OHMM                    1.2 : RESISTIVITY MUD SAMPLE
MST .DEGC                     14 : MUD SAMPLE TEMPERATURE
RMF .OHMM                   1.02 : RESISTIVITY MUD FILTRATE SAMPLE
MFST.DEGC                     13 : MUD FILTRATE SAMPLE TEMPERATURE
RMC .OHMM                  0.362 : RESISTIVITY MUD CAKE
MCST.DEGC                     76 : MUD CAKE SAMPLE TEMPERATURE
MFSS.                      PRESS : MUD FILTRATE SAMPLE SOURCE
RMB .OHMM                  0.438 : RESISTIVITY MUD AT BHT
TCS .HRS                    1500 : TIME CIRCULATED STOPPED
TLAB.HRS                    2320 : TIME LOGGER AT BOTTOM
LUN .                       8123 : LOGGING UNIT NUMBER
LUL .                         RD : LOGGING UNIT LOCATION
ENGI.                     BRKICH : RECORDING ENGINEER
WITN.                   FORTISKI : WITNESSED BY
CLNT.                    A2DTECH : CLIENT CODE
ORIG. 6.5"/100M 16.5"/100M PRINT : ORIGIN OF DATA
UWI .           100153504402W500 : UNIQUE WELL ID
DICO.     A2D Technologies, Inc. : DIGITIZING COMPANY
~Other -----------------------------------------------------
PI-SFL-BCS LOG RAN IN COMBO & CNL-LDT LOG RAN
CURVES RHOB,DRHO HAVE BEEN VERIFIED FROM SMALL SECTION @TOP-2175 & 2350-BOTTOM.
NEUTRON CONVERSION USING SCHLUMBERGER CHART
~ASCII -----------------------------------------------------
# ...
 1400.00000  269.03640  318.76120  235.69880  242.91350  235.69880  129.04720  131.97220 2449.69000    -999.25    0.12140    0.15220    7.74910  131.97220  265.27730  274.62830  275.03490  272.19140  269.86580  504.81590  504.81590  269.03640   96.42800  104.21790  104.21790    7.74910    7.31420    7.31420    -999.25    0.35680    0.31320    3.03520    3.03520 2449.69000    6.87300  -54.67890   -8.37510    6.87300 11565.11910 9762.36960
 1450.00000  305.37840  268.69230  257.31810  242.60390  257.31810  150.30810  226.75280 2488.13500    -999.25    0.09810    0.12970    6.65300  226.75280  310.11540  306.00460  305.17710  301.07990  304.29560  637.81570  637.81570  305.37840  118.73230  120.41380  120.41380    6.65300    6.82930    6.82930    -999.25    0.41970    0.37720    3.31190    3.31190 2488.13500    7.35420  -48.53480   -7.14090    7.35420 11167.26460 9895.35230
 1500.00000  265.14640  246.01910  225.36220  232.54660  225.36220   55.87590   12.35710 2592.08500    -999.25    0.03510    0.06900   17.89680   12.35710  265.53400  264.51710  263.25610  262.41920  261.91750  478.03380  478.03380  265.14640  110.43280  119.23370  119.23370   17.89680   19.32200   19.32200    -999.25    0.29470    0.25070    3.68630    3.68630 2592.08500   25.34240  -44.78700   -8.30310   25.34240 11262.13090 10113.37480
 1550.00000  336.82060  230.50510  229.95360  231.05330  229.95360   98.80060    6.81400 2491.43500    -999.25    0.09610    0.12780   10.12140    6.81400  332.39150  341.32340  338.92190  336.28410  337.44350  636.28730  636.28730  336.82060  176.39140  183.51720  183.51720   10.12140   10.52880   10.52880    -999.25    0.43830    0.39630    3.68090    3.68090 2491.43500   13.65690  -39.29990   -7.72590   13.65690 11046.98930 10308.92000
 1600.00000  323.92630  293.67060  262.85120  272.05010  262.85120  299.25780   62.21120 2029.93000    -999.25    0.37580    0.39770    3.34160   62.21120  313.66680  310.09560  309.83830  287.08070  307.15350  640.41690  640.41690  323.92630   98.09220   96.67430   96.67430    3.34160    3.23130    3.23130    -999.25    0.45900    0.41760    3.31020    3.31020 2029.93000    3.18950  -33.76450   -6.12700    3.18950 11499.47950 10241.14510
 1650.00000  355.15290  303.44140  298.14030  341.30810  298.14030  596.80110   14.05890 1944.46000    -999.25    0.42760    0.44770    1.67560   14.05890  316.88990  575.07980  312.72390  320.07090  327.56920  626.36590  626.36590  355.15290   84.28150   95.78230   95.78230    1.67560    1.52100    1.52100    -999.25    0.55860    0.52180    3.20750    3.20750 1944.46000    1.78670  -30.03160   -4.75550    1.78670 11856.15530 10538.84900
 1700.00000  226.63700  264.56090  265.86380  273.34630  265.86380   87.51890   30.48760 2854.43500    -999.25   -0.12390   -0.08450   11.42610   30.48760  228.31720  226.49540  224.46350  224.58590  223.38920  464.81330  464.81330  226.63700   94.30300   96.76390   96.76390   11.42610   11.94820   11.94820    -999.25    0.31330    0.26940    4.12950    4.12950 2854.43500   16.61850  -32.68570  -10.21410   16.61850 11940.08300 10570.85750
 1750.00000  241.27160  241.67790  287.05030  281.57190  287.05030   37.42470   -5.59620 2524.76500    -999.25    0.07590    0.10830   26.72030   -5.59620  238.55370  241.00330  240.19360  237.30060  238.63630  406.04500  406.04500  241.27160   54.85770   57.06860   57.06860   26.72030   25.84280   25.84280    -999.25    0.18430    0.14110    2.82150    2.82150 2524.76500   24.77150  -61.26520  -41.73960   24.77150 12202.92680 10436.49900
 1800.00000  232.24760  254.07650  260.56310  255.98330  260.56310   67.57620   30.64290 2612.71000    -999.25    0.02260    0.05690   14.79810   30.64290  236.13500  239.39120  239.00680  231.40430  234.64220  407.92970  407.92970  232.24760   81.09320   85.36610   85.36610   14.79810   15.93640   15.93640    -999.25    0.21620    0.17260    2.81850    2.81850 2612.71000   18.05120  -39.66690  -23.08730   18.05120 12576.37010 10673.56650
 1850.00000  174.68360  256.33030  270.17910  260.82590  270.17910   48.96490   26.66480 2542.59100    0.09790    0.06510    0.09790   20.42280   26.66480  233.35110  178.37000  177.02790  177.07920  175.05820  426.85410  426.85410  174.68360  102.93650  104.88250  104.88250   20.42280   18.61250   18.61250    0.26170    0.30570    0.26170    2.59420    2.59420 2542.59100   25.73320  -24.51430  -10.88070   25.73320 12839.27340 11247.43910
 1900.00000  175.69020  247.00930  247.83240  250.78760  247.83240    7.04100    5.44890 2715.64300   -0.00330    -999.25   -0.00330  142.02560    5.44890  176.65840  176.00340  175.16680  174.54430  174.33420  327.58370  327.58370  175.69020   30.76000   32.53480   32.53480  142.02560  162.51560  162.51560    0.04010    -999.25    0.04010    4.49430    4.49430 2715.64300  152.59520  -55.87880  -45.19110  152.59520 12705.45310 11952.58100
 1950.00000  244.79110  246.77970  248.55680  245.69680  248.55680   37.49980    2.38300 2685.03400    0.01460    -999.25    0.01460   26.66680    2.38300  242.76370  243.29120  242.96690  242.45480  241.93910  425.97220  425.97220  244.79110  135.34910  132.06990  132.06990   26.66680   28.02620   28.02620    0.18750    -999.25    0.18750    3.77940    3.77940 2685.03400   38.02800  -13.59320   -5.85150   38.02800 12906.40530 12051.83550
 2000.00000  163.09910  270.77750  235.84520  247.55630  235.84520    1.52170   13.31120 2867.14900   -0.09190    -999.25   -0.09190  657.17070   13.31120  167.87490  163.90700  164.30060  163.12290  162.50340  309.51100  309.51100  163.09910   24.73350   28.05270   28.05270  657.17070  548.59410  548.59410    0.02410    -999.25    0.02410    3.75090    3.75090 2867.14900  519.13610  -97.77230  -90.69880  519.13610 13263.25490 12270.44740
 2050.00000  164.26390  252.38250  239.16920  243.86110  239.16920    1.09870    8.33520 2944.78300   -0.13730    -999.25   -0.13730  910.17680    8.33520  161.14460  163.99600  162.76630  161.82450  162.18420  300.50900  300.50900  164.26390   13.89340   13.36050   13.36050  910.17680 1152.14470 1152.14470    0.01460    -999.25    0.01460    5.06660    5.06660 2944.78300  982.38810 -112.74720 -106.08870  982.38810 13635.70700 12420.37510
 2100.00000  156.07780  262.67440  240.78530  246.14550  240.78530    0.50000   -6.63460 2920.33000   -0.12300    -999.25   -0.12300 2000.00000   -6.63460  150.47490  155.98070  154.41390  152.90350  153.98370  288.05570  288.05570  156.07780   12.79910   11.66280   11.66280 2000.00000 1945.75110 1945.75110    0.01030    -999.25    0.01030    4.12710    4.12710 2920.33000 1985.00850 -150.44230 -144.19890 1985.00850 13871.83890 12591.63610
 2150.00000  157.98280  257.33370  243.84690  253.42730  243.84690    2.69230    6.54580 2869.37200   -0.09320    -999.25   -0.09320  371.43460    6.54580  156.86330  157.28460  156.61660  154.43580  155.45450  295.69810  295.69810  157.98280   13.64060   15.57310   15.57310  371.43460  270.16180  270.16180    0.05280    -999.25    0.05280    3.34500    3.34500 2869.37200  812.83200 -109.53910 -103.71080  812.83200 14019.52830 13050.97150
 2200.00000  153.87420  266.46280  231.77320  242.94570  231.77320    1.81570    5.19480 2839.44700   -0.07570    -999.25   -0.07570  550.75410    5.19480  145.03210  157.93030  151.59940  146.52370  148.89000  261.98730  261.98730  153.87420   15.50470   15.82350   15.82350  550.75410  236.50360  236.50360    0.06330    -999.25    0.06330    3.23930    3.23930 2839.44700  358.88870  -96.24630  -93.92220  358.88870 14328.53130 13340.64460
 2250.00000  181.16650  241.80460  239.33740  244.93660  239.33740   22.19490    2.59500 2868.68800   -0.09280    -999.25   -0.09280   45.05530    2.59500  175.75920  178.13460  177.23420  175.56240  176.03140  320.56120  320.56120  181.16650   59.48510   54.71880   54.71880   45.05530   47.24720   47.24720    0.13470    -999.25    0.13470    3.34000    3.34000 2868.68800   49.55700  -14.99640  -24.12000   49.55700 14279.55180 13362.27760
 2300.00000  226.77140  311.54830  254.90070  267.81700  254.90070  105.31300   89.50540 2675.97100    0.01990    -999.25    0.01990    9.49550   89.50540  230.33440  218.11270  213.97130  211.40650  212.55290  431.93290  431.93290  226.77140   74.77830   77.89160   77.89160    9.49550   10.22060   10.22060    0.21530    -999.25    0.21530    3.99820    3.99820 2675.97100  683.12480    2.56860  -16.23600  683.12480 14558.82320 13659.33290
