~Version ---------------------------------------------------
VERS.      2.0 : CWLS log ASCII Standard -VERSION 2.0
WRAP.       NO : One line per depth step
CREA. 07/27/17 : LAS Creation Date
~Well ------------------------------------------------------
STRT.FT                                800.0 : START DEPTH
STOP.FT                              10200.0 : STOP DEPTH
STEP.FT                             50.00000 : STEP LENGTH
NULL.                                -999.25 : NULL VALUE
COMP.                 EXXONMOBIL CANADA LTD. : COMPANY
WELL. MOBIL CARSON CREEK WEST 11-1-61-13 #11 : WELL
FLD .                                        : FIELD
LOC .                                        : LOCATION
CTRY.                                 CANADA : COUNTRY
SRVC.                           Schlumberger : SERVICE COMPANY
DATE.                            03-Feb-1963 : LOGDATE
PROV.                                Alberta : PROVINCE
UWI .                       100110106113W500 : UNIQUE WELL ID
SLAT.WGS84                     54.2487051583 : SURFACE LATITUDE
SLON.WGS84                   -115.8169997457 : SURFACE LONGITUDE
~Curve Information -----------------------------------------
DEPT   .FT    : Depth Curve
CALWS  .IN    : CALIPER [MCALED]
CILDED .MMHO  : DEEP INDUCTION CONDUCTIVITY FROM IEL LOG
CONDWS .MMHO  : CONDUCTIVITY [1000/DRESWS]
DRESWS .OHMM  : DEEP RESISTIVITY [1000/CILDED IF ILDED < 4, ILDED]
DT1FTED.US/F  : ACOUSTIC TRANSIT TIME SLOWNESS(1 FT SPACING), DELTA T FROM SONIC LOG
DTED   .US/F  : ACOUSTIC TRANSIT TIME SLOWNESS (3 FT SPACING), DELTA T FROM SONIC LOG
DTWS   .US/F  : COMPRESSIONAL SONIC [DT1ED]
GRSED  .GAPI  : GAMMA RAY FROM SONIC LOG
GRWS   .GAPI  : GAMMA RAY [GRSED]
ILDED  .OHMM  : DEEP INDUCTION FROM IEL LOG
MCALED .IN    : MLT [MICROLOG] CALIPER FROM ML LOG
SNED   .OHMM  : SHORT NORMAL 10" FROM IEL LOG
SPRED  .MV    : SPONTANEOUS POTENTIAL FROM IEL LOG
SPWS   .MV    : SPONTANEOUS POTENTIAL [BASELINE 0 MV, SPRED]
SRESWS .OHMM  : SHALLOW RESISTIVITY [SNED]
~Params ----------------------------------------------------
PD  .                     GL : PERMANENT DATUM
EPD .FT               2486.7 : ELEVATION PERMANENT DATUM
LMF .                     KB : LOG MEASURED FROM
DAPD.FT                 14.5 : FEET ABOVE PERMANENT DATUM
EKB .FT               2501.2 : KELLY BUSHING
EGL .FT               2486.7 : GROUND LEVEL
DATE.               02/03/63 : RUN DATE
RUN .                      2 : RUN NUMBER
DD  .FT                10215 : DEPTH DRILLER
DL  .FT                10214 : DEPTH LOGGER
BLI .FT                10213 : BOTTOM LOG INTERVAL
TLI .FT                 5500 : TOP LOG INTERVAL
CBD .FT                 1031 : CASING BOTTOM DRILLER
CBL .FT                 1031 : CASING BOTTOM LOGGER
BS  .IN                    9 : BIT SIZE
BSD .FT                10215 : BIT SIZE AT DEPTH
DFT .                    GEL : DRILLING FLUID TYPE
DFD .                    9.7 : DRILLING FLUID DENSITY
DFV .                    150 : DRILLING FLUID VISCOSITY
DFPH.                   10.5 : DRILLING FLUID PH
DFL .                    8.2 : DRILLING FLUID LOSS
RMS .OHMM                3.1 : RESISTIVITY MUD SAMPLE
MST .DEGF                 63 : MUD SAMPLE TEMPERATURE
RMF .OHMM               2.22 : RESISTIVITY MUD FILTRATE SAMPLE
MFST.DEGF                 66 : MUD FILTRATE SAMPLE TEMPERATURE
RMC .OHMM               1.27 : RESISTIVITY MUD CAKE
MCST.DEGF                 66 : MUD CAKE SAMPLE TEMPERATURE
TCS .HRS                 4.5 : TIME CIRCULATED STOPPED
LUN .                   1571 : LOGGING UNIT NUMBER
LUL .                    WCT : LOGGING UNIT LOCATION
ENGI.                KOKONIS : RECORDING ENGINEER
WITN.                  MILLS : WITNESSED BY
CLNT.                A2DTECH : CLIENT CODE
ORIG.            2" 5" PRINT : ORIGIN OF DATA
UWI .       100110106113W500 : UNIQUE WELL ID
DICO. A2D Technologies, Inc. : DIGITIZING COMPANY
~Other -----------------------------------------------------
~ASCII -----------------------------------------------------
# ...
 7700.00000    9.47770   97.81900  100.92650    9.90820   70.65110   70.94330   70.65110   82.99150   82.99150    9.90820    9.47770   13.90380  -17.41840   -1.69370   13.90380
 7750.00000   11.36730  106.82800  109.62510    9.12200   67.93170   68.61130   67.93170   94.52890   94.52890    9.12200   11.36730   12.56800  -19.38610   -3.40960   12.56800
 7800.00000   10.04660  103.63290  104.80090    9.54190   69.76730   69.74940   69.76730   81.40950   81.40950    9.54190   10.04660   12.72910  -20.46960   -4.24170   12.72910
 7850.00000    9.09910   92.42000   96.40690   10.37270   70.02910   69.91520   70.02910   75.82260   75.82260   10.37270    9.09910   14.26960  -22.38590   -5.90460   14.26960
 7900.00000   11.32640  126.77010  131.30080    7.61610   72.42330   72.58170   72.42330   96.71400   96.71400    7.61610   11.32640   10.26210  -19.77790   -3.04480   10.26210
 7950.00000   11.48160  161.73340  163.33460    6.12240   77.09160   76.39010   77.09160  104.79410  104.79410    6.12240   11.48160    7.85920  -25.08280   -8.09630    7.85920
 8000.00000   12.69040  149.44780  158.25540    6.31890   77.55360   78.19170   77.55360   89.49190   89.49190    6.31890   12.69040    8.34640  -27.51480  -10.27640    8.34640
 8050.00000    9.34540   76.42110   79.93670   12.50990   67.82780   67.90430   67.82780   83.76840   83.76840   12.50990    9.34540   16.84620  -25.40360   -7.91390   16.84620
 8100.00000   11.81860  157.40680  162.00890    6.17250   73.82160   74.63080   73.82160  101.86590  101.86590    6.17250   11.81860    8.18930  -35.54460  -17.80150    8.18930
 8150.00000    9.11620   73.78550   74.41030   13.43900   65.27900   65.26800   65.27900   67.97140   67.97140   13.43900    9.11620   20.07010  -26.44260   -8.44770   20.07010
 8200.00000    9.19540   31.50880   29.95620   33.38210   66.96490   66.87670   66.96490   60.87070   60.87070   33.38210    9.19540   47.03680  -22.99000   -4.74170   47.03680
 8250.00000    9.33860   29.33310   26.82610   37.27710   67.38860   67.37380   67.38860   82.09210   82.09210   37.27710    9.33860   36.01740  -24.68050   -6.18030   36.01740
 8300.00000   13.56480   93.48020   93.60840   10.68280   65.92070   66.10380   65.92070   88.33720   88.33720   10.68280   13.56480   13.12110  -36.87360  -18.02430   13.12110
 8350.00000    9.93360    4.79950    3.02670  330.39520   51.25600   51.32570   51.25600   16.29210   16.29210  330.39520    9.93360  141.39730 -131.30050 -112.02240  141.39730
 8400.00000    9.83610    9.66330    7.81490  127.96140   53.45020   53.39410   53.45020   18.36480   18.36480  127.96140    9.83610  121.06320 -142.95940 -123.25510  121.06320
 8450.00000    9.94210    5.87420    3.63000  275.47970   50.41950   50.60350   50.41950   22.49960   22.49960  275.47970    9.94210  117.94070 -115.01570  -94.88270  117.94070
 8500.00000    9.62200   35.72740   34.38220   29.08480   52.05470   52.22390   52.05470   23.37270   23.37270   29.08480    9.62200   83.73080 -160.32440 -139.76520   83.73080
 8550.00000    9.44630   19.45220   17.76780   56.28160   51.84430   51.76900   51.84430   22.06280   22.06280   56.28160    9.44630   99.49730 -142.00760 -121.02310   99.49730
 8600.00000    8.79570   47.28690   47.89430   20.87930   52.55260   52.62850   52.55260   15.43080   15.43080   20.87930    8.79570   74.26390 -185.87230 -164.45900   74.26390
 8650.00000    9.72840    3.81080    2.08450  479.73340   50.17900   50.23080   50.17900   22.87520   22.87520  479.73340    9.72840  141.17280 -124.88910 -103.04960  141.17280
 8700.00000    9.63050    0.52730    1.18120  846.56890   53.08890   52.87540   53.08890   21.15100   21.15100  846.56890    9.63050  329.53010 -134.19390 -111.92570  329.53010
 8750.00000   10.00370    7.10750    5.29830  188.73840   55.29290   55.18860   55.29290   26.02440   26.02440  188.73840   10.00370  122.12400 -110.16110  -87.46670  122.12400
 8800.00000    9.56780   74.85820   77.66150   12.87640   67.53730   67.85570   67.53730  134.91640  134.91640   12.87640    9.56780   35.68370  -35.91710  -12.09510   35.68370
 8850.00000    9.05650   75.70910   73.37560   13.62850   58.03580   58.02680   58.03580  101.78330  101.78330   13.62850    9.05650   22.40370  -52.00910  -25.55500   22.40370
 8900.00000    9.38800   51.98980   51.25420   19.51060   64.92150   64.95640   64.92150  131.54040  131.54040   19.51060    9.38800   25.69570  -36.79850   -7.72800   25.69570
 8950.00000    7.47990  153.36600  145.22640    6.88580   66.81380   66.75850   66.81380   51.56720   51.56720    6.88580    7.47990   34.87350 -114.88590  -83.18330   34.87350
 9000.00000    9.52810   43.39330   42.94870   23.28360   56.07760   56.22030   56.07760   55.99560   55.99560   23.28360    9.52810   34.55510  -60.08380  -25.76480   34.55510
 9050.00000    9.62850   47.83140   47.63830   20.99150   54.34240   54.47280   54.34240   27.35110   27.35110   20.99150    9.62850   46.71870 -118.44040  -85.81510   46.71870
 9100.00000   12.34740   36.85590   31.78230   31.46410   55.80240   56.40400   55.80240  154.24750  154.24750   31.46410   12.34740   43.30250  -47.16980  -16.86900   43.30250
 9150.00000   10.28140   36.81820   34.89730   28.65550   66.18950   69.26350   66.18950  136.19650  136.19650   28.65550   10.28140   41.33820  -36.69210   -8.70180   41.33820
 9200.00000    9.93130   35.27100   32.78320   30.50340   48.42460   47.78470   48.42460  134.20710  134.20710   30.50340    9.93130   33.69630  -40.25580  -13.72860   33.69630
 9250.00000    9.21890   23.81040   22.21530   45.01400   57.33040   57.45890   57.33040  145.45460  145.45460   45.01400    9.21890   66.60230  -59.64700  -34.25270   66.60230
 9300.00000    8.94340   49.39570   48.46420   20.63380   61.58400   61.46400   61.58400  163.38820  163.38820   20.63380    8.94340   33.82140  -31.51240   -7.44530   33.82140
 9350.00000    8.48710  218.83800  226.14200    4.42200   64.24530   63.82470   64.24530  130.57140  130.57140    4.42200    8.48710   34.25610 -127.97870 -106.31640   34.25610
 9400.00000    9.91890  142.70040  147.60800    6.77470   73.96050   75.70710   73.96050  159.36660  159.36660    6.77470    9.91890   11.82400  -35.74510  -16.47320   11.82400
 9450.00000    7.96150   80.92720   80.86750   12.36590   52.39560   52.34940   52.39560   39.34220   39.34220   12.36590    7.96150   49.76620 -137.72210 -120.85490   49.76620
 9500.00000   11.39180   50.65090   49.89350   20.04270   67.62000   67.96310   67.62000  170.54980  170.54980   20.04270   11.39180   25.58830  -17.00780   -2.53100   25.58830
 9550.00000   15.38750   80.26600   81.34120   12.29390   76.22100   78.36100   76.22100   90.03390   90.03390   12.29390   15.38750   17.86950  -28.20280  -12.84930   17.86950
 9600.00000   15.93550   84.98960   85.62380   11.67900   70.54110   71.10440   70.54110   86.19240   86.19240   11.67900   15.93550   13.22100  -32.88110  -18.63980   13.22100
 9650.00000   15.16910   93.58100   89.57920   11.16330   87.62520   80.00000   87.62520  109.08510  109.08510   11.16330   15.16910   14.12750  -32.54490  -20.29090   14.12750
 9700.00000   15.23760   72.58160   73.60250   13.58650   87.82360   80.00000   87.82360  119.00930  119.00930   13.58650   15.23760   14.06980  -30.08820  -19.83350   14.06980
 9750.00000    9.96040   30.36160   29.26190   34.17410   66.84180   67.08240   66.84180  150.45720  150.45720   34.17410    9.96040   39.53030  -13.08390   -4.72410   39.53030
 9800.00000    8.95280   81.30430   82.08360   12.18270   61.83360   61.56040   61.83360  117.62900  117.62900   12.18270    8.95280   19.42350  -52.38490  -44.69320   19.42350
 9850.00000    9.84720  395.67970  394.71090    2.53350   66.03340   66.06240   66.03340  104.21170  104.21170    2.65270    9.84720    9.28460  -70.93470  -63.91650    9.28460
 9900.00000    9.01360   74.09160   69.48160   14.39230   64.73570   65.08460   64.73570   64.91870   64.91870   14.39230    9.01360   19.26990  -48.26980  -41.92100   19.26990
 9950.00000   10.37690   29.34740   27.99490   35.72080   65.67760   65.86380   65.67760  179.87530  179.87530   35.72080   10.37690   39.47970   -9.43460   -3.75930   39.47970
