~Version ---------------------------------------------------
VERS.      2.0 : CWLS log ASCII Standard -VERSION 2.0
WRAP.       NO : One line per depth step
CREA. 12/15/17 : LAS Creation Date
~Well ------------------------------------------------------
STRT.FT                                 1000.0 : START DEPTH
STOP.FT                                 9900.0 : STOP DEPTH
STEP.FT                               50.00000 : STEP LENGTH
NULL.                                  -999.25 : NULL VALUE
COMP. THE BRITISH AMERICAN OIL COMPANY LIMITED : COMPANY
WELL.                  B.A. MEEKWAP 10-1-66-19 : WELL
FLD .                                          : FIELD
LOC .                                          : LOCATION
CTRY.                                   CANADA : COUNTRY
SRVC.                   Schlumberger of Canada : SERVICE COMPANY
DATE.                              27-Feb-1961 : LOGDATE
PROV.                                  Alberta : PROVINCE
UWI .                         100100106619W500 : UNIQUE WELL ID
SLAT.WGS84                            54.68526 : SURFACE LATITUDE
SLON.WGS84                           -116.7316 : SURFACE LONGITUDE
~Curve Information -----------------------------------------
DEPT  .FT         : Depth Curve
CILDED.MMHO       : CONDUCTIVITY FROM RESISTIVITY LOG
CONDWS.MMHO       : CONDUCTIVITY [1000/DRESWS]
DRESWS.OHMM       : DEEP RESISTIVITY [1000/CILDED IF ILDED <=3, ILDED]
DT1ED .US/F       : DELTA TIME [SPAN 1'] FROM SONIC LOG [ADJ. TO RESISTIVITY LOG]
DTED  .US/F       : DELTA TIME [SPAN 3'] FROM SONIC LOG [ADJ. TO RESISTIVITY LOG]
DTWS  .US/F       : COMPRESSIONAL SONIC [DTED]
GRSED .UgRa-Eq/T  : GAMMA RAY FROM SONIC LOG [ADJ. TO RESISTIVITY LOG]
GRWS  .GAPI       : GAMMA RAY [GRSED*16.5]
ILDED .OHMM       : DEEP  INDUCTION LOG RESISTIVITY FROM RESISTIVITY LOG
SNED  .OHMM       : SHORT NORMAL 16" RESISTIVITY FROM RESISTIVITY LOG
SPRED .MV         : SPONTANEOUS POTENTIAL FROM RESISTIVITY LOG
SPWS  .MV         : SPONTANEOUS POTENTIAL [BASELINE 0 MV, SPRED]
SRESWS.OHMM       : SHALLOW RESISTIVITY [SNED]
~Params ----------------------------------------------------
LMF .                     KB : LOG MEASURED FROM
DMF .                     KB : DRILLING MEASURED FROM
EKB .FT                 2815 : KELLY BUSHING
DATE.               02/27/61 : RUN DATE
RUN .                      2 : RUN NUMBER
DD  .FT                 9915 : DEPTH DRILLER
DL  .FT                 9909 : DEPTH LOGGER
BLI .FT                 9908 : BOTTOM LOG INTERVAL
TLI .FT                 6157 : TOP LOG INTERVAL
CBD .FT                 1004 : CASING BOTTOM DRILLER
BS  .IN                 6.25 : BIT SIZE
BSD .FT                 9915 : BIT SIZE AT DEPTH
DFT .                    GEL : DRILLING FLUID TYPE
DFD .                   10.4 : DRILLING FLUID DENSITY
DFV .                     84 : DRILLING FLUID VISCOSITY
DFPH.                      9 : DRILLING FLUID PH
DFL .                      7 : DRILLING FLUID LOSS
RMF .OHMM               1.95 : RESISTIVITY MUD FILTRATE SAMPLE
MFST.DEGF                 64 : MUD FILTRATE SAMPLE TEMPERATURE
RMC .OHMM                3.9 : RESISTIVITY MUD CAKE
MCST.DEGF                 64 : MUD CAKE SAMPLE TEMPERATURE
TCS .HRS                 9.5 : TIME CIRCULATED STOPPED
LUN .                  1573C : LOGGING UNIT NUMBER
LUL .                     WC : LOGGING UNIT LOCATION
ENGI.               STAFFORD : RECORDING ENGINEER
WITN.               ANDERSON : WITNESSED BY
CLNT.                A2DTECH : CLIENT CODE
ORIG.            2" 5" PRINT : ORIGIN OF DATA
UWI .       100100106619W500 : UNIQUE WELL ID
DICO. A2D Technologies, Inc. : DIGITIZING COMPANY
~Other -----------------------------------------------------
~ASCII -----------------------------------------------------
# ...
 3600.00000  152.44310  156.53860    6.38820    -999.25  100.90540  100.90540    6.66420  109.95930    6.38820    8.39150 -119.90550   -3.36410    8.39150
 3650.00000  149.08790  152.59720    6.55320    -999.25   99.18180   99.18180    6.97530  115.09250    6.55320    8.57090 -118.71370   -3.18820    8.57090
 3700.00000  125.63520  128.62730    7.77440    -999.25   97.48880   97.48880    6.91110  114.03320    7.77440   10.64220 -116.74330   -2.43450   10.64220
 3750.00000  138.71170  141.65510    7.05940    -999.25   99.22790   99.22790    7.16880  118.28520    7.05940    9.73670 -115.89880   -2.79870    9.73670
 3800.00000  134.96280  137.54970    7.27010    -999.25   99.43330   99.43330    7.45640  123.03060    7.27010   10.31780 -115.60920   -3.71790   10.31780
 3850.00000  109.08630  109.93240    9.09650    -999.25   98.97270   98.97270    7.34610  121.21070    9.09650   13.57430 -113.11670   -2.44210   13.57430
 3900.00000  196.89970  203.00030    4.92610    -999.25  100.74410  100.74410    6.45850  106.56520    4.92610    6.45860 -117.55250   -3.81780    6.45860
 3950.00000  181.75840  187.90280    5.32190    -999.25   90.11330   90.11330    6.02870   99.47350    5.32190    6.88590 -116.82720   -3.73590    6.88590
 4000.00000  106.81790  108.47870    9.21840    -999.25   76.49820   76.49820    6.07370  100.21610    9.21840   10.85270 -116.26760   -3.81560   10.85270
 4050.00000  185.48970  191.92380    5.21040    -999.25   90.53210   90.53210    5.53890   91.39190    5.21040    6.82420 -114.37210   -2.55930    6.82420
 4100.00000  141.59270  144.28560    6.93070    -999.25   86.89980   86.89980    6.33230  104.48300    6.93070    9.00810 -115.55500   -4.28450    9.00810
 4150.00000  176.35350  182.29880    5.48550    -999.25   90.99270   90.99270    6.03440   99.56760    5.48550    7.14380 -114.52150   -3.56980    7.14380
 4200.00000  243.33850  255.41480    3.91520    -999.25   93.85710   93.85710    5.86260   96.73290    3.91520    5.42890 -112.94310   -2.31240    5.42890
 4250.00000  237.80410  245.78480    4.06860    -999.25   91.95610   91.95610    6.92040  114.18660    4.06860    5.66280 -114.06750   -3.75560    5.66280
 4300.00000  316.20860  316.20860    3.16250    -999.25   95.56560   95.56560    6.66900  110.03850    2.98360    4.62380 -112.23870   -2.24570    4.62380
 4350.00000  437.39180  437.39180    2.28630    -999.25  102.28180  102.28180    5.42270   89.47450    2.16300    3.12320 -111.42780   -1.75570    3.12320
 4400.00000  266.78070  279.12690    3.58260    -999.25   91.42270   91.42270    5.67870   93.69850    3.58260    4.65000 -111.74020   -2.38700    4.65000
 4450.00000  277.58010  295.15940    3.38800   98.80390   92.20980   92.20980    6.38680  105.38220    3.38800    4.84100 -111.46130   -2.42900    4.84100
 4500.00000  208.54100  220.68230    4.53140   82.80540   88.68760   88.68760    5.79000   95.53500    4.53140    6.38240 -111.89890   -3.18550    6.38240
 4550.00000   80.92070   77.54940   12.89500   76.76860   69.92760   69.92760    2.04240   33.69960   12.89500   34.98860 -159.22160  -50.82700   34.98860
 4600.00000  168.26320  175.11290    5.71060   86.26290   83.41430   83.41430    4.75900   78.52350    5.71060    7.95620 -111.13130   -3.05770    7.95620
 4650.00000  117.82090  120.21690    8.31830   74.75270   78.69380   78.69380    5.35700   88.39130    8.31830   11.56350 -112.22300   -4.56420   11.56350
 4700.00000  115.11570  105.51420    9.47740   72.77210   76.52530   76.52530    4.43580   73.19070    9.47740   12.26600 -110.96390   -4.05790   12.26600
 4750.00000  129.83760  120.92630    8.26950   69.45610   87.04580   87.04580    5.92960   97.83840    8.26950   10.39820 -108.91920   -2.76110   10.39820
 4800.00000  114.58110  117.09330    8.54020   86.71810   83.92830   83.92830    4.30270   70.99450    8.54020   11.84490 -126.38260  -20.97240   11.84490
 4850.00000  104.71660  105.62230    9.46770   79.11720   79.09860   79.09860    3.87590   63.95240    9.46770   17.07590 -130.92040  -26.26310   17.07590
 4900.00000  115.72360  116.18590    8.60690   73.19580   70.52600   70.52600    4.13670   68.25550    8.60690   13.79320 -107.88710   -3.97770   13.79320
 4950.00000  141.96330  145.30450    6.88210   79.14740   77.43250   77.43250    4.35650   71.88220    6.88210    9.18150 -107.23030   -4.07370    9.18150
 5000.00000  113.12290  114.20220    8.75640   83.88570   81.17900   81.17900    4.59870   75.87860    8.75640   13.11900 -109.02730   -6.61860   13.11900
 5050.00000  162.84440  167.69800    5.96310   97.43970   89.80000   89.80000    5.20450   85.87430    5.96310    8.94100 -108.57040   -6.90960    8.94100
 5100.00000  134.10040  136.42750    7.32990   82.14500   80.22190   80.22190    5.61680   92.67720    7.32990   10.31730 -102.86560   -1.95760   10.31730
 5150.00000  167.11270  173.01040    5.78000   76.14180   74.78170   74.78170    4.05290   66.87290    5.78000   16.07920 -145.17680  -45.27190   16.07920
 5200.00000  325.79870  325.79870    3.06940   77.93330   77.14470   77.14470    4.02960   66.48920    2.95280   11.72830 -157.87200  -59.05370   11.72830
 5250.00000  134.61260  136.74090    7.31310   75.88540   74.42580   74.42580    4.15760   68.60040    7.31310    9.70860 -113.99480  -16.25590    9.70860
 5300.00000  139.62770  144.19820    6.93490   78.79650   78.11960   78.11960    5.79910   95.68430    6.93490    9.81040 -100.10380   -3.44440    9.81040
 5350.00000  398.57060  398.57060    2.50900   85.02830   89.08560   89.08560    4.96460   81.91590    2.43290    3.89400 -101.33490   -5.76200    3.89400
 5400.00000   95.24520   92.71790   10.78540   75.04930   70.90390   70.90390    3.79800   62.66700   10.78540   15.19470 -121.98570  -27.37420   15.19470
 5450.00000   41.34140   39.10100   25.57480   73.94140   72.29520   72.29520    4.36840   72.07860   25.57480   38.59910 -103.39210   -9.48270   38.59910
 5500.00000  178.28490  183.43580    5.45150   74.63760   73.73370   73.73370    2.10300   34.69950    5.45150   19.15560 -180.59350  -87.38170   19.15560
 5550.00000  283.80820  298.73930    3.34740   89.35720   90.98570   90.98570    5.90880   97.49520    3.34740    5.21490  -97.65330   -5.13900    5.21490
 5600.00000  249.06420  261.10340    3.82990   86.71660   86.17830   86.17830    5.89610   97.28560    3.82990    5.95740  -97.03170   -9.86700    5.95740
 5650.00000  321.62990  320.37930    3.12130   95.98710   91.49120   91.49120    6.70830  110.68700    3.12130    5.82750  -90.96320   -9.13490    5.82750
 5700.00000   73.57820   69.95060   14.29580  101.30590  100.35440  100.35440    8.64770  142.68710   14.29580   32.30670  -87.83010   -6.00180   32.30670
 5750.00000    7.30210    7.16520  139.56380   74.20420   72.42810   72.42810   13.65470  225.30260  139.56380  143.63130 -115.18940  -31.88920  143.63130
 5800.00000  111.66190  111.73310    8.94990  105.96940   94.65410   94.65410   12.80630  211.30400    8.94990   49.34350 -167.60220  -79.82750   49.34350
 5850.00000  162.40210  167.70080    5.96300   66.08350   66.33210   66.33210    4.85770   80.15210    5.96300    9.09540 -118.53020  -26.25150    9.09540
 5900.00000  111.91470  115.92460    8.62630   65.85390   65.24800   65.24800    4.68490   77.30080    8.62630   11.78420 -109.34860  -12.59540   11.78420
 5950.00000  211.11450  221.12640    4.52230   66.65450   65.70800   65.70800    5.24150   86.48480    4.52230    6.42340 -118.95110  -19.54480    6.42340
 6000.00000  130.99260  132.41530    7.55200   65.22980   62.24790   62.24790    4.10060   67.65990    7.55200   12.59650 -133.99340  -32.98330   12.59650
 6050.00000  205.52200  159.68060    6.26250   57.57070   52.49910   52.49910    2.14480   35.38920    6.26250   30.77270 -160.05750  -57.44360   30.77270
 6100.00000  190.68330  132.88150    7.52550   48.94670   48.02850   48.02850    1.79050   29.54330    7.52550   70.65530 -215.16850 -110.94030   70.65530
 6150.00000  155.79710  136.20660    7.34180   57.77470   62.06810   62.06810    2.97820   49.14030    7.34180   36.00330 -115.15610   -9.32410   36.00330
