~Version ---------------------------------------------------
VERS.      2.0 : CWLS log ASCII Standard -VERSION 2.0
WRAP.       NO : One line per depth step
CREA. 08/02/17 : LAS Creation Date
~Well ------------------------------------------------------
STRT.FT                        650.0 : START DEPTH
STOP.FT                      10150.0 : STOP DEPTH
STEP.FT                     50.00000 : STEP LENGTH
NULL.                        -999.25 : NULL VALUE
COMP.     THE CALIFORNIA STANDARD CO : COMPANY
WELL. CALSTAN B A IOSEGUN 7-33-63-19 : WELL
FLD .                         KAYBOB : FIELD
LOC .                                : LOCATION
CTRY.                         CANADA : COUNTRY
SRVC.         Schlumberger of Canada : SERVICE COMPANY
DATE.                    08-Oct-1957 : LOGDATE
PROV.                        Alberta : PROVINCE
UWI .               100073306319W500 : UNIQUE WELL ID
SLAT.WGS84                  54.49249 : SURFACE LATITUDE
SLON.WGS84                 -116.8075 : SURFACE LONGITUDE
~Curve Information -----------------------------------------
DEPT  .FT    : Depth Curve
CALWS .IN    : CALIPER [MCALED]
CILDED.MMHO  : CONDUCTIVITY FROM RESISTIVITY LOG
CONDWS.MMHO  : CONDUCTIVITY [1000/DRESWS]
DRESWS.OHMM  : DEEP RESISTIVITY [ILDED] IF ILDED<1;1000/CILDED; ELSE ILDED
GRNED .CU    : GAMMA RAY FROM NEUTRON LOG [ADJ TO ILDED]
GRWS  .CU    : GAMMA RAY [GRNED, CASED HOLE DATA]
ILDED .OHMM  : INDUCTION LOG DEEP RESISTIVITY
LATED .OHMM  : 18 FOOT 8 INCH LATERAL RESISTIVITY FROM IEL
LNED  .OHMM  : 64 INCH LONG NORMAL RESISTIVITY FROM IEL
MCALED.IN    : CALIPER MICROLOG
MLLED .OHMM  : MICROLATEROLOG RESISTIVITY [ADJ TO ILDED]
NEUTED.CU    : NEUTRON FROM NEUTRON LOG [ADJ TO ILDED]
NEUTWS.CU    : NEUTRON [NEUTED]
SNED  .OHMM  : 16 INCH SHORT NORMAL RESISTIVITY FROM IEL
SPRED .MV    : SPONTANEOUS POTENTIAL FROM RESISTIVITY LOG
SPWS  .MV    : SPONTANEOUS POTENTIAL [BASELINE 0 MV] [SPRED]
SRESWS.OHMM  : SHALLOW RESISTIVITY [SNED]
~Params ----------------------------------------------------
LMF .                     KB : LOG MEASURED FROM
DMF .                     KB : DRILLING MEASURED FROM
EKB .FT                 2601 : KELLY BUSHING
EGL .FT                 2588 : GROUND LEVEL
DATE.               10/08/57 : RUN DATE
RUN .                      1 : RUN NUMBER
DD  .FT                10194 : DEPTH DRILLER
DL  .FT                10189 : DEPTH LOGGER
BLI .FT                10188 : BOTTOM LOG INTERVAL
TLI .FT                  825 : TOP LOG INTERVAL
CBD .FT                  825 : CASING BOTTOM DRILLER
CBL .FT                  825 : CASING BOTTOM LOGGER
BS  .IN                    9 : BIT SIZE
BSD .FT                10194 : BIT SIZE AT DEPTH
DFT .                    GEL : DRILLING FLUID TYPE
DFD .                   10.6 : DRILLING FLUID DENSITY
DFV .                    177 : DRILLING FLUID VISCOSITY
DFPH.                    9.5 : DRILLING FLUID PH
DFL .                    5.4 : DRILLING FLUID LOSS
RMS .OHMM                8.0 : RESISTIVITY MUD SAMPLE
RMF .OHMM                1.6 : RESISTIVITY MUD FILTRATE SAMPLE
MFST.DEGF                 62 : MUD FILTRATE SAMPLE TEMPERATURE
RMC .OHMM                2.1 : RESISTIVITY MUD CAKE
MCST.DEGF                 62 : MUD CAKE SAMPLE TEMPERATURE
RMB .OHMM                1.0 : RESISTIVITY MUD AT BHT
TCS .HRS                   2 : TIME CIRCULATED STOPPED
LUN .                   1534 : LOGGING UNIT NUMBER
LUL .                     VV : LOGGING UNIT LOCATION
ENGI.               THOMPSON : RECORDING ENGINEER
WITN.                JOHNSON : WITNESSED BY
CLNT.                A2DTECH : CLIENT CODE
ORIG.            2" 5" PRINT : ORIGIN OF DATA
UWI .       100073306319W500 : UNIQUE WELL ID
DICO. A2D Technologies, Inc. : DIGITIZING COMPANY
~Other -----------------------------------------------------
~ASCII -----------------------------------------------------
# ...
 4750.00000    -999.25  393.69010  420.33700    2.37920   36.78680   36.78680    2.37920    3.44590    3.64630    -999.25    -999.25  915.88370  915.88370    3.44760 -132.25650   -1.77040    3.44760
 4800.00000    -999.25  230.33280  249.86260    4.00220   30.89250   30.89250    4.00220    3.65320    5.17050    -999.25    -999.25 1024.43760 1024.43760    5.23520 -132.73130   -2.24530    5.23520
 4850.00000    -999.25  255.53850  260.02000    3.84600   31.76400   31.76400    3.84600    5.52900    5.23260    -999.25    -999.25 1030.11110 1030.11110    5.31560 -131.92740   -1.44130    5.31560
 4900.00000   11.28720  205.74540  205.54680    4.86640   30.23920   30.23920    4.86640    4.80020    7.46570   11.28720    1.77130 1060.36010 1060.36010    7.10830 -132.84800   -2.36200    7.10830
 4950.00000    9.90980   50.31360   46.67730   21.42370   27.19660   27.19660   21.42370   19.01150   24.35510    9.90980   23.45010 1215.76710 1215.76710   22.08930 -154.14900  -23.66300   22.08930
 5000.00000   10.94370  126.48230  116.35400    8.60590   22.14900   22.14900    8.60590    2.84830    9.77690   10.94370   12.62970 1188.08740 1188.08740   11.33300 -132.21640   -1.96990   11.33300
 5050.00000   11.37900   94.66700   96.40230   10.37320   28.81540   28.81540   10.37320   36.38280   12.97280   11.37900   18.04490 1287.37060 1287.37060   15.48150 -145.57150  -15.89940   15.48150
 5100.00000   10.99380  112.19990  106.71580    9.37320   31.05730   31.05730    9.37320    9.84000   13.11050   10.99380   63.86120 1229.79440 1229.79440    9.61360 -133.90510   -4.81310    9.61360
 5150.00000   11.16780   79.99410   75.40810   13.26130   25.76870   25.76870   13.26130   14.22840   21.24490   11.16780   13.55280 1205.31180 1205.31180   18.04020 -132.68060   -4.16590   18.04020
 5200.00000   10.72430  114.65210  110.23660    9.07140   26.35840   26.35840    9.07140    4.27330   26.60100   10.72430    9.02410 1301.83870 1301.83870   14.66610 -133.68500   -5.75030   14.66610
 5250.00000   11.71220   98.20560   93.49100   10.69710   20.37780   20.37780   10.69710  116.54810   14.40740   11.71220   11.94910  980.97380  980.97380   17.00240 -132.09590   -4.73560   17.00240
 5300.00000   11.14530   91.11880   88.39940   11.31230   25.55370   25.55370   11.31230    8.64690   21.15490   11.14530   18.08710 1377.50900 1377.50900   13.82630 -141.87470  -15.08870   13.82630
 5350.00000   11.36430   76.76480   67.26940   14.90160   20.79560   20.79560   14.90160   19.37730   32.00000   11.36430   13.66840  994.32410  994.32410   27.21040 -131.18420   -4.97840   27.21040
 5400.00000    9.63820   64.39380   61.91950   16.15470   17.15120   17.15120   16.15470   19.42170   32.74420    9.63820   14.99230 1528.97090 1528.97090   23.68450 -168.25530  -42.62670   23.68450
 5450.00000    9.55970   63.50680   59.80540   16.72090   16.33610   16.33610   16.72090   22.14700   24.08550    9.55970    7.25600 1450.85640 1450.85640   23.30220 -172.83910  -48.12800   23.30220
 5500.00000   11.25660   97.38230   94.28730   10.60620   22.98690   22.98690   10.60620    6.09130   20.99680   11.25660   13.80060 1271.24540 1271.24540   14.18400 -130.56670   -7.11510   14.18400
 5550.00000    9.08180   58.77120   55.17670   18.12360   15.57710   15.57710   18.12360   12.73900   21.46110    9.08180   20.21190 1594.84240 1594.84240   23.69680 -183.83000  -61.63790   23.69680
 5600.00000   10.28750   77.65370   74.83590   13.37060   25.28730   25.28730   13.37060   12.78030   15.32090   10.28750   42.27100 1456.66240 1456.66240   16.15140 -129.79770   -8.87770   16.15140
 5650.00000   10.45090   98.52800   96.83720   10.33300   24.56580   24.56580   10.33300   12.23780   15.13240   10.45090   21.75530 1330.94300 1330.94300   14.04780 -125.86930   -6.21510   14.04780
 5700.00000   10.66550  111.57770  105.61110    9.46870   29.88610   29.88610    9.46870    8.57110    9.97560   10.66550   11.68010 1306.40050 1306.40050   11.45770 -123.81970   -5.43770   11.45770
 5750.00000    8.42980  306.32800  312.73850    3.20070    9.43100    9.43100    3.20070    9.61670    9.77710    8.42980   22.24970 1536.41830 1536.41830   16.49180 -230.31180 -113.18920   16.49180
 5800.00000    9.72700   39.84200   35.61390   28.07890   14.68570   14.68570   28.07890   11.98430   41.97890    9.72700  102.81590 1451.25010 1451.25010   39.19410 -162.49700  -46.63400   39.19410
 5850.00000   10.62560   64.94260   61.65470   16.22190   32.80190   32.80190   16.22190   23.16180   32.95190   10.62560   16.94520 1181.57930 1181.57930   23.41750 -124.18300   -9.59220   23.41750
 5900.00000    8.23450   59.48400   55.48370   18.02510    9.36440    9.36440   18.02510   27.48250   26.69470    8.23450   28.40580 1267.51170 1267.51170   24.59040 -202.67970  -89.35470   24.59040
 5950.00000   10.26770  151.72780  136.28810    7.33740   27.96230   27.96230    7.33740    3.75130    8.68850   10.26770    3.86510 1023.91410 1023.91410    9.71050 -117.66120   -5.60830    9.71050
 6000.00000   12.02910  380.41110  351.79110    2.84300   27.23620   27.23620    2.84300    3.41960    3.93060   12.02910    1.73110  855.57210  855.57210    4.15570 -118.15660   -7.36320    4.15570
 6050.00000   14.05150  327.73780  305.38080    3.27460   24.31520   24.31520    3.27460    4.26820    4.48820   14.05150    1.53890  890.03830  890.03830    4.90490 -117.35030   -7.81640    4.90490
 6100.00000   11.57620   71.82450   65.11840   15.36140   36.39190   36.39190   15.36140   57.75900   62.96410   11.57620    5.79770  897.36230  897.36230   30.32000 -112.40860   -4.09970   30.32000
 6150.00000    9.28550   11.40860    7.40860  138.00680   59.13230   59.13230  138.00680   24.97410   75.96880    9.28550  361.20150 1307.84220 1307.84220   52.24650 -115.67770   -8.18580   52.24650
 6200.00000    9.77200   68.33920   63.37980   15.77790   22.80980   22.80980   15.77790  832.19720   38.61240    9.77200   57.32180 1902.47560 1902.47560   19.02970 -131.72970  -25.05890   19.02970
 6250.00000   10.31100   59.80280   55.36010   18.06380   26.71200   26.71200   18.06380   20.45060   25.81710   10.31100   24.16140 1598.19560 1598.19560   20.56060 -132.72740  -26.86960   20.56060
 6300.00000   10.00110   78.38950   73.99130   13.51510   25.73120   25.73120   13.51510   13.96590   18.73610   10.00110   22.95790 1613.66920 1613.66920   17.62000 -141.59650  -36.55160   17.62000
 6350.00000    9.77990   94.86110   88.33080   11.32220   22.32710   22.32710   11.32220   17.54950   21.18560    9.77990   59.25370 1634.21900 1634.21900   20.13040 -161.34590  -57.12200   20.13040
 6400.00000    8.30300   56.88690   48.84130   20.54330    6.25150    6.25150   20.54330   67.24560   54.68690    8.30300  123.09310 1498.47000 1498.47000   41.51460 -218.30290 -114.89610   41.51460
 6450.00000   11.03440   14.26090   12.04530   83.01960    9.26700    9.26700   83.01960  165.23740  201.81820   11.03440  105.86430 1633.53760 1633.53760   92.48260 -150.78400  -48.19830   92.48260
 6500.00000    8.65040  145.85670  139.78680    7.15400    8.54920    8.54920    7.15400  164.58390   75.00560    8.65040   97.81540 1708.59070 1708.59070   48.82780 -252.31860 -150.54580   48.82780
 6550.00000    9.08000   11.30360    8.55250  116.92530    7.51390    7.51390  116.92530  112.75320  295.25100    9.08000  401.44290 1988.37820 1988.37820  126.55020 -161.93730  -60.97740  126.55020
 6600.00000    9.47020   24.50950   18.65280   54.06970   18.64240   18.64240   54.06970  123.16530  108.46240    9.47020  146.89760 2059.76460 2059.76460   57.14400 -115.07910  -14.94030   57.14400
 6650.00000    8.98030  177.24510  175.84090    5.68720   13.62380   13.62380    5.68720  311.36980   25.80640    8.98030   15.97030 1611.77120 1611.77120   24.33190 -255.56700 -156.24520   24.33190
 6700.00000    9.57110  107.53110   99.02660   10.09830   13.11840   13.11840   10.09830   22.17320   24.90570    9.57110   15.20610 2135.31840 2135.31840   30.04490 -225.86620 -127.36550   30.04490
 6750.00000    9.83090   28.06800   24.98900   40.06720   14.62500   14.62500   40.06720   76.74620  128.59830    9.83090  396.60630 2245.65970 2245.65970   70.24390 -128.11600  -30.42830   70.24390
