~Version ---------------------------------------------------
VERS. 2.0 : CWLS log ASCII Standard -VERSION 2.0
WRAP.  NO : ONE LINE PER DEPTH STEP
~Well ------------------------------------------------------
STRT.M                                    400.0 : START DEPTH
STOP.M                                   2550.0 : STOP DEPTH
STEP.M                                 50.00000 : STEP LENGTH
NULL.                                   -999.25 : NULL VALUE
COMP.              HUSKY OIL OPERATIONS LIMITED : COMPANY
WELL. CANTERRA ET AL TWINING 10-30-32-23 #10-30 : WELL
FLD .                                           : FIELD
LOC .                                           : LOCATION
CTRY.                                    CANADA : COUNTRY
SRVC.                              Schlumberger : SERVICE COMPANY
DATE.                               19-Sep-1988 : LOGDATE
PROV.                                   Alberta : PROVINCE
UWI .                          100103003223W400 : UNIQUE WELL ID
SLAT.WGS84                             51.77547 : SURFACE LATITUDE
SLON.WGS84                            -113.2476 : SURFACE LONGITUDE
~Curve Information -----------------------------------------
DEPT   .M    0   1   0  0 : 1 MEASURED DEPTH
GRS    .GAPI 60 310 01 00 : GAMMA RAY FROM SONIC LOG
DT     .US/M 60 500 00 00 : DELTA-T (INTERVAL TRANSIT TIME)
CALS   .MM   60 280 50 00 : CALIPER FROM SONIC LOG
TENS   .KG   60 635 00 00 : TENSION FROM SONIC LOG
GRR_1  .GAPI 11 310 01 00 : GAMMA RAY FROM RESISTIVITY LOG
SPR_1  .MV   11 010 01 00 : SPONTANEOUS POTENTIAL FROM RESISTIVITY
LLD    .OHMM 11 220 10 00 : LATEROLOG DEEP RESISTIVITY
LLS    .OHMM 11 220 09 00 : LATEROLOG SHALLOW RESISTIVITY
TENR_1 .LB   11 635 00 00 : TENSION FROM RESISTIVITY LOG
GRR    .GAPI 07 310 01 00 : GAMMA RAY FROM RESISTIVITY LOG
ILD    .OHMM 07 120 46 00 : INDUCTION DEEP RESISTIVITY
ILM    .OHMM 07 120 44 00 : INDUCTION MEDIUM RESISTIVITY
SFLU   .OHMM 07 220 01 00 : SHALLOW FOCUSED RESISTIVITY (UNAVERAGED)
TENR   .KG   07 635 00 00 : TENSION FROM RESISTIVITY LOG
SPR    .MV   07 010 01 00 : SPONTANEOUS POTENTIAL FROM RESISTIVITY LOG
NPHI_LS.DEC  42 890 01 00 : NEUTRON POROSITY LIMESTONE
GRD    .GAPI 45 310 01 00 : GAMMA RAY FROM DENSITY LOG
DRHO   .K/M3 45 356 01 00 : BULK DENSITY CORRECTION
PEF    .B/E  45 358 01 00 : PHOTOELECTRIC FACTOR
RHOB   .K/M3 45 350 01 00 : BULK DENSITY
TEND   .KG   45 635 00 00 : TENSION FROM DENSITY LOG
CALD   .MM   45 280 60 00 : CALIPER FROM DENSITY LOG
CALSD  .MM   45 280 60 00 : MICRO RESISTIVITY CALIPER FROM DENSITY
NPHI_SS.DEC  42 890 03 00 : NEUTRON POROSITY SANDSTONE
~Params ----------------------------------------------------
PD  .                         GL : PERMANENT DATUM
EPD .M                     882.7 : ELEVATION PERMANENT DATUM
LMF .                         KB : LOG MEASURED FROM
DAPD.M                       4.9 : FEET ABOVE PERMANENT DATUM
DMF .                         KB : DRILLING MEASURED FROM
EKB .M                     887.6 : KELLY BUSHING
EDF .M                     887.4 : DRILLING FLOOR
EGL .M                     882.7 : GROUND LEVEL
DATE.                   09/19/88 : RUN DATE
RUN .                          1 : RUN NUMBER
DD  .M                      2564 : DEPTH DRILLER
DL  .M                    2561.2 : DEPTH LOGGER
BLI .M                    2560.7 : BOTTOM LOG INTERVAL
TLI .M                     392.2 : TOP LOG INTERVAL
CS  .MM                    244.5 : CASING SIZE
CBD .M                       393 : CASING BOTTOM DRILLER
CBL .M                     392.2 : CASING BOTTOM LOGGER
BS  .MM                      222 : BIT SIZE
BSD .M                      2564 : BIT SIZE AT DEPTH
DFT .                   GEL CHEM : DRILLING FLUID TYPE
DFD .                       1070 : DRILLING FLUID DENSITY
DFV .                        120 : DRILLING FLUID VISCOSITY
DFPH.                       10.5 : DRILLING FLUID PH
DFL .                          9 : DRILLING FLUID LOSS
MSS .                   FLOWLINE : MUD SAMPLE SOURCE
RMS .OHMM                   1.48 : RESISTIVITY MUD SAMPLE
MST .DEGC                   15.5 : MUD SAMPLE TEMPERATURE
RMF .OHMM                    0.9 : RESISTIVITY MUD FILTRATE SAMPLE
MFST.DEGC                   15.5 : MUD FILTRATE SAMPLE TEMPERATURE
RMC .OHMM                   2.31 : RESISTIVITY MUD CAKE
MCST.DEGC                   15.5 : MUD CAKE SAMPLE TEMPERATURE
MFSS.                   MEASURED : MUD FILTRATE SAMPLE SOURCE
MCSS.                 CALCULATED : MUD CAKE SAMPLE SOURCE
RMB .OHMM                  0.575 : RESISTIVITY MUD AT BHT
TCS .HRS                    1100 : TIME CIRCULATED STOPPED
TLAB.HRS                     630 : TIME LOGGER AT BOTTOM
LUN .                       8175 : LOGGING UNIT NUMBER
LUL .                     BROOKS : LOGGING UNIT LOCATION
ENGI.                    CAMERON : RECORDING ENGINEER
WITN.                    JOHNSON : WITNESSED BY
CLNT.                    A2DTECH : CLIENT CODE
ORIG. 6.5"/100M 16.5"/100M PRINT : ORIGIN OF DATA
UWI .           100103003223W400 : UNIQUE WELL ID
DICO.     A2D Technologies, Inc. : DIGITIZING COMPANY
~Other -----------------------------------------------------
~ASCII -----------------------------------------------------
  400.00000   77.87340  325.36420  245.02180  370.41630    -999.25    -999.25    -999.25    -999.25    -999.25   78.80320    8.17440    7.56190   17.96170  521.02290 -155.61090    0.21130   79.38750   20.45870    2.53210 2297.06100  517.87820  236.35670  240.44480    -999.25
  450.00000   37.93390  434.88940  250.89060  399.41360    -999.25    -999.25    -999.25    -999.25    -999.25   19.38080  756.41280  421.12740  307.10140  550.26190 -155.14160    0.57780   19.74450   -8.09190    0.61740 1280.45610  555.48890  224.80850  267.65400    -999.25
  500.00000   81.57940  317.72310  261.75690  418.78250    -999.25    -999.25    -999.25    -999.25    -999.25   89.40570    4.66770    4.17860    6.91350  588.40520 -150.06700    0.28260   89.59270  121.61860    2.09950 2048.34990  597.91460  363.83650  185.54850    -999.25
  550.00000   79.22990  433.67090  271.52520  454.90120    -999.25    -999.25    -999.25    -999.25    -999.25   99.65090    4.34130    3.99470    4.95870  595.75520 -152.83120    0.35890   99.91800   52.50060    2.34320 1877.49630  588.50980  359.68030  234.48240    -999.25
  600.00000   77.78430  312.27800  243.64250  476.10620    -999.25    -999.25    -999.25    -999.25    -999.25   74.55240    3.54480    3.07630    3.35970  639.92630 -152.03140    0.34690   75.63730   71.40030    2.32950 1818.80880  633.32500  273.14910  243.69290    -999.25
  650.00000   76.12640  296.23630  235.21790  472.92510    -999.25    -999.25    -999.25    -999.25    -999.25   66.37130    5.39360    4.58210    3.98140  623.58180 -152.29000    0.34040   66.69950  136.66040    2.56710 1937.76830  626.14140  290.66060  254.36950    -999.25
  700.00000   57.56730  449.34850  327.19980  529.17430    -999.25    -999.25    -999.25    -999.25    -999.25   62.59420    4.03970    3.83290    3.60070  667.96410 -152.11120    0.41500   63.57030    3.26430    2.31730 1748.62380  669.14590  368.13340  338.91080    -999.25
  750.00000   69.11310  319.40720  252.24490  537.08490    -999.25    -999.25    -999.25    -999.25    -999.25   70.95410    4.71460    4.38000    4.61880  667.58090 -152.50740    0.33020   69.88210   70.43230    2.27030 1733.76900  672.05980  292.61430  238.19520    -999.25
  800.00000   67.23760  330.25600  254.25540  572.33460    -999.25    -999.25    -999.25    -999.25    -999.25   64.63500    5.27430    5.14640    4.36710  681.02060 -150.84630    0.32790   64.97480   69.76820    2.70620 2100.56960  675.82930  269.39700  244.94740    -999.25
  850.00000   72.09130  309.82910  244.53330  580.52540    -999.25    -999.25    -999.25    -999.25    -999.25   65.83910    5.14120    4.82430    5.67150  694.90100 -148.37730    0.29220   65.63440   97.35200    2.77780 2264.37620  694.28450  286.94640  228.27510    -999.25
  900.00000   94.99750  307.72060  239.69040  574.65570    -999.25    -999.25    -999.25    -999.25    -999.25   82.41960    7.38980    6.88370    7.61280  697.68460 -151.17700    0.34350   82.52210   31.73920    2.02820 1656.99850  698.47520  419.41410  232.49330    -999.25
  950.00000   98.58460  292.46550  246.69190  603.90270    -999.25    -999.25    -999.25    -999.25    -999.25   92.65080    9.06800    7.13360    8.53300  732.14260 -153.54760    0.30880   92.74460   25.03540    2.12450 1734.12380  726.50630  395.97610  226.77150    -999.25
 1000.00000  129.50910  293.30400  247.21210  636.17850    -999.25    -999.25    -999.25    -999.25    -999.25   94.19910   13.08140   12.15750   13.42930  745.37650 -151.50430    0.26380   92.30710  122.62900    2.76610 2503.40990  737.62970  280.32790  232.16390    -999.25
 1050.00000  103.73730  281.16930  251.03640  657.32940    -999.25    -999.25    -999.25    -999.25    -999.25   92.78470    8.90290    8.25590    9.23250  814.96660 -151.78810    0.26830   93.81720   90.25870    2.40690 1920.98320  820.43800  289.05000  297.08410    -999.25
 1100.00000  110.34020  291.33880  282.67050  661.18560    -999.25    -999.25    -999.25    -999.25    -999.25  101.61150    7.98240    7.47520    8.56150  808.54690 -148.58840    0.26120  102.57430  121.40330    2.38670 2118.22680  816.62870  282.24500  303.41490    -999.25
 1150.00000  108.24080  287.14080  281.32880  700.11920    -999.25    -999.25    -999.25    -999.25    -999.25   99.54040    7.24530    6.89310    8.35630  837.15620 -148.03480    0.27890   99.01360   69.44920    2.15740 1781.95240  841.18460  301.75040  272.05070    -999.25
 1200.00000  120.99860  271.65080  266.65800  715.54130    -999.25    -999.25    -999.25    -999.25    -999.25  103.09140    8.17270    7.19490    7.82050  888.41030 -146.08160    0.29290  102.69560   88.71270    2.17380 1878.09200  874.80920  307.69010  267.80220    -999.25
 1250.00000  118.49270  301.56380  268.87230  730.86520    -999.25    -999.25    -999.25    -999.25    -999.25  105.75360    6.98370    6.72110    9.45950  887.19890 -142.15550    0.21610  105.32810   81.54140    2.76920 2133.61300  895.71970  264.64120  255.78120    -999.25
 1300.00000  123.99630  291.45290  272.29790  780.77940    -999.25    -999.25    -999.25    -999.25    -999.25  114.08580    6.77230    6.55260    8.50680  877.28660 -143.42940    0.32740  113.96390  193.47960    2.73840 2171.33300  882.99430  298.83420  272.89970    -999.25
 1350.00000  156.26880  315.88870  275.86290  759.08030    -999.25    -999.25    -999.25    -999.25    -999.25  143.72990    4.22270    4.08960    5.57010  889.75630 -134.43930    0.33230  149.19160   86.62360    2.79150 2088.81450  893.60210  297.30230  266.62300    -999.25
 1400.00000   88.38160  256.48160  252.81850  777.22740    -999.25    -999.25    -999.25    -999.25    -999.25   88.36130   12.10570   11.56250   14.33870  953.10060 -140.28490    0.15040   88.74050   54.60560    2.46380 2516.14650  955.70420  264.09110  229.87200    -999.25
 1450.00000   90.65760  327.48660  288.21940  813.08280    -999.25    -999.25    -999.25    -999.25    -999.25   90.92750    2.07140    1.98860    2.71630  957.83940 -130.30360    0.34760   90.73080  101.91430    2.27160 2048.38230  950.02040  361.40770  253.60740    -999.25
 1500.00000   98.36040  281.72630  279.16420  836.39450    -999.25    -999.25    -999.25    -999.25    -999.25   60.20020   17.59770   20.87100  244.04330  967.31370 -121.25390    0.50190   55.47160   15.12410    1.48140 1499.26000  950.90140  286.17170  284.56600    -999.25
 1550.00000   81.89720  207.63730  263.37530  836.69810    -999.25    -999.25    -999.25    -999.25    -999.25   94.82060    7.60080    6.62130    4.81570  969.99040  -88.32510    0.26090   95.86720   67.00220    3.21970 2547.88210  977.59640  290.40550  267.78510    0.28520
 1600.00000   67.20850  217.10190  309.96830  881.22370    -999.25    -999.25    -999.25    -999.25    -999.25   62.29180   10.35740    9.40910    9.12840  996.56490  -84.76910    0.29660   62.19390  114.44170    1.94600 1907.62890 1006.28720  465.63480  280.78330    0.27160
 1650.00000   39.22500  179.92140  268.98440  928.63140    -999.25    -999.25    -999.25    -999.25    -999.25   49.00870   49.37130   39.65870   57.53340 1024.24300 -108.62140    0.01490   40.78770    9.73510    4.59090 2730.68510  952.12710  268.22100  237.63110    0.04950
 1700.00000   56.33230  209.45620  269.63600  927.04330    -999.25    -999.25    -999.25    -999.25    -999.25   56.81070   15.70460   15.04330   20.88890 1033.48080 -120.04930    0.08170   55.88720    9.71820    4.50710 2698.75630  984.07080  269.25600  248.85520    0.12210
 1750.00000   62.34340  225.13950  268.75310  945.58010    -999.25    -999.25    -999.25    -999.25    -999.25   61.17620   11.19720   10.65380   16.09850  657.05350 -105.27380    0.11090   59.17030   14.86680    3.78960 2707.95780  975.39970  255.46650  263.53270    0.15200
 1800.00000   61.83630  216.74690  258.90710  977.33040    -999.25    -999.25    -999.25    -999.25    -999.25   62.96770   15.68980   13.60850   20.81600  678.88890 -111.32580    0.08030   69.79230  123.51570    3.54040 2615.42600 1013.33890  269.13480  249.76290    0.12090
