~Version ---------------------------------------------------
VERS.      2.0 : CWLS log ASCII Standard -VERSION 2.0
WRAP.       NO : One line per depth step
CREA. 08/31/17 : LAS Creation Date
~Well ------------------------------------------------------
STRT.FT                            1150.0 : START DEPTH
STOP.FT                           11550.0 : STOP DEPTH
STEP.FT                          50.00000 : STEP LENGTH
NULL.                             -999.25 : NULL VALUE
COMP.    AMOCO CANADA PETROLEUM CO., LTD. : COMPANY
WELL. AMOCO HB FINA SOUTH FORK 10-8-59-19 : WELL
FLD .                                     : FIELD
LOC .                                     : LOCATION
CTRY.                              CANADA : COUNTRY
SRVC.                        Schlumberger : SERVICE COMPANY
DATE.                         10-Oct-1977 : LOGDATE
PROV.                             Alberta : PROVINCE
UWI .                    100100805919W500 : UNIQUE WELL ID
SLAT.WGS84                       54.08913 : SURFACE LATITUDE
SLON.WGS84                      -116.8085 : SURFACE LONGITUDE
~Curve Information -----------------------------------------
DEPT    .FT    : Depth Curve
CALDED  .IN    : CALIPER FROM CNT-CFD LOG [ADJ. TO ILDED]
CALSED  .IN    : CALIPER FROM BCS LOG [ADJ. TO ILDED]
CALWS   .IN    : CALIPER [CALDED]
CONDWS  .MMHO  : CONDUCTIVITY [1000/DRESWS]
DCORED  .G/C3  : DENSITY CORRECTION FROM CNT-CFD LOG [ADJ. TO ILDED]
DCORWS  .G/C3  : DENSITY CORRECTION [DCORED]
DENWS   .G/C3  : FORMATION BULK DENSITY [RHOBED]
DPHILSED.V/V   : DENSITY POROSITY LIMESTONE [M=2.71,F=1.0] FROM CNT-CFD LOG [ADJ. TO ILDED]
DPHISSED.V/V   : DENSITY POROSITY SANDSTONE [M=2.65,F=1.0] FROM CNT-CFD LOG [ADJ. TO ILDED]
DPOLSWS .V/V   : DENSITY POROSITY LIMESTONE [CALCULATED FROM DENWS, M=2.71, F=1.0]
DRESWS  .OHMM  : DEEP RESISTIVITY [ILDED]
DTED    .US/F  : DELTA-T (INTERVAL TRANSIT TIME) FROM BCS LOG [ADJ. TO ILDED]
DTWS    .US/F  : COMPRESSIONAL  SONIC [DTED]
GRDED   .GAPI  : GAMMA RAY FROM CNT-CFD LOG [ADJ. TO ILDED]
GRSED   .GAPI  : GAMMA RAY FROM BCS LOG [ADJ. TO ILDED]
GRWS    .GAPI  : GAMMA RAY [GRSED]
ILDED   .OHMM  : DEEP INDUCTION FROM DILL LOG
ILMED   .OHMM  : MEDIUM INDUCTION FROM DILL LOG
LL8ED   .OHMM  : LATEROLOG 8 FROM DILL LOG
MRESWS  .OHMM  : MEDIUM RESISTIVITY [ILMED]
NPHILSED.V/V   : NEUTRON POROSITY LIMESTONE FROM CNT-CFD LOG [ADJ. TO ILDED]
NPHISSED.V/V   : NEUTRON POROSITY SANDSTONE FROM CNT-CFD LOG [ADJ. TO ILDED]
NPOLSWS .V/V   : NEUTRON POROSITY LIMESTONE [NPHISSED CONVERTED TO LIMESTONE MATRIX, SPL. TO NPHILSED @7662.5']
RHOBED  .G/C3  : BULK DENSITY FROM CNT-CFD LOG [ADJ. TO ILDED]
SPRED   .MV    : SPONTANEOUS POTENTIAL FROM DILL LOG
SPWS    .MV    : SPONTANEOUS POTENTIAL [BASELINE 0 MV, SPRED]
SRESWS  .OHMM  : SHALLOW RESISTIVITY [LL8ED]
~Params ----------------------------------------------------
PD  .                     GL : PERMANENT DATUM
EPD .FT                 2976 : ELEVATION PERMANENT DATUM
LMF .                     KB : LOG MEASURED FROM
DAPD.FT                 20.7 : FEET ABOVE PERMANENT DATUM
EKB .FT               2996.7 : KELLY BUSHING
EGL .FT                 2976 : GROUND LEVEL
DATE.               10/10/77 : RUN DATE
RUN .                      1 : RUN NUMBER
DD  .FT                11577 : DEPTH DRILLER
DL  .FT                11569 : DEPTH LOGGER
BLI .FT                11563 : BOTTOM LOG INTERVAL
TLI .FT                 1534 : TOP LOG INTERVAL
CBD .FT                 1535 : CASING BOTTOM DRILLER
CBL .FT                 1534 : CASING BOTTOM LOGGER
BS  .IN                 8.75 : BIT SIZE
BSD .FT                11577 : BIT SIZE AT DEPTH
DFT .                    GEL : DRILLING FLUID TYPE
DFD .                      9 : DRILLING FLUID DENSITY
DFV .                     80 : DRILLING FLUID VISCOSITY
DFPH.                    8.5 : DRILLING FLUID PH
DFL .                    8.8 : DRILLING FLUID LOSS
MSS .               FLOWLINE : MUD SAMPLE SOURCE
RMS .OHMM               2.24 : RESISTIVITY MUD SAMPLE
MST .DEGF                 54 : MUD SAMPLE TEMPERATURE
RMF .OHMM               1.98 : RESISTIVITY MUD FILTRATE SAMPLE
MFST.DEGF                 64 : MUD FILTRATE SAMPLE TEMPERATURE
TCS .HRS                   3 : TIME CIRCULATED STOPPED
LUN .                   7772 : LOGGING UNIT NUMBER
LUL .                    EDM : LOGGING UNIT LOCATION
ENGI.         BERNISKY TRACY : RECORDING ENGINEER
WITN.                 NEWELL : WITNESSED BY
CLNT.                A2DTECH : CLIENT CODE
ORIG.            2" 5" PRINT : ORIGIN OF DATA
UWI .       100100805919W500 : UNIQUE WELL ID
DICO. A2D Technologies, Inc. : DIGITIZING COMPANY
~Other -----------------------------------------------------
~ASCII -----------------------------------------------------
# ...
 2450.00000    9.97260    9.44350    9.97260  144.89300    0.17660    0.17660    2.20340    -999.25    0.27820    0.29630    6.91400  104.03490  104.03490   96.31920   92.07460   92.07460    6.91400    7.72550    9.28200    7.72550    -999.25    0.39030    0.34730    2.20340 -455.24840   -6.86800    9.28200
 2500.00000   10.40910    9.41160   10.40910   61.57830    0.07190    0.07190    2.44520    -999.25    0.13600    0.15490   16.23950   77.59760   77.59760   48.85580   53.82040   53.82040   16.23950   17.76770   17.21690   17.76770    -999.25    0.31350    0.26960    2.44520 -456.54070   -8.22300   17.21690
 2550.00000   10.17480   10.28120   10.17480  162.42200    0.06720    0.06720    2.46850    -999.25    0.12050    0.14120    6.15680   93.81770   93.81770   79.34670   80.71780   80.71780    6.15680    7.36480    6.53880    7.36480    -999.25    0.37760    0.33430    2.46850 -458.30700   -9.82270    6.53880
 2600.00000   10.15420    9.72700   10.15420  105.08430    0.05850    0.05850    2.44110    -999.25    0.13960    0.15730    9.51620   93.61940   93.61940   70.11650   63.34380   63.34380    9.51620    9.96050   11.59920    9.96050    -999.25    0.34990    0.30630    2.44110 -454.95840   -6.30630   11.59920
 2650.00000   10.61400   10.04550   10.61400  210.05310    0.26590    0.26590    2.32520    -999.25    0.20940    0.22500    4.76070   88.35410   88.35410   94.04940   93.05020   93.05020    4.76070    5.33770    5.00850    5.33770    -999.25    0.37570    0.33240    2.32520 -460.27080  -11.45210    5.00850
 2700.00000   10.45780   10.03250   10.45780  145.32100    0.26680    0.26680    2.30460    -999.25    0.21670    0.23710    6.88150   82.66150   82.66150   91.32840   87.26870   87.26870    6.88150    7.31230    7.37500    7.31230    -999.25    0.33380    0.29000    2.30460 -455.83350   -6.84710    7.37500
 2750.00000    9.64500    8.72490    9.64500   33.59750    0.07320    0.07320    2.46130    -999.25    0.11890    0.14540   29.76410   79.37290   79.37290   47.67890   52.51580   52.51580   29.76410   28.53760   27.29960   28.53760    -999.25    0.27090    0.22690    2.46130 -475.46500  -26.31190   27.29960
 2800.00000   11.90130    9.42990   11.90130  208.31600    0.26070    0.26070    2.00910    -999.25    0.33130    0.40990    4.80040   90.25660   90.25660  108.10300  112.93600  112.93600    4.80040    5.11190    6.06410    5.11190    -999.25    0.34590    0.30220    2.00910 -459.15820   -9.83850    6.06410
 2850.00000    9.16280    8.38790    9.16280   56.90800    0.06700    0.06700    2.34490    -999.25    0.19730    0.21350   17.58040   88.68590   88.68590   51.88000   46.12380   46.12380   17.58040   18.40800   17.31990   18.40800    -999.25    0.30520    0.26120    2.34490 -477.34510  -27.85760   17.31990
 2900.00000   11.09660    9.25950   11.09660  212.21960    0.23240    0.23240    2.23160    -999.25    0.26410    0.27980    4.71210   93.35370   93.35370  104.86800  103.02080  103.02080    4.71210    5.00580    5.45410    5.00580    -999.25    0.34170    0.29800    2.23160 -456.99560   -7.34150    5.45410
 2950.00000   11.22140    9.18710   11.22140  167.26090    0.25550    0.25550    2.09340    -999.25    0.34470    0.36060    5.97900   92.72580   92.72580  114.75290  116.11990  116.11990    5.97900    6.76570    5.49080    6.76570    -999.25    0.36230    0.31890    2.09340 -457.87610   -8.05420    5.49080
 3000.00000   10.06330    8.98750   10.06330  115.28970    0.26010    0.26010    2.46030    -999.25    0.12430    0.14600    8.67380   82.16790   82.16790  108.61030  106.01470  106.01470    8.67380    9.64360   10.09980    9.64360    -999.25    0.28960    0.24560    2.46030 -461.65620  -11.66770   10.09980
 3050.00000    9.96710    9.46540    9.96710  212.02610    0.22940    0.22940    2.07110    -999.25    0.36630    0.37360    4.71640   91.46480   91.46480   98.03620  105.30330  105.30330    4.71640    5.38350    5.00360    5.38350    -999.25    0.42640    0.38410    2.07110 -463.58020  -13.42510    5.00360
 3100.00000   11.07410    9.18950   11.07410  228.04730    0.25710    0.25710    2.04400    -999.25    0.37310    0.38950    4.38570   96.98660   96.98660   98.66630  102.22120  102.22120    4.38570    5.04380    4.83240    5.04380    -999.25    0.39060    0.34750    2.04400 -458.37500   -8.05210    4.83240
 3150.00000    9.02060    8.54880    9.02060   54.25880    0.07530    0.07530    2.44750    -999.25    0.12900    0.15350   18.43020   79.74160   79.74160   53.52120   48.22060   48.22060   18.43020   17.43020   16.21550   17.43020    -999.25    0.28410    0.24010    2.44750 -458.84330   -8.35380   16.21550
 3200.00000    9.29090    8.98210    9.29090  226.99040    0.10730    0.10730    2.47160    -999.25    0.11670    0.13940    4.40650   94.54160   94.54160  101.15500   91.96190   91.96190    4.40650    5.17650    4.60170    5.17650    -999.25    0.43420    0.39200    2.47160 -453.17350   -2.51620    4.60170
 3250.00000    9.33600    8.95240    9.33600  131.88610    0.07600    0.07600    2.45830    -999.25    0.12540    0.14720    7.58230   82.57260   82.57260   62.08780   61.61480   61.61480    7.58230    8.22710    8.84490    8.22710    -999.25    0.29380    0.24980    2.45830 -462.54480  -11.72090    8.84490
 3300.00000   10.69520    9.02310   10.69520  441.03380    0.18980    0.18980    1.87180    -999.25    0.46760    0.49020    2.26740  109.33420  109.33420  127.81640  127.34220  127.34220    2.26740    2.67190    2.91770    2.67190    -999.25    0.47360    0.43190    1.87180 -462.95710  -11.96650    2.91770
 3350.00000   10.15470    8.95420   10.15470  159.34410    0.24560    0.24560    2.29010    -999.25    0.21930    0.24560    6.27830   86.41880   86.41880   97.36920  101.23100  101.23100    6.27830    6.95500    6.60070    6.95500    -999.25    0.33990    0.29610    2.29010 -461.76380  -10.60550    6.60070
 3400.00000   12.59750    9.30610   12.59750  353.61930    0.22830    0.22830    1.79710    -999.25    0.51160    0.53390    2.82790  100.70420  100.70420  152.91730  145.91600  145.91600    2.82790    2.93270    3.92040    2.93270    -999.25    0.47740    0.43570    1.79710 -458.27340   -6.94850    3.92040
 3450.00000   10.14560    9.15920   10.14560  121.37060    0.20890    0.20890    2.40820    -999.25    0.15430    0.17650    8.24770   82.51630   82.51630   68.31230   74.25720   74.25720    8.24770    8.93260    8.56530    8.93260    -999.25    0.34540    0.30170    2.40820 -459.68260   -8.18990    8.56530
 3500.00000   10.16470    9.05750   10.16470  112.08630    0.26470    0.26470    2.29450    -999.25    0.22570    0.24300    8.92170   80.87160   80.87160   64.37610   58.00320   58.00320    8.92170    9.89350    8.33560    9.89350    -999.25    0.30640    0.26240    2.29450 -464.22220  -12.56290    8.33560
 3550.00000   10.29730    9.27030   10.29730  241.09750    0.05320    0.05320    2.31470    -999.25    0.21500    0.23120    4.14770   95.85100   95.85100   93.00370   86.62250   86.62250    4.14770    4.61350    4.36390    4.61350    -999.25    0.39200    0.34900    2.31470 -465.60820  -13.78220    4.36390
 3600.00000    9.79990    9.20020    9.79990  187.97410    0.06590    0.06590    2.39740    -999.25    0.16170    0.18280    5.31990   97.50740   97.50740   80.61420   77.82270   77.82270    5.31990    5.87330    5.64230    5.87330    -999.25    0.41580    0.37330    2.39740 -460.62580   -8.63210    5.64230
 3650.00000    9.00490    9.35020    9.00490   85.32930    0.07950    0.07950    2.41140    -999.25    0.15890    0.17460   11.71930   77.48210   77.48210   54.16920   51.50380   51.50380   11.71930   12.52540   13.06980   12.52540    -999.25    0.28080    0.23680    2.41140 -460.35640   -8.66690   13.06980
 3700.00000    9.74880    9.03390    9.74880   68.79560    0.17420    0.17420    2.45820    -999.25    0.12470    0.14730   14.56660   77.60950   77.60950   57.64960   63.04730   63.04730   14.56660   15.06860   16.78010   15.06860    -999.25    0.31870    0.27480    2.45820 -461.78260  -10.96960   16.78010
