~Version ---------------------------------------------------
VERS.      2.0 : CWLS log ASCII Standard -VERSION 2.0
WRAP.       NO : One line per depth step
CREA. 07/27/17 : LAS Creation Date
~Well ------------------------------------------------------
STRT.FT                                800.0 : START DEPTH
STOP.FT                              10200.0 : STOP DEPTH
STEP.FT                             50.00000 : STEP LENGTH
NULL.                                -999.25 : NULL VALUE
COMP.                 EXXONMOBIL CANADA LTD. : COMPANY
WELL. MOBIL CARSON CREEK WEST 11-1-61-13 #11 : WELL
FLD .                                        : FIELD
LOC .                                        : LOCATION
CTRY.                                 CANADA : COUNTRY
SRVC.                           Schlumberger : SERVICE COMPANY
DATE.                            03-Feb-1963 : LOGDATE
PROV.                                Alberta : PROVINCE
UWI .                       100110106113W500 : UNIQUE WELL ID
SLAT.WGS84                     54.2487051583 : SURFACE LATITUDE
SLON.WGS84                   -115.8169997457 : SURFACE LONGITUDE
~Curve Information -----------------------------------------
DEPT   .FT    : Depth Curve
CALWS  .IN    : CALIPER [MCALED]
CILDED .MMHO  : DEEP INDUCTION CONDUCTIVITY FROM IEL LOG
CONDWS .MMHO  : CONDUCTIVITY [1000/DRESWS]
DRESWS .OHMM  : DEEP RESISTIVITY [1000/CILDED IF ILDED < 4, ILDED]
DT1FTED.US/F  : ACOUSTIC TRANSIT TIME SLOWNESS(1 FT SPACING), DELTA T FROM SONIC LOG
DTED   .US/F  : ACOUSTIC TRANSIT TIME SLOWNESS (3 FT SPACING), DELTA T FROM SONIC LOG
DTWS   .US/F  : COMPRESSIONAL SONIC [DT1ED]
GRSED  .GAPI  : GAMMA RAY FROM SONIC LOG
GRWS   .GAPI  : GAMMA RAY [GRSED]
ILDED  .OHMM  : DEEP INDUCTION FROM IEL LOG
MCALED .IN    : MLT [MICROLOG] CALIPER FROM ML LOG
SNED   .OHMM  : SHORT NORMAL 10" FROM IEL LOG
SPRED  .MV    : SPONTANEOUS POTENTIAL FROM IEL LOG
SPWS   .MV    : SPONTANEOUS POTENTIAL [BASELINE 0 MV, SPRED]
SRESWS .OHMM  : SHALLOW RESISTIVITY [SNED]
~Params ----------------------------------------------------
PD  .                     GL : PERMANENT DATUM
EPD .FT               2486.7 : ELEVATION PERMANENT DATUM
LMF .                     KB : LOG MEASURED FROM
DAPD.FT                 14.5 : FEET ABOVE PERMANENT DATUM
EKB .FT               2501.2 : KELLY BUSHING
EGL .FT               2486.7 : GROUND LEVEL
DATE.               02/03/63 : RUN DATE
RUN .                      2 : RUN NUMBER
DD  .FT                10215 : DEPTH DRILLER
DL  .FT                10214 : DEPTH LOGGER
BLI .FT                10213 : BOTTOM LOG INTERVAL
TLI .FT                 5500 : TOP LOG INTERVAL
CBD .FT                 1031 : CASING BOTTOM DRILLER
CBL .FT                 1031 : CASING BOTTOM LOGGER
BS  .IN                    9 : BIT SIZE
BSD .FT                10215 : BIT SIZE AT DEPTH
DFT .                    GEL : DRILLING FLUID TYPE
DFD .                    9.7 : DRILLING FLUID DENSITY
DFV .                    150 : DRILLING FLUID VISCOSITY
DFPH.                   10.5 : DRILLING FLUID PH
DFL .                    8.2 : DRILLING FLUID LOSS
RMS .OHMM                3.1 : RESISTIVITY MUD SAMPLE
MST .DEGF                 63 : MUD SAMPLE TEMPERATURE
RMF .OHMM               2.22 : RESISTIVITY MUD FILTRATE SAMPLE
MFST.DEGF                 66 : MUD FILTRATE SAMPLE TEMPERATURE
RMC .OHMM               1.27 : RESISTIVITY MUD CAKE
MCST.DEGF                 66 : MUD CAKE SAMPLE TEMPERATURE
TCS .HRS                 4.5 : TIME CIRCULATED STOPPED
LUN .                   1571 : LOGGING UNIT NUMBER
LUL .                    WCT : LOGGING UNIT LOCATION
ENGI.                KOKONIS : RECORDING ENGINEER
WITN.                  MILLS : WITNESSED BY
CLNT.                A2DTECH : CLIENT CODE
ORIG.            2" 5" PRINT : ORIGIN OF DATA
UWI .       100110106113W500 : UNIQUE WELL ID
DICO. A2D Technologies, Inc. : DIGITIZING COMPANY
~Other -----------------------------------------------------
~ASCII -----------------------------------------------------
# ...
 5400.00000    8.14600  521.61920  521.62120    1.91710   79.32950   78.41820   79.32950   30.59910   30.59910    2.71980    8.14600   20.06810 -134.51500 -107.92920   20.06810
 5450.00000    9.55690   29.52380   31.05030   32.20580   50.28790   49.62060   50.28790   25.58770   25.58770   32.20580    9.55690   74.70930 -109.70270  -80.82750   74.70930
 5500.00000    8.26580   80.48870   77.03690   12.98080   55.35520   55.07200   55.35520   19.50160   19.50160   12.98080    8.26580  112.61040 -179.36210 -148.21130  112.61040
 5550.00000    9.00340   24.91520   27.47120   36.40170   53.38250   53.29460   53.38250   24.06400   24.06400   36.40170    9.00340  137.51430 -164.27650 -130.85460  137.51430
 5600.00000   10.15130  192.39900  185.28130    5.39720   63.82550   63.65270   63.82550   62.25250   62.25250    5.39720   10.15130    7.59850  -73.86390  -39.59270    7.59850
 5650.00000    9.10410   63.07340   66.80160   14.96970   59.46680   59.04930   59.46680   63.07430   63.07430   14.96970    9.10410   20.23740  -64.75490  -31.27900   20.23740
 5700.00000    9.33120   93.29130   89.48070   11.17560   60.60760   60.52510   60.60760   63.32260   63.32260   11.17560    9.33120   17.30030  -64.98380  -32.30790   17.30030
 5750.00000    9.01530   16.20890   18.58710   53.80080   51.78740   51.59510   51.78740   21.35440   21.35440   53.80080    9.01530   67.13940  -95.85880  -65.28390   67.13940
 5800.00000    9.90140   17.45300   14.69460   68.05230   57.36410   57.22510   57.36410   50.81190   50.81190   68.05230    9.90140   69.00830  -42.46600  -14.48110   69.00830
 5850.00000    9.91350   25.47710   24.06840   41.54820   55.88540   55.82740   55.88540   33.82030   33.82030   41.54820    9.91350   42.25200  -47.89490  -22.52090   42.25200
 5900.00000    9.17070   23.15870   22.09040   45.26860   55.25020   55.39170   55.25020   35.90070   35.90070   45.26860    9.17070   44.60590  -22.84960   -0.07080   44.60590
 5950.00000    9.17890   23.50720   22.73160   43.99160   57.19080   57.28210   57.19080   39.64040   39.64040   43.99160    9.17890   44.01840  -24.71680   -3.19140   44.01840
 6000.00000    8.95980   14.47500   13.27930   75.30540   56.00430   55.66020   56.00430   40.64910   40.64910   75.30540    8.95980   81.65210  -35.91790  -14.39250   81.65210
 6050.00000    8.89390   21.89520   20.20910   49.48260   59.41450   59.41990   59.41450   50.40060   50.40060   49.48260    8.89390   53.12120  -29.05130   -7.52590   53.12120
 6100.00000    9.22400   30.57430   25.98420   38.48490   71.60880   71.48950   71.60880  178.24240  178.24240   38.48490    9.22400   40.33450  -36.59410  -15.06870   40.33450
 6150.00000    9.32240   58.08180   53.87790   18.56050   94.09030   80.00000   94.09030  189.59700  189.59700   18.56050    9.32240   22.46810  -26.66820   -5.00700   22.46810
 6200.00000    9.16510    7.75560    6.58290  151.90840   53.80280   53.62360   53.80280   24.10540   24.10540  151.90840    9.16510  159.32650 -101.89210  -78.52720  159.32650
 6250.00000    8.92230    6.38890    5.64240  177.23050   51.06510   50.99140   51.06510   24.30900   24.30900  177.23050    8.92230  145.42800  -86.00130  -60.94290  145.42800
 6300.00000    9.43250    1.09330    1.33600  748.49290   49.62190   49.61930   49.62190   26.89950   26.89950  748.49290    9.43250  177.19710 -117.36470  -90.61610  177.19710
 6350.00000    9.26510    4.39210    3.40040  294.07970   48.59820   48.71460   48.59820   19.98870   19.98870  294.07970    9.26510  139.11440 -108.50510  -80.05280  139.11440
 6400.00000    8.29250   31.15100   30.88330   32.38000   53.28700   53.24680   53.28700   24.15490   24.15490   32.38000    8.29250  131.21300 -166.43850 -136.29260  131.21300
 6450.00000    8.05000  219.43440  216.50180    4.61890   58.83710   58.74630   58.83710   21.42330   21.42330    4.61890    8.05000   54.95370 -169.49940 -137.64980   54.95370
 6500.00000    9.12950   18.33650   15.97970   62.57930   49.48490   49.51690   49.48490   18.47340   18.47340   62.57930    9.12950  149.68220 -163.29520 -129.75200  149.68220
 6550.00000    9.99430    5.02620    4.18310  239.05690   49.93100   50.05540   49.93100   20.94900   20.94900  239.05690    9.99430  145.07730 -145.33210 -110.09880  145.07730
 6600.00000   10.35410   10.35880    9.52100  105.03090   49.46530   49.41170   49.46530   27.08380   27.08380  105.03090   10.35410  147.61670 -169.41230 -132.47520  147.61670
 6650.00000   10.29070    2.90140    1.99010  502.47700   48.80080   48.84040   48.80080   32.11570   32.11570  502.47700   10.29070  149.10500 -132.39900  -93.76840  149.10500
 6700.00000    9.46640   12.52080   11.58230   86.33860   50.98320   51.05860   50.98320   20.77670   20.77670   86.33860    9.46640  172.94850 -206.16630 -165.83190  172.94850
 6750.00000    9.91000   34.49150   34.02910   29.38660   53.79310   53.92630   53.79310   19.21300   19.21300   29.38660    9.91000   96.44110 -264.69120 -222.66330   96.44110
 6800.00000    8.70940   41.20650   39.87300   25.07960   53.92870   53.97720   53.92870   22.29070   22.29070   25.07960    8.70940  116.17210 -235.03230 -191.31420  116.17210
 6850.00000    8.83780   60.09730   60.54550   16.51650   50.77750   50.78560   50.77750   25.79960   25.79960   16.51650    8.83780   79.33210 -175.44910 -130.02730   79.33210
 6900.00000    8.91860   71.65750   70.86820   14.11070   60.82100   60.60030   60.82100   81.36810   81.36810   14.11070    8.91860   19.91590  -64.30920  -17.45400   19.91590
 6950.00000    9.38950   20.41250   19.03700   52.52940   51.21090   51.27830   51.21090   38.13650   38.13650   52.52940    9.38950   75.06110 -112.90240  -69.78530   75.06110
 7000.00000   10.05130   17.19130   16.09600   62.12720   51.61000   51.73370   51.61000   38.96620   38.96620   62.12720   10.05130   50.46680 -101.95810  -62.55670   50.46680
 7050.00000    9.38970  103.87220  101.68800    9.83400   56.32020   56.44020   56.32020   48.06770   48.06770    9.83400    9.38970   18.52190  -93.15560  -57.46250   18.52190
 7100.00000    9.31630   12.07890   11.21360   89.17710   54.23680   54.36630   54.23680   39.75490   39.75490   89.17710    9.31630   76.35140  -38.34520   -6.39020   76.35140
 7150.00000    9.26190   13.81920   12.49720   80.01780   55.93320   56.18620   55.93320   43.39930   43.39930   80.01780    9.26190   69.43500  -28.00050    0.23880   69.43500
 7200.00000    9.29730   19.37780   17.25300   57.96090   57.06690   57.19210   57.06690   41.22280   41.22280   57.96090    9.29730   51.64110  -27.43880   -2.93760   51.64110
 7250.00000    9.12220   83.94320   88.27920   11.32770   64.96070   65.15740   64.96070   62.55390   62.55390   11.32770    9.12220   16.26230  -24.67380   -1.59300   16.26230
 7300.00000    8.99690   94.28720   97.30840   10.27660   66.44550   66.47840   66.44550   62.35760   62.35760   10.27660    8.99690   13.52970  -32.03750   -9.75630   13.52970
 7350.00000    9.07870   98.64740  101.07850    9.89330   67.23660   67.33140   67.23660   68.85380   68.85380    9.89330    9.07870   13.25070  -38.09470  -16.61960   13.25070
 7400.00000   11.23980  275.16380  275.16370    3.63420   85.53470   80.00000   85.53470   99.26100   99.26100    3.54220   11.23980    4.31570  -44.33320  -23.65930    4.31570
 7450.00000   11.37820  247.33070  248.83050    4.01880   85.14690   80.00000   85.14690   98.32380   98.32380    3.98410   11.37820    5.22960  -39.15170  -19.28390    5.22960
 7500.00000    9.08720   42.17670   44.19910   22.62490   59.95790   60.03500   59.95790   44.90420   44.90420   22.62490    9.08720   31.92160  -31.61490  -12.54840   31.92160
 7550.00000   12.72270  115.72320  120.11870    8.32510   65.20090   64.41570   65.20090   74.58910   74.58910    8.32510   12.72270    9.74160  -31.27350  -13.00660    9.74160
 7600.00000   13.54330  197.85300  207.06510    4.82940   76.47260   76.47850   76.47260   84.76700   84.76700    4.82940   13.54330    5.23940  -25.36420   -7.90340    5.23940
 7650.00000   11.61260  155.80130  162.50120    6.15380   74.39880   76.17770   74.39880   79.48230   79.48230    6.15380   11.61260    7.57750  -25.29380   -8.73790    7.57750
