~Version ---------------------------------------------------
VERS. 2.0 : CWLS log ASCII Standard -VERSION 2.0
WRAP.  NO : One line per depth step
~Well ------------------------------------------------------
STRT.M                             300.0 : START DEPTH
STOP.M                            1750.0 : STOP DEPTH
STEP.M                          50.00000 : STEP LENGTH
NULL.                            -999.25 : NULL VALUE
COMP. CANADIAN NATURAL RESOURCES LIMITED : COMPANY
WELL.       ELAN ET AL NIPISI 12-30-78-7 : WELL
FLD .                                    : FIELD
LOC .                                    : LOCATION
CTRY.                             CANADA : COUNTRY
SRVC.                       Schlumberger : SERVICE COMPANY
DATE.                        15-Dec-1984 : LOGDATE
PROV.                            Alberta : PROVINCE
UWI .                   100123007807W500 : UNIQUE WELL ID
SLAT.WGS84                 55.7908782959 : SURFACE LATITUDE
SLON.WGS84               -115.0836334229 : SURFACE LONGITUDE
~Curve Information -----------------------------------------
DEPT   .M      : DEPTH METERS
CALD   .MM     : CALIPER FROM DENSITY LOG
DPHI_SS.DEC    : DENSITY POROSITY SANDSTONE FROM DENSITY LOG
DRHO   .KG/M3  : DENSITY CORRECTION FROM DENSITY LOG
GRD    .GAPI   : GAMMA RAY FROM DENSITY LOG
ILD    .OHMM   : INDUCTION LOG DEEP RESISTIVITY
ILM    .OHMM   : INDUCTION LOG MEDIUM RESISTIVITY
NPHI_SS.DEC    : NEUTRON POROSITY SANDSTONE FROM DENSITY LOG
PEF    .B/E    : PHOTOELECTRIC FACTOR FROM DENSITY LOG
RHOB   .KG/M3  : BULK DENSITY [M=2650 F=1000] FROM DENSITY LOG
SFLU   .OHMM   : SPHERICALLY FOCUSED LOG RESISTIVITY
SPR    .MV     : SPONTANEOUS POTENTIAL FROM RESISTIVITY LOG
~Params ----------------------------------------------------
PD  .                         GL : PERMANENT DATUM
EPD .M                    663.32 : ELEVATION PERMANENT DATUM
LMF .                         KB : LOG MEASURED FROM
DAPD.M                       4.4 : FEET ABOVE PERMANENT DATUM
DMF .                         KB : DRILLING MEASURED FROM
EKB .M                    667.72 : KELLY BUSHING
EGL .M                    663.32 : GROUND LEVEL
DATE.                   12/15/84 : RUN DATE
RUN .                          1 : RUN NUMBER
DD  .M                    1764.0 : DEPTH DRILLER
DL  .M                    1764.5 : DEPTH LOGGER
BLI .M                      1763 : BOTTOM LOG INTERVAL
TLI .M                       202 : TOP LOG INTERVAL
CS  .MM                      219 : CASING SIZE
CBD .M                      2025 : CASING BOTTOM DRILLER
CBL .M                       202 : CASING BOTTOM LOGGER
BS  .MM                      200 : BIT SIZE
BSD .M                      1764 : BIT SIZE AT DEPTH
DFT .                   GEL CHEM : DRILLING FLUID TYPE
DFD .                       1120 : DRILLING FLUID DENSITY
DFV .                         74 : DRILLING FLUID VISCOSITY
DFPH.                       10.5 : DRILLING FLUID PH
DFL .                        7.8 : DRILLING FLUID LOSS
MSS .                   FLOWLINE : MUD SAMPLE SOURCE
RMS .OHMM                   1.04 : RESISTIVITY MUD SAMPLE
MST .C                        22 : MUD SAMPLE TEMPERATURE
RMF .OHMM                  0.684 : RESISTIVITY MUD FILTRATE SAMPLE
MFST.C                      14.4 : MUD FILTRATE SAMPLE TEMPERATURE
RMC .OHMM                  0.387 : RESISTIVITY MUD CAKE
MCST.C                        42 : MUD CAKE SAMPLE TEMPERATURE
MFSS.                       MEAS : MUD FILTRATE SAMPLE SOURCE
MCSS.                       MEAS : MUD CAKE SAMPLE SOURCE
RMB .OHMM                  0.713 : RESISTIVITY MUD AT BHT
TCS .HRS                    1230 : TIME CIRCULATED STOPPED
TLAB.HRS                    1730 : TIME LOGGER AT BOTTOM
LUN .                       8110 : LOGGING UNIT NUMBER
LUL .                        EDM : LOGGING UNIT LOCATION
ENGI.                    CORNISH : RECORDING ENGINEER
WITN.                    MCGRATH : WITNESSED BY
CLNT.                    A2DTECH : CLIENT CODE
ORIG. 6.5"/100M 16.5"/100M PRINT : ORIGIN OF DATA
UWI .           100123007807W500 : UNIQUE WELL ID
DICO.     A2D Technologies, Inc. : DIGITIZING COMPANY
~Other -----------------------------------------------------
~ASCII -----------------------------------------------------
  300.00000  368.93730    0.41140    3.69660  103.83120    3.08090    2.86750    0.62870    2.41060 2018.33540    4.05030   -0.60280
  350.00000  343.09910    0.37480   23.39340   94.14830    4.15550    3.62740    0.53160    1.72970 2055.12210    3.83900   -3.95380
  400.00000  234.60900    0.23070    5.24940   59.92540    6.18230    7.54980    0.37980    2.24140 2270.74390    8.52160  -22.46490
  450.00000  242.63250    0.32700    2.25920   58.87120    8.94700   10.70350    0.44600    2.15200 2124.50070   11.74010   14.56420
  500.00000  263.94240    0.33250    7.75440   66.08860    6.26510    7.02920    0.41560    2.08120 2099.71800    7.63470  -24.72980
  550.00000  270.41840    0.17150    6.68020   61.86520   10.89550   12.39050    0.35650    2.98410 2362.15890    9.27350   -7.24390
  600.00000  270.24380    0.15190   -4.41910   52.15450   16.45060   13.89870    0.14080    2.67780 2317.87940   22.10130    3.05720
  650.00000  297.91170    0.05960   -5.04860   49.24560   10.81100    9.67280    0.24940    3.95840 2552.12890   12.61290  -20.29700
  700.00000  283.47800    0.39580    7.84970   41.03940    4.42840    4.18580    0.34960    2.12640 1945.01860    4.65930  -21.82960
  750.00000  236.04230    0.01880   -8.04720   26.05280   19.81840   18.87550    0.12160    4.94650 2621.58200   22.70830  -23.29130
  800.00000  250.74800    0.02940  -21.32710   35.20110   12.05180   11.14020    0.12620    4.13810 2596.76730   15.23050  -28.42280
  850.00000  258.62630    0.04410   20.98550   15.46170   26.98400   33.99300    0.10180    4.97480 2573.34300   76.50290  -87.65330
  900.00000  256.28940    0.05520   20.84240   16.79780   23.00750   36.21220    0.11480    4.06490 2562.39140  123.18930 -103.05740
  950.00000  237.31940    0.10910   -8.66810   16.98190   45.02030   79.70900    0.14800    4.49240 2473.90010  122.60580  -70.67450
 1000.00000  238.51040   -0.03660   -5.14700   11.75300  323.18280  268.50230    0.02360    5.65840 2714.05350  350.26170  -48.18770
 1050.00000  233.57020    0.03950   12.91260   10.75730   35.32690   41.62440    0.11450    4.79030 2583.94820  119.05180  -38.65180
 1100.00000  238.42090   -0.02330   37.35030   17.97780   24.30640   36.29710    0.17150    2.86040 2688.60910   84.84540  -37.95030
 1150.00000  216.30070   -0.00690  120.36950   43.06560   33.43830   48.61820    0.21080    2.94410 2667.36600   83.80570  -19.02840
 1200.00000  218.25460   -0.02340  -11.88030   31.51940   28.53190   29.35560    0.10820    3.72340 2685.98710   31.23930   -0.41190
 1250.00000  386.95340    0.34490  145.05120   76.63750    3.15080    3.04770    0.39440    2.34750 2070.69530    3.37250   18.20260
 1300.00000  285.28320    0.22220  110.33800   74.32520    4.63050    4.03480    0.23800    2.49740 2282.50630    5.95740   17.63460
 1350.00000  285.58670    0.00080   -6.30180   65.64570    8.04950    7.89720    0.25180    4.41220 2652.80640    8.57460    7.62940
 1400.00000  245.84190   -0.01540  -11.65240   21.44420   21.62010   20.67920    0.08020    5.21360 2682.05540   26.70660  -16.55740
 1450.00000  280.61740    0.26110   82.82460   66.29190    4.68630    4.37800    0.26630    2.67040 2231.87260    5.45540  -24.68780
 1500.00000  317.96100    0.22900  156.97500   83.70970    3.53200    3.36250    0.36460    2.11880 2220.67700    4.16090  -56.32870
 1550.00000  315.86600    0.47440   34.91680   82.65680    3.09150    2.87170    0.46370    2.17460 1874.27150    3.07950  -46.35100
 1600.00000  210.65550   -0.02570  -13.03050   23.54300   25.06640   26.50010    0.07150    4.91080 2693.33330   45.68980  -20.45980
 1650.00000  210.44520   -0.01640   -6.81240   77.11340    9.00470    9.42960    0.19760    3.72720 2679.56370   11.28280  -48.05180
 1700.00000  198.80320    0.01490  -11.10140   18.06200   35.60410   41.63730    0.10130    5.27760 2623.13920   80.62220  -61.77390
 1750.00000  197.58670   -0.00230   44.33280   64.26180    4.80560    5.57870    0.30310    3.84100 2642.97780    7.66800  -32.20890
