~Version ---------------------------------------------------
VERS.      2.0 : CWLS log ASCII Standard -VERSION 2.0
WRAP.       NO : One line per depth step
CREA. 07/27/17 : LAS Creation Date
~Well ------------------------------------------------------
STRT.FT                        1000.0 : START DEPTH
STOP.FT                       10600.0 : STOP DEPTH
STEP.FT                      50.00000 : STEP LENGTH
NULL.                         -999.25 : NULL VALUE
COMP.      THE CALIFORNIA STANDARD CO : COMPANY
WELL. CALSTAN EAST MEEKWAP 10-1-65-18 : WELL
FLD .                                 : FIELD
LOC .                                 : LOCATION
CTRY.                          CANADA : COUNTRY
SRVC.          Schlumberger of Canada : SERVICE COMPANY
DATE.                     17-Feb-1961 : LOGDATE
PROV.                         Alberta : PROVINCE
UWI .                100100106518W500 : UNIQUE WELL ID
SLAT.WGS84                   54.59797 : SURFACE LATITUDE
SLON.WGS84                  -116.5799 : SURFACE LONGITUDE
~Curve Information -----------------------------------------
DEPT  .FT         : Depth Curve
CALWS .IN         : CALIPER [MCALED]
CILDED.MMHO       : CONDUCTIVITY FROM RESISTIVITY LOG
CONDWS.MMHO       : CONDUCTIVITY [1000/DRESWS]
DRESWS.OHMM       : DEEP RESISTIVITY [1000/CILDED IF ILDED <1, ILDED]
DTED  .US/F       : DELTA-T FROM SONIC LOG
DTWS  .US/F       : COMPRESSIONAL SONIC [DTED]
GRSED .UgRa-Eq/T  : GAMMA RAY FROM SONIC LOG
GRWS  .GAPI       : GAMMA RAY [GRSED*16.5, CONVERTED TO GAPI]
ILDED .OHMM       : DEEP INDUCTION FROM RESISTIVITY LOG
MCALED.IN         : CALIPER FROM MICROLOG
SNED  .OHMM       : SHORT NORMAL FROM RESISTIVITY LOG
SPRED .MV         : SPONTANEOUS POTENTIAL FROM RESISTIVITY LOG
SPWS  .MV         : SPONTANEOUS POTENTIAL [BASELINE 0 MV, SPRED]
SRESWS.OHMM       : SHALLOW RESISTIVITY [SNED]
~Params ----------------------------------------------------
LMF .                     KB : LOG MEASURED FROM
DMF .                     KB : DRILLING MEASURED FROM
EKB .FT                 2634 : KELLY BUSHING
EGL .FT                 2620 : GROUND LEVEL
DATE.               02/17/61 : RUN DATE
RUN .                      2 : RUN NUMBER
DD  .FT                10617 : DEPTH DRILLER
DL  .FT                10607 : DEPTH LOGGER
BLI .FT                10606 : BOTTOM LOG INTERVAL
TLI .FT                 5200 : TOP LOG INTERVAL
CBD .FT                 1008 : CASING BOTTOM DRILLER
CBL .FT                 1009 : CASING BOTTOM LOGGER
BS  .IN                    9 : BIT SIZE
BSD .FT                10617 : BIT SIZE AT DEPTH
DFT .                    GEL : DRILLING FLUID TYPE
DFD .                   10.6 : DRILLING FLUID DENSITY
DFV .                     90 : DRILLING FLUID VISCOSITY
DFPH.                    9.5 : DRILLING FLUID PH
DFL .                    8.8 : DRILLING FLUID LOSS
RMS .OHMM               4.45 : RESISTIVITY MUD SAMPLE
MST .DEGF                 66 : MUD SAMPLE TEMPERATURE
RMF .OHMM                3.6 : RESISTIVITY MUD FILTRATE SAMPLE
MFST.DEGF                 67 : MUD FILTRATE SAMPLE TEMPERATURE
RMC .OHMM                2.3 : RESISTIVITY MUD CAKE
MCST.DEGF                 81 : MUD CAKE SAMPLE TEMPERATURE
RMB .OHMM               2.13 : RESISTIVITY MUD AT BHT
TCS .HRS                 5.5 : TIME CIRCULATED STOPPED
LUN .                   2549 : LOGGING UNIT NUMBER
LUL .                     SH : LOGGING UNIT LOCATION
ENGI.             ARMBRUSTER : RECORDING ENGINEER
WITN.                 MCDADE : WITNESSED BY
CLNT.                A2DTECH : CLIENT CODE
ORIG.            2" 5" PRINT : ORIGIN OF DATA
UWI .       100100106518W500 : UNIQUE WELL ID
DICO. A2D Technologies, Inc. : DIGITIZING COMPANY
~Other -----------------------------------------------------
~ASCII -----------------------------------------------------
# ...
 8350.00000   11.41020  227.77240  193.35630    5.17180   74.35070   74.35070    5.63220   92.93130    5.17180   11.41020    5.72600 -344.63430  -95.59070    5.72600
 8400.00000   11.43040  190.26810  163.63620    6.11170   73.76980   73.76980    4.87030   80.35990    6.11170   11.43040    6.84000 -338.16050  -99.11510    6.84000
 8450.00000   11.29710  216.83320  182.03990    5.49330   79.77470   79.77470    5.85180   96.55470    5.49330   11.29710    6.19170 -333.34300 -104.36150    6.19170
 8500.00000   11.51710  129.35420  116.65620    8.57220   76.74040   76.74040    5.00640   82.60560    8.57220   11.51710    9.56240 -331.28460 -112.30130    9.56240
 8550.00000   11.61520  197.54860  172.33210    5.80410   73.90480   73.90480    5.33570   88.03910    5.80410   11.61520    6.37430 -343.74320 -134.75810    6.37430
 8600.00000   11.10070  150.30650  129.98490    7.69320   67.47740   67.47740    6.45410  106.49270    7.69320   11.10070    8.86130 -350.15310 -151.23190    8.86130
 8650.00000    8.90440   80.91400   71.18030   14.04900   66.97330   66.97330    4.73450   78.11920   14.04900    8.90440   18.07250 -333.02330 -144.10030   18.07250
 8700.00000    9.04120  106.90030   92.73170   10.78380   66.57420   66.57420    5.32470   87.85760   10.78380    9.04120   13.87070 -327.16850 -148.30950   13.87070
 8750.00000    9.06390   93.90330   83.50310   11.97560   67.12200   67.12200    4.99250   82.37620   11.97560    9.06390   15.31090 -313.46890 -144.60800   15.31090
 8800.00000    8.91050   81.96910   71.60970   13.96660   68.08700   68.08700    4.70430   77.62090   13.96660    8.91050   16.64850 -305.34720 -146.48450   16.64850
 8850.00000   10.39340  137.54360  121.12990    8.25560   69.26040   69.26040    5.75160   94.90140    8.25560   10.39340    9.65250 -284.33690 -135.53820    9.65250
 8900.00000   10.25380  159.87570  143.18460    6.98440   83.78780   83.78780    6.09470  100.56250    6.98440   10.25380    8.92570 -214.24460  -75.44400    8.92570
 8950.00000    9.24610  109.08510   95.90760   10.42670   70.76870   70.76870    5.28800   87.25200   10.42670    9.24610   13.42500 -156.31200  -27.57540   13.42500
 9000.00000    9.27670  111.05160   96.95280   10.31430   65.88230   65.88230    4.77540   78.79410   10.31430    9.27670   12.29250 -140.46780  -21.72940   12.29250
 9050.00000    8.76190    5.59590    4.91810  203.44440   76.39770   76.39770    6.42870  106.07360  203.44440    8.76190  165.66860 -125.39560  -16.65530  165.66860
 9100.00000    9.02570   16.42950   14.58010   68.58670   58.19350   58.19350    2.94180   48.53970   68.58670    9.02570   64.76600 -123.38820  -21.63950   64.76600
 9150.00000    9.76510   36.92240   32.11630   31.14350   88.89830   88.89830    6.52450  107.65420   31.14350    9.76510   34.14700 -117.53930  -21.85880   34.14700
 9200.00000    9.16690   51.18510   45.20980   22.11910   64.44620   64.44620    4.36040   71.94660   22.11910    9.16690   29.16040 -114.29870  -24.73170   29.16040
 9250.00000    9.05940   36.42040   31.50540   31.74060   60.54380   60.54380    3.42500   56.51250   31.74060    9.05940   35.26280 -124.95440  -41.46100   35.26280
 9300.00000    9.56960   64.38270   57.33170   17.44450   62.62370   62.62370    4.21260   69.50790   17.44450    9.56960   21.53010 -126.17700  -48.75710   21.53010
 9350.00000    9.12340    2.08990    3.78680  264.07620   54.47270   54.47270    2.35970   38.93510  264.07620    9.12340  164.21770 -125.01830  -53.71190  164.21770
 9400.00000    9.03770   32.41280   27.99390   35.72210   62.26480   62.26480    3.54460   58.48590   35.72210    9.03770   35.17840 -165.21050  -99.97760   35.17840
 9450.00000    9.01330    2.20540    4.08180  244.98750   61.95530   61.95530    4.10330   67.70440  244.98750    9.01330  154.25170 -215.08370 -155.96430  154.25170
 9500.00000   10.15250   37.51770   32.32670   30.93420   54.83900   54.83900    1.85650   30.63220   30.93420   10.15250   66.46690 -314.31370 -261.26790   66.46690
 9550.00000    9.94600    1.05520    1.99950  500.13570   50.55950   50.55950    1.88310   31.07110  500.13570    9.94600  192.41800 -291.80840 -244.83610  192.41800
 9600.00000    9.58330   78.52880   67.05200   14.91380   68.75870   68.75870    8.23150  135.81980   14.91380    9.58330   34.41690 -138.31250  -97.45370   34.41690
 9650.00000    8.74880   43.45320   36.24930   27.98050   66.76690   66.76690    7.89440  130.25760   27.98050    8.74880   26.12690  -64.91580  -30.13050   26.12690
 9700.00000    7.15710  131.25750  118.29560    8.45340   55.52410   55.52410    2.77860   45.84690    8.45340    7.15710   39.72620 -149.51990 -120.84810   39.72620
 9750.00000    7.08750  215.16840  185.20230    5.39950   61.41310   61.41310    5.47980   90.41670    5.39950    7.08750   30.23270 -155.96570 -133.36750   30.23270
 9800.00000    8.55440   94.90820   82.45120   12.15430   57.06330   57.06330    5.63630   92.99900   12.15430    8.55440   21.62700  -56.92070  -40.39600   21.62700
 9850.00000    7.25780  648.21070  447.44730    2.23490   70.60060   70.60060    7.84020  129.36330    2.23490    7.25780   17.79060  -96.60270  -86.19150   17.79060
 9900.00000    7.41140   89.69980   78.07320   12.80870   54.68460   54.68460    2.26490   37.37080   12.80870    7.41140   54.37150 -121.18240 -116.84470   54.37150
 9950.00000    8.89720   37.85360   31.52460   31.72130   60.97820   60.97820    7.97470  131.58260   31.72130    8.89720   36.13690  -21.06200  -22.83780   36.13690
 10000.00000   12.33030  100.89530   89.44460   11.18010   62.93020   62.93020    7.33310  120.99620   11.18010   12.33030   11.36300   -4.88060  -12.73000   11.36300
 10050.00000   15.45380  138.46930  120.41460    8.31170   75.12520   75.12520    6.43050  106.10330    8.31170   15.45380    9.32550  -94.65440  -93.10880    9.32550
 10100.00000   12.06380   59.94450   50.14940   19.94040   61.69390   61.69390    5.78620   95.47230   19.94040   12.06380   17.37880 -116.19590 -100.38930   17.37880
 10150.00000    8.95610   14.78220   10.98160   91.06360   54.30610   54.30610    1.81540   29.95410   91.06360    8.95610   81.72670 -312.16370 -282.18930   81.72670
 10200.00000    7.65140  762.19710  446.40860    2.24010   69.68460   69.68460    2.75470   45.45260    2.24010    7.65140   11.75040 -376.03410 -331.79870   11.75040
 10250.00000    7.31490 1177.99910  574.21760    1.74150   77.77390   77.77390    4.02450   66.40420    1.74150    7.31490    6.50550 -331.45590 -273.05270    6.50550
 10300.00000    9.20880  756.34890  373.77180    2.70870   68.57530   68.57530    6.04140   99.68310    2.70870    9.20880    6.62350 -300.41310 -227.84220    6.62350
 10350.00000    6.77730   62.26830   53.70050   18.62180   68.88110   68.88110    1.47820   24.39030   18.62180    6.77730   49.11030 -268.29080 -181.45880   49.11030
 10400.00000    8.79700   40.50970   34.76580   28.77340   66.00540   66.00540    9.07680  149.76720   28.77340    8.79700   33.36450 -106.76570   -5.76600   33.36450
 10450.00000    8.52840   80.54890   70.22820   14.23930   62.12100   62.12100    3.19630   52.73890   14.23930    8.52840   17.15140 -298.44000 -195.85570   17.15140
 10500.00000    8.74370  105.62170   95.45260   10.47640   63.82090   63.82090    9.87930  163.00850   10.47640    8.74370   13.83440 -383.68260 -281.09830   13.83440
 10550.00000    8.87590   78.69330   69.68320   14.35380   64.69940   64.69940    7.43270  122.63960   14.35380    8.87590   17.09340 -366.06520 -263.48090   17.09340
 10600.00000    8.17170    -999.25    -999.25    -999.25    -999.25    -999.25    -999.25    -999.25    -999.25    8.17170    -999.25    -999.25    -999.25    -999.25
