~Version ---------------------------------------------------
VERS.      2.0 : CWLS log ASCII Standard -VERSION 2.0
WRAP.       NO : One line per depth step
CREA. 08/01/17 : LAS Creation Date
~Well ------------------------------------------------------
STRT.FT                           1050.0 : START DEPTH
STOP.FT                           9900.0 : STOP DEPTH
STEP.FT                         50.00000 : STEP LENGTH
NULL.                            -999.25 : NULL VALUE
COMP.                 SKELLY OIL COMPANY : COMPANY
WELL. SKELLY BERTA J1 KAYBOB 12-18-64-17 : WELL
FLD .                                    : FIELD
LOC .                                    : LOCATION
CTRY.                             CANADA : COUNTRY
SRVC.                       Schlumberger : SERVICE COMPANY
DATE.                        11-Feb-1962 : LOGDATE
PROV.                            Alberta : PROVINCE
UWI .                   100121806417W500 : UNIQUE WELL ID
SLAT.WGS84                      54.53987 : SURFACE LATITUDE
SLON.WGS84                     -116.5677 : SURFACE LONGITUDE
~Curve Information -----------------------------------------
DEPT  .FT    : Depth Curve
CALWS .IN    : CALIPER [MCALED]
CILDED.MMHO  : CONDUCTIVITY FROM IEL LOG
CONDWS.MMHO  : CONDUCTIVITY [CILDED]
DRESWS.OHMM  : DEEP RESISTIVITY [1000/CONDWS, IF ILDED <=4 THEN ILDED]
DTED  .US/F  : DELTA-T FROM BCS-GR LOG [ADJ.TO ILDED]
DTWS  .US/F  : COMPRESSIONAL SONIC [DTED]
GRSED .GAPI  : GAMMA RAY FROM BCS-GR LOG [ADJ.TO ILDED]
GRWS  .GAPI  : GAMMA RAY [GRSED]
ILDED .OHMM  : DEEP INDUCTION FROM IEL LOG
MCALED.IN    : MICROLOG CALIPER FROM MICRO-CAL LOG
SNED  .OHMM  : SHORT NORMAL FROM IEL LOG
SPRED .MV    : SPONTANEOUS POTENTIAL FROM IEL LOG
SPWS  .MV    : SPONTANEOUS POTENTIAL [BASELINE 0 MV, SPRED]
SRESWS.OHMM  : SHALLOW RESISTIVITY [SNED]
~Params ----------------------------------------------------
PD  .                     GL : PERMANENT DATUM
EPD .FT                 2627 : ELEVATION PERMANENT DATUM
LMF .                     KB : LOG MEASURED FROM
DAPD.FT                   15 : FEET ABOVE PERMANENT DATUM
EKB .FT                 2643 : KELLY BUSHING
EGL .FT                 2627 : GROUND LEVEL
DATE.               02/11/62 : RUN DATE
RUN .                      1 : RUN NUMBER
DD  .FT                 9931 : DEPTH DRILLER
DL  .FT                 9911 : DEPTH LOGGER
BLI .FT                 9910 : BOTTOM LOG INTERVAL
TLI .FT                 1017 : TOP LOG INTERVAL
CBD .FT                 1018 : CASING BOTTOM DRILLER
CBL .FT                 1017 : CASING BOTTOM LOGGER
BS  .IN                 8.75 : BIT SIZE
BSD .FT                 9931 : BIT SIZE AT DEPTH
DFT .          GEL OIL EMULS : DRILLING FLUID TYPE
DFD .                     10 : DRILLING FLUID DENSITY
DFV .                     92 : DRILLING FLUID VISCOSITY
DFPH.                      9 : DRILLING FLUID PH
DFL .                    5.8 : DRILLING FLUID LOSS
MSS .                   CIRC : MUD SAMPLE SOURCE
RMS .OHMM               2.58 : RESISTIVITY MUD SAMPLE
MST .DEGF                 64 : MUD SAMPLE TEMPERATURE
RMF .OHMM               1.42 : RESISTIVITY MUD FILTRATE SAMPLE
MFST.DEGF                 58 : MUD FILTRATE SAMPLE TEMPERATURE
RMC .OHMM                2.7 : RESISTIVITY MUD CAKE
MCST.DEGF                 55 : MUD CAKE SAMPLE TEMPERATURE
RMB .OHMM                0.9 : RESISTIVITY MUD AT BHT
TCS .HRS                   5 : TIME CIRCULATED STOPPED
LUN .                   1534 : LOGGING UNIT NUMBER
LUL .                    WCT : LOGGING UNIT LOCATION
ENGI.               HATLELID : RECORDING ENGINEER
WITN.                  PIPER : WITNESSED BY
CLNT.                A2DTECH : CLIENT CODE
ORIG.          1" 2.5" PRINT : ORIGIN OF DATA
UWI .       100121806417W500 : UNIQUE WELL ID
DICO. A2D Technologies, Inc. : DIGITIZING COMPANY
~Other -----------------------------------------------------
~ASCII -----------------------------------------------------
# ...
 3500.00000    -999.25  115.71270  115.71270    8.50260    -999.25    -999.25    -999.25    -999.25    8.50260    -999.25    8.77760 -153.27500  -18.26600    8.77760
 3550.00000    -999.25  129.40030  129.40030    7.60530    -999.25    -999.25    -999.25    -999.25    7.60530    -999.25    7.90470 -152.20610  -17.53690    7.90470
 3600.00000    -999.25  123.79490  123.79490    7.92550    -999.25    -999.25    -999.25    -999.25    7.92550    -999.25    8.15680 -152.34530  -18.01810    8.15680
 3650.00000    -999.25  161.64670  161.64670    6.00220    -999.25    -999.25    -999.25    -999.25    6.00220    -999.25    6.97670 -151.82710  -17.83970    6.97670
 3700.00000    -999.25  151.26050  151.26050    6.31630    -999.25    -999.25    -999.25    -999.25    6.31630    -999.25    8.05090 -150.06650  -16.42120    8.05090
 3750.00000    -999.25  146.32600  146.32600    6.71990    -999.25    -999.25    -999.25    -999.25    6.71990    -999.25    8.32100 -150.56910  -17.26360    8.32100
 3800.00000    -999.25  125.48710  125.48710    7.64110    -999.25    -999.25    -999.25    -999.25    7.64110    -999.25    9.86820 -150.02380  -17.05810    9.86820
 3850.00000    -999.25  133.34000  133.34000    7.35820    -999.25    -999.25    -999.25    -999.25    7.35820    -999.25   10.13880 -146.75050  -14.12690   10.13880
 3900.00000    -999.25  104.01650  104.01650    9.21460    -999.25    -999.25    -999.25    -999.25    9.21460    -999.25   14.12750 -147.83920  -15.55540   14.12750
 3950.00000    -999.25  122.90620  122.90620    8.01740    -999.25    -999.25    -999.25    -999.25    8.01740    -999.25   12.43910 -145.86280  -13.92100   12.43910
 4000.00000    -999.25  183.26550  183.26550    5.10640    -999.25    -999.25    -999.25    -999.25    5.10640    -999.25    7.20930 -148.72840  -17.12640    7.20930
 4050.00000    -999.25  167.62150  167.62150    5.80070    -999.25    -999.25    -999.25    -999.25    5.80070    -999.25    7.13190 -147.12390  -15.86180    7.13190
 4100.00000    -999.25  131.84620  131.84620    7.46310    -999.25    -999.25    -999.25    -999.25    7.46310    -999.25    8.98130 -146.57120  -15.65110    8.98130
 4150.00000    -999.25  176.85250  176.85250    5.61300    -999.25    -999.25    -999.25    -999.25    5.61300    -999.25    6.89750 -144.51040  -13.93010    6.89750
 4200.00000    -999.25  141.44360  141.44360    6.80440    -999.25    -999.25    -999.25    -999.25    6.80440    -999.25    8.11180 -142.77630  -12.53810    8.11180
 4250.00000    -999.25  151.20750  151.20750    6.35640    -999.25    -999.25    -999.25    -999.25    6.35640    -999.25    8.34060 -142.86180  -12.96340    8.34060
 4300.00000    -999.25  244.32650  244.32650    4.01310    -999.25    -999.25    -999.25    -999.25    4.01310    -999.25    5.47880 -139.78650  -10.22790    5.47880
 4350.00000   14.57270  192.63490  192.63490    5.01000    -999.25    -999.25    -999.25    -999.25    5.01000   14.57270    6.23140 -140.42270  -11.20620    6.23140
 4400.00000   14.56860  332.90050  332.90050    3.00390    -999.25    -999.25    -999.25    -999.25    3.20760   14.56860    4.24610 -138.43920   -9.56250    4.24610
 4450.00000   14.56980  482.54520  482.54520    2.07230    -999.25    -999.25    -999.25    -999.25    2.44890   14.56980    3.01880 -138.50690   -9.97220    3.01880
 4500.00000   14.56550  284.18220  284.18220    3.51890  108.90790  108.90790   80.36710   80.36710    3.60620   14.56550    4.79740 -140.09900  -11.90410    4.79740
 4550.00000   14.58570  248.93410  248.93410    4.08070  112.61370  112.61370   90.44080   90.44080    4.08070   14.58570    5.00730 -139.94630  -12.09130    5.00730
 4600.00000   14.56600  112.50040  112.50040    9.26240   81.83510   81.83510   80.37810   80.37810    9.26240   14.56600   10.76020 -142.58000  -15.06700   10.76020
 4650.00000   14.20250  736.85230  736.85230    1.35710  142.10810  142.10810   94.22250   94.22250    1.48860   14.20250    2.47890 -138.05440  -10.88120    2.47890
 4700.00000   12.33190  123.46390  123.46390    8.85260   71.56850   71.56850   69.72740   69.72740    8.85260   12.33190   10.37850 -140.58060  -13.74950   10.37850
 4750.00000   11.42790  127.68760  127.68760    8.09740   75.30540   75.30540   84.46150   84.46150    8.09740   11.42790   12.45810 -137.18890  -10.69760   12.45810
 4800.00000    9.93170   76.38320   76.38320   14.00210   83.65000   83.65000   55.10520   55.10520   14.00210    9.93170   20.28150 -190.19610  -64.04460   20.28150
 4850.00000    9.96470  118.53570  118.53570    8.55700   74.39400   74.39400   67.10940   67.10940    8.55700    9.96470   13.22030 -146.15690  -20.34750   13.22030
 4900.00000   10.49700  126.03830  126.03830    7.89650   75.80900   75.80900   73.53540   73.53540    7.89650   10.49700   10.76620 -132.13280   -6.66320   10.76620
 4950.00000   10.97370  100.99700  100.99700   10.06070   82.49130   82.49130   56.34700   56.34700   10.06070   10.97370   16.36520 -143.58260  -18.45500   16.36520
 5000.00000   11.64120   79.98310   79.98310   12.90040   87.53190   87.53190   69.50660   69.50660   12.90040   11.64120   17.99140 -129.57550   -4.78770   17.99140
 5050.00000   10.67510  101.62360  101.62360    9.93360  100.89970  100.89970   75.80070   75.80070    9.93360   10.67510   13.20440 -132.26380   -7.97000   13.20440
 5100.00000    9.48430  138.06170  138.06170    7.32570   75.68430   75.68430   66.58110   66.58110    7.32570    9.48430   17.11970 -176.34030  -53.06230   17.11970
 5150.00000    9.15060  147.33570  147.33570    6.76700   86.04050   86.04050   61.16190   61.16190    6.76700    9.15060   14.94660 -186.74920  -64.48050   14.94660
 5200.00000    9.80980  119.39940  119.39940    8.36250   79.34440   79.34440   58.60470   58.60470    8.36250    9.80980   15.87640 -174.27290  -53.02000   15.87640
 5250.00000   11.15260  174.40340  174.40340    5.66910   62.76550   62.76550   56.55200   56.55200    5.66910   11.15260   14.49050 -154.18500  -33.94130   14.49050
 5300.00000   12.00140  121.38500  121.38500    8.31300   78.13300   78.13300   80.00860   80.00860    8.31300   12.00140   11.35330 -125.32520   -6.09070   11.35330
 5350.00000   12.61950  266.80930  266.80930    3.74800   95.62300   95.62300   77.45050   77.45050    3.73790   12.61950    5.81840 -121.37540   -3.15680    5.81840
 5400.00000   11.04670  102.47590  102.47590    9.72430   75.95280   75.95280   78.00020   78.00020    9.72430   11.04670   13.33080 -123.16560   -5.95620   13.33080
 5450.00000   11.98370   79.43290   79.43290   13.16090   66.67470   66.67470   48.83200   48.83200   13.16090   11.98370   22.51430 -151.61700  -35.42350   22.51430
 5500.00000   11.62920   38.10370   38.10370   28.46270   70.36260   70.36260   61.39760   61.39760   28.46270   11.62920   30.65590 -132.40220  -17.21790   30.65590
 5550.00000   10.60060   55.79510   55.79510   19.37230   71.84430   71.84430   89.66930   89.66930   19.37230   10.60060   24.79980 -122.36750   -8.19240   24.79980
 5600.00000   10.62420   57.66740   57.66740   19.15540   56.78740   56.78740   50.20150   50.20150   19.15540   10.62420   25.37430 -134.88150  -21.72220   25.37430
 5650.00000   10.74510  235.17130  235.17130    4.24970   75.97470   75.97470   68.52460   68.52460    4.24970   10.74510    7.25080 -138.67620  -26.52620    7.25080
 5700.00000   12.49430   63.01070   63.01070   17.21000   84.11340   84.11340  104.07390  104.07390   17.21000   12.49430   20.75150 -112.72740   -1.59320   20.75150
 5750.00000   14.39740  171.71710  171.71710    5.95650   99.25440   99.25440   84.27550   84.27550    5.95650   14.39740   10.98740 -112.37080   -2.24610   10.98740
 5800.00000    9.92400    7.01500    7.01500  204.21750   67.83060   67.83060   43.38510   43.38510  204.21750    9.92400  159.32380 -145.61850  -36.51500  159.32380
 5850.00000   10.28850   59.80580   59.80580   18.51230   65.80880   65.80880   68.95460   68.95460   18.51230   10.28850   24.71380 -132.68140  -24.60590   24.71380
 5900.00000   10.22780  120.27770  120.27770    8.27810   66.09420   66.09420   88.07560   88.07560    8.27810   10.22780   14.57140 -142.10780  -35.05360   14.57140
