~Version ---------------------------------------------------
VERS.      2.0 : CWLS log ASCII Standard -VERSION 2.0
WRAP.       NO : One line per depth step
CREA. 10/26/17 : LAS Creation Date
~Well ------------------------------------------------------
STRT.FT                    1300.0 : START DEPTH
STOP.FT                   12250.0 : STOP DEPTH
STEP.FT                  50.00000 : STEP LENGTH
NULL.                     -999.25 : NULL VALUE
COMP.  TEXACO EXPLORATION COMPANY : COMPANY
WELL. TEXACO MARLBORO 10-12-54-18 : WELL
FLD .                             : FIELD
LOC .                             : LOCATION
CTRY.                      CANADA : COUNTRY
SRVC.      Schlumberger of Canada : SERVICE COMPANY
DATE.                 04-Oct-1969 : LOGDATE
PROV.                     Alberta : PROVINCE
UWI .            100101205418W500 : UNIQUE WELL ID
SLAT.WGS84                53.6526 : SURFACE LATITUDE
SLON.WGS84               -116.514 : SURFACE LONGITUDE
~Curve Information -----------------------------------------
DEPT   .FT    : Depth Curve
CALDED .IN    : CALIPER FROM DENSITY LOG [DEP. ADJ. TO RESIST. LOG]
CALSED .IN    : CALIPER FROM SONIC LOG [DEP. ADJ. TO RESIST. LOG]
CALWS  .IN    : CALIPER [3734' CALSED 8553'CALDED]
CILDED .MMHO  : CONDUCTIVITY FROM RESISTIVITY LOG
CONDWS .MMHO  : CONDUCTIVITY [1000/DRESWS]
DCORWS .G/C3  : DENSITY CORRECTION [DRHOED]
DENWS  .G/C3  : BULK DENSITY [M=2.71, F=1.00 ASSUMED] [RHOBED]
DPOLSWS.V/V   : DENSITY POROSITY [M=2.71, F=1.00 ASSUMED] [CAL. FROM DENWS]
DRESWS .OHMM  : DEEP RESISTIVITY [1000/CILDED][READINGS >2000 ARE REDUCED TO 2000 OHMM]
DRHOED .G/C3  : DENSITY CORRECTION FROM DENSITY LOG [DEP. ADJ. TO RESIST. LOG]
DTED   .US/F  : DELTA TIME FROM SONIC LOG [DEP. ADJ. TO RESIST. LOG]
DTWS   .US/F  : DELTA TIME [DTED]
GRDED  .GAPI  : GAMMA RAY FROM DENSITY LOG [DEP. ADJ. TO RESIST. LOG]
GRSED  .GAPI  : GAMMA RAY FROM SONIC LOG [DEP. ADJ. TO RESIST. LOG]
GRWS   .GAPI  : GAMMA RAY [3734' GRSED 8556' GRDED]
ILDED  .OHMM  : INDUCTION LOG DEEP RESISTIVITY
RHOBED .G/C3  : BULK DENSITY FROM DENSITY LOG [DEP. ADJ. TO RESIST. LOG]
SNED   .OHMM  : 16 INCH SHORT NORMAL RESISTIVITY FROM IEL
SPRED  .MV    : SPONTANEOUS POTENTIAL FROM RESISTIVITY LOG
SPWS   .MV    : SPONTANEOUS POTENTIAL [BASELINE 0 MV] [SPRED]
SRESWS .OHMM  : SHALLOW RESISTIVITY [SNED]
~Params ----------------------------------------------------
PD  .                     GL : PERMANENT DATUM
EPD .FT               3162.6 : ELEVATION PERMANENT DATUM
LMF .                     KB : LOG MEASURED FROM
DAPD.FT                 13.7 : FEET ABOVE PERMANENT DATUM
EKB .FT               3179.3 : KELLY BUSHING
EGL .FT               3165.6 : GROUND LEVEL
DATE.               11/18/69 : RUN DATE
RUN .                      1 : RUN NUMBER
DD  .FT                12259 : DEPTH DRILLER
DL  .FT                12263 : DEPTH LOGGER
BLI .FT                12262 : BOTTOM LOG INTERVAL
TLI .FT                 8816 : TOP LOG INTERVAL
CBD .FT                 1266 : CASING BOTTOM DRILLER
CBL .FT                 1264 : CASING BOTTOM LOGGER
BSD .FT                12259 : BIT SIZE AT DEPTH
DFT .               GEL CHEM : DRILLING FLUID TYPE
DFD .                   10.5 : DRILLING FLUID DENSITY
DFV .                     60 : DRILLING FLUID VISCOSITY
DFPH.                      9 : DRILLING FLUID PH
DFL .                    6.8 : DRILLING FLUID LOSS
RMS .OHMM               1.58 : RESISTIVITY MUD SAMPLE
MST .DEGF                 68 : MUD SAMPLE TEMPERATURE
RMF .OHMM               1.05 : RESISTIVITY MUD FILTRATE SAMPLE
MFST.DEGF                 66 : MUD FILTRATE SAMPLE TEMPERATURE
RMC .OHMM               1.92 : RESISTIVITY MUD CAKE
MCST.DEGF                 68 : MUD CAKE SAMPLE TEMPERATURE
RMB .OHMM               0.47 : RESISTIVITY MUD AT BHT
TCS .HRS                 2.5 : TIME CIRCULATED STOPPED
LUN .                   7502 : LOGGING UNIT NUMBER
LUL .                    EDM : LOGGING UNIT LOCATION
ENGI.                 SLADEN : RECORDING ENGINEER
WITN.               BRYNLUND : WITNESSED BY
CLNT.                A2DTECH : CLIENT CODE
ORIG.            2" 5" PRINT : ORIGIN OF DATA
UWI .       100101205418W500 : UNIQUE WELL ID
DICO. A2D Technologies, Inc. : DIGITIZING COMPANY
~Other -----------------------------------------------------
~ASCII -----------------------------------------------------
# ...
 7900.00000    -999.25    9.51490    9.51490   51.35820   51.35820    -999.25    -999.25    -999.25   19.47110    -999.25   75.54790   75.54790    -999.25   73.66380   73.66380   17.85830    -999.25   27.57590   16.41570   -7.14380   27.57590
 7950.00000    -999.25   10.02330   10.02330   57.60650   57.60650    -999.25    -999.25    -999.25   17.35920    -999.25   64.47170   64.47170    -999.25   48.06450   48.06450   16.24840    -999.25   34.44460   15.50220   -8.33740   34.44460
 8000.00000    -999.25    9.93300    9.93300   65.18220   65.18220    -999.25    -999.25    -999.25   15.34160    -999.25   68.34400   68.34400    -999.25   60.32090   60.32090   14.01980    -999.25   19.19240   12.63170  -11.48620   19.19240
 8050.00000    -999.25    9.82050    9.82050   66.86970   66.86970    -999.25    -999.25    -999.25   14.95450    -999.25   70.07410   70.07410    -999.25   74.12440   74.12440   13.86470    -999.25   20.29230   18.42190   -5.97430   20.29230
 8100.00000    -999.25    9.84910    9.84910   61.16900   61.16900    -999.25    -999.25    -999.25   16.34820    -999.25   67.55420   67.55420    -999.25   59.27720   59.27720   15.22650    -999.25   22.37480   15.59830   -9.07810   22.37480
 8150.00000    -999.25    9.76210    9.76210   25.93900   25.93900    -999.25    -999.25    -999.25   38.55200    -999.25   66.88420   66.88420    -999.25   49.10350   49.10350   38.43180    -999.25   42.66110    7.26860  -17.68610   42.66110
 8200.00000    -999.25    9.53200    9.53200   32.11690   32.11690    -999.25    -999.25    -999.25   31.13630    -999.25   65.54310   65.54310    -999.25   69.00420   69.00420   29.11850    -999.25   41.88840   16.19840   -9.03640   41.88840
 8250.00000    -999.25   10.18790   10.18790   43.68170   43.68170    -999.25    -999.25    -999.25   22.89290    -999.25   66.46910   66.46910    -999.25   82.05080   82.05080   21.10730    -999.25   27.43820   24.36760   -1.14550   27.43820
 8300.00000    -999.25    9.74990    9.74990   37.61200   37.61200    -999.25    -999.25    -999.25   26.58730    -999.25   76.70230   76.70230    -999.25   45.09720   45.09720   24.03450    -999.25   31.85870  -38.46740  -64.38590   31.85870
 8350.00000    -999.25   10.04630   10.04630   24.73930   24.73930    -999.25    -999.25    -999.25   40.42150    -999.25   69.06910   69.06910    -999.25   50.37350   50.37350   37.80490    -999.25   42.69450   14.87270  -11.46190   42.69450
 8400.00000    -999.25    9.61610    9.61610   30.95400   30.95400    -999.25    -999.25    -999.25   32.30600    -999.25   72.22520   72.22520    -999.25   88.26720   88.26720   29.89530    -999.25   37.79890   23.89870   -2.84930   37.79890
 8450.00000    -999.25    9.64500    9.64500   29.51050   29.51050    -999.25    -999.25    -999.25   33.88620    -999.25   71.43570   71.43570    -999.25   73.55500   73.55500   31.53620    -999.25   42.39380   24.27640   -2.88770   42.39380
 8500.00000    -999.25    9.32950    9.32950   59.81510   59.81510    -999.25    -999.25    -999.25   16.71820    -999.25   65.60630   65.60630    -999.25   72.58230   72.58230   15.30880    -999.25   24.57710   18.77460   -8.80290   24.57710
 8550.00000   10.71550    9.90610    9.90610  110.44500  110.44500    0.12850    2.18530    0.30680    9.05430    0.12850   87.44320   87.44320  101.47800   88.79340   88.79340    8.73460    2.18530   15.78410   25.41400   -2.30840   15.78410
 8600.00000    9.11360    8.96230    9.11360    0.57150    0.57150    0.01660    2.57260    0.08040 1749.78130    0.01660   55.66550   55.66550   26.68160   15.91640   26.65620  493.62170    2.57260  302.13290  -37.06990  -64.06720  302.13290
 8650.00000    8.79180    8.92710    8.79180    0.00000    0.50000    0.05070    2.57340    0.07990 2000.00000    0.05070   56.70530   56.70530   20.99780   14.14430   20.33010  494.92900    2.57340  350.53750  -44.74590  -71.02290  350.53750
 8700.00000    8.82450    8.47010    8.82450    0.46620    0.50000    0.01030    2.62120    0.05200 2000.00000    0.01030   52.57200   52.57200   24.46300   15.22300   24.65650  494.77010    2.62120  505.57000    3.91830  -21.63360  505.57000
 8750.00000   10.06620    8.95870   10.06620   17.49790   17.49790    0.15650    2.65360    0.03300   57.14970    0.15650   53.03900   53.03900   39.62350   31.50480   37.71150   59.64980    2.65360  135.12760  -14.58720  -39.41880  135.12760
 8800.00000   10.98670    9.06140   10.98670   24.44380   24.44380    0.13170    2.32360    0.22600   40.91020    0.13170   54.64360   54.64360   65.72090   67.21080   61.96230   39.25490    2.32360   58.77610  -31.81870  -55.92990   58.77610
 8850.00000   11.28170    9.79590   11.28170   23.76700   23.76700    0.05080    2.32870    0.22300   42.07510    0.05080   56.56010   56.56010   63.30360   62.25300   59.55360   43.69870    2.32870   45.52600  -75.37210  -98.75820   45.52600
 8900.00000    9.69870    9.22720    9.69870   14.10020   14.10020   -0.00520    2.90040   -0.11130   70.92100   -0.00520   50.15390   50.15390   21.65270   16.69760   19.77600   71.74870    2.90040   50.08480  -70.25880  -92.92460   50.08480
 8950.00000    9.38680    9.19480    9.38680   11.38350   11.38350    0.09700    2.63770    0.04230   87.84640    0.09700   53.22480   53.22480   52.61040   50.83120   56.28410  102.81030    2.63770  138.19040  -71.48580  -93.42650  138.19040
 9000.00000    9.34190    9.14720    9.34190   11.06370   11.06370    0.03950    2.87700   -0.09770   90.38570    0.03950   49.35990   49.35990   16.38460   12.91280   16.33170   96.16780    2.87700   83.43990 -114.18240 -135.40280   83.43990
 9050.00000   11.52400    9.97610   11.52400   16.60740   16.60740    0.14950    2.36090    0.20420   60.21410    0.14950   53.00210   53.00210   21.36300   21.43530   20.12810   61.65930    2.36090  109.24810 -125.81290 -146.31300  109.24810
 9100.00000   11.13300    9.39190   11.13300   35.42090   35.42090    0.15990    2.46910    0.14090   28.23190    0.15990   53.05890   53.05890   64.38570   70.92100   66.58310   29.66030    2.46910   30.07440  -62.59820  -82.37320   30.07440
 9150.00000    9.42860    9.13800    9.42860   67.54800   67.54800    0.00720    2.69730    0.00740   14.80430    0.00720   56.71800   56.71800   80.48740   71.92630   79.24030   14.96530    2.69730   20.91120  -52.40350  -71.45810   20.91120
 9200.00000    9.49780    9.05560    9.49780   19.74140   19.74140    0.09680    2.69100    0.01110   50.65500    0.09680   54.96630   54.96630   63.85320   68.33080   62.71990   45.71810    2.69100   67.38850  -33.05840  -51.38800   67.38850
 9250.00000   11.02590    9.49160   11.02590   18.98660   18.98660    0.18460    2.48190    0.13340   52.66870    0.18460   54.52930   54.52930   41.36550   39.22790   42.94710   51.90770    2.48190   65.17600  -31.91840  -49.52760   65.17600
 9300.00000   11.76500    9.73490   11.76500    6.15160    6.15160    0.18470    2.68460    0.01490  162.55930    0.18470   50.93960   50.93960   15.46130   14.92880   15.68960  206.55620    2.68460  219.81580 -101.11860 -118.00750  219.81580
 9350.00000   10.69400    9.56310   10.69400   39.82030   39.82030    0.13080    2.71780   -0.00450   25.11280    0.13080   55.43110   55.43110   28.03500   27.85360   28.09730   25.59790    2.71780   43.56280  -81.86090  -98.02470   43.56280
 9400.00000    9.07940    9.08960    9.07940   35.83750   35.83750    0.05050    2.63450    0.04420   27.90370    0.05050   57.41740   57.41740   52.45430   49.48060   52.40320   28.15680    2.63450   39.85620  -32.28250  -47.72600   39.85620
 9450.00000    8.95300    9.04890    8.95300   23.72270   23.72270    0.03370    2.58460    0.07330   42.15370    0.03370   56.68270   56.68270   50.64190   48.82370   50.76690   42.79150    2.58460   47.61700  -33.45100  -48.16940   47.61700
 9500.00000    9.17510    9.47930    9.17510   54.47270   54.47270    0.11060    2.54420    0.09700   18.35780    0.11060   62.81840   62.81840   81.03010   77.58860   82.48740   18.58910    2.54420   22.07280  -32.11900  -46.11710   22.07280
