~Version ---------------------------------------------------
VERS.      2.0 : CWLS log ASCII Standard -VERSION 2.0
WRAP.       NO : One line per depth step
CREA. 11/17/17 : LAS Creation Date
~Well ------------------------------------------------------
STRT.FT                        700.0 : START DEPTH
STOP.FT                       6450.0 : STOP DEPTH
STEP.FT                     50.00000 : STEP LENGTH
NULL.                        -999.25 : NULL VALUE
COMP.        J. M. HUBER CORPORATION : COMPANY
WELL. HUBER 10E WESTLOCK 10-27-60-27 : WELL
FLD .                                : FIELD
LOC .                                : LOCATION
CTRY.                         CANADA : COUNTRY
SRVC.                   Schlumberger : SERVICE COMPANY
DATE.                    12-Nov-1965 : LOGDATE
PROV.                        Alberta : PROVINCE
UWI .               100102706027W400 : UNIQUE WELL ID
SLAT.WGS84                   54.2195 : SURFACE LATITUDE
SLON.WGS84                  -113.959 : SURFACE LONGITUDE
~Curve Information -----------------------------------------
DEPT  .FT    : Depth Curve
CALMED.IN    : CALIPER FROM MICROLOG
CALWS .IN    : CALIPER [CALMED]
CILDED.MMHO  : CONDUCTIVITY FROM RESISTIVITY LOG
CONDWS.MMHO  : CONDUCTIVITY [CILDED]
DRESWS.OHMM  : DEEP RESISTIVITY [1000/CILDED]
DTED  .US/F  : DELTA TIME FROM SONIC LOG
DTWS  .US/F  : DELTA TIME [DTED]
GRNED .GAPI  : GAMMA RAY FROM NEUTRON LOG
GRSED .GAPI  : GAMMA RAY FROM SONIC LOG
GRWS  .GAPI  : GAMMA RAY [2132' GRNED 2211' GRSED]
ILDED .OHMM  : INDUCTION LOG DEEP RESISTIVITY
NEUTED.NAPI  : NEUTRON FROM NEUTRON LOG
NEUTWS.NAPI  : NEUTRON [NEUTED]
SNED  .OHMM  : 16 INCH SHORT NORMAL RESISTIVITY FROM IEL
SPRED .MV    : SPONTANEOUS POTENTIAL FROM RESISTIVITY LOG [SHIFT IS REMOVED]
SPWS  .MV    : SPONTANEOUS POTENTIAL [BASELINE 0 MV] [SPRED]
SRESWS.OHMM  : SHALLOW RESISTIVITY [SNED]
~Params ----------------------------------------------------
PD  .                     GL : PERMANENT DATUM
EPD .FT               2028.3 : ELEVATION PERMANENT DATUM
LMF .                     KB : LOG MEASURED FROM
DAPD.FT                11.75 : FEET ABOVE PERMANENT DATUM
EKB .FT              2040.05 : KELLY BUSHING
EGL .FT               2028.3 : GROUND LEVEL
DATE.               11/12/65 : RUN DATE
RUN .                      1 : RUN NUMBER
DD  .FT                 6460 : DEPTH DRILLER
DL  .FT                 6455 : DEPTH LOGGER
BLI .FT                 6454 : BOTTOM LOG INTERVAL
TLI .FT                  657 : TOP LOG INTERVAL
CBD .FT                  655 : CASING BOTTOM DRILLER
CBL .FT                  657 : CASING BOTTOM LOGGER
BS  .IN                7.875 : BIT SIZE
BSD .FT                 6460 : BIT SIZE AT DEPTH
DFT .                    GEL : DRILLING FLUID TYPE
DFD .                    9.8 : DRILLING FLUID DENSITY
DFV .                    100 : DRILLING FLUID VISCOSITY
DFPH.                    9.0 : DRILLING FLUID PH
DFL .                    7.4 : DRILLING FLUID LOSS
RMS .OHMM               1.32 : RESISTIVITY MUD SAMPLE
MST .DEGF                 73 : MUD SAMPLE TEMPERATURE
RMF .OHMM              0.822 : RESISTIVITY MUD FILTRATE SAMPLE
MFST.DEGF                 82 : MUD FILTRATE SAMPLE TEMPERATURE
RMC .OHMM               1.63 : RESISTIVITY MUD CAKE
MCST.DEGF                 80 : MUD CAKE SAMPLE TEMPERATURE
RMB .OHMM              0.754 : RESISTIVITY MUD AT BHT
TCS .HRS                   2 : TIME CIRCULATED STOPPED
LUN .                   3523 : LOGGING UNIT NUMBER
LUL .                    EDM : LOGGING UNIT LOCATION
ENGI.              SWINARTON : RECORDING ENGINEER
WITN.                 KENZIE : WITNESSED BY
CLNT.                A2DTECH : CLIENT CODE
ORIG.            2" 5" PRINT : ORIGIN OF DATA
UWI .       100102706027W400 : UNIQUE WELL ID
DICO. A2D Technologies, Inc. : DIGITIZING COMPANY
~Other -----------------------------------------------------
~ASCII -----------------------------------------------------
  700.00000    -999.25    -999.25  196.07570  196.07570    5.10010    -999.25    -999.25    -999.25    -999.25    -999.25    4.87610    -999.25    -999.25    4.84950  -27.46090   -9.02240    4.84950
  750.00000    -999.25    -999.25  162.51630  162.51630    6.15320    -999.25    -999.25    -999.25    -999.25    -999.25    6.42540    -999.25    -999.25    6.70850  -28.61190  -10.17340    6.70850
  800.00000    -999.25    -999.25  382.46050  382.46050    2.61460    -999.25    -999.25    -999.25    -999.25    -999.25    2.12550    -999.25    -999.25    2.50930  -24.99910   -6.56060    2.50930
  850.00000    -999.25    -999.25  211.01720  211.01720    4.73900    -999.25    -999.25    -999.25    -999.25    -999.25    4.16140    -999.25    -999.25    4.46160  -24.40250   -5.96400    4.46160
  900.00000    -999.25    -999.25  248.82880  248.82880    4.01880    -999.25    -999.25    -999.25    -999.25    -999.25    3.39660    -999.25    -999.25    4.34970  -23.80710   -5.36860    4.34970
  950.00000    -999.25    -999.25  356.29650  356.29650    2.80670    -999.25    -999.25    -999.25    -999.25    -999.25    2.54620    -999.25    -999.25    3.23840  -23.13340   -4.69490    3.23840
 1000.00000    -999.25    -999.25  219.15810  219.15810    4.56290    -999.25    -999.25    -999.25    -999.25    -999.25    3.84250    -999.25    -999.25    4.68450  -23.58820   -5.40520    4.68450
 1050.00000    -999.25    -999.25  164.06160  164.06160    6.09530    -999.25    -999.25    -999.25    -999.25    -999.25    6.60420    -999.25    -999.25    5.27580  -25.96710   -8.08680    5.27580
 1100.00000    -999.25    -999.25  170.99660  170.99660    5.84810    -999.25    -999.25    -999.25    -999.25    -999.25    5.91540    -999.25    -999.25    4.59090  -25.52090   -7.94630    4.59090
 1150.00000    -999.25    -999.25  176.40340  176.40340    5.66880    -999.25    -999.25    -999.25    -999.25    -999.25    5.95240    -999.25    -999.25    4.70860  -27.14310   -9.87120    4.70860
 1200.00000    -999.25    -999.25  230.05380  230.05380    4.34680    -999.25    -999.25    -999.25    -999.25    -999.25    4.35630    -999.25    -999.25    3.97510  -26.12730   -9.16110    3.97510
 1250.00000    -999.25    -999.25  224.70390  224.70390    4.45030    -999.25    -999.25    -999.25    -999.25    -999.25    3.86540    -999.25    -999.25    4.05970  -29.39410  -12.73210    4.05970
 1300.00000    -999.25    -999.25  198.44930  198.44930    5.03910    -999.25    -999.25    -999.25    -999.25    -999.25    4.95920    -999.25    -999.25    4.47730  -28.24930  -11.89000    4.47730
 1350.00000    -999.25    -999.25  180.58390  180.58390    5.53760    -999.25    -999.25    -999.25    -999.25    -999.25    5.07740    -999.25    -999.25    5.89250  -27.43870  -11.38510    5.89250
 1400.00000    -999.25    -999.25  168.20850  168.20850    5.94500    -999.25    -999.25    -999.25    -999.25    -999.25    6.39940    -999.25    -999.25    5.62790  -29.14910  -13.39810    5.62790
 1450.00000    -999.25    -999.25   86.15020   86.15020   11.60760    -999.25    -999.25    -999.25    -999.25    -999.25   13.08590    -999.25    -999.25    9.26490  -32.02990  -16.58470    9.26490
 1500.00000    -999.25    -999.25  150.33150  150.33150    6.65200    -999.25    -999.25    -999.25    -999.25    -999.25    7.47940    -999.25    -999.25    6.50620  -30.40100  -15.26000    6.50620
 1550.00000    -999.25    -999.25  137.70360  137.70360    7.26200    -999.25    -999.25    -999.25    -999.25    -999.25    7.93020    -999.25    -999.25    5.69190  -33.30710  -18.46870    5.69190
 1600.00000    -999.25    -999.25  158.80410  158.80410    6.29710    -999.25    -999.25    -999.25    -999.25    -999.25    6.88250    -999.25    -999.25    5.44490  -32.71630  -18.18370    5.44490
 1650.00000    -999.25    -999.25  134.98330  134.98330    7.40830    -999.25    -999.25    -999.25    -999.25    -999.25    8.22150    -999.25    -999.25    4.94790  -33.42640  -19.19650    4.94790
 1700.00000    -999.25    -999.25  165.13970  165.13970    6.05550    -999.25    -999.25    -999.25    -999.25    -999.25    6.36000    -999.25    -999.25    4.02050  -34.15100  -20.22680    4.02050
 1750.00000    -999.25    -999.25  131.36850  131.36850    7.61220    -999.25    -999.25    -999.25    -999.25    -999.25    8.47120    -999.25    -999.25    5.82000  -33.96870  -20.34870    5.82000
 1800.00000    -999.25    -999.25  192.85100  192.85100    5.18530    -999.25    -999.25    -999.25    -999.25    -999.25    5.26750    -999.25    -999.25    5.05290  -27.59210  -14.27480    5.05290
 1850.00000    -999.25    -999.25  126.40940  126.40940    7.91080    -999.25    -999.25    -999.25    -999.25    -999.25    8.77790    -999.25    -999.25   10.71190  -25.85620  -12.84460   10.71190
 1900.00000    -999.25    -999.25  148.58080  148.58080    6.73030    -999.25    -999.25    -999.25    -999.25    -999.25    7.42160    -999.25    -999.25    8.72500  -24.36080  -11.65180    8.72500
 1950.00000    -999.25    -999.25  173.41860  173.41860    5.76640    -999.25    -999.25    -999.25    -999.25    -999.25    6.04780    -999.25    -999.25    7.93980  -17.94570   -5.54250    7.93980
 2000.00000    -999.25    -999.25  203.03430  203.03430    4.92530    -999.25    -999.25    -999.25    -999.25    -999.25    4.69740    -999.25    -999.25    5.34850  -23.32340  -11.22440    5.34850
 2050.00000    -999.25    -999.25  180.04360  180.04360    5.55420    -999.25    -999.25    -999.25    -999.25    -999.25    5.78110    -999.25    -999.25    6.28690  -22.20480  -10.40850    6.28690
 2100.00000    -999.25    -999.25  125.18190  125.18190    7.98840    -999.25    -999.25    -999.25    -999.25    -999.25    8.71500    -999.25    -999.25   12.30790  -19.88460   -8.39390   12.30790
 2150.00000    -999.25    -999.25  322.55350  322.55350    3.10030    -999.25    -999.25   97.22910    -999.25   97.22910    2.72610  150.26060  150.26060    3.38640  -18.98760   -7.79960    3.38640
 2200.00000   16.70830   16.70830  339.39930  339.39930    2.94640  106.82860  106.82860   76.16030   74.23590   76.16030    2.57080  252.46420  252.46420    3.12280  -19.90110   -9.01880    3.12280
 2250.00000   17.93350   17.93350  390.18920  390.18920    2.56290  125.21050  125.21050   85.95290   75.15000   75.15000    2.12600  170.34410  170.34410    2.62710  -18.43550   -7.85740    2.62710
 2300.00000   16.03040   16.03040  325.28100  325.28100    3.07430  106.43840  106.43840   82.50300   79.29160   79.29160    2.63230  166.01520  166.01520    3.11270  -18.80080   -8.52540    3.11270
 2350.00000   12.48580   12.48580  228.20240  228.20240    4.38210  117.97940  117.97940   86.94320  107.11190  107.11190    3.71030  171.97950  171.97950    5.42600  -19.11370   -9.14400    5.42600
 2400.00000   13.93320   13.93320  313.94420  313.94420    3.18530  105.26120  105.26120   75.30440   70.05950   70.05950    2.73800  166.40430  166.40430    4.40220  -14.89160   -5.22470    4.40220
 2450.00000    9.47160    9.47160  169.57340  169.57340    5.89720   60.72690   60.72690   52.60120   51.37240   51.37240    6.06200  272.74050  272.74050    7.01030  -19.22130   -9.86440    7.01030
 2500.00000    9.86040    9.86040  268.51650  268.51650    3.72420   96.83600   96.83600   36.02390   44.40560   44.40560    3.20760  258.03870  258.03870    4.87020  -26.39180  -17.34970    4.87020
 2550.00000   11.38480   11.38480  232.10270  232.10270    4.30840   92.37260   92.37260   57.70830   62.93650   62.93650    3.81830  179.92940  179.92940    6.02070  -21.68020  -12.95140    6.02070
 2600.00000   10.99560   10.99560  184.46880  184.46880    5.42100   88.87260   88.87260   63.02250   62.78740   62.78740    5.35860  329.46600  329.46600    6.43650  -19.01610  -10.60370    6.43650
 2650.00000   12.14530   12.14530  140.30030  140.30030    7.12760  137.88270  137.88270    -999.25   62.04410   62.04410    7.84550    -999.25    -999.25    7.96490  -19.78890  -11.68980    7.96490
 2700.00000   11.44110   11.44110  418.81050  418.81050    2.38770   98.82310   98.82310    -999.25   55.64240   55.64240    2.34740    -999.25    -999.25    4.17810  -39.72540  -31.94270    4.17810
