~Version ---------------------------------------------------
VERS.      2.0 : CWLS log ASCII Standard -VERSION 2.0
WRAP.       NO : One line per depth step
CREA. 08/12/13 : LAS Creation Date
~Well ------------------------------------------------------
STRT.M                           450.0 : START DEPTH
STOP.M                          3450.0 : STOP DEPTH
STEP.M                        50.00000 : STEP LENGTH
NULL.                          -999.25 : NULL VALUE
COMP. AMOCO CANADA PETROLEUM CO., LTD. : COMPANY
WELL.    ULSTER ANTE CREEKK 5-22-66-25 : WELL
FLD .                       ANTE CREEK : FIELD
LOC .                                  : LOCATION
CTRY.                           CANADA : COUNTRY
SRVC.                          Unknown : SERVICE COMPANY
DATE.                      24-Sep-1983 : LOGDATE
PROV.                          Alberta : PROVINCE
UWI .                 100052206625W500 : UNIQUE WELL ID
SLAT.WGS84                    54.72352 : SURFACE LATITUDE
SLON.WGS84                   -117.7013 : SURFACE LONGITUDE
~Curve Information -----------------------------------------
DEPT    .M      : DEPTH METER
ACED    .US/M   : ACOUSTIC FROM SONIC LOG [ADJ. TO RESISTIVITY LOG]
C13ED   .MM     : CALIPER 13 PAD ELECTRODE FROM DENSITY LOG [ADJ. TO RESISTIVITY LOG]
C24ED   .MM     : CALIPER 24 FROM DENSITY LOG [ADJ. TO RESISTIVITY LOG]
CALSED  .MM     : CALIPER FROM SONIC LOG [ADJ. TO RESISTIVITY LOG]
CALWS   .MM     : CALIPER [C13ED]
CNCLSED .V/V    : COMPENSATED NEUTRON POROSITY LIMESTONE FROM DENSITY LOG [ADJ. TO RESISTIVITY LOG]
CNCSSED .V/V    : COMPENSATED NEUTRON POROSITY SANDSTONE FROM DENSITY LOG [ADJ. TO RESISTIVITY LOG]
CONDWS  .MMHO   : CONDUCTIVITY [1000/DRESWS]
CORRED  .KG/M3  : DENSITY CORRECTION FROM DENSITY LOG [ADJ. TO RHOBED/RESISTIVITY LOG]
DCORWS  .KG/M3  : DENSITY CORRECTION [CORRED]
DENED   .KG/M3  : COMPENSATED BULK DENSITY FROM DENSITY LOG [ADJ. TO RHOBED/RESISTIVITY LOG]
DENWS   .KG/M3  : FORMATION BULK DENSITY [CALC. FROM DENWS, M=2710 ,F=1000]
DPOLSWS .V/V    : DENSITY POROSITY LIMESTONE [PORDSSED CONVERTED TO LIMESTONE MATRIX, M=2710, F=1000, SPL. TO PORDLSED @ 1947.2 M]
DRESWS  .OHMM   : DEEP RESISTIVITY [RILDED]
DTWS    .US/M   : COMPRESSIONAL SONIC [ACED]
GRDED   .GAPI   : GAMMA RAY FROM DENSITY LOG [ADJ. TO RESISTIVITY LOG]
GRRED   .GAPI   : GAMMA RAY FROM RESISTIVITY LOG
GRWS    .GAPI   : GAMMA RAY [GRRED SPL. TO GRDED @ 3446 M]
MRESWS  .OHMM   : MEDIUM RESISTIVITY [RILMED]
NPOLSWS .V/V    : NEUTRON POROSITY LIMESTONE [CNCSSED CONVERTED TO LIMESTONE MATRIX, SPL. TO CNCLSED @ 1974.2 M]
PORDLSED.V/V    : DENSITY POROSITY LIMESTONE [M=2710, F=1000] FROM DENSITY LOG [ADJ. TO RESISTIVITY LOG]
PORDSSED.V/V    : DENSITY POROSITY SANDSTONE [M=2650, F=1000] FROM DENSITY LOG [ADJ. TO RESISTIVITY LOG]
RFOCED  .OHMM   : SHALLOW FOCUSED RESISTIVITY FROM RESISTIVITY LOG
RILDED  .OHMM   : DEEP INDUCTION  RESISTIVITY FROM RESISTIVITY LOG
RILMED  .OHMM   : MEDIUM INDUCTION RESISTIVITY FROM RESISTIVITY LOG
SPRED   .MV     : SPONTANEOUS POTENTIAL FROM RESISTIVITY LOG
SPWS    .MV     : SPONTANEOUS POTENTIAL [BASELINE 0 MV, SPRED]
SRESWS  .OHMM   : SHALLOW RESISTIVITY [RFOCED]
TENDED  .N      : TENSION FROM DENSITY LOG [ADJ. TO RESISTIVITY LOG]
TENRED  .N      : TENSION FROM RESISTIVITY LOG
~Params ----------------------------------------------------
PD  .                         GL : PERMANENT DATUM
EPD .M                    762.45 : ELEVATION PERMANENT DATUM
LMF .                         KB : LOG MEASURED FROM
DAPD.M                      7.45 : FEET ABOVE PERMANENT DATUM
DMF .                         KB : DRILLING MEASURED FROM
EKB .M                     769.9 : KELLY BUSHING
EGL .M                    762.45 : GROUND LEVEL
DATE.                   09/24/83 : RUN DATE
RUN .                          1 : RUN NUMBER
DD  .M                      3460 : DEPTH DRILLER
DL  .M                    3457.8 : DEPTH LOGGER
BLI .M                    3457.3 : BOTTOM LOG INTERVAL
TLI .M                     448.7 : TOP LOG INTERVAL
CS  .MM                      244 : CASING SIZE
CBD .M                       448 : CASING BOTTOM DRILLER
CBL .M                     448.7 : CASING BOTTOM LOGGER
BS  .MM                      219 : BIT SIZE
BSD .M                      3460 : BIT SIZE AT DEPTH
DFT .                   GEL CHEM : DRILLING FLUID TYPE
DFD .                       1100 : DRILLING FLUID DENSITY
DFV .                         55 : DRILLING FLUID VISCOSITY
DFPH.                       10.5 : DRILLING FLUID PH
DFL .                         10 : DRILLING FLUID LOSS
MSS .                       CIRC : MUD SAMPLE SOURCE
RMS .OHMM                    2.7 : RESISTIVITY MUD SAMPLE
MST .DEGC                     19 : MUD SAMPLE TEMPERATURE
RMF .OHMM                    1.8 : RESISTIVITY MUD FILTRATE SAMPLE
MFST.DEGC                     19 : MUD FILTRATE SAMPLE TEMPERATURE
RMC .OHMM                    1.7 : RESISTIVITY MUD CAKE
MCST.DEGC                     19 : MUD CAKE SAMPLE TEMPERATURE
MFSS.                       MEAS : MUD FILTRATE SAMPLE SOURCE
MCSS.                       MEAS : MUD CAKE SAMPLE SOURCE
RMB .OHMM                   0.83 : RESISTIVITY MUD AT BHT
TCS .HRS                      29 : TIME CIRCULATED STOPPED
LUN .                       6217 : LOGGING UNIT NUMBER
LUL .                         GP : LOGGING UNIT LOCATION
ENGI.             HODSON BROTHEN : RECORDING ENGINEER
WITN.                    TUSTIAN : WITNESSED BY
CLNT.                    A2DTECH : CLIENT CODE
ORIG. 6.5"/100M 16.5"/100M PRINT : ORIGIN OF DATA
UWI .           100052206625W500 : UNIQUE WELL ID
DICO.     A2D Technologies, Inc. : DIGITIZING COMPANY
~Other -----------------------------------------------------
CNFD-DIFL-BCS LOG RAN
DIFL RUN SEPERATELY AFTER AC DUE TO TOOL MALFUNCTION
~ASCII -----------------------------------------------------
  450.00000  332.89600  289.69950  253.06620  287.29500  289.69950    -999.25    0.44270    -999.25  179.00000  179.00000 2231.30000 2283.04000    0.24970    -999.25  332.89600   54.01030   50.61530   50.61530    -999.25    0.40270    -999.25    0.22240    -999.25    -999.25    -999.25    -999.25    -999.25    -999.25 -958.29080 -2209.00110
  500.00000  373.51950  278.30370  339.91080  285.70200  278.30370    -999.25    0.51590  211.08620  132.90000  132.90000 2259.50000 2198.23000    0.29930    4.73740  373.51950   71.60410   65.87550   65.87550    4.83170    0.47750    -999.25    0.27380    4.60700    4.73740    4.83170  -35.19160   -6.65760    4.60700 -3640.30360 -2563.48590
  550.00000  317.76640  280.68820  290.64400  296.19710  280.68820    -999.25    0.35110   94.17170   84.80000   84.80000 2376.00000 2371.64500    0.19790   10.61890  317.76640   62.20080   50.34890   50.34890   11.54040    0.31110    -999.25    0.16870    9.48070   10.61890   11.54040  -34.02530   -6.05020    9.48070 -1179.06250 -2043.45150
  600.00000  479.92370  321.80900  369.17680  324.09790  321.80900    -999.25    0.66860  295.61310  177.00000  177.00000 1765.20000 1762.96000    0.55380    3.38280  479.92370   62.35120   54.44090   54.44090    3.38290    0.63890    -999.25    0.53760    4.22610    3.38280    3.38290  -35.37000   -8.31310    4.22610 -1170.88110 -2777.35150
  650.00000  334.23910  247.63820  209.92290  229.13180  247.63820    -999.25    0.36280   53.02850  183.40000  183.40000 2333.20000 2323.79500    0.22590   18.85780  334.23910   49.46480   41.09630   41.09630   19.33630    0.32280    -999.25    0.19770   14.28870   18.85780   19.33630  -40.90670  -13.84980   14.28870 -1710.81670 -1436.10710
  700.00000  333.93010  318.75540  382.89670  355.02510  318.75540    -999.25    0.45890  210.65050  181.30000  181.30000 2426.60000 2386.99000    0.18890    4.74720  333.93010   60.18940   57.68290   57.68290    4.93920    0.41900    -999.25    0.15940    5.25430    4.74720    4.93920  -34.89820   -7.84130    5.25430 2950.71420 -2617.23520
  750.00000  395.46080  334.29610  308.20210  316.85530  334.29610    -999.25    0.58790  240.24600   99.30000   99.30000 2192.30000 2135.69500    0.33590    4.16240  395.46080   64.08360   62.19350   62.19350    3.89210    0.55300    -999.25    0.31170    4.87680    4.16240    3.89210  -31.56650   -4.57950    4.87680 -1885.48160 -4331.68910
  800.00000  320.54280  251.02560  240.56740  256.99200  251.02560    -999.25    0.44200  141.35070   92.80000   92.80000 2364.10000 2349.37000    0.21090    7.07460  320.54280   63.91310   56.53330   56.53330    7.33630    0.40200    -999.25    0.18220    7.37350    7.07460    7.33630  -34.11230   -6.10800    7.37350 -3851.87910 -4269.65960
  850.00000  277.82950  280.94590  232.95280  278.82410  280.94590    -999.25    0.53610  115.11720  173.90000  173.90000 2259.20000 2255.98000    0.26550    8.68680  277.82950   91.92770   83.27920   83.27920    8.36270    0.49850    -999.25    0.23880    8.14130    8.68680    8.36270  -34.45280   -6.24680    8.14130 -1467.87170 -2381.09760
  900.00000  308.20640  282.23400  339.90880  297.37100  282.23400    -999.25    0.43860  101.56920  133.30000  133.30000 2389.70000 2389.05250    0.18770    9.84550  308.20640  117.59390  110.21800  110.21800   10.53090    0.39860    -999.25    0.15810   11.01780    9.84550   10.53090  -34.66740   -5.04980   11.01780 -2531.90090 -2938.25810
  950.00000  247.05420  264.19820  247.71030  289.20290  264.19820    -999.25    0.60830  120.15760   97.70000   97.70000 2128.70000 2132.72500    0.33760    8.32240  247.05420  102.54900   98.18670   98.18670    7.51150    0.57460    -999.25    0.31350    7.31710    8.32240    7.51150  -36.73890   -5.70960    7.31710 -1747.07160 -2559.47160
 1000.00000  303.88470  297.75760  311.48770  283.62840  297.75760    -999.25    0.44450  133.26940  -17.20000  -17.20000 2030.50000 2059.13500    0.38060    7.50360  303.88470  106.99310   97.42930   97.42930    6.29570    0.40450    -999.25    0.35810    6.92730    7.50360    6.29570  -37.68690   -5.24600    6.92730 -1052.57880 -2609.18850
 1050.00000  278.49920  273.60940  287.60650  295.01310  273.60940    -999.25    0.44120   66.94380  267.75000  267.75000 2318.15000 2317.36000    0.22960   14.93790  278.49920   95.55880   86.06170   86.06170   14.60940    0.40120    -999.25    0.20160   10.66970   14.93790   14.60940  -38.93990   -5.08740   10.66970   72.41110 -2695.57350
 1100.00000  287.31040  264.30510  284.67970  289.71590  264.30510    -999.25    0.50510   94.79570  201.20000  201.20000 2319.40000 2311.58500    0.23300   10.54900  287.31040  105.74610   99.74680   99.74680    9.91630    0.46630    -999.25    0.20510    9.16680   10.54900    9.91630  -38.98270   -4.72790    9.16680 -1679.15090 -2239.40960
 1150.00000  309.12440  259.90340  323.19900  278.29350  259.90340    -999.25    0.40570  106.45320  255.50000  255.50000 2373.30000 2369.33500    0.19920    9.39380  309.12440  114.66910  102.99890  102.99890    9.20580    0.36570    -999.25    0.17010    9.05750    9.39380    9.20580  -40.88130   -6.94920    9.05750 -1443.49820 -2322.56160
 1200.00000  301.57320  251.71720  263.84300  264.94400  251.71720    -999.25    0.35790   76.30680  123.50000  123.50000 2509.40000 2514.86500    0.11410   13.10500  301.57320   98.55980   93.43540   93.43540   12.77750    0.31790    -999.25    0.08190   12.29840   13.10500   12.77750  -38.33610   -4.72660   12.29840 -2208.12100 -2562.98300
 1250.00000  324.62880  267.58370  303.54480  281.20190  267.58370    -999.25    0.43680  124.25600  253.00000  253.00000 2452.50000 2448.04000    0.15320    8.04790  324.62880  125.22210  113.81330  113.81330    8.26390    0.39680    -999.25    0.12240    8.97250    8.04790    8.26390  -35.25490   -1.96810    8.97250 -2018.24280 -2965.82870
 1300.00000  285.72520  290.91080  246.20360  272.30870  290.91080    -999.25    0.38720  142.70020  333.80000  333.80000 2172.20000 2134.70500    0.33640    7.00770  285.72520  113.38020  108.19020  108.19020    6.97650    0.34720    -999.25    0.31230    6.70980    7.00770    6.97650  -37.46220   -4.49260    6.70980 -525.18930 -2481.67210
 1350.00000  283.74810  278.40790  274.38260  286.32950  278.40790    -999.25    0.35890  146.71150  168.60000  168.60000 2504.70000 2478.56500    0.13530    6.81610  283.74810  108.32300  103.48650  103.48650    6.98190    0.31890    -999.25    0.10390    6.58480    6.81610    6.98190  -39.80750   -5.79020    6.58480 -1675.04670 -2071.41730
 1400.00000  271.94060  248.80570  317.86780  261.01040  248.80570    -999.25    0.34290  111.42680  170.20000  170.20000 2582.90000 2578.72000    0.07680    8.97450  271.94060  105.73300   99.27260   99.27260    9.40120    0.30290    -999.25    0.04320    8.67880    8.97450    9.40120  -41.44640   -7.00380    8.67880 -1282.54670 -1150.38730
 1450.00000  341.61070  286.81910  327.30310  322.90960  286.81910    -999.25    0.42010  312.50000  201.40000  201.40000 2337.50000 2333.20000    0.22040    3.20000  341.61070   99.66280   92.64430   92.64430    3.00650    0.38010    -999.25    0.19200    3.76420    3.20000    3.00650  -39.79810   -5.35550    3.76420 -836.98900 -2343.01060
 1500.00000  249.57580  270.26290  279.40660  271.62240  270.26290    -999.25    0.23120   70.41360   86.50000   86.50000 2568.00000 2561.23000    0.08700   14.20180  249.57580   91.14230   83.85480   83.85480   14.69790    0.19120    -999.25    0.05380   13.31220   14.20180   14.69790  -40.90960   -6.46700   13.31220 -1023.00550 -1563.18350
 1550.00000  251.15700  270.48980  279.99540  265.63580  270.48980    -999.25    0.31470  153.14640   78.60000   78.60000 2352.00000 2312.24500    0.23260    6.52970  251.15700   86.02020   76.95700   76.95700    6.68840    0.27470    -999.25    0.20470    7.78480    6.52970    6.68840  -48.84460   -6.97580    7.78480  148.69290 -2350.30290
 1600.00000  237.41670  248.59390  203.53380  225.77440  248.59390    -999.25    0.22010   64.60870  179.60000  179.60000 2538.40000 2535.65500    0.10200   15.47780  237.41670   58.47960   52.00880   52.00880   20.75240    0.18010    -999.25    0.06930   21.98750   15.47780   20.75240  -67.22060  -30.37150   21.98750 -874.60000 -1015.33600
