~Version ---------------------------------------------------
VERS.      2.0 : CWLS log ASCII Standard -VERSION 2.0
WRAP.       NO : One line per depth step
CREA. 08/23/13 : LAS Creation Date
~Well ------------------------------------------------------
STRT.M                      550.0 : START DEPTH
STOP.M                     3600.0 : STOP DEPTH
STEP.M                   50.00000 : STEP LENGTH
NULL.                     -999.25 : NULL VALUE
COMP.   GULF CANADA RESOURCES INC : COMPANY
WELL. GULF ANTE CREEK 13-21-65-24 : WELL
FLD .                  ANTE CREEK : FIELD
LOC .                             : LOCATION
CTRY.                      CANADA : COUNTRY
SRVC.      Schlumberger of Canada : SERVICE COMPANY
DATE.                 31-Mar-1982 : LOGDATE
PROV.                     Alberta : PROVINCE
UWI .            100132106524W500 : UNIQUE WELL ID
SLAT.WGS84               54.64334 : SURFACE LATITUDE
SLON.WGS84               -117.574 : SURFACE LONGITUDE
~Curve Information -----------------------------------------
DEPT    .M      : DEPTH METER
CALDED  .MM     : CALIPER FROM DENSITY LOG [ADJ. TO RESISTIVITY LOG]
CALSED  .MM     : CALIPER FROM SONIC LOG
CALWS   .MM     : CALIPER [CALDED]
CNLLSED .V/V    : NEUTRON POROSITY LIMESTONE [M=2710,F=1000] FROM DENSITY LOG [ADJ. TO RESISTIVITY LOG]
CONDWS  .MMHO   : CONDUCTIVITY [1000/DRESWS]
DCORWS  .KG/M3  : DENSITY CORRECTION [DRHOED]
DENWS   .KG/M3  : FORMATION BULK DENSITY [CALC FROM DPOLSWS, M=2710,F=1000]
DPHILSED.V/V    : DENSITY POROSITY LIMESTONE [M=2710,F=1000] FROM DENSITY LOG [ADJ. TO RESISTIVITY LOG]
DPHISSED.V/V    : DENSITY POROSITY SANDTONE FROM DENSITY LOG [ADJ. TO RESISTIVITY LOG]
DPOLSWS .V/V    : DENSITY POROSITY [DPHISSED CONVERTED TO LIMESTINE METRIX,M=2.71,F=1.0, SPL. TO DPHILSED @ 2118.4']
DRESWS  .OHMM   : DEEP RESISTIVITY [ILDED]
DRHOED  .KG/M3  : DENSITY CORRECTION FROM DENSITY LOG [ADJ. TO RESISTIVITY LOG]
DTMEED  .US/M   : DELTA-T FROM SONIC LOG
DTWS    .US/M   : COMPRESSIONAL SONIC [DTMEED]
GRDED   .GAPI   : GAMMA RAY FROM DENSITY LOG [ADJ. TO RESISTIVITY LOG]
GRSED   .GAPI   : GAMMA RAY FROM SONIC LOG
GRWS    .GAPI   : GAMMA RAY [GRDED]
ILDED   .OHMM   : DEEP INDUCTION FROM RESISTIVITY LOG
ILMED   .OHMM   : MEDIUM INDUCTION FROM RESISTIVITY LOG
MRESWS  .OHMM   : MEDIUM RESISTIVITY [ILMED]
NPHILSED.V/V    : NEUTRON POROSITY LIMESTONE FROM DENSITY LOG [ADJ. TO RESISTIVITY LOG]
NPHISSED.V/V    : NEUTRON POROSITY SANDTONE [M=2680,F=1000] FROM DENSITY LOG [ADJ. TO RESISTIVITY LOG]
NPOLSWS .V/V    : NEUTRON POROSITY [NPHISSED MATRIX CONVERSION FOR LIMESTONE, SPL. TO NPHILSED & CNLLSED @ 2117.9' & 2321.1']
RHOBED  .KG/M3  : BULK DENSITY FROM DENSITY LOG [ADJ. TO RESISTIVITY LOG/DPHILSED/DPHISSED]
SFLUED  .OHMM   : SPHERICALLY FOCUSED FROM RESISTIVITY LOG
SPRED   .MV     : SPONTANEOUS POTENTIAL FROM RESISTIVITY LOG
SPWS    .MV     : SPONTANEOUS POTENTIAL [BASELINE 0 MV, SPRED]
SRESWS  .OHMM   : SHALLOW RESISTIVITY [SFLUED]
~Params ----------------------------------------------------
PD  .                         GL : PERMANENT DATUM
EPD .M                    879.75 : ELEVATION PERMANENT DATUM
LMF .                         KB : LOG MEASURED FROM
DAPD.M                      4.04 : FEET ABOVE PERMANENT DATUM
DMF .                         KB : DRILLING MEASURED FROM
EKB .M                    883.79 : KELLY BUSHING
EDF .M                    883.39 : DRILLING FLOOR
EGL .M                    879.75 : GROUND LEVEL
DATE.                   03/31/82 : RUN DATE
RUN .                          2 : RUN NUMBER
DD  .M                      3625 : DEPTH DRILLER
DL  .M                      3626 : DEPTH LOGGER
BLI .M                      3625 : BOTTOM LOG INTERVAL
TLI .M                      2300 : TOP LOG INTERVAL
CS  .MM                      244 : CASING SIZE
CBD .M                       611 : CASING BOTTOM DRILLER
CBL .M                       612 : CASING BOTTOM LOGGER
BS  .MM                      222 : BIT SIZE
BSD .M                      3625 : BIT SIZE AT DEPTH
DFT .                   GEL CHEM : DRILLING FLUID TYPE
DFD .                       1115 : DRILLING FLUID DENSITY
DFV .                       1113 : DRILLING FLUID VISCOSITY
DFPH.                         10 : DRILLING FLUID PH
DFL .                        7.4 : DRILLING FLUID LOSS
MSS .                   FLOWLINE : MUD SAMPLE SOURCE
RMS .OHMM                   1.69 : RESISTIVITY MUD SAMPLE
MST .DEGC                   17.8 : MUD SAMPLE TEMPERATURE
RMF .OHMM                   1.43 : RESISTIVITY MUD FILTRATE SAMPLE
MFST.DEGC                   19.4 : MUD FILTRATE SAMPLE TEMPERATURE
MFSS.                  MUD PRESS : MUD FILTRATE SAMPLE SOURCE
MCSS.                  MUD PRESS : MUD CAKE SAMPLE SOURCE
RMB .OHMM                  1.176 : RESISTIVITY MUD AT BHT
TCS .HRS                     130 : TIME CIRCULATED STOPPED
TLAB.HRS                    1100 : TIME LOGGER AT BOTTOM
LUN .                       8110 : LOGGING UNIT NUMBER
LUL .                        EDS : LOGGING UNIT LOCATION
ENGI.                   MORRISON : RECORDING ENGINEER
WITN.                   STEPHENS : WITNESSED BY
CLNT.                    A2DTECH : CLIENT CODE
ORIG. 6.5"/100M 16.5"/100M PRINT : ORIGIN OF DATA
UWI .           100132106524W500 : UNIQUE WELL ID
DICO.     A2D Technologies, Inc. : DIGITIZING COMPANY
~Other -----------------------------------------------------
DIL-SFL & CNFD & BHC LOG RUN
RHOB FROM SMALL SCALE SECTION
~ASCII -----------------------------------------------------
# ...
 1800.00000  242.94000  224.94060  242.94000    -999.25   66.23660  161.70000 2480.34700    -999.25    0.11880    0.13430   15.09740  161.70000  249.73610  249.73610   41.27510   38.12640   41.27510   15.09740   20.73380   20.73380    -999.25    0.22560    0.18190 2464.84640   30.55330  -43.67490  -47.62480   30.55330
 1850.00000  280.33160  279.03980  280.33160    -999.25   92.30970   17.60000 2501.89300    -999.25    0.10600    0.12170   10.83310   17.60000  237.82620  237.82620   93.97450   82.42830   93.97450   10.83310   11.77410   11.77410    -999.25    0.26330    0.21930 2477.46880   12.69180    1.54150   -4.76370   12.69180
 1900.00000  278.27330  273.29520  278.27330    -999.25   97.39660   22.00000 2623.81600    -999.25    0.03340    0.05040   10.26730   22.00000  257.80240  257.80240   93.79580   85.67250   93.79580   10.26730   10.72730   10.72730    -999.25    0.27720    0.23320 2596.72020   13.17390    3.14860   -5.51200   13.17390
 1950.00000  266.23660  260.42390  266.23660    -999.25   93.19060   -1.80000 2616.46300    -999.25    0.03780    0.05470   10.73070   -1.80000  245.98940  245.98940   94.47790   81.32250   94.47790   10.73070   11.26240   11.26240    -999.25    0.29690    0.25290 2584.26900   12.17050    6.34400   -4.67190   12.17050
 2000.00000  253.94630  242.67250  253.94630    -999.25   33.40950   14.00000 2548.74700    -999.25    0.07810    0.09430   29.93160   14.00000  239.36490  239.36490  108.22550   88.63400  108.22550   29.93160   27.25160   27.25160    -999.25    0.32170    0.27780 2572.26590   54.54480    6.81600   -6.55530   54.54480
 2050.00000  250.66530  243.25020  250.66530    -999.25   47.54980   15.60000 2639.71900    -999.25    0.02400    0.04110   21.03060   15.60000  226.87180  226.87180   97.77140   83.65090   97.77140   21.03060   21.54930   21.54930    -999.25    0.21060    0.16700 2607.50200   35.07290    7.03590   -8.31430   35.07290
 2100.00000  222.06540  211.26500  222.06540    -999.25  217.66100   49.90000 2469.91600    -999.25    0.12500    0.14040    4.59430   49.90000  229.64890  229.64890   32.14590   26.36960   32.14590    4.59430    6.32340    6.32340    -999.25    0.17470    0.13170 2444.73440   19.96740  -61.66320  -78.85320   19.96740
 2150.00000  241.22350  224.68970  241.22350    -999.25    2.54970   -7.70000 2277.88300    0.25270    -999.25    0.25270  392.20190   -7.70000  329.22310  329.22310  281.85030  252.69170  281.85030  392.20190  235.44470  235.44470    0.40680    -999.25    0.40680 2275.29830 1961.86250  -41.54960  -63.85680 1961.86250
 2200.00000  243.29970  242.31950  243.29970    -999.25   40.94870   13.80000 2667.76300    0.02470    -999.25    0.02470   24.42080   13.80000  176.40170  176.40170  120.00030  100.17520  120.00030   24.42080   25.08240   25.08240    0.11460    -999.25    0.11460 2665.39500   33.91790   30.14420    0.08130   33.91790
 2250.00000  232.48210  224.05890  232.48210    -999.25   32.44850   -3.40000 2642.45500    0.03950    -999.25    0.03950   30.81810   -3.40000  166.21980  166.21980  105.22460   98.71380  105.22460   30.81810   31.25930   31.25930    0.10500    -999.25    0.10500 2642.41530   39.54460   23.32050   -4.71970   39.54460
 2300.00000  233.95880  243.47620  233.95880    -999.25   58.62250  103.20000 2755.14400   -0.02640    -999.25   -0.02640   17.05830  103.20000  177.81300  177.81300   43.83360   37.72840   43.83360   17.05830   15.95270   15.95270    0.11750    -999.25    0.11750 2746.36230   20.60210  -13.21130  -36.25630   20.60210
 2350.00000  229.72200  233.58240  229.72200    0.13140   30.70510    7.58110 2748.64600   -0.02260    -999.25   -0.02260   32.56790    7.58110  180.56770  180.56770   65.63530   67.27140   65.63530   32.56790   28.46740   28.46740    -999.25    -999.25    0.13140 2748.50070   55.62180  -63.69710  -82.14760   55.62180
 2400.00000  285.30960  236.41180  285.30960    0.16890  112.20450  248.89760 2686.40200    0.01380    -999.25    0.01380    8.91230  248.89760  192.10830  192.10830   48.24040   45.90150   48.24040    8.91230    9.76890    9.76890    -999.25    -999.25    0.16890 2681.60890    8.84570  -97.53330 -111.38930    8.84570
 2450.00000  233.76030  245.61000  233.76030    0.02800    4.84390   13.81700 2689.30900    0.01210    -999.25    0.01210  206.44320   13.81700  163.06390  163.06390   18.16090   18.68530   18.16090  206.44320  278.90250  278.90250    -999.25    -999.25    0.02800 2686.17140  391.56550  -68.87110  -78.13260  391.56550
 2500.00000  232.92790  253.51930  232.92790    0.06540   40.10070   11.15330 2685.71800    0.01420    -999.25    0.01420   24.93720   11.15330  163.38530  163.38530   17.20180   14.60660   17.20180   24.93720   36.13650   36.13650    -999.25    -999.25    0.06540 2687.25880  114.70830  -84.68940  -89.35650  114.70830
 2550.00000  244.91080  240.84690  244.91080    0.04370    6.48610   12.19490 2725.04800   -0.00880    -999.25   -0.00880  154.17640   12.19490  164.06180  164.06180   13.97390   13.52070   13.97390  154.17640  178.83950  178.83950    -999.25    -999.25    0.04370 2726.46390  259.42890  -81.84040  -81.91300  259.42890
 2600.00000  253.16690  250.23910  253.16690    0.18430  156.56560    6.62650 2690.84800    0.01120    -999.25    0.01120    6.38710    6.62650  201.63390  201.63390   61.19820   63.14770   61.19820    6.38710    6.60650    6.60650    -999.25    -999.25    0.18430 2692.33570    7.11520  -56.70360  -52.18170    7.11520
 2650.00000  275.93270  253.75630  275.93270    0.04350   10.56810  141.89690 2708.97400    0.00060    -999.25    0.00060   94.62480  141.89690  173.45230  173.45230   20.64440   20.72970   20.64440   94.62480   99.79830   99.79830    -999.25    -999.25    0.04350 2705.88600  172.97870  -16.91580   -9.42800  172.97870
 2700.00000  233.75690  237.43430  233.75690    0.02680    4.00000   39.83450 2725.73200   -0.00920    -999.25   -0.00920  249.99760   39.83450  169.34250  169.34250   26.25630   24.65820   26.25630  249.99760  264.89940  264.89940    -999.25    -999.25    0.02680 2727.52660  282.42180  -56.04880  -64.36160  282.42180
 2750.00000  228.16440  224.37930  228.16440    0.02800    2.06230   29.48320 2722.82500   -0.00750    -999.25   -0.00750  484.89450   29.48320  170.81810  170.81810   27.28330   27.68910   27.28330  484.89450  609.37510  609.37510    -999.25    -999.25    0.02800 2724.06230  541.42390  -64.72640  -86.91720  541.42390
 2800.00000  224.74580  240.55760  224.74580    0.01930    0.49970   20.45720 2709.48700    0.00030    -999.25    0.00030 2001.34950   20.45720  160.88070  160.88070   19.69170   18.12500   19.69170 2001.34950 2016.70860 2016.70860    -999.25    -999.25    0.01930 2709.55860 1842.14330  -17.42090  -53.48970 1842.14330
 2850.00000  220.82470  236.90900  220.82470    0.01730    0.49590   -2.11220 2687.42800    0.01320    -999.25    0.01320 2016.66990   -2.11220  160.98210  160.98210   12.21230    9.51080   12.21230 2016.66990 1396.19200 1396.19200    -999.25    -999.25    0.01730 2684.24460 1754.40320   -6.28930  -56.23610 1754.40320
 2900.00000  219.69510  232.97550  219.69510    0.01590    0.49470   21.93800 2711.02600   -0.00060    -999.25   -0.00060 2021.46040   21.93800  162.21200  162.21200   11.85860   12.24050   11.85860 2021.46040 1593.60400 1593.60400    -999.25    -999.25    0.01590 2708.71460 1754.20090  -23.35500  -87.17980 1754.20090
 2950.00000  220.42340  235.55170  220.42340    0.01380    0.49270    6.93810 2694.61000    0.00900    -999.25    0.00900 2029.61460    6.93810  158.46280  158.46280   16.01840   12.58570   16.01840 2029.61460 1962.17380 1962.17380    -999.25    -999.25    0.01380 2692.31910 1814.15800  -68.10840 -145.81120 1814.15800
 3000.00000  219.05010  226.23890  219.05010    0.01550    0.49270   16.98790 2696.83300    0.00770    -999.25    0.00770 2029.61460   16.98790  156.58110  156.58110   14.79150   14.14410   14.79150 2029.61460 2013.75810 2013.75810    -999.25    -999.25    0.01550 2698.63180 1876.60300  -67.53930 -159.12010 1876.60300
