~Version ---------------------------------------------------
VERS.      2.0 : CWLS log ASCII Standard -VERSION 2.0
WRAP.       NO : One line per depth step
CREA. 12/01/17 : LAS Creation Date
~Well ------------------------------------------------------
STRT.FT                        300.0 : START DEPTH
STOP.FT                      17800.0 : STOP DEPTH
STEP.FT                     50.00000 : STEP LENGTH
NULL.                        -999.25 : NULL VALUE
COMP.           BPOG OPERATIONS LTD. : COMPANY
WELL. BP MOBIL CREE ROUGH 4-21-38-12 : WELL
FLD .                                : FIELD
LOC .                                : LOCATION
CTRY.                         CANADA : COUNTRY
SRVC.                   Schlumberger : SERVICE COMPANY
DATE.                    26-Oct-1973 : LOGDATE
PROV.                        Alberta : PROVINCE
UWI .               100042103812W500 : UNIQUE WELL ID
SLAT.WGS84                  52.27739 : SURFACE LATITUDE
SLON.WGS84                 -115.6641 : SURFACE LONGITUDE
~Curve Information -----------------------------------------
DEPT  .FT    : Depth Curve
CALSED.IN    : CALIPER FROM SONIC LOG [ADJ. TO RESISTIVITY LOG]
CALWS .IN    : CALIPER [CALSED]
CILDED.MMHO  : CONDUCTIVITY FROM RESISTIVITY LOG
CONDWS.MMHO  : CONDUCTIVITY [1000/DRESWS]
DRESWS.OHMM  : DEEP RESISTIVITY [ILDED]
DTED  .US/F  : DELTA-T FROM SONIC LOG [ADJ. TO RESISTIVITY LOG]
DTWS  .US/F  : COMPRESSIONAL SONIC [DTED]
GRNED .CU    : GAMMA RAY FROM GRN LOG [ADJ. TO RESISTIVITY LOG]
GRSED .CU    : GAMMA RAY FROM SONIC LOG [ADJ. TO RESISTIVITY LOG]
GRWS  .GAPI  : GAMMA RAY [GRSED] GRWS IN CSG. @ 13195'-13297' @ 10API ADDED
ILDED .OHMM  : DEEP INDUCTION RESISTIVITY FROM RESISTIVITY LOG
ILMED .OHMM  : MEDIUM INDUCTION RESISTIVITY FROM RESISTIVITY LOG
LL8ED .OHMM  : LATEROLOG 8 FROM RESISTIVITY LOG
MRESWS.OHMM  : MEDIUM RESISTIVITY [ILMED]
NEUTED.CU    : NEUTRON FROM GRN LOG [ADJ. TO RESISTIVITY LOG]
NEUTWS.CU    : NEUTRON [NEUTED]
SNED  .OHMM  : SHORT NORMAL RESISTIVITY 16" FROM RESISTIVITY LOG
SPRED .MV    : SPONTANEOUS POTENTIAL FROM RESISTIVITY LOG
SPWS  .MV    : SPONTANEOUS POTENTIAL [BASELINE 0 MV,SPRED]
SRESWS.OHMM  : SHALLOW RESISTIVITY [LL8ED SPL. TO SNED @ 2008']
~Params ----------------------------------------------------
PD  .                     GL : PERMANENT DATUM
EPD .FT                 5371 : ELEVATION PERMANENT DATUM
LMF .                     KB : LOG MEASURED FROM
DAPD.FT                   24 : FEET ABOVE PERMANENT DATUM
EKB .FT                 5395 : KELLY BUSHING
EGL .FT                 5371 : GROUND LEVEL
DATE.               10/26/73 : RUN DATE
RUN .                      2 : RUN NUMBER
DD  .FT                17815 : DEPTH DRILLER
DL  .FT                17792 : DEPTH LOGGER
BLI .FT                17791 : BOTTOM LOG INTERVAL
TLI .FT                13299 : TOP LOG INTERVAL
CBD .FT                13265 : CASING BOTTOM DRILLER
CBL .FT                13299 : CASING BOTTOM LOGGER
BS  .IN                 8.25 : BIT SIZE
BSD .FT                17815 : BIT SIZE AT DEPTH
DFT .               GEL CHEM : DRILLING FLUID TYPE
DFD .                    8.9 : DRILLING FLUID DENSITY
DFV .                     41 : DRILLING FLUID VISCOSITY
DFPH.                    9.5 : DRILLING FLUID PH
DFL .                   11.9 : DRILLING FLUID LOSS
RMS .OHMM               1.05 : RESISTIVITY MUD SAMPLE
MST .DEGF                 72 : MUD SAMPLE TEMPERATURE
RMF .OHMM               0.76 : RESISTIVITY MUD FILTRATE SAMPLE
MFST.DEGF                 70 : MUD FILTRATE SAMPLE TEMPERATURE
RMB .OHMM               0.31 : RESISTIVITY MUD AT BHT
TCS .HRS                   5 : TIME CIRCULATED STOPPED
LUN .                   7640 : LOGGING UNIT NUMBER
LUL .                     RD : LOGGING UNIT LOCATION
ENGI.           NIXON KOVACS : RECORDING ENGINEER
WITN.      WILLIAMS COSTELLO : WITNESSED BY
CLNT.                A2DTECH : CLIENT CODE
ORIG.            2" 5" PRINT : ORIGIN OF DATA
UWI .       100042103812W500 : UNIQUE WELL ID
DICO. A2D Technologies, Inc. : DIGITIZING COMPANY
~Other -----------------------------------------------------
DIL-IEL-BHC-GRN LOG RUN.
SNED MISSING IN SEVERAL DEPTH AS PER PRINT.
~ASCII -----------------------------------------------------
# ...
 16050.00000    8.56940    8.56940    6.10410    5.14850  194.23000   49.51240   49.51240    -999.25   11.69240   11.69240  194.23000    -999.25    -999.25    -999.25    -999.25    -999.25  143.70990  -43.25150  -25.09830  143.70990
 16100.00000    8.78680    8.78680    2.65850    1.79500  557.09400   54.64850   54.64850    -999.25    7.78810    7.78810  557.09400    -999.25    -999.25    -999.25    -999.25    -999.25  132.38600  -46.27680  -28.50810  132.38600
 16150.00000    9.65120    9.65120   14.73040   11.50800   86.89580   53.37140   53.37140    -999.25   12.41990   12.41990   86.89580    -999.25    -999.25    -999.25    -999.25    -999.25   64.79300  -50.69200  -33.30780   64.79300
 16200.00000   10.03190   10.03190    0.37280    1.24890  863.49770   62.16120   62.16120    -999.25    9.01010    9.01010  863.49770    -999.25    -999.25    -999.25    -999.25    -999.25   63.22400  -65.73140  -48.73360   63.22400
 16250.00000    8.21690    8.21690   24.60710   23.71250   42.17190   49.12020   49.12020    -999.25    5.73820    5.73820   42.17190    -999.25    -999.25    -999.25    -999.25    -999.25   70.20010  -80.76170  -64.14650   70.20010
 16300.00000    9.07100    9.07100    7.09750    5.82170  171.77180   46.26900   46.26900    -999.25   13.23380   13.23380  171.77180    -999.25    -999.25    -999.25    -999.25    -999.25  113.87070  -74.10760  -57.87690  113.87070
 16350.00000    9.60140    9.60140   11.65440   10.50100   95.22870   53.15380   53.15380    -999.25   19.24440   19.24440   95.22870    -999.25    -999.25    -999.25    -999.25    -999.25   96.06350  -64.63890  -48.79270   96.06350
 16400.00000    9.03640    9.03640    4.13590    3.25440  307.27350   46.33580   46.33580    -999.25   20.63940   20.63940  307.27350    -999.25    -999.25    -999.25    -999.25    -999.25  107.35140  -40.10960  -24.64790  107.35140
 16450.00000    9.13300    9.13300   19.30400   18.06920   55.34360   51.50800   51.50800    -999.25   41.78610   41.78610   55.34360    -999.25    -999.25    -999.25    -999.25    -999.25   51.98580  -25.43410  -10.35880   51.98580
 16500.00000    9.26290    9.26290   63.63540   67.55070   14.80370   66.17760   66.17760    -999.25   72.39270   72.39270   14.80370    -999.25    -999.25    -999.25    -999.25    -999.25   16.88720  -34.76680  -20.07410   16.88720
 16550.00000    8.57640    8.57640   52.73940   47.55320   21.02910   59.40290   59.40290    -999.25   77.11180   77.11180   21.02910    -999.25    -999.25    -999.25    -999.25    -999.25   20.31310  -30.95530  -16.64710   20.31310
 16600.00000    8.63600    8.63600   61.04270   63.65780   15.70900   60.95720   60.95720    -999.25   71.43050   71.43050   15.70900    -999.25    -999.25    -999.25    -999.25    -999.25   17.36090  -32.24520  -18.32150   17.36090
 16650.00000    9.01190    9.01190   64.43830   62.30720   16.04950   60.50860   60.50860    -999.25   65.28130   65.28130   16.04950    -999.25    -999.25    -999.25    -999.25    -999.25   15.79580  -40.56570  -27.02650   15.79580
 16700.00000    9.30030    9.30030   87.29670   82.65570   12.10790   64.75410   64.75410    -999.25   76.10310   76.10310   12.10790    -999.25    -999.25    -999.25    -999.25    -999.25   11.80450  -44.48810  -31.33520   11.80450
 16750.00000    9.34880    9.34880   71.53840   65.64010   15.23460   62.34840   62.34840    -999.25   73.12630   73.12630   15.23460    -999.25    -999.25    -999.25    -999.25    -999.25   13.65530  -40.75640  -27.98620   13.65530
 16800.00000    9.29410    9.29410   73.24080   71.71540   13.94400   64.45440   64.45440    -999.25   88.60040   88.60040   13.94400    -999.25    -999.25    -999.25    -999.25    -999.25   12.38640  -50.59340  -38.20760   12.38640
 16850.00000    9.48710    9.48710   87.21420   83.05440   12.04030   66.80290   66.80290    -999.25   95.80250   95.80250   12.04030    -999.25    -999.25    -999.25    -999.25    -999.25   11.40950  -38.35550  -26.35420   11.40950
 16900.00000    9.40340    9.40340   69.29470   66.49560   15.03860   64.74410   64.74410    -999.25   97.30900   97.30900   15.03860    -999.25    -999.25    -999.25    -999.25    -999.25   13.72470  -19.45280   -7.83600   13.72470
 16950.00000    9.43030    9.43030   60.17140   57.63940   17.34930   64.69220   64.69220    -999.25   95.86990   95.86990   17.34930    -999.25    -999.25    -999.25    -999.25    -999.25   15.61550  -19.32780   -8.09740   15.61550
 17000.00000    9.25720    9.25720   72.53640   66.40680   15.05870   66.48740   66.48740    -999.25   83.79990   83.79990   15.05870    -999.25    -999.25    -999.25    -999.25    -999.25   13.36010  -36.64170  -25.11370   13.36010
 17050.00000    8.30390    8.30390    2.02160    1.53080  653.26250   51.72590   51.72590    -999.25   27.32560   27.32560  653.26250    -999.25    -999.25    -999.25    -999.25    -999.25  145.14590  -40.86040  -28.89740  145.14590
 17100.00000    8.59020    8.59020    2.48390    2.09600  477.10650   63.44800   63.44800    -999.25   63.52670   63.52670  477.10650    -999.25    -999.25    -999.25    -999.25    -999.25  126.86270  -46.99730  -34.59920  126.86270
 17150.00000    8.63910    8.63910    2.08830    1.50910  662.64050   52.35640   52.35640    -999.25   21.93560   21.93560  662.64050    -999.25    -999.25    -999.25    -999.25    -999.25  130.47660  -36.14380  -23.31070  130.47660
 17200.00000    8.77340    8.77340    3.27380    2.61040  383.10820   50.36230   50.36230    -999.25   22.62960   22.62960  383.10820    -999.25    -999.25    -999.25    -999.25    -999.25    -999.25  -22.49540   -9.22510    -999.25
 17250.00000    8.57510    8.57510    5.00100    4.38800  227.89310   71.42220   71.42220    -999.25  101.79520  101.79520  227.89310    -999.25    -999.25    -999.25    -999.25    -999.25   97.64390  -27.90780  -14.20460   97.64390
 17300.00000    8.58360    8.58360   47.51630   50.32080   19.87250   57.23790   57.23790    -999.25   46.60290   46.60290   19.87250    -999.25    -999.25    -999.25    -999.25    -999.25   21.32680  -27.43140  -13.29320   21.32680
 17350.00000    9.05710    9.05710   26.52630   26.26620   38.07180   54.80000   54.80000    -999.25   36.54000   36.54000   38.07180    -999.25    -999.25    -999.25    -999.25    -999.25   35.02720  -23.07090   -8.49760   35.02720
 17400.00000    8.66850    8.66850   15.58000   14.84650   67.35600   52.96340   52.96340    -999.25   29.55940   29.55940   67.35600    -999.25    -999.25    -999.25    -999.25    -999.25   39.14780  -25.00470   -9.99640   39.14780
 17450.00000    9.21320    9.21320  263.79740  263.69050    3.79250   72.36660   72.36660    -999.25   81.52110   81.52110    3.79250    -999.25    -999.25    -999.25    -999.25    -999.25    4.58990  -29.55780  -14.53890    4.58990
 17500.00000    9.29180    9.29180    3.11380    2.66380  375.39940   66.16130   66.16130    -999.25   12.48550   12.48550  375.39940    -999.25    -999.25    -999.25    -999.25    -999.25   72.62080  -30.73610  -15.73350   72.62080
 17550.00000    8.53950    8.53950   21.58950   19.57250   51.09220   52.25640   52.25640    -999.25   25.04920   25.04920   51.09220    -999.25    -999.25    -999.25    -999.25    -999.25   28.75390  -24.48540   -9.49920   28.75390
 17600.00000    8.50740    8.50740   18.26870   17.60820   56.79170   53.75350   53.75350    -999.25   33.73230   33.73230   56.79170    -999.25    -999.25    -999.25    -999.25    -999.25   33.82350  -28.89240  -13.90920   33.82350
 17650.00000    8.57830    8.57830   39.25000   37.80190   26.45370   60.12890   60.12890    -999.25   52.62950   52.62950   26.45370    -999.25    -999.25    -999.25    -999.25    -999.25   40.64930  -38.47100  -23.48780   40.64930
 17700.00000    8.73440    8.73440    2.93370    2.23010  448.44810   53.71950   53.71950    -999.25   26.51620   26.51620  448.44810    -999.25    -999.25    -999.25    -999.25    -999.25  123.50450  -60.50330  -45.52010  123.50450
 17750.00000    8.88510    8.88510    2.19300    1.79680  556.53050   48.95010   48.95010    -999.25   18.02460   18.02460  556.53050    -999.25    -999.25    -999.25    -999.25    -999.25  112.37800  -44.83000  -29.84680  112.37800
