~Version ---------------------------------------------------
VERS. 2.0 : CWLS log ASCII Standard -VERSION 2.0
WRAP.  NO : ONE LINE PER DEPTH STEP
~Well ------------------------------------------------------
STRT.M                          450.0 : START DEPTH
STOP.M                         3450.0 : STOP DEPTH
STEP.M                       50.00000 : STEP LENGTH
NULL.                         -999.25 : NULL VALUE
COMP.          CHEVRON CANADA LIMITED : COMPANY
WELL. CHEVRON ET AL STURLS 5-10-68-26 : WELL
FLD .                                 : FIELD
LOC .                                 : LOCATION
CTRY.                          CANADA : COUNTRY
SRVC.                    Schlumberger : SERVICE COMPANY
DATE.                     08-Mar-1981 : LOGDATE
PROV.                         Alberta : PROVINCE
UWI .                100051006826W500 : UNIQUE WELL ID
SLAT.WGS84                   54.87124 : SURFACE LATITUDE
SLON.WGS84                  -117.8893 : SURFACE LONGITUDE
~Curve Information -----------------------------------------
DEPT    .M      : DEPTH METERS
CALDED  .MM     : CALIPER FROM CNFD LOG, DEPTH ADJUSTED WITH [GRRED]
CALSED  .MM     : CALIPER FROM SONIC LOG, DEPTH ADJUSTED WITH [GRRED]
CALWS   .MM     : CALIPER [CALDED]
CILDED  .MMHO   : CONDUCTIVITY FROM RESISTIVITY LOG
CONDWS  .MMHO   : CONDUCTIVITY [1000/DRESWS]
CORRED  .KG/M3  : DENSITY CORRECTION FROM CNFD LOG, DEPTH ADJUSTED WITH [GRRED]
DCORWS  .KG/M3  : DENSITY CORRECTION [CORRED]
DENWS   .KG/M3  : BULK DENSITY [RHOBED]
DPHILSED.V/V    : DENSITY POROSITY [M=2710 F=1000] FROM CNFD LOG, DEPTH ADJUSTED WITH [GRRED]
DPHISSED.V/V    : DENSITY POROSITY [M=2650 F=1000] FROM CNFD LOG, DEPTH ADJUSTED WITH [GRRED]
DPOLSWS .V/V    : DENSITY POROSITY LIMESTONE [CALCULATED FROM DENWS]
DRESWS  .OHMM   : DEEP RESISTIVITY [ILDED]
DTED    .US/M   : DELTA TIME FROM SONIC LOG, DEPTH ADJUSTED WITH [GRRED]
DTWS    .US/M   : DELTA TIME [DTED]
GRDED   .GAPI   : GAMMA RAY FROM CNFD LOG, DEPTH ADJUSTED WITH [GRRED]
GRSED   .GAPI   : GAMMA RAY FROM SONIC LOG, DEPTH ADJUSTED WITH [GRRED]
GRWS    .GAPI   : GAMMA RAY [GRDED], SPLICED WITH [GRSED] FROM 429-452
ILDED   .OHMM   : INDUCTION LOG DEEP RESISTIVITY
ILMED   .OHMM   : INDUCTION LOG MEDIUM RESISTIVITY
MRESWS  .OHMM   : MEDIUM RESISTIVITY [ILMED]
NPHILSED.V/V    : NEUTRON POROSITY LIMESTONE FROM CNFD LOG, DEPTH ADJUSTED WITH [GRRED]
NPOLSWS .V/V    : NEUTRON POROSITY [M=2710 F=1000] FROM CNFD LOG, DEPTH ADJUSTED WITH [GRRED]
NPORSSED.V/V    : NEUTRON POROSITY [M=2650 F=1000] FROM CNFD LOG, DEPTH ADJUSTED WITH [GRRED]
RHOBED  .KG/M3  : BULK DENSITY FROM CNFD LOG, DEPTH ADJUSTED WITH [GRRED]
SFLED   .OHMM   : SPHERICALLY FOCUSED LOG RESISTIVITY
SPRED   .MV     : SPONTANEOUS POTENTIAL FROM RESISTIVITY LOG
SPWS    .MV     : SPONTANEOUS POTENTIAL [BASELINE 0 MV] [SPRED]
SRESWS  .OHMM   : SHALLOW RESISTIVITY [SFLED]
TENDED  .N      : TENSION FROM CNFD LOG, DEPTH ADJUSTED WITH [GRRED]
TENSED  .N      : TENSION FROM SONIC LOG, DEPTH ADJUSTED WITH [GRRED]
~Params ----------------------------------------------------
PD  .                     GL : PERMANENT DATUM
EPD .M                 679.3 : ELEVATION PERMANENT DATUM
LMF .                     KB : LOG MEASURED FROM
DAPD.M                   9.4 : FEET ABOVE PERMANENT DATUM
DMF .                     KB : DRILLING MEASURED FROM
EKB .M                 688.7 : KELLY BUSHING
EGL .M                 679.3 : GROUND LEVEL
DATE.               03/08/81 : RUN DATE
RUN .                      1 : RUN NUMBER
DD  .M                  3458 : DEPTH DRILLER
DL  .M                  3461 : DEPTH LOGGER
BLI .M                  3459 : BOTTOM LOG INTERVAL
TLI .M                   466 : TOP LOG INTERVAL
CS  .IN                226.6 : CASING SIZE
CBD .M                466.13 : CASING BOTTOM DRILLER
CBL .M                   466 : CASING BOTTOM LOGGER
BS  .IN                  222 : BIT SIZE
BSD .M                  3458 : BIT SIZE AT DEPTH
DFT .               CHEM GEL : DRILLING FLUID TYPE
DFD .                   1100 : DRILLING FLUID DENSITY
DFV .                    110 : DRILLING FLUID VISCOSITY
DFPH.                   10.5 : DRILLING FLUID PH
DFL .                    8.4 : DRILLING FLUID LOSS
MSS .               FLOWLINE : MUD SAMPLE SOURCE
RMS .OHMM               0.91 : RESISTIVITY MUD SAMPLE
RMF .OHMM               0.72 : RESISTIVITY MUD FILTRATE SAMPLE
MFST.DEGC               23.5 : MUD FILTRATE SAMPLE TEMPERATURE
RMC .OHMM                0.9 : RESISTIVITY MUD CAKE
MCST.DEGC               23.0 : MUD CAKE SAMPLE TEMPERATURE
MFSS.           FILTER PRESS : MUD FILTRATE SAMPLE SOURCE
RMB .OHMM                0.3 : RESISTIVITY MUD AT BHT
TCS .HRS                 100 : TIME CIRCULATED STOPPED
TLAB.HRS                1330 : TIME LOGGER AT BOTTOM
LUN .                   8155 : LOGGING UNIT NUMBER
LUL .                     GP : LOGGING UNIT LOCATION
ENGI.                 BRYDON : RECORDING ENGINEER
WITN.               ANDERSON : WITNESSED BY
CLNT.                A2DTECH : CLIENT CODE
ORIG.                      1 : 6" 1:240" PRINT:   ORIGIN OF DATA
UWI .       100051006826W500 : UNIQUE WELL ID
DICO. A2D Technologies, Inc. : DIGITIZING COMPANY
~Other -----------------------------------------------------
~ASCII -----------------------------------------------------
# ...
 1650.00000  233.76160  241.06390  233.76160   84.44140   82.86930   -3.01490   -3.01490 2575.71170    -999.25    0.04730    0.07850   12.06720  256.61090  256.61090   87.74350   85.75170   87.74350   12.06720   12.20710   12.20710    -999.25    0.25010    0.29410 2575.71170   13.77790  -43.61500   -2.09190   13.77790 12166.07810 11878.87110
 1700.00000  238.96510  240.58050  238.96510   60.28520   59.88310  188.03470  188.03470 2656.14940    -999.25    0.00670    0.03150   16.69920  229.04340  229.04340   94.70810   94.60150   94.70810   16.69920   17.22390   17.22390    -999.25    0.15380    0.19720 2656.14940   20.96820  -42.26120   -0.19560   20.96820 12542.29100 12233.81740
 1750.00000  229.35140  242.06980  229.35140   61.76310   63.47350   -7.63870   -7.63870 2561.68970    -999.25    0.03640    0.08670   15.75460  226.57880  226.57880   87.58170   85.16680   87.58170   15.75460   18.44890   18.44890    -999.25    0.18920    0.23300 2561.68970   28.32520  -44.34630   -1.73830   28.32520 12610.36720 12444.34860
 1800.00000  208.91410  204.31160  208.91410  492.53860  484.89550   42.23130   42.23130 2309.18380    0.23430    -999.25    0.23440    2.06230  257.41280  257.41280   26.01390   26.03590   26.01390    2.06230    2.86290    2.86290    0.20290    0.20290    -999.25 2309.18380    5.38090 -108.66410  -66.49070    5.38090 12987.76460 12572.15140
 1850.00000  226.90890  221.59390  226.90890    0.00040    2.11900   -4.86660   -4.86660 2285.89600    0.24730    -999.25    0.24800  471.91670  307.74930  307.74930  261.85040  247.30640  261.85040  471.91670  197.46850  197.46850    0.32830    0.32830    -999.25 2285.89600 1289.59860  -53.25580  -12.18480 1289.59860 13071.41890 12905.85250
 1900.00000  224.24280  220.61980  224.24280  260.20680  256.74600    2.06230    2.06230 2444.69600    0.15810    -999.25    0.15510    3.89490  233.33940  233.33940   82.78190   85.62560   82.78190    3.89490    5.60270    5.60270    0.17860    0.17860    -999.25 2444.69600   11.49820  -85.60560  -45.63700   11.49820 13288.43950 12918.14360
 1950.00000  223.44670  221.19940  223.44670  109.92560  111.60460    3.06030    3.06030 2557.26560    0.08950    -999.25    0.08930    8.96020  214.73580  214.73580   73.49070   67.23150   73.49070    8.96020   10.33820   10.33820    0.12800    0.12800    -999.25 2557.26560   18.84320  -74.15350  -35.28730   18.84320 13829.72660 13322.76660
 2000.00000  228.96950  227.55750  228.96950   34.21380   34.34540    1.82240    1.82240 2659.99020    0.02870    -999.25    0.02920   29.11600  201.84200  201.84200   88.31180   80.43080   88.31180   29.11600   28.95060   28.95060    0.07360    0.07360    -999.25 2659.99020   45.34720  -39.83660   -2.07280   45.34720 14145.19140 13651.16020
 2050.00000  223.17280  216.12690  223.17280   30.74370   29.45430   15.95280   15.95280 2620.83150    0.05140    -999.25    0.05210   33.95090  191.36430  191.36430   26.30050   29.26790   26.30050   33.95090   39.63290   39.63290    0.10890    0.10890    -999.25 2620.83150   66.37040 -102.46450  -64.64690   66.37040 14050.32910 13816.48930
 2100.00000  235.49150  230.28930  235.49150   69.06590   66.86320  147.06230  147.06230 2520.69700    0.10860    -999.25    0.11070   14.95590  225.78380  225.78380   86.75060   87.16520   86.75060   14.95590   10.75130   10.75130    0.18420    0.18420    -999.25 2520.69700   13.80730  -52.24510  -13.66500   13.80730 14376.23540 14066.95900
 2150.00000  217.06110  223.83860  217.06110   19.29000   20.75190    1.73820    1.73820 2718.51070   -0.00250    -999.25   -0.00500   48.18830  178.42210  178.42210   44.20520   47.40590   44.20520   48.18830   45.03290   45.03290    0.09850    0.09850    -999.25 2718.51070   65.25420 -141.02860 -101.68610   65.25420 14568.70800 14548.79000
 2200.00000  223.26410  216.44020  223.26410  247.88850  251.40160    5.53740    5.53740 2623.47920    0.05190    -999.25    0.05060    3.97770  195.66420  195.66420   26.52970   52.04940   26.52970    3.97770    4.61520    4.61520    0.13120    0.13120    -999.25 2623.47920   10.96140 -167.95250 -127.84750   10.96140 15074.73540 14904.88090
 2250.00000  217.15660  225.27710  217.15660   57.96750   73.65780   -5.03670   -5.03670 2682.70780    0.01610    -999.25    0.01600   13.57630  170.36910  170.36910   16.85550   17.65970   16.85550   13.57630   15.41610   15.41610    0.04280    0.04280    -999.25 2682.70780   76.47180 -187.03570 -146.16820   76.47180 15424.85350 15190.17970
 2300.00000  217.64200  221.34160  217.64200    7.65140    5.75350   10.55090   10.55090 2668.06150    0.02440    -999.25    0.02450  173.80810  165.67940  165.67940   15.15560   13.64590   15.15560  173.80810  120.02850  120.02850    0.01210    0.01210    -999.25 2668.06150  188.75210 -181.40910 -139.77910  188.75210 15476.80760 15443.62010
 2350.00000  218.44880  226.32550  218.44880    8.47110    5.85550   -5.01150   -5.01150 2716.92580   -0.00360    -999.25   -0.00410  170.77950  161.83660  161.83660   15.28860   19.19330   15.28860  170.77950  146.63370  146.63370    0.01250    0.01250    -999.25 2716.92580  416.08440 -154.86620 -112.47380  416.08440 15775.69340 15779.24610
 2400.00000  227.27120  232.88220  227.27120    6.58810    6.45770   -1.10960   -1.10960 2683.62430    0.01600    -999.25    0.01540  154.85390  164.73950  164.73950   12.27830   13.99230   12.27830  154.85390  116.29230  116.29230    0.00990    0.00990    -999.25 2683.62430  180.01120 -173.12250 -129.96760  180.01120 16075.33980 15920.03710
 2450.00000  226.60630  231.49630  226.60630   86.76960   93.37240   -0.80610   -0.80610 2672.79660    0.03430    -999.25    0.02180   10.70980  193.37980  193.37980   45.57760   53.50600   45.57760   10.70980   12.58130   12.58130    0.10580    0.10580    -999.25 2672.79660   12.06310 -109.78760  -65.87020   12.06310 16225.85940 16216.29000
 2500.00000  222.77820  227.58550  222.77820   23.14580   22.51320   38.33160   38.33160 2656.20090    0.03380    -999.25    0.03150   44.41840  189.35810  189.35810   39.90480   43.34390   39.90480   44.41840   45.92820   45.92820    0.06240    0.06240    -999.25 2656.20090   91.99930 -131.91890  -87.23910   91.99930 16777.70310 16577.87300
 2550.00000  218.45850  220.41590  218.45850   12.92010   13.20020    2.62750    2.62750 2690.84130    0.01100    -999.25    0.01120   75.75660  181.73690  181.73690   38.32140   37.99780   38.32140   75.75660   75.01690   75.01690    0.03910    0.03910    -999.25 2690.84130  102.09670 -118.53250  -73.09020  102.09670 16916.07810 16784.64650
 2600.00000  222.46830  221.63400  222.46830   31.94300   32.29780   -3.09280   -3.09280 2685.63960    0.01490    -999.25    0.01420   30.96190  195.74790  195.74790   53.07480   52.57660   53.07480   30.96190   32.14940   32.14940    0.07210    0.07210    -999.25 2685.63960   44.48760 -113.14010  -66.93530   44.48760 17233.75780 17037.91020
 2650.00000  246.88470  224.06660  246.88470    0.00040    0.50000  250.84130  250.84130 2720.92750   -0.00180    -999.25   -0.00640 2000.00000  163.04930  163.04930   14.17460   12.71580   14.17460    -999.25  957.20180  957.20180    0.00720    0.00720    -999.25 2720.92750 1827.57780 -205.66960 -158.70240 1827.57780 17460.30470 17195.41410
 2700.00000  245.66970  228.35160  245.66970    0.00040    0.50000  246.84680  246.84680 2664.41330    0.02660    -999.25    0.02670 2000.00000  162.22520  162.22520    9.38530   11.39660    9.38530    -999.25  283.57920  283.57920    0.00330    0.00330    -999.25 2664.41330  877.07750 -186.82550 -139.09580  877.07750 17662.45900 17480.42380
 2750.00000  257.66370  236.38030  257.66370    0.00040    0.50000  250.34550  250.34550 2687.19820    0.01430    -999.25    0.01330 2000.00000  161.95460  161.95460   11.81020    8.86540   11.81020    -999.25  259.49420  259.49420    0.00010    0.00010    -999.25 2687.19820  692.30380 -197.05910 -148.56690  692.30380 18006.68160 17810.50200
 2800.00000  285.52680  239.02980  285.52680    0.00040    0.50000  245.77220  245.77220 2510.87300    0.11630    -999.25    0.11640 2000.00000  162.13240  162.13240   13.99730   10.06350   13.99730    -999.25  229.28500  229.28500    0.00200    0.00200    -999.25 2510.87300 1182.09030 -208.73340 -159.47880 1182.09030 18268.71880 18132.87110
