~Version ---------------------------------------------------
VERS.      2.0 : CWLS log ASCII Standard -VERSION 2.0
WRAP.       NO : One line per depth step
CREA. 08/26/14 : LAS Creation Date
~Well ------------------------------------------------------
STRT.FT                           1550.0 : START DEPTH
STOP.FT                          15350.0 : STOP DEPTH
STEP.FT                         50.00000 : STEP LENGTH
NULL.                            -999.25 : NULL VALUE
COMP.   AMOCO CANADA PETROLEUM CO., LTD. : COMPANY
WELL. AMOCO CHEVRON A-1 WAWA 10-13-43-15 : WELL
FLD .                                    : FIELD
LOC .                                    : LOCATION
CTRY.                             CANADA : COUNTRY
SRVC.             Schlumberger of Canada : SERVICE COMPANY
DATE.                        16-Jan-1970 : LOGDATE
PROV.                            Alberta : PROVINCE
UWI .                   100101304315W500 : UNIQUE WELL ID
SLAT.WGS84                      52.70789 : SURFACE LATITUDE
SLON.WGS84                     -116.0388 : SURFACE LONGITUDE
~Curve Information -----------------------------------------
DEPT   .FT    : Depth Curve
CALD   .IN    : CALIPER FROM DENSITY LOG
CALN   .IN    : CALIPER FROM SNP LOG
CALS   .IN    : CALIPER FROM SONIC LOG
CILD   .MMHO  : CONDUCTIVITY INDUCTION LOG
DPHI_LS.DEC   : DENSITY POROSITY LIMESTONE
DRHO   .G/C3  : BULK DENSITY CORRECTION
DT     .US/F  : DELTA TIME
GRD    .GAPI  : GAMMA RAY FROM DENSITY LOG
GRN    .GAPI  : GAMMA RAY FROM SNP LOG
GRS    .GAPI  : GAMMA RAY FROM SONIC LOG
ILD    .OHMM  : DEEP INDUCTION RESISTIVITY
ILM    .OHMM  : INDUCTION MEDIUM RESISTIVITY
LL8    .OHMM  : LATEROLOG-8 RESISTIVITY
MCAL   .IN    : MLT [MICROLOG] CALIPER
RHOB   .G/C3  : BULK DENSITY
SNP_LS .DEC   : SIDEWALL NEUTRON POROSITY LIMESONTE
SPR    .MV    : SPONTANEOUS POTENTIAL FROM RESISTIVITY
~Params ----------------------------------------------------
PD  .                     GL : PERMANENT DATUM
EPD .FT               4009.5 : ELEVATION PERMANENT DATUM
LMF .                     KB : LOG MEASURED FROM
DAPD.FT                 22.4 : FEET ABOVE PERMANENT DATUM
EKB .FT               4031.9 : KELLY BUSHING
EGL .FT               4009.5 : GROUND LEVEL
DATE.               01/16/70 : RUN DATE
RUN .                      2 : RUN NUMBER
DD  .FT                15390 : DEPTH DRILLER
DL  .FT                15386 : DEPTH LOGGER
BLI .FT                15383 : BOTTOM LOG INTERVAL
TLI .FT                14060 : TOP LOG INTERVAL
CBD .FT                14065 : CASING BOTTOM DRILLER
CBL .FT                14060 : CASING BOTTOM LOGGER
BS  .IN                    6 : BIT SIZE
BSD .FT                15390 : BIT SIZE AT DEPTH
DFT .                    GEL : DRILLING FLUID TYPE
DFD .                   13.9 : DRILLING FLUID DENSITY
DFV .                     92 : DRILLING FLUID VISCOSITY
DFPH.                   11.5 : DRILLING FLUID PH
DFL .                   14.0 : DRILLING FLUID LOSS
MSS .               FLOWLINE : MUD SAMPLE SOURCE
RMS .OHMM               0.21 : RESISTIVITY MUD SAMPLE
MST .DEGF                 52 : MUD SAMPLE TEMPERATURE
RMF .OHMM                0.1 : RESISTIVITY MUD FILTRATE SAMPLE
MFST.DEGF                 60 : MUD FILTRATE SAMPLE TEMPERATURE
RMB .OHMM              0.022 : RESISTIVITY MUD AT BHT
TCS .HRS                 3.5 : TIME CIRCULATED STOPPED
LUN .                   7003 : LOGGING UNIT NUMBER
LUL .                     RD : LOGGING UNIT LOCATION
ENGI.              MCQUILLAN : RECORDING ENGINEER
WITN.                 MURRAY : WITNESSED BY
CLNT.                A2DTECH : CLIENT CODE
ORIG.            2" 5" PRINT : ORIGIN OF DATA
UWI .       100101304315W500 : UNIQUE WELL ID
DICO. A2D Technologies, Inc. : DIGITIZING COMPANY
~Other -----------------------------------------------------
~ASCII -----------------------------------------------------
# ...
 13800.00000    -999.25    -999.25    9.19640   -3.38330    -999.25    -999.25   50.80620    -999.25    -999.25   11.14050  666.62160    -999.25  651.09990    9.17110    -999.25    -999.25  -40.63080
 13850.00000    -999.25    -999.25    8.85370   -3.51350    -999.25    -999.25   48.96340    -999.25    -999.25    7.37800  669.94290    -999.25  650.43270    8.71620    -999.25    -999.25  -94.62290
 13900.00000    -999.25    -999.25    9.16600    0.73930    -999.25    -999.25   55.41130   18.23480    -999.25   10.14860  584.65950    -999.25  651.07820   11.19760    -999.25    -999.25  -35.58790
 13950.00000    -999.25    -999.25    9.26520   -4.34250    -999.25    -999.25   48.61890   19.77900    -999.25   27.62420  669.46060    -999.25  651.00850   11.07570    -999.25    -999.25  -70.93000
 14000.00000    -999.25    -999.25    8.76080   -5.31950    -999.25    -999.25   53.26950   36.40120    -999.25   39.95370  670.39600    -999.25  650.79370    8.80320    -999.25    -999.25  -85.42290
 14050.00000    -999.25    -999.25    9.10950   -3.92860    -999.25    -999.25   49.59650   13.91520    -999.25    1.55720  647.91270    -999.25  650.72030    9.63850    -999.25    -999.25  -88.94520
 14100.00000    8.67360    8.77710    9.30400    -999.25   -0.00510    0.01390   50.58360   15.17940   12.71510   10.90480  796.25030    5.92930 1605.10160    8.44280    2.72720    0.00780  -77.04280
 14150.00000    9.05010    8.76640    -999.25    -999.25    0.02610    0.00970   51.62680   22.38700   18.81540   17.99580  128.93230 1964.79530 1436.07760    6.73490    2.68300    0.02740  -69.31710
 14200.00000    6.25390    6.34990    -999.25    -999.25    0.00310    0.01470   49.33820   22.63570   17.00990   18.60980 1550.51150  125.19670 1345.93630    6.38180    2.69760    0.01230   -8.26060
 14250.00000    6.40190    6.13250    -999.25    -999.25   -0.01420    0.02110   66.64370   70.05960   67.79730   67.95080    5.36750    5.92260    9.21010    6.41420    2.69960    0.07580   -7.40620
 14300.00000    6.12970    6.06120    -999.25    -999.25    0.02240    0.01540   69.43840   84.98980   90.20390   82.40550    4.95020    5.20240    8.34020    6.26670    2.68480    0.09730  -25.27510
 14350.00000    6.10220    6.05840    -999.25    -999.25   -0.00710    0.00730   65.01190   68.35050   62.61710   70.81930    5.52070    6.71760    7.48910    6.21040    2.70070    0.07870  -67.68510
 14400.00000    6.10960    6.05550    -999.25    -999.25    0.00210    0.04830   73.15110   97.23850   96.01920   94.35280    3.05850    3.44980    5.05450    6.26150    2.73560    0.11820  -73.57820
 14450.00000    6.01460    6.05080    -999.25    -999.25    0.02760    0.00830   77.88270   97.11580  100.56940  105.83870    2.57190    2.83030    4.44160    6.25300    2.67540    0.13490  -73.90010
 14500.00000    5.87270    6.04350    -999.25    -999.25    0.00960    0.03800   76.76810   98.26730   97.17100   91.03100    2.50150    2.81560    4.18670    6.25270    2.72600    0.12860  -84.87070
 14550.00000    6.03980    6.03630    -999.25    -999.25    0.00220    0.01020   70.23200   87.83670   85.55670   82.45280    3.74460    4.05200    6.16250    6.17640    2.70280    0.10250  -68.57140
 14600.00000    5.59690    6.01020    -999.25    -999.25   -0.00330    0.01560   73.12140   89.27840   89.87310   90.92790    3.58380    3.90410    5.78260    6.22940    2.70810    0.11200  -49.93890
 14650.00000    6.07840    5.93820    -999.25    -999.25    0.02080    0.01170   73.79130   94.25330  101.96780   95.74880    5.10350    4.74290    7.22430    6.22490    2.69150    0.10810  -40.88970
 14700.00000    6.00980    5.86620    -999.25    -999.25    0.00350    0.03370   73.90240   83.03600   83.54090   87.80740    3.51040    3.71760    5.76660    6.22360    2.73270    0.10680  -32.70810
 14750.00000    6.00460    5.91260    -999.25    -999.25   -0.01690    0.02240   69.37800   79.95530   74.02410   75.52690    4.27250    4.44090    6.93640    6.21250    2.71320    0.10470  -26.33160
 14800.00000    5.79950    5.89600    -999.25    -999.25   -0.00870    0.05080   73.30930   83.55370   80.86050   82.31930    3.88930    4.09100    6.15620    6.18290    2.73010    0.10610  -22.95020
 14850.00000    6.05160    5.94480    -999.25    -999.25   -0.02070    0.03240   68.03980   76.78580   76.53240   76.93820    5.16280    5.55170    8.90790    6.17020    2.75390    0.10300  -21.93000
 14900.00000    6.08780    5.93990    -999.25    -999.25    0.01250    0.01300   71.88990   80.86320   85.44030   82.85240    5.21220    4.66640    7.76810    6.20470    2.68750    0.10530  -21.95420
 14950.00000    6.32690    5.94460    -999.25    -999.25    0.04510    0.02120   84.07200  124.94570  126.60890  109.59200    5.06220    5.67590    6.78620    6.20200    2.61700    0.14340  -21.18970
 15000.00000    5.56320    5.94150    -999.25    -999.25    0.05200    0.06750   88.31600  128.88880  140.87380  147.26160   14.56860   10.02460   15.30520    6.19690    2.61560    0.13200  -33.18180
 15050.00000    5.86030    5.95280    -999.25    -999.25    0.05400    0.02650   99.31600  114.05370  115.49760  106.19290    2.78450    3.06530    4.65890    6.21920    2.60240    0.14630  -20.05050
 15100.00000    6.04050    5.97920    -999.25    -999.25    0.02890    0.00590   68.79150   70.91210   65.53640   79.81120    8.46010    9.91880   29.35470    6.16410    2.64470    0.07440  -20.65120
 15150.00000    6.03270    5.97670    -999.25    -999.25    0.01610    0.01590   57.99740   46.32440   41.18290   38.53460   18.77080   17.93240   26.00960    6.17080    2.70860    0.04120  -30.16730
 15200.00000    5.99470    5.95560    -999.25    -999.25    0.01780    0.02010   58.78410   54.96130   56.57630   48.17490    6.63600    7.39180    9.98540    6.18220    2.70320    0.05950  -23.70240
 15250.00000    5.99590    5.97100    -999.25    -999.25   -0.01510    0.02090   51.13300   56.17240   64.12450   19.38460   11.89930   14.59590   18.40420    6.14620    2.72550    0.04180  -24.35830
 15300.00000    6.11510    5.97290    -999.25    -999.25   -0.00870    0.01160   50.32410   16.84030   18.78050   18.17950   96.91290   75.50680  958.45430    6.18420    2.72530    0.01850  -25.25670
 15350.00000    6.18700    5.96340    -999.25    -999.25   -0.01040    0.03000   53.67480   30.21440   32.05500   30.96810   39.94760   35.55850   50.50600    6.24060    2.72380    0.03430  -24.98880
