~Version ---------------------------------------------------
VERS.      2.0 : CWLS log ASCII Standard -VERSION 2.0
WRAP.       NO : One line per depth step
CREA. 09/26/17 : LAS Creation Date
~Well ------------------------------------------------------
STRT.FT                        1200.0 : START DEPTH
STOP.FT                       11400.0 : STOP DEPTH
STEP.FT                      50.00000 : STEP LENGTH
NULL.                         -999.25 : NULL VALUE
COMP.   THE ATLANTIC REFINING COMPANY : COMPANY
WELL. ATLANTIC ANTE CREEK 10-30-64-23 : WELL
FLD .                                 : FIELD
LOC .                                 : LOCATION
CTRY.                          CANADA : COUNTRY
SRVC.                    Schlumberger : SERVICE COMPANY
DATE.                     27-Mar-1963 : LOGDATE
PROV.                         Alberta : PROVINCE
UWI .                100103006423W500 : UNIQUE WELL ID
SLAT.WGS84                   54.56828 : SURFACE LATITUDE
SLON.WGS84                  -117.4641 : SURFACE LONGITUDE
~Curve Information -----------------------------------------
DEPT  .FT    : Depth Curve
CALSED.IN    : CALIPER FROM SONIC LOG
CALWS .IN    : CALIPER [CALSED]
CILDED.MMHO  : CONDUCTIVITY FROM RESISTIVITY LOG
CONDWS.MMHO  : CONDUCTIVITY [1000/DRESWS]
DRESWS.OHMM  : DEEP RESISTIVITY [1000/CILDED IF ILDED <= 5, ILDED]
DTED  .US/F  : DELTA TIME FROM SONIC LOG
DTWS  .US/F  : COMPRESSIONAL SONIC [DTED]
GRSED .GAPI  : GAMMA RAY FROM SONIC LOG
GRWS  .GAPI  : GAMMA RAY [GRSED]
ILDED .OHMM  : DEEP INDUCTION RESISTIVITY FROM RESISTIVITY LOG
MCALED.IN    : CALIPER FROM MICROLOG
SNED  .OHMM  : 16 INCH SHORT NORMAL FROM EL LOG
SPRED .MV    : SPONTANEOUS POTENTIAL FROM RESISTIVITY LOG
SPWS  .MV    : SPONTANEOUS POTENTIAL [BASELINE 0 MV, SPRED]
SRESWS.OHMM  : SHALLOW RESISTIVITY [SNED]
~Params ----------------------------------------------------
PD  .                     GL : PERMANENT DATUM
EPD .FT                 2707 : ELEVATION PERMANENT DATUM
LMF .                     KB : LOG MEASURED FROM
DAPD.FT                 14.5 : FEET ABOVE PERMANENT DATUM
EKB .FT               2722.3 : KELLY BUSHING
EGL .FT               2707.8 : GROUND LEVEL
DATE.               03/27/63 : RUN DATE
RUN .                      1 : RUN NUMBER
DD  .FT                11449 : DEPTH DRILLER
DL  .FT                11449 : DEPTH LOGGER
BLI .FT                11448 : BOTTOM LOG INTERVAL
TLI .FT                 1197 : TOP LOG INTERVAL
CBD .FT                 1197 : CASING BOTTOM DRILLER
CBL .FT                 1197 : CASING BOTTOM LOGGER
BS  .IN                 8.75 : BIT SIZE
BSD .FT                11449 : BIT SIZE AT DEPTH
DFT .               GEL CHEM : DRILLING FLUID TYPE
DFD .                    9.5 : DRILLING FLUID DENSITY
DFV .                     60 : DRILLING FLUID VISCOSITY
DFPH.                   10.5 : DRILLING FLUID PH
DFL .                    5.6 : DRILLING FLUID LOSS
RMS .OHMM               2.09 : RESISTIVITY MUD SAMPLE
MST .DEGF                 58 : MUD SAMPLE TEMPERATURE
RMF .OHMM               1.46 : RESISTIVITY MUD FILTRATE SAMPLE
MFST.DEGF                 67 : MUD FILTRATE SAMPLE TEMPERATURE
RMC .OHMM               2.43 : RESISTIVITY MUD CAKE
MCST.DEGF                 67 : MUD CAKE SAMPLE TEMPERATURE
TCS .HRS                   4 : TIME CIRCULATED STOPPED
LUN .                OSU 8 9 : LOGGING UNIT NUMBER
LUL .                     DC : LOGGING UNIT LOCATION
ENGI.                  MILLS : RECORDING ENGINEER
WITN.            COWAN SCOTT : WITNESSED BY
CLNT.                A2DTECH : CLIENT CODE
ORIG.            2" 5" PRINT : ORIGIN OF DATA
UWI .       100103006423W500 : UNIQUE WELL ID
DICO. A2D Technologies, Inc. : DIGITIZING COMPANY
~Other -----------------------------------------------------
IEL-ML-BHC LOG RUN
DATA FROM 1" LOG
~ASCII -----------------------------------------------------
# ...
 8100.00000   10.84890   10.84890    7.84350    2.00170  499.56480   45.54340   45.54340   25.89820   25.89820  499.56480   11.64560  163.80460 -130.24990  -58.19930  163.80460
 8150.00000    9.19020    9.19020   11.67500    5.16480  193.61850   44.93460   44.93460   23.26640   23.26640  193.61850    9.47980  112.61910 -180.82530 -108.67360  112.61910
 8200.00000    9.47790    9.47790    7.72390    2.00000  500.00000   43.78800   43.78800   19.50480   19.50480  500.00000   10.22730  150.37830 -179.93720 -107.68370  150.37830
 8250.00000    9.60060    9.60060   14.74700    8.12190  123.12450   44.60520   44.60520   15.77270   15.77270  123.12450   10.18010   70.51690 -138.96250  -66.60780   70.51690
 8300.00000    9.46710    9.46710  162.81710  161.76780    6.18170   47.70230   47.70230   47.14200   47.14200    6.18170    -999.25   11.60410 -118.85080  -46.39500   11.60410
 8350.00000    9.39210    9.39210   61.72800   56.66630   17.66600   50.32210   50.32210   92.88160   92.88160   17.66600    -999.25   24.64510  -93.87820  -21.32060   24.64510
 8400.00000    9.41740    9.41740   17.03330    9.03360  110.69840   45.39720   45.39720   36.15590   36.15590  110.69840    -999.25   67.62380  -85.68030  -13.02150   67.62380
 8450.00000    9.69920    9.69920   23.36010   16.97140   61.64310   45.31710   45.31710   24.58740   24.58740   61.64310    -999.25   53.79560  -84.05690  -11.29630   53.79560
 8500.00000    9.00630    9.00630   11.00650    5.11060  195.67070   46.25280   46.25280   38.27950   38.27950  195.67070    -999.25   94.95450  -83.09690  -10.23510   94.95450
 8550.00000    9.11050    9.11050    8.38520    2.69910  370.49100   46.21130   46.21130   39.30850   39.30850  370.49100    -999.25  125.68420  -83.50450  -10.54160  125.68420
 8600.00000    8.98900    8.98900   13.02560    7.91840  126.31390   46.17090   46.17090   46.60750   46.60750  126.31390    -999.25   79.53640  -81.56850   -8.50380   79.53640
 8650.00000    9.33940    9.33940   30.85320   24.73520   40.42820   48.71000   48.71000   69.94500   69.94500   40.42820    -999.25   41.30510  -82.19850   -9.03260   41.30510
 8700.00000    8.96410    8.96410    8.83660    2.85150  354.28250   46.37190   46.37190   44.27120   44.27120  354.28250    -999.25  100.68860  -79.19250   -5.92480  100.68860
 8750.00000    8.78570    8.78570   10.21700    4.62660  216.14150   46.37350   46.37350   46.65240   46.65240  216.14150    -999.25  107.69510  -79.17880   -5.88250  107.69510
 8800.00000    8.82120    8.82120    7.19800    2.00000  500.00000   46.52330   46.52330   41.20920   41.20920  500.00000    -999.25  162.38940  -80.85670   -7.56040  162.38940
 8850.00000    8.74580    8.74580    9.58800    4.06540  245.99040   47.09630   47.09630   48.05740   48.05740  245.99040    -999.25  105.72360  -83.97010  -11.00140  105.72360
 8900.00000    8.97710    8.97710    6.74100    1.99870  500.32370   42.36350   42.36350   28.66880   28.66880  500.32370    -999.25  111.48050  -99.43720  -27.97730  111.48050
 8950.00000    8.87900    8.87900    4.37130    2.00000  500.00000   44.34970   44.34970   30.21880   30.21880  500.00000    -999.25  247.21350  -90.79480  -20.85370  247.21350
 9000.00000    9.08760    9.08760    3.14790    2.00000  500.00000   44.34510   44.34510   21.66230   21.66230  500.00000    -999.25  247.11080 -109.92900  -41.49670  247.11080
 9050.00000    9.29200    9.29200    2.56780    2.00000  500.00000   43.82390   43.82390   22.17600   22.17600  500.00000    -999.25  295.14550 -112.54260  -45.61910  295.14550
 9100.00000    9.47050    9.47050    1.53750    2.00000  500.00000   43.50460   43.50460   21.15160   21.15160  500.00000    -999.25  272.62770 -122.08630  -56.68160  272.62770
 9150.00000    9.36180    9.36180    1.61700    2.00000  500.00000   43.80920   43.80920   19.97680   19.97680  500.00000    -999.25  216.74250 -136.87570  -72.97980  216.74250
 9200.00000    9.19040    9.19040    1.54620    2.00000  500.00000   43.90880   43.90880   22.24070   22.24070  500.00000    -999.25  272.23840 -149.03600  -86.65890  272.23840
 9250.00000    8.96460    8.96460    0.95330    2.00000  500.00000   43.97930   43.97930   21.17310   21.17310  500.00000    -999.25  159.30170 -176.96420 -116.09590  159.30170
 9300.00000    9.27480    9.27480    1.91260    2.00000  500.00000   43.71270   43.71270   21.11780   21.11780  500.00000    -999.25  216.43110 -159.33560  -99.97610  216.43110
 9350.00000    9.13160    9.13160    2.71750    2.00000  500.00000   43.66550   43.66550   24.64240   24.64240  500.00000    -999.25  232.80140 -157.30790  -99.46720  232.80140
 9400.00000    9.34750    9.34750    2.31450    2.00000  500.00000   44.01090   44.01090   21.42700   21.42700  500.00000   12.28390  175.98410 -164.05000 -107.71810  175.98410
 9450.00000    9.23860    9.23860    2.55980    2.00000  500.00000   44.29040   44.29040   19.83340   19.83340  500.00000   10.77660  216.61570 -155.81030 -100.99720  216.61570
 9500.00000    9.40890    9.40890    1.92090    2.00000  500.00000   44.99630   44.99630   24.02890   24.02890  500.00000   12.29670  159.99650 -170.23050 -116.92620  159.99650
 9550.00000    9.47040    9.47040    3.01860    2.00000  500.00000   44.11930   44.11930   19.97590   19.97590  500.00000   13.43790  155.04400 -165.94440 -114.14890  155.04400
 9600.00000    8.95610    8.95610   28.57080   23.54670   42.47320   45.70160   45.70160   20.17290   20.17290   42.47320    9.11240   61.39420 -168.98140 -118.70470   61.39420
 9650.00000    8.66630    8.66630   36.64350   31.29600   31.95300   45.45950   45.45950   25.01710   25.01710   31.95300    8.70210   49.25810 -175.78490 -127.01700   49.25810
 9700.00000    9.33410    9.33410   20.91690   15.58750   64.23600   43.92200   43.92200   27.02460   27.02460   64.23600   11.53260   61.47960 -168.66120 -121.41210   61.47960
 9750.00000    8.20260    8.20260   32.85190   24.00820   41.65240   43.87110   43.87110   28.01360   28.01360   41.65240    8.31090   70.48700 -204.89680 -159.15650   70.48700
 9800.00000    8.23570    8.23570   19.57890   15.92230   62.80510   44.53630   44.53630   19.27540   19.27540   62.80510    7.73590  107.56490 -192.23380 -148.00230  107.56490
 9850.00000    9.25820    9.25820   20.22450   15.37760   65.15240   44.93860   44.93860   24.47680   24.47680   65.15240   12.63030   41.16220 -143.99530 -101.28260   41.16220
 9900.00000    8.88870    8.88870   15.47530   10.29120   97.17010   44.06160   44.06160   32.36510   32.36510   97.17010    8.90690   76.32910 -148.86450 -107.66060   76.32910
 9950.00000    9.27210    9.27210  106.46060  103.85440    9.63400   45.90110   45.90110   33.69630   33.69630    9.63400    9.12560   12.77460 -140.80070 -101.11560   12.77460
 10000.00000    9.03860    9.03860    7.70440    2.83650  352.54980   45.06250   45.06250   37.72490   37.72490  352.54980    9.00530  146.31130  -98.13900  -59.96270  146.31130
 10050.00000    9.03910    9.03910    6.32200    2.00000  500.00000   44.58550   44.58550   34.32820   34.32820  500.00000    -999.25  237.94270  -56.41780  -19.75030  237.94270
 10100.00000    8.93290    8.93290    6.01890    2.00000  500.00000   45.23020   45.23020   32.01650   32.01650  500.00000    -999.25  254.32510  -45.64330  -10.49460  254.32510
 10150.00000    8.95690    8.95690    2.75290    2.00000  500.00000   44.95980   44.95980   31.07320   31.07320  500.00000    -999.25  288.03800  -44.75770  -11.11780  288.03800
 10200.00000    8.92240    8.92240    6.87440    2.00000  500.00000   44.88270   44.88270   34.88380   34.88380  500.00000    -999.25  202.25090  -57.66900  -25.54790  202.25090
 10250.00000    8.89730    8.89730    6.43830    2.00000  500.00000   45.21280   45.21280   31.71060   31.71060  500.00000    -999.25  199.68800  -58.26820  -27.65590  199.68800
 10300.00000    8.85940    8.85940    7.98430    2.97190  336.48680   45.74690   45.74690   33.08700   33.08700  336.48680    -999.25  163.60550  -46.97050  -17.86700  163.60550
 10350.00000    9.03300    9.03300   40.31390   34.27150   29.18000   48.00200   48.00200   51.09750   51.09750   29.18000    -999.25   38.46170  -42.60470  -15.02000   38.46170
