~Version ---------------------------------------------------
VERS.      2.0 : CWLS log ASCII Standard -VERSION 2.0
WRAP.       NO : One line per depth step
CREA. 08/24/13 : LAS Creation Date
~Well ------------------------------------------------------
STRT.M                         400.0 : START DEPTH
STOP.M                        2550.0 : STOP DEPTH
STEP.M                      50.00000 : STEP LENGTH
NULL.                        -999.25 : NULL VALUE
COMP.        SULPETRO OF CANADA LTD. : COMPANY
WELL. SULPETRO AM EG JUDY 14-2-63-10 : WELL
FLD .                                : FIELD
LOC .                                : LOCATION
CTRY.                         CANADA : COUNTRY
SRVC.                        Unknown : SERVICE COMPANY
DATE.                    27-Dec-1983 : LOGDATE
PROV.                        Alberta : PROVINCE
UWI .               100140206310W500 : UNIQUE WELL ID
SLAT.WGS84                   54.4264 : SURFACE LATITUDE
SLON.WGS84                 -115.4046 : SURFACE LONGITUDE
~Curve Information -----------------------------------------
DEPT    .M      : DEPTH METER
ACED    .US/M   : ACOUSTIC FROM SONIC LOG
CALSED  .MM     : CALIPER FROM SONIC LOG
CALWS   .MM     : CALIPER [CALXDED]
CALXDED .MM     : CALIPER X FROM DENSITY LOG LOG [ADJ. TO RESISTIVITY LOG]
CALYDED .MM     : CALIPER Y  FROM DENSITY LOG LOG [ADJ. TO RESISTIVITY LOG]
CNCLSED .V/V    : NEUTRON PORISITY LIMESTONE FROM DENSITY LOG LOG [ADJ. TO RESISTIVITY LOG]
CNLSSED .V/V    : COMPENSATED NEUTRON POROSITY SANDSTONE FROM DENSITY LOG
CONDWS  .MMHO   : CONDUCTIVITY [1000/DRESWS]
CORRED  .KG/M3  : DENSITY CORRECTION FROM DENSITY LOG LOG [ADJ. TO RESISTIVITY LOG]
DCORWS  .KG/M3  : DENSITY CORRECTION [CORRED]
DENWS   .KG/M3  : FORMATION BULK DENSITY [CALC FROM DPOLSWS, M=2710,F=1000]
DPOLSWS .V/V    : DENSITY POROSITY LIMESTONE [PORDSSED CONVERTED TO LIMESTONE MATRIX, M=2710,F=1000, SPL. TO PORDLSED @ 1510.8M]
DRESWS  .OHMM   : DEEP RESISTIVITY [RILDED]
DTWS    .US/M   : COMPRESSIONAL SONIC [ACED]
GRDED   .GAPI   : GAMMA RAY FROM DENSITY LOG [ADJ. TO RESISTIVITY LOG]
GRSED   .GAPI   : GAMMA RAY FROM SONIC LOG
GRWS    .GAPI   : GAMMA RAY [GRSED SPL. WITH GRDED @ 2546.68M]
MRESWS  .OHMM   : MEDIUM RESISTIVITY [RILMED]
NPOLSWS .V/V    : NEUTRON PORISITY LIMESTONE [CNLSSED MATRIX CONVERSION FOR LIMESTONE (BAKER), SPL. TO CNCLSED @ 1511M]
PORDLSED.V/V    : DENSITY POROSITY LIMESTONE [M=2710,F=1000] FROM DENSITY LOG LOG [ADJ. TO RESISTIVITY LOG]
PORDSSED.V/V    : DENSITY POROSITY SANDSTONE [M=2650,F=1000] FROM DENSITY LOG LOG [ADJ. TO RESISTIVITY LOG]
RFOCED  .OHMM   : SHALLOW FOCUSED RESISTIVITY FROM RESISTIVITY LOG
RHOBED  .KG/M3  : BULK DENSITY FROM DENSITY LOG LOG [ADJ. TO RESISTIVITY LOG]
RILDED  .OHMM   : DEEP INDUCTION  RESISTIVITY FROM RESISTIVITY LOG
RILMED  .OHMM   : MEDIUM INDUCTION  RESISTIVITY FROM RESISTIVITY LOG
SPRED   .MV     : SPONTANEOUS POTENTIAL FROM RESISTIVITY LOG
SPWS    .MV     : SPONTANEOUS POTENTIAL [BASELINE 0 MV, SPRED ]
SRESWS  .OHMM   : SHALLOW RESISTIVITY [RFOCED]
TENDED  .N      : TENSION FROM DENSITY LOG LOG [ADJ. TO RESISTIVITY LOG]
TENSED  .N      : TENSION FROM RESISTIVITY LOG
~Params ----------------------------------------------------
PD  .                         GL : PERMANENT DATUM
EPD .M                    887.83 : ELEVATION PERMANENT DATUM
LMF .                         KB : LOG MEASURED FROM
DAPD.M                      4.82 : FEET ABOVE PERMANENT DATUM
DMF .                         KB : DRILLING MEASURED FROM
EKB .M                    892.65 : KELLY BUSHING
EGL .M                    887.83 : GROUND LEVEL
DATE.                   12/27/83 : RUN DATE
RUN .                          1 : RUN NUMBER
DD  .M                      2560 : DEPTH DRILLER
DL  .M                    2560.1 : DEPTH LOGGER
BLI .M                    2559.5 : BOTTOM LOG INTERVAL
TLI .M                       392 : TOP LOG INTERVAL
CS  .MM                    244.5 : CASING SIZE
CBD .M                       392 : CASING BOTTOM DRILLER
CBL .M                       392 : CASING BOTTOM LOGGER
BS  .MM                      222 : BIT SIZE
BSD .M                      2560 : BIT SIZE AT DEPTH
DFT .               GEL CHEM MUD : DRILLING FLUID TYPE
DFD .                       1150 : DRILLING FLUID DENSITY
DFV .                         78 : DRILLING FLUID VISCOSITY
DFPH.                         11 : DRILLING FLUID PH
DFL .                          8 : DRILLING FLUID LOSS
MSS .                   FLOWLINE : MUD SAMPLE SOURCE
MST .DEGC                     17 : MUD SAMPLE TEMPERATURE
RMF .OHMM                    0.9 : RESISTIVITY MUD FILTRATE SAMPLE
MFST.DEGC                     17 : MUD FILTRATE SAMPLE TEMPERATURE
RMC .OHMM                    1.9 : RESISTIVITY MUD CAKE
MCST.DEGC                     17 : MUD CAKE SAMPLE TEMPERATURE
MFSS.                   MEASURED : MUD FILTRATE SAMPLE SOURCE
MCSS.                   MEASURED : MUD CAKE SAMPLE SOURCE
RMB .OHMM                   0.67 : RESISTIVITY MUD AT BHT
TCS .HRS                       6 : TIME CIRCULATED STOPPED
LUN .                    HL 6265 : LOGGING UNIT NUMBER
LUL .                      LLOYD : LOGGING UNIT LOCATION
ENGI.                    LAMBORN : RECORDING ENGINEER
WITN.                    LEWYCKY : WITNESSED BY
CLNT.                    A2DTECH : CLIENT CODE
ORIG. 6.5"/100M 16.5"/100M PRINT : ORIGIN OF DATA
UWI .           100140206310W500 : UNIQUE WELL ID
DICO.     A2D Technologies, Inc. : DIGITIZING COMPANY
~Other -----------------------------------------------------
DIL-BHC RUN IN COMBO & CDL-CNL LOG RAN
~ASCII -----------------------------------------------------
  400.00000  349.99250  223.69330  219.80200  219.80200  224.56880    -999.25    0.31120  134.08600  129.11420  129.11420 2256.50800    0.26520    7.45790  349.99250   66.99440   61.95590   61.95590    7.61630    0.27120    -999.25    0.23850    6.46920 2267.21310    7.45790    7.61630  -77.07930  -26.84090    6.46920 -1118.00300 -1164.28040
  450.00000  447.53370  245.25840  252.65490  252.65490  297.39240    -999.25    0.39830  278.43520  160.14390  160.14390 2196.65800    0.30020    3.59150  447.53370   69.30650   69.43970   69.43970    3.25130    0.35830    -999.25    0.27480    4.67210 2197.48950    3.59150    3.25130  -41.51240    0.03190    4.67210 -964.22710 -555.82230
  500.00000  370.71380  252.20350  249.65200  249.65200  321.85060    -999.25    0.38190  306.83320  142.17210  142.17210 2215.29700    0.28930    3.25910  370.71380   78.60750   71.79420   71.79420    3.35690    0.34190    -999.25    0.26350    3.84810 2210.81200    3.25910    3.35690  -41.62080   -1.90570    3.84810 -222.89110 -757.57300
  550.00000  351.90680  254.82030  309.64820  309.64820  240.81150    -999.25    0.41670  252.58270  135.07210  135.07210 1775.65600    0.54640    3.95910  351.90680   64.39370   63.17440   63.17440    3.81920    0.37670    -999.25    0.52990    4.52900 1783.21530    3.95910    3.81920  -41.24760   -2.26690    4.52900 -4068.62740 -1442.65400
  600.00000  389.12760  245.64000  239.64880  239.64880  346.90320    -999.25    0.41870  280.54430  115.56330  115.56330 2169.46900    0.31610    3.56450  389.12760   57.73490   57.95860   57.95860    3.77000    0.37870    -999.25    0.29120    4.11880 2164.11770    3.56450    3.77000  -40.77950   -2.53320    4.11880 -2029.53150 -1359.38530
  650.00000  358.39880  239.51490  233.88520  233.88520  235.99830    -999.25    0.41100  265.53370  139.16650  139.16650 2445.29200    0.15480    3.76600  358.39880   62.43270   60.36470   60.36470    3.95220    0.37100    -999.25    0.12410    4.52750 2443.10860    3.76600    3.95220  -39.48170   -1.37200    4.52750 -827.98140 -1426.88400
  700.00000  367.84520  256.55580  275.94460  275.94460  257.90110    -999.25    0.38090  270.16800  115.76640  115.76640 1963.07200    0.43680    3.70140  367.84520   65.83050   58.64400   58.64400    3.89780    0.34090    -999.25    0.41630    4.14630 1966.39770    3.70140    3.89780  -40.11970   -0.84200    4.14630  752.64260 -1659.10600
  750.00000  337.31340  283.44060  268.52610  268.52610  297.72600    -999.25    0.40260  260.13210  161.25070  161.25070 1956.06100    0.44090    3.84420  337.31340   74.24390   68.79080   68.79080    4.03230    0.36260    -999.25    0.42060    4.54680 1959.49190    3.84420    4.03230  -41.54830   -1.77450    4.54680 2306.65690 -1322.78010
  800.00000  345.36740  212.28250  225.21200  225.21200  235.79870    -999.25    0.35970  178.78530  163.30170  163.30170 2242.31500    0.27350    5.59330  345.36740   93.02060   95.20640   95.20640    5.44770    0.31970    -999.25    0.24710    6.03200 2241.46410    5.59330    5.44770  -47.28090   -3.03050    6.03200 -798.54280 -1478.43300
  850.00000  345.72240  233.87900  261.79980  261.79980  241.93900    -999.25    0.33240  178.45030  189.91250  189.91250 2086.02100    0.36490    5.60380  345.72240  109.39230   99.25400   99.25400    5.73320    0.29240    -999.25    0.34180    7.00240 2092.67500    5.60380    5.73320  -44.47090   -2.01890    7.00240 -707.97280 -2174.08430
  900.00000  292.29840  223.53720  282.28100  282.28100  225.90770    -999.25    0.24170  128.24460  127.92200  127.92200 2101.41100    0.35590    7.79760  292.29840   76.46900   80.46400   80.46400    9.67500    0.20170    -999.25    0.33250    8.26310 2087.45480    7.79760    9.67500  -52.66680   -9.04880    8.26310 -589.30230 -1778.34230
  950.00000  317.83000  222.55490  367.69270  367.69270  224.16800    -999.25    0.31340  179.20830  121.04230  121.04230 2143.47700    0.33130    5.58010  317.83000   90.85890   99.95130   99.95130    5.74830    0.27340    -999.25    0.30700    5.99070 2139.96140    5.58010    5.74830  -49.98000   -4.75250    5.99070 -2618.23210 -1514.37360
 1000.00000  318.62850  238.86170  320.04440  320.04440  236.37280    -999.25    0.39480  169.06170  193.92370  193.92370 2096.28100    0.35890    5.91500  318.62850  109.36770  103.54520  103.54520    5.74700    0.35480    -999.25    0.33560    6.09350 2098.04740    5.91500    5.74700  -48.83800   -3.38280    6.09350 -695.87580 -2019.84140
 1050.00000  342.11140  239.37180  287.71510  287.71510  221.98740    -999.25    0.31760  175.87370  216.17410  216.17410 2437.59700    0.15930    5.68590  342.11140  123.59230  115.87210  115.87210    6.14140    0.27760    -999.25    0.12870    7.43480 2434.84300    5.68590    6.14140  -43.07440   -0.33140    7.43480 -1417.93920 -1172.94670
 1100.00000  289.39960  241.26760  291.45730  291.45730  220.94760    -999.25    0.27920  168.36430  269.39240  269.39240 2277.37000    0.25300    5.93950  289.39960   97.76210   90.50200   90.50200    6.37990    0.23920    -999.25    0.22580    6.54170 2274.75510    5.93950    6.37990  -43.98500   -3.95430    6.54170 -2610.94870 -2377.54130
 1150.00000  304.81440  238.62730  280.38200  280.38200  229.20540    -999.25    0.27760  199.43360  224.95960  224.95960 2132.36200    0.33780    5.01420  304.81440  103.02420  104.02410  104.02410    5.34970    0.23760    -999.25    0.31370    6.15130 2129.52640    5.01420    5.34970  -48.41050   -5.46280    6.15130 -2454.66720 -1832.77410
 1200.00000  360.62830  245.29510  233.62270  233.62270  291.17990    -999.25    0.30140  394.16630  205.71180  205.71180 2173.74400    0.31360    2.53700  360.62830  141.44150  144.60470  144.60470    2.69200    0.26140    -999.25    0.28860    3.62180 2170.40890    2.53700    2.69200  -45.15870   -2.14520    3.62180 -1754.31000 -1899.08730
 1250.00000  313.33350  225.11570  231.96610  231.96610  244.32850    -999.25    0.28190  201.89380  174.56870  174.56870 2500.35400    0.12260    4.95310  313.33350  138.75560  134.53450  134.53450    5.45410    0.24190    -999.25    0.09070    5.90930 2504.85940    4.95310    5.45410  -44.16470   -3.30500    5.90930 -1812.93580 -1586.09320
 1300.00000  268.78310  216.17730  236.98960  236.98960  208.21740    -999.25    0.27110  195.65260  190.47780  190.47780 2422.37800    0.16820    5.11110  268.78310   68.21250   63.09900   63.09900    8.27050    0.23110    -999.25    0.13800   11.18750 2424.10720    5.11110    8.27050  -97.27880  -57.42710   11.18750 -819.58450 -1345.36650
 1350.00000  353.89040  298.00740  301.68020  301.68020  276.79340    -999.25    0.32160  163.81890   90.36850   90.36850 2208.45700    0.29330    6.10430  353.89040   80.72370   83.84950   83.84950    4.77570    0.28160    -999.25    0.26760    8.67870 2275.85640    6.10430    4.77570  -43.59890   -3.74720    8.67870 -1570.53870 -1254.10500
 1400.00000  269.74750  293.63830  322.97600  322.97600  271.06560    -999.25    0.23630  185.58040   86.42350   86.42350 2484.45100    0.13190    5.38850  269.74750   62.16530   56.51590   56.51590    6.22020    0.19630    -999.25    0.10030    8.30200 2485.02270    5.38850    6.22020  -59.40190  -21.31030    8.30200 -1588.17670 -2438.05300
 1450.00000  241.56970  220.41280  229.35350  229.35350  231.55070    -999.25    0.23420  174.40750  348.59180  348.59180 2494.54000    0.12600    5.73370  241.56970   54.75940   60.64230   60.64230    7.67780    0.19420    -999.25    0.09420    9.37880 2494.26930    5.73370    7.67780  -70.81390  -34.68900    9.37880 -1202.70860 -1997.65010
 1500.00000  202.14560  241.63480  243.60800  243.60800  235.86060    0.09810    0.13250   68.21100  193.09330  193.09330 2564.30800    0.08520   14.66040  202.14560   56.09820   48.56510   48.56510   15.68180    0.09250    0.08860    0.05190   13.08750 2560.07640   14.66040   15.68180  -48.12040  -14.07800   13.08750 -262.21750 -2466.56660
 1550.00000  240.07010  296.22980  287.61980  287.61980  273.68940    0.20020    -999.25  336.89320  118.83160  118.83160 2587.73500    0.07150    2.96830  240.07010   49.66370   46.37500   46.37500    3.16490    0.20020    0.07150    -999.25    3.93000 2587.59520    2.96830    3.16490  -70.86860  -38.90870    3.93000 -2014.03090 -2477.91810
