~Version ---------------------------------------------------
VERS.      2.0 : CWLS log ASCII Standard -VERSION 2.0
WRAP.       NO : One line per depth step
CREA. 10/26/17 : LAS Creation Date
~Well ------------------------------------------------------
STRT.FT                              850.0 : START DEPTH
STOP.FT                             9300.0 : STOP DEPTH
STEP.FT                           50.00000 : STEP LENGTH
NULL.                              -999.25 : NULL VALUE
COMP.        CANADIAN EXPORT OIL & GAS LTD : COMPANY
WELL. CEGO CAN OXY CAEL SUNSET 12-25-69-19 : WELL
FLD .                                      : FIELD
LOC .                                      : LOCATION
CTRY.                               CANADA : COUNTRY
SRVC.                         Schlumberger : SERVICE COMPANY
DATE.                          23-Mar-1973 : LOGDATE
PROV.                              Alberta : PROVINCE
UWI .                     100122506919W500 : UNIQUE WELL ID
SLAT.WGS84                        55.00549 : SURFACE LATITUDE
SLON.WGS84                       -116.7667 : SURFACE LONGITUDE
~Curve Information -----------------------------------------
DEPT  .FT    : Depth Curve
CALSED.IN    : CALIPER FROM SONIC LOG
CALWS .IN    : CALIPER [CALSED]
CILDED.MMHO  : CONDUCTIVITY FROM RESISTIVITY LOG
CONDWS.MMHO  : CONDUCTIVITY [1000/DRESWS]
DRESWS.OHMM  : DEEP RESISTIVITY [1000/CILDED IF ILDED <=4.5, ILDED]
DTED  .US/F  : DELTA-T FROM SONIC LOG
DTWS  .US/F  : COMPRESSIONAL SONIC [DTED]
GRSED .GAPI  : GAMMA RAY FROM SONIC LOG
GRWS  .GAPI  : GAMMA RAY [GRSED]
ILDED .OHMM  : DEEP INDUCTION RESISTIVITY FROM RESISTIVITY LOG
SNED  .OHMM  : 16 INCH SHORT NORMAL FROM RESISTIVITY LOG
SPRED .MV    : SPONTANEOUS POTENTIAL FROM RESISTIVITY LOG
SPWS  .MV    : SPONTANEOUS POTENTIAL [BASELINE 0 MV, SPRED]
SRESWS.OHMM  : SHALLOW RESISTIVITY [SNED]
~Params ----------------------------------------------------
PD  .                     GL : PERMANENT DATUM
EPD .FT                 2705 : ELEVATION PERMANENT DATUM
LMF .                     KB : LOG MEASURED FROM
DAPD.FT                   14 : FEET ABOVE PERMANENT DATUM
EKB .FT                 2719 : KELLY BUSHING
EGL .FT                 2705 : GROUND LEVEL
DATE.               03/23/73 : RUN DATE
RUN .                      1 : RUN NUMBER
DD  .FT                 9320 : DEPTH DRILLER
DL  .FT                 9318 : DEPTH LOGGER
BLI .FT                 9317 : BOTTOM LOG INTERVAL
TLI .FT                  940 : TOP LOG INTERVAL
CS  .IN                8.625 : CASING SIZE
CBD .FT                  940 : CASING BOTTOM DRILLER
BS  .IN                7.875 : BIT SIZE
BSD .FT                 9320 : BIT SIZE AT DEPTH
DFT .              GEL BENEX : DRILLING FLUID TYPE
DFD .                    9.3 : DRILLING FLUID DENSITY
DFV .                     85 : DRILLING FLUID VISCOSITY
DFPH.                     10 : DRILLING FLUID PH
DFL .                      8 : DRILLING FLUID LOSS
RMS .OHMM               1.99 : RESISTIVITY MUD SAMPLE
MST .DEGF                 71 : MUD SAMPLE TEMPERATURE
RMF .OHMM               1.58 : RESISTIVITY MUD FILTRATE SAMPLE
MFST.DEGF                 71 : MUD FILTRATE SAMPLE TEMPERATURE
RMB .OHMM               0.85 : RESISTIVITY MUD AT BHT
TCS .HRS                 3.5 : TIME CIRCULATED STOPPED
LUN .                   7635 : LOGGING UNIT NUMBER
ENGI.                 GORDON : RECORDING ENGINEER
WITN.                  BAHAN : WITNESSED BY
CLNT.                A2DTECH : CLIENT CODE
ORIG.            2" 5" PRINT : ORIGIN OF DATA
UWI .       100122506919W500 : UNIQUE WELL ID
DICO. A2D Technologies, Inc. : DIGITIZING COMPANY
~Other -----------------------------------------------------
IEL-BCS LOG RUN
DATA FROM TOP-4500' FROM 2" LOG
~ASCII -----------------------------------------------------
# ...
 3300.00000    9.02660    9.02660  249.40200  249.40140    4.00960   98.86400   98.86400  110.42090  110.42090    4.01400    2.79910  -99.57540   -5.45130    2.79910
 3350.00000    9.31710    9.31710  250.46240  250.46340    3.99260  101.85070  101.85070  118.19180  118.19180    3.99320    2.55860 -101.96600   -8.04350    2.55860
 3400.00000    9.24770    9.24770  462.94250  462.94150    2.16010  113.88050  113.88050  147.08850  147.08850    2.16250    0.71580  -96.75750   -3.03530    0.71580
 3450.00000    8.87420    8.87420  384.09480  384.08360    2.60360  106.31660  106.31660  110.20210  110.20210    2.60420    0.88750 -100.96180   -7.44120    0.88750
 3500.00000    9.17760    9.17760  326.54950  326.55190    3.06230  101.68200  101.68200  104.95430  104.95430    3.06530    1.35530  -97.60230   -4.28200    1.35530
 3550.00000    9.25170    9.25170  386.79910  386.80230    2.58530  104.22050  104.22050  118.60950  118.60950    2.58460    1.12690  -98.82080   -5.70080    1.12690
 3600.00000    8.81700    8.81700  358.16270  358.16620    2.79200  105.30250  105.30250  118.22790  118.22790    2.78730    1.35460  -96.71610   -3.67770    1.35460
 3650.00000    9.48230    9.48230  184.89220  184.89410    5.40850   86.02450   86.02450   82.44090   82.44090    5.40850    3.85570 -104.18840  -10.46810    3.85570
 3700.00000    8.53010    8.53010  375.57120  375.53040    2.66290   92.74400   92.74400   70.40090   70.40090    2.65870    4.19230 -153.05260  -58.62610    4.19230
 3750.00000    9.10620    9.10620  274.41800  274.41620    3.64410   91.56090   91.56090   88.55800   88.55800    3.64440    2.71750 -110.18700  -15.05890    2.71750
 3800.00000    9.21320    9.21320  271.80910  280.23760    3.56840   90.49520   90.49520   77.64690   77.64690    3.56840    2.64300 -102.71480   -8.25580    2.64300
 3850.00000    9.46720    9.46720  271.34520  271.34830    3.68530   89.92550   89.92550   80.25950   80.25950    3.68510    2.54250 -104.06390  -10.60380    2.54250
 3900.00000    9.20040    9.20040  352.56120  323.92860    3.08710  105.45020  105.45020   88.68520   88.68520    3.08710    1.69480 -100.20890   -7.18260    1.69480
 3950.00000    8.31740    8.31740  129.33900  129.96970    7.69410   74.33350   74.33350   50.11370   50.11370    7.69410   17.40910 -160.70260  -67.20590   17.40910
 4000.00000    9.16920    9.16920  281.57620  281.57910    3.55140   94.03540   94.03540   85.39630   85.39630    3.54870    2.23620  -96.32360   -2.34470    2.23620
 4050.00000    8.82290    8.82290  147.01880  145.50960    6.87240   71.33120   71.33120   64.73270   64.73270    6.87240   10.17860 -117.90340  -23.44240   10.17860
 4100.00000    9.26860    9.26860  284.74550  284.74610    3.51190   91.22870   91.22870   57.47260   57.47260    3.50670    5.85440 -148.16270  -53.21630    5.85440
 4150.00000    8.63180    8.63180  199.86960  232.69880    4.29740   87.85330   87.85330   69.87090   69.87090    4.29740    6.49230 -139.65260  -44.22410    6.49230
 4200.00000    8.34860    8.34860  249.59440  249.58200    4.00670   93.49290   93.49290   53.86010   53.86010    4.00620    7.62800 -181.78470  -85.87090    7.62800
 4250.00000    8.01960    8.01960  184.08880  180.00500    5.55540   81.79660   81.79660   62.88970   62.88970    5.55540   14.69260 -168.71910  -72.32310   14.69260
 4300.00000    8.88890    8.88890  333.05340  333.05580    3.00250   90.60570   90.60570   60.39080   60.39080    3.00360    6.89610 -168.76430  -72.25390    6.89610
 4350.00000    9.27420    9.27420  206.82090  206.82100    4.83510   81.95070   81.95070   80.36740   80.36740    4.88010    3.44550 -101.45860   -5.35600    3.44550
 4400.00000    8.45820    8.45820  462.52080  462.51330    2.16210   89.55900   89.55900   72.55670   72.55670    2.16180    5.64600 -167.59250  -71.89500    5.64600
 4450.00000    7.70350    7.70350  277.70380  277.57730    3.60260   79.32080   79.32080   63.81250   63.81250    3.71520   12.37020 -156.56320  -61.27350   12.37020
 4500.00000    8.25370    8.25370  235.02970  244.28970    4.09350   86.46370   86.46370   81.61610   81.61610    4.09350    4.97020  -96.46380   -1.57930    4.97020
 4550.00000    8.20160    8.20160  183.91220  193.61830    5.16480   82.41400   82.41400   91.92680   91.92680    5.16480    6.60240  -99.02820   -4.94240    6.60240
 4600.00000   10.09260   10.09260  563.82390  563.82500    1.77360  103.39650  103.39650   94.16730   94.16730    1.30790    2.13160  -98.46940   -5.79520    2.13160
 4650.00000    8.33970    8.33970  154.00230  159.16980    6.28260   80.64840   80.64840   94.60000   94.60000    6.28260    7.65280 -102.08770  -10.81590    7.65280
 4700.00000    7.58230    7.58230  182.58280  181.76290    5.50170   70.71440   70.71440   33.61010   33.61010    5.19150   21.79140 -137.66920  -46.67690   21.79140
 4750.00000    7.99710    7.99710  109.71110  115.11720    8.68680   72.17620   72.17620   61.06780   61.06780    8.68680   17.36630 -112.59520  -22.25390   17.36630
 4800.00000    8.36640    8.36640  280.34580  280.34760    3.56700   86.83610   86.83610   94.58530   94.58530    3.12110    4.76440  -94.16050   -8.62760    4.76440
 4850.00000   10.45360   10.45360  450.44710  450.45050    2.22000   94.16790   94.16790  102.55510  102.55510    1.99820    3.22960  -83.04950   -2.43350    3.22960
 4900.00000    8.12590    8.12590   17.49870   14.51780   68.88100  106.18270  106.18270  139.62860  139.62860   68.88100   71.13440  -84.27060  -14.00490   71.13440
 4950.00000    8.15260    8.15260   66.70800   63.41680   15.76870  101.99730  101.99730  127.34630  127.34630   15.76870   28.65310  -85.97290  -43.49480   28.65310
 5000.00000    7.98240    7.98240    6.27890    6.20190  161.23970   80.69150   80.69150  185.64580  185.64580  161.23970  186.89040  -93.25640  -78.38420  186.89040
 5050.00000    7.87130    7.87130  385.82810  385.83220    2.59180   75.95590   75.95590   87.72970   87.72970    2.30150   15.06990   -0.80180  -13.27730   15.06990
 5100.00000    8.56840    8.56840  316.56710  316.56590    3.15890   72.05500   72.05500  100.40300  100.40300    2.83910    9.42830   24.70450  -10.93160    9.42830
 5150.00000    7.77680    7.77680  468.94420  468.95520    2.13240   60.40850   60.40850  118.81410  118.81410    1.78410   16.41580  -32.17990  -85.18630   16.41580
 5200.00000    7.46900    7.46900 1420.51810 1420.45450    0.70400   71.73920   71.73920   19.37770   19.37770    0.57730   15.70840  -20.56750 -104.02670   15.70840
 5250.00000    7.57240    7.57240  295.33000  295.33370    3.38600   56.51870   56.51870   22.91360   22.91360    3.09550   33.98790    6.01970 -107.69320   33.98790
 5300.00000    7.70960    7.70960  120.70550  123.95870    8.06720   51.84160   51.84160   15.53540   15.53540    8.06720   52.01880   70.57550  -73.30440   52.01880
 5350.00000    8.25450    8.25450   91.66070   92.32250   10.83160   56.92110   56.92110   37.24130   37.24130   10.83160   25.23740  144.23840  -29.63860   25.23740
 5400.00000    7.87820    7.87820  259.58210  259.58520    3.85230   64.38220   64.38220   45.03030   45.03030    3.60380   26.06210  100.69450  -76.12000   26.06210
 5450.00000    8.61800    8.61800  297.49890  294.96780    3.39020   61.13580   61.13580   39.24330   39.24330    3.10940   10.74150   93.54730  -77.52420   10.74150
 5500.00000    8.35820    8.35820   26.69090   26.74980   37.38350   56.64080   56.64080   39.03970   39.03970   37.38350   48.87780  125.34590  -40.02010   48.87780
 5550.00000    8.54610    8.54610   51.64700   51.26420   19.50680   57.81570   57.81570   58.11060   58.11060   19.50680   27.75890   46.12050 -113.54000   27.75890
 5600.00000    8.41550    8.41550  300.42350  300.42660    3.32860   55.31910   55.31910   28.68320   28.68320    3.03830   20.01470  -27.53650 -181.45390   20.01470
 5650.00000    8.40020    8.40020  214.33210  214.33010    4.66570   58.87570   58.87570   21.22010   21.22010    4.11550   30.32820  -35.02600 -183.23790   30.32820
 5700.00000    8.48940    8.48940   63.67450   64.29170   15.55410   56.72410   56.72410   39.40800   39.40800   15.55410   20.75250   36.58760 -105.88130   20.75250
