~Version ---------------------------------------------------
VERS.      2.0 : CWLS log ASCII Standard -VERSION 2.0
WRAP.       NO : One line per depth step
CREA. 05/28/14 : LAS Creation Date
~Well ------------------------------------------------------
STRT.FT                               300.0 : START DEPTH
STOP.FT                              8350.0 : STOP DEPTH
STEP.FT                            50.00000 : STEP LENGTH
NULL.                               -999.25 : NULL VALUE
COMP. CANADA CITIES SERVICE PETROLEUM CORP. : COMPANY
WELL.          CITIES SERVICE KEYSTONE 8-15 : WELL
FLD .                                       : FIELD
LOC .                                       : LOCATION
CTRY.                                CANADA : COUNTRY
SRVC.                               Unknown : SERVICE COMPANY
DATE.                           07-May-1956 : LOGDATE
PROV.                               Alberta : PROVINCE
UWI .                      100081504804W500 : UNIQUE WELL ID
SLAT.WGS84                         53.13956 : SURFACE LATITUDE
SLON.WGS84                         -114.492 : SURFACE LONGITUDE
~Curve Information -----------------------------------------
DEPT  .FT            : DEPTH FEET
CALM  .IN            : CALIPER FROM MICROLATEROLOG
GRN   .UR/HR         : GAMMA RAY FROM McCULLOUGH GRN RADIATION LOG
GRN_1 .UG_RA-EQ/TON  : GAMMA RAY FROM SLB GRN-RADIATION LOG
GRN_2 .GAPI          : GAMMA RAY FROM GRN LOG
LAT9  .OHMM          : LATERAL 9' FROM HLB EL LOG
LN    .OHMM          : LONG NORMAL RESISTIVITY FROM SLB EL LOG
LT16  .OHMM          : 16 INCH LATERAL  FROM HLB EL LOG
LT18  .OHMM          : 18 INCH LATERAL  FROM SLB EL LOG
MCAL  .IN            : CALIPER CONTACT TOOL FROM HLB EL LOG
MLL   .OHMM          : MICRO FOCUSED LATEROLOG RESISTIVITY  FROM MICROLATEROLOG
NEUT  .NAPI          : NEUTRON FROM McCULLOUGH GRN RADIATION LOG
NEUT_1.NAPI          : NEUTRON FROM SLB GRN-RADIATION LOG
NEUT_2.NAPI          : NEUTRON FROM GRN LOG
SN    .OHMM          : SHORT NORMAL RESISTIVITY FROM SLB EL LOG
SN_1  .OHMM          : SHORT NORMAL 18 INCH FROM HLB EL LOG
SPR   .MV            : SPONTANEOUS POTENTIAL FROM SLB EL LOG
SPR_1 .MV            : SPONTANEOUS POTENTIAL FROM HLB EL LOG
~Params ----------------------------------------------------
LMF .                     KB : LOG MEASURED FROM
DMF .                     KB : DRILLING MEASURED FROM
EKB .FT                 2813 : KELLY BUSHING
DATE.               05/07/56 : RUN DATE
RUN .                      1 : RUN NUMBER
DD  .FT                 8499 : DEPTH DRILLER
DL  .FT                 8499 : DEPTH LOGGER
BLI .FT                 8498 : BOTTOM LOG INTERVAL
TLI .FT                  610 : TOP LOG INTERVAL
CBL .FT                  610 : CASING BOTTOM LOGGER
BS  .IN                    9 : BIT SIZE
BSD .FT                 8499 : BIT SIZE AT DEPTH
DFT .              LIME BASE : DRILLING FLUID TYPE
DFD .                   11.1 : DRILLING FLUID DENSITY
DFV .                     98 : DRILLING FLUID VISCOSITY
DFPH.                     13 : DRILLING FLUID PH
DFL .                     48 : DRILLING FLUID LOSS
RMS .OHMM               0.72 : RESISTIVITY MUD SAMPLE
MST .DEGF                 85 : MUD SAMPLE TEMPERATURE
RMB .OHMM               0.39 : RESISTIVITY MUD AT BHT
TCS .HRS                 2.5 : TIME CIRCULATED STOPPED
LUN .                   2786 : LOGGING UNIT NUMBER
LUL .                    EDM : LOGGING UNIT LOCATION
ENGI.                 TAYLOR : RECORDING ENGINEER
WITN.              ARMSTRONG : WITNESSED BY
CLNT.                A2DTECH : CLIENT CODE
ORIG.            2" 5" PRINT : ORIGIN OF DATA
UWI .       100081504804W500 : UNIQUE WELL ID
DICO. A2D Technologies, Inc. : DIGITIZING COMPANY
~Other -----------------------------------------------------
~ASCII -----------------------------------------------------
# ...
 4400.00000    -999.25   10.23280    -999.25   60.87480   11.22470   11.48960    7.86630   12.39700   11.27910    -999.25  472.83860    -999.25  255.14160    7.83020    8.20000  -13.48730   -7.12340
 4450.00000    -999.25   11.25910    -999.25   60.74510   12.59550   12.63800    8.22390   13.27380    -999.25    -999.25  168.18440    -999.25  165.58350    9.06780    9.63500  -43.96550  -39.13010
 4500.00000    -999.25   10.94620    -999.25   62.03690   11.76750   12.39930    6.92670   12.95030    -999.25    -999.25  127.19260    -999.25  128.35450    8.83510    9.29760  -44.04970  -35.35970
 4550.00000    -999.25   12.15040    -999.25   59.78540   10.25170   10.00440    6.20500    9.83010    -999.25    -999.25  -36.37700    -999.25   85.39130    7.34630    6.68590  -40.37810  -31.81300
 4600.00000    -999.25   13.67770    -999.25   77.14530   10.61910   13.80420    6.98030   11.66560    -999.25    -999.25  123.55660    -999.25  163.85940   11.86540   11.52550  -42.79090  -26.12860
 4650.00000    -999.25   12.04630    -999.25   66.89250   17.02650   23.31320   10.17140   17.88130    -999.25    -999.25  123.27920    -999.25  372.95580   16.99600   17.40190  -43.47660  -29.83770
 4700.00000    -999.25   12.56700    -999.25   81.95830    2.94680   17.69910    3.93470   13.35180    -999.25    -999.25   94.93930    -999.25  225.06840   13.39360    6.21500  -42.60740  -35.79760
 4750.00000    -999.25   12.18200    -999.25   76.74590   10.53670   29.88440    4.14600   43.91460    -999.25    -999.25  143.99170    -999.25  255.79030   20.27930    6.66570  -45.12040  -43.27680
 4800.00000    -999.25   12.77510    -999.25   76.21120    8.27530   14.94950    4.01300   18.55580    -999.25    -999.25   59.91990    -999.25  181.22220    9.63480    2.39990  -42.37980  -45.40220
 4850.00000    -999.25   16.46150    -999.25  124.66960   30.49690   35.57500   13.04610   26.05250    -999.25    -999.25  139.92520    -999.25  265.91240   23.49250   28.51250  -47.02350  -39.23400
 4900.00000    -999.25   17.33510    -999.25  118.37650   25.14600   21.91350   12.55580   24.38460    -999.25    -999.25  115.90370    -999.25  244.28350   15.62160   15.55870  -46.72840  -37.51120
 4950.00000    -999.25   18.46590    -999.25  104.48200   13.44370   16.73670   10.84040   17.57830    -999.25    -999.25  120.02780    -999.25  169.81920   12.67600   13.00300  -44.22320  -38.99760
 5000.00000    -999.25   14.81290    -999.25   90.96210    9.15480    9.07490    5.53090    9.10970    -999.25    -999.25  135.67420    -999.25  180.99000    7.42620    6.88740  -41.46770  -41.92330
 5050.00000    -999.25   10.35240    -999.25   41.63670    4.86010    6.21260    3.54120    6.34570    -999.25    -999.25  150.14350    -999.25  173.35440    5.46970    4.51930  -40.03210  -45.68490
 5100.00000    -999.25   11.03990    -999.25  152.04260    3.93800    5.60270    2.23250    4.59720   13.90330    -999.25  125.33980    -999.25  234.13100    4.88640    3.42280  -38.22200  -36.25130
 5150.00000    -999.25    4.91210    -999.25  115.05690   11.13860   25.19640    5.02470   12.80370    8.94350    -999.25  762.09550    -999.25  603.21700   19.06180   20.54940  -55.52670  -46.27890
 5200.00000    -999.25    -999.25    6.17160  142.50730   23.77790   22.66640   15.80770   25.08240    9.28880    -999.25  221.51510  221.51510  662.19800   15.06230   16.48540  -48.43970  -46.10230
 5250.00000    -999.25    -999.25    7.29520    -999.25    3.31580    3.43650    2.80790    4.78410   12.34170    -999.25  157.20270  157.20270    -999.25    2.85710    1.53970  -43.62940  -39.83500
 5300.00000    -999.25    -999.25    7.09870    -999.25   11.70760   12.29050    5.86380    9.95210   10.48690    -999.25  156.64880  156.64880    -999.25    8.19900    9.85540  -41.75450  -44.71710
 5350.00000    -999.25    -999.25    5.26370    -999.25   10.66680   22.59660    4.05180   11.99810    9.18430    -999.25  206.61340  206.61340    -999.25   17.93520   14.72840  -48.09130  -48.79360
 5400.00000    -999.25    -999.25    6.50930    -999.25   22.66250   34.84860   16.49810   28.36670    9.47600    -999.25  186.36830  186.36830    -999.25   14.67960   20.56050  -46.69830  -45.23530
 5450.00000    -999.25    -999.25    5.94520    -999.25   93.64300   47.22110  106.05680  153.57830   10.94590    -999.25  159.38600  159.38600    -999.25   21.86670   37.86250  -46.07300  -43.13920
 5500.00000    -999.25    -999.25    6.34420    -999.25   21.02810   32.63170   16.94180   25.74900    9.90860    -999.25  185.87870  185.87870    -999.25   14.51820   17.49680  -43.30160  -46.06100
 5550.00000    -999.25    -999.25    5.92360    -999.25   44.90530   31.60260   23.66210   35.78360    9.82080    -999.25  184.58660  184.58660    -999.25   15.19910   20.00510  -46.56130  -47.26780
 5600.00000    -999.25    -999.25    5.62700    -999.25   29.89460   29.02350   12.20930   24.05960    9.77000    -999.25  216.99370  216.99370    -999.25   16.93300   18.34040  -51.18320  -47.69550
 5650.00000    -999.25    -999.25    5.65700    -999.25   44.02160   41.98070   42.55480   71.69500    9.88800    -999.25  206.36420  206.36420    -999.25   26.66560   27.33450  -48.86620  -40.52740
 5700.00000    -999.25    -999.25    6.37890    -999.25   34.57980   30.96170   26.07460   41.91620    9.52920    -999.25  201.80690  201.80690    -999.25   18.53600   21.02140  -45.10160  -37.56600
 5750.00000    -999.25    -999.25    5.07290    -999.25   70.87860   63.84280   46.28810   77.40120    9.55810    -999.25  211.24040  211.24040    -999.25   35.27860   41.01350  -44.41430  -35.39290
 5800.00000    -999.25    -999.25    6.18250    -999.25   64.89510   47.15960   18.20160   43.45070    9.63670    -999.25  216.43120  216.43120    -999.25   26.98030   34.68720  -44.91620  -31.74560
 5850.00000    -999.25    -999.25    5.28920    -999.25   58.59620   49.91460   26.54430   59.69970    9.46850    -999.25  241.87280  241.87280    -999.25   31.61010   40.98450  -46.89830  -38.05320
 5900.00000    -999.25    -999.25    1.87890    -999.25   14.29920   96.29530    6.39980   10.77480    9.31070    -999.25  301.55680  301.55680    -999.25   60.32750   54.45590  -56.00810  -43.98170
 5950.00000    -999.25    -999.25    2.19770    -999.25  452.22140  434.51200  481.37850  658.43020    9.35750    -999.25  391.14110  391.14110    -999.25   98.03800  255.59370  -64.39830  -58.89620
 6000.00000    -999.25    -999.25    2.78320    -999.25  203.71250  146.01690  243.78880  351.33790    9.23620    -999.25  360.39920  360.39920    -999.25   48.85400   82.45870  -57.89100  -50.02910
 6050.00000    -999.25    -999.25    3.09010    -999.25  129.05460   88.88540  102.68060  171.37750    9.11030    -999.25  327.66480  327.66480    -999.25   36.67310   64.31000  -55.76200  -52.47600
 6100.00000    -999.25    -999.25    2.85050    -999.25   83.94130   73.68890   55.24670  111.90040    9.16460    -999.25  349.25250  349.25250    -999.25   33.57910   42.93780  -58.85680  -58.47950
 6150.00000    -999.25    -999.25    2.57490    -999.25  117.30270   95.89500   74.37160  155.67930    9.00610    -999.25  352.56180  352.56180    -999.25   41.15020   66.19430  -58.65290  -60.34110
 6200.00000    -999.25    -999.25    3.53970    -999.25  116.43200   91.61180   85.90970  174.71270    9.10170    -999.25  336.39820  336.39820    -999.25   38.91070   56.43010  -55.16830  -52.02040
 6250.00000    -999.25    -999.25    3.27280    -999.25  128.83490  100.64270   80.81550  168.32880    9.07800    -999.25  326.29800  326.29800    -999.25   42.58280   63.30640  -52.89360  -49.10360
 6300.00000    -999.25    -999.25    3.36250    -999.25  138.87260  111.95860   95.11820  185.51640    9.05460    -999.25  321.99870  321.99870    -999.25   43.83090   65.33370  -55.12700  -58.33190
 6350.00000    -999.25    -999.25    2.91720    -999.25  191.01450  173.69920  135.44630  263.05200    9.30260    -999.25  340.02370  340.02370    -999.25   58.27730  101.07020  -53.13000  -61.85120
 6400.00000    9.00930    -999.25    4.98680    -999.25  221.53400  208.47180  179.60020  314.41280    9.18060  290.82470  304.79030  304.79030    -999.25   62.46480  108.08060  -48.13050  -51.50900
