~Version ---------------------------------------------------
VERS.      2.0 : CWLS log ASCII Standard -VERSION 2.0
WRAP.       NO : One line per depth step
CREA. 08/02/17 : LAS Creation Date
~Well ------------------------------------------------------
STRT.FT                            1100.0 : START DEPTH
STOP.FT                           10850.0 : STOP DEPTH
STEP.FT                          50.00000 : STEP LENGTH
NULL.                             -999.25 : NULL VALUE
COMP.        PAN AMERICAN PETROLEUM CORP. : COMPANY
WELL. PAN AM ET AL E-3 KAYBOBS 6-26-59-18 : WELL
FLD .                        KAYBOB SOUTH : FIELD
LOC .                                     : LOCATION
CTRY.                              CANADA : COUNTRY
SRVC.                        Schlumberger : SERVICE COMPANY
DATE.                         16-Jul-1969 : LOGDATE
PROV.                             Alberta : PROVINCE
UWI .                    100062605918W500 : UNIQUE WELL ID
SLAT.WGS84                       54.12901 : SURFACE LATITUDE
SLON.WGS84                       -116.593 : SURFACE LONGITUDE
~Curve Information -----------------------------------------
DEPT   .FT        : Depth Curve
CALSED .IN        : CALIPER FROM SONIC LOG [ADJ. TO RESISTIVITY LOG]
CALWS  .IN        : CALIPER [CALSED]
CONDWS .MMHO      : CONDUCTIVITY [1000/DRESWS]
DRESWS .OHMM      : DEEP RESISTIVITY [ILDED]
DTED   .US/F      : DELTA-T FROM SONIC LOG [ADJ. TO RESISTIVITY LOG]
DTWS   .US/F      : COMPRESSIONAL SONIC [DTED]
GRSED  .GAPI      : GAMMA RAY FROM SONIC LOG [ADJ. TO RESISTIVITY LOG]
GRTED  .GAPI      : THEORETICAL GAMMA RAY VALUE TDT FROM TDT LOG [ADJ. TO RESISTIVITY LOG]
GRWS   .GAPI      : GAMMA RAY [GRSED]
ILDED  .OHMM      : DEEP INDUCTION RESISTIVITY FROM RESISTIVITY LOG
ILMED  .OHMM      : MEDIUM INDUCTION RESISTIVITY FROM RESISTIVITY LOG
LL8ED  .OHMM      : LATEROLOG 8 FROM RESISTIVITY LOG
MRESWS .OHMM      : MEDIUM RESISTIVITY [ILMED]
RATIOED.UNITLESS  : RATIO FROM TDT LOG [ADJ. TO RESISTIVITY LOG]
SIGMAED.CU        : SIGMA FROM TDT LOG [ADJ. TO RESISTIVITY LOG]
SIGMED .CU        : SIGM FROM TDT LOG [ADJ. TO RESISTIVITY LOG]
SPRED  .MV        : SPONTANEOUS POTENTIAL FROM RESISTIVITY LOG
SPWS   .MV        : SPONTANEOUS POTENTIAL [BASELINE 0MV, SPRED]
SRESWS .OHMM      : SHALLOW RESISTIVITY [LL8ED]
TAUED  .us        : NEUTRON DECAY TIME FROM TDT LOG [ADJ. TO RESISTIVITY LOG]
TRATED .UNITLESS  : NEAR/FAR CAPTURE RATIO FROM TDT LOG [ADJ. TO RESISTIVITY LOG]
~Params ----------------------------------------------------
PD  .              2" OUTLET : PERMANENT DATUM
EPD .FT               2964.7 : ELEVATION PERMANENT DATUM
LMF .                     KB : LOG MEASURED FROM
DAPD.FT                 14.3 : FEET ABOVE PERMANENT DATUM
EKB .FT               2979.0 : KELLY BUSHING
EGL .FT               2964.7 : GROUND LEVEL
DATE.               07/16/69 : RUN DATE
RUN .                      1 : RUN NUMBER
DD  .FT                10855 : DEPTH DRILLER
DL  .FT                10862 : DEPTH LOGGER
BLI .FT                10858 : BOTTOM LOG INTERVAL
TLI .FT                 1104 : TOP LOG INTERVAL
CBD .FT                 1104 : CASING BOTTOM DRILLER
CBL .FT                 1104 : CASING BOTTOM LOGGER
BS  .IN                 8.75 : BIT SIZE
BSD .FT                10855 : BIT SIZE AT DEPTH
DFT .               GEL CHEM : DRILLING FLUID TYPE
DFD .                    9.3 : DRILLING FLUID DENSITY
DFV .                     90 : DRILLING FLUID VISCOSITY
DFPH.                    9.0 : DRILLING FLUID PH
DFL .                    9.2 : DRILLING FLUID LOSS
MSS .                   CIRC : MUD SAMPLE SOURCE
RMS .OHMM                1.6 : RESISTIVITY MUD SAMPLE
MST .DEGF                 62 : MUD SAMPLE TEMPERATURE
RMF .OHMM               1.29 : RESISTIVITY MUD FILTRATE SAMPLE
MFST.DEGF                 67 : MUD FILTRATE SAMPLE TEMPERATURE
RMC .OHMM               1.35 : RESISTIVITY MUD CAKE
MCST.DEGF                 62 : MUD CAKE SAMPLE TEMPERATURE
TCS .HRS                   2 : TIME CIRCULATED STOPPED
LUN .                   7502 : LOGGING UNIT NUMBER
LUL .                    EDM : LOGGING UNIT LOCATION
ENGI.                 EDGSON : RECORDING ENGINEER
WITN.                  REMUS : WITNESSED BY
CLNT.                A2DTECH : CLIENT CODE
ORIG.            2" 5" PRINT : ORIGIN OF DATA
UWI .       100062605918W500 : UNIQUE WELL ID
DICO. A2D Technologies, Inc. : DIGITIZING COMPANY
~Other -----------------------------------------------------
~ASCII -----------------------------------------------------
 1100.00000    -999.25    -999.25    -999.25    -999.25    -999.25    -999.25   34.86580    -999.25   34.86580    -999.25    -999.25    -999.25    -999.25    -999.25    -999.25    -999.25    -999.25    -999.25    -999.25    -999.25    -999.25
 1150.00000   10.25850   10.25850   75.73750   13.20350  101.64760  101.64760   58.21480    -999.25   58.21480   13.20350   12.15030   11.55190   12.15030    -999.25    -999.25    -999.25 -110.82200   -8.68520   11.55190    -999.25    -999.25
 1200.00000   10.31400   10.31400  253.82000    3.93980  109.28960  109.28960   72.85810    -999.25   72.85810    3.93980    3.48890    4.23410    3.48890    -999.25    -999.25    -999.25 -109.65640   -7.98150    4.23410    -999.25    -999.25
 1250.00000   12.22960   12.22960  352.72120    2.83510  175.23920  175.23920   75.55760    -999.25   75.55760    2.83510    2.31120    2.63500    2.31120    -999.25    -999.25    -999.25 -106.92050   -5.70450    2.63500    -999.25    -999.25
 1300.00000   10.55760   10.55760  116.91430    8.56700   94.88870   94.88870   57.65880    -999.25   57.65880    8.56700    7.68420    7.94920    7.68420    -999.25    -999.25    -999.25 -104.12820   -3.37110    7.94920    -999.25    -999.25
 1350.00000   10.34360   10.34360  216.57210    4.61740  148.90260  148.90260   60.04940    -999.25   60.04940    4.61740    4.41340   10.31220    4.41340    -999.25    -999.25    -999.25 -103.05840   -2.76320   10.31220    -999.25    -999.25
 1400.00000    9.74700    9.74700  197.78090    5.05610   99.01960   99.01960   66.46910    -999.25   66.46910    5.05610    4.56450    7.15160    4.56450    -999.25    -999.25    -999.25 -102.89020   -3.05390    7.15160    -999.25    -999.25
 1450.00000   11.24910   11.24910  222.01500    4.50420  125.97450  125.97450   73.52150    -999.25   73.52150    4.50420    4.14040    7.60760    4.14040    -999.25    -999.25    -999.25 -102.95390   -3.57950    7.60760    -999.25    -999.25
 1500.00000   10.13220   10.13220  174.30710    5.73700   95.70930   95.70930   77.14200    -999.25   77.14200    5.73700    5.32680    7.08850    5.32680    -999.25    -999.25    -999.25 -103.76020   -4.84470    7.08850    -999.25    -999.25
 1550.00000    9.69470    9.69470  148.86680    6.73900   92.94580   92.94580   69.49200    -999.25   69.49200    6.73900    6.38530    6.33130    6.38530    -999.25    -999.25    -999.25 -105.28830   -6.83170    6.33130    -999.25    -999.25
 1600.00000    9.65260    9.65260  167.03140    5.98690   97.05870   97.05870   75.97870    -999.25   75.97870    5.98690    5.46180    5.15700    5.46180    -999.25    -999.25    -999.25 -103.37480   -5.38010    5.15700    -999.25    -999.25
 1650.00000    9.52750    9.52750  195.24000    5.12190  100.77220  100.77220   68.57860    -999.25   68.57860    5.12190    4.67800    4.97270    4.67800    -999.25    -999.25    -999.25 -102.81790   -5.28210    4.97270    -999.25    -999.25
 1700.00000   10.05940   10.05940  246.72470    4.05310  105.25100  105.25100   88.49820    -999.25   88.49820    4.05310    3.60530    3.42310    3.60530    -999.25    -999.25    -999.25 -101.71330   -4.63940    3.42310    -999.25    -999.25
 1750.00000    9.56170    9.56170  182.43180    5.48150   98.02770   98.02770   79.76660    -999.25   79.76660    5.48150    4.93880    5.09440    4.93880    -999.25    -999.25    -999.25 -102.63730   -6.02230    5.09440    -999.25    -999.25
 1800.00000    9.54970    9.54970  200.99050    4.97610  103.18230  103.18230   67.48540    -999.25   67.48540    4.97610    4.55520    5.18940    4.55520    -999.25    -999.25    -999.25 -103.35540   -7.19930    5.18940    -999.25    -999.25
 1850.00000    9.89840    9.89840  203.00450    4.92600  102.18390  102.18390   67.54530    -999.25   67.54530    4.92600    4.56560    4.33450    4.56560    -999.25    -999.25    -999.25  -99.43620   -3.70310    4.33450    -999.25    -999.25
 1900.00000   13.34770   13.34770  238.33360    4.19580  117.25140  117.25140   71.37430    -999.25   71.37430    4.19580    3.90570    6.48610    3.90570    -999.25    -999.25    -999.25  -99.49260   -3.96120    6.48610    -999.25    -999.25
 1950.00000    9.83120    9.83120  266.19820    3.75660  106.10980  106.10980   79.90460    -999.25   79.90460    3.75660    3.25200    3.61070    3.25200    -999.25    -999.25    -999.25 -100.03820   -4.70990    3.61070    -999.25    -999.25
 2000.00000   10.68790   10.68790  245.86940    4.06720  139.68420  139.68420   66.83390    -999.25   66.83390    4.06720    3.57180    4.27010    3.57180    -999.25    -999.25    -999.25  -99.77310   -4.64650    4.27010    -999.25    -999.25
 2050.00000   10.00780   10.00780   80.02170   12.54800   85.70670   85.70670   73.41420    -999.25   73.41420   12.54800   10.74370   10.60930   10.74370    -999.25    -999.25    -999.25 -100.24410   -5.31930   10.60930    -999.25    -999.25
 2100.00000   10.25510   10.25510  181.37630    5.51340   92.12830   92.12830   62.71470    -999.25   62.71470    5.51340    4.68000    4.98320    4.68000    -999.25    -999.25    -999.25  -98.47340   -3.75170    4.98320    -999.25    -999.25
 2150.00000    9.26180    9.26180  125.20190    7.98710   95.69800   95.69800   44.85700    -999.25   44.85700    7.98710    6.75110    9.01010    6.75110    -999.25    -999.25    -999.25 -110.75740  -16.23740    9.01010    -999.25    -999.25
 2200.00000   10.31200   10.31200  248.51510    4.02390  100.15600  100.15600   70.60550    -999.25   70.60550    4.02390    3.45110    3.36650    3.45110    -999.25    -999.25    -999.25  -98.19850   -3.88160    3.36650    -999.25    -999.25
 2250.00000    9.90700    9.90700  271.69480    3.68060  103.24330  103.24330   69.64050    -999.25   69.64050    3.68060    3.17870    3.53030    3.17870    -999.25    -999.25    -999.25  -97.66170   -3.54650    3.53030    -999.25    -999.25
 2300.00000   10.80960   10.80960  271.85550    3.68050  121.84590  121.84590   80.52560    -999.25   80.52560    3.68050    3.24900    3.88950    3.24900    -999.25    -999.25    -999.25  -96.61210   -2.69870    3.88950    -999.25    -999.25
 2350.00000    9.75630    9.75630  239.32610    4.17840  121.16780  121.16780   72.42910    -999.25   72.42910    4.17840    3.60530    4.19370    3.60530    -999.25    -999.25    -999.25  -97.34250   -3.63220    4.19370    -999.25    -999.25
 2400.00000    9.60320    9.60320  222.11860    4.50210   85.74520   85.74520   70.44060    -999.25   70.44060    4.50210    4.31530    5.43000    4.31530    -999.25    -999.25    -999.25  -96.06190   -2.55330    5.43000    -999.25    -999.25
 2450.00000   10.37610   10.37610  210.00020    4.76190  104.50450  104.50450   81.44800    -999.25   81.44800    4.76190    4.30120    5.19180    4.30120    -999.25    -999.25    -999.25  -95.77760   -2.47210    5.19180    -999.25    -999.25
 2500.00000    9.54250    9.54250   72.17510   13.85520   82.20280   82.20280   69.79150    -999.25   69.79150   13.85520   13.25220   14.60840   13.25220    -999.25    -999.25    -999.25  -97.71500   -4.61130   14.60840    -999.25    -999.25
 2550.00000    9.48560    9.48560  154.12820    6.50320   85.99540   85.99540   65.75000    -999.25   65.75000    6.50320    6.06970    7.13780    6.06970    -999.25    -999.25    -999.25  -96.31320   -3.41120    7.13780    -999.25    -999.25
 2600.00000    9.49450    9.49450  259.64580    3.85140  152.92950  152.92950   83.39960    -999.25   83.39960    3.85140    3.25430    3.84790    3.25430    -999.25    -999.25    -999.25  -95.84700   -3.14810    3.84790    -999.25    -999.25
 2650.00000   10.18200   10.18200  252.53160    3.95990   93.54770   93.54770   89.70770    -999.25   89.70770    3.95990    3.72200    4.48350    3.72200    -999.25    -999.25    -999.25  -95.87510   -3.37790    4.48350    -999.25    -999.25
 2700.00000    9.36830    9.36830  123.37300    8.10550   93.25270   93.25270   74.04990    -999.25   74.04990    8.10550    6.28800    7.36590    6.28800    -999.25    -999.25    -999.25  -99.72810   -7.43400    7.36590    -999.25    -999.25
