~Version ---------------------------------------------------
VERS.      2.0 : CWLS log ASCII Standard -VERSION 2.0
WRAP.       NO : One line per depth step
CREA. 09/02/13 : LAS Creation Date
~Well ------------------------------------------------------
STRT.M                         300.0 : START DEPTH
STOP.M                        2900.0 : STOP DEPTH
STEP.M                      50.00000 : STEP LENGTH
NULL.                        -999.25 : NULL VALUE
COMP.            LYLETON CORPORATION : COMPANY
WELL. LYLETON ET AL VIRGHILLS 16-9-6 : WELL
FLD .                                : FIELD
LOC .                                : LOCATION
CTRY.                         CANADA : COUNTRY
SRVC.                        Unknown : SERVICE COMPANY
DATE.                    19-Oct-1984 : LOGDATE
PROV.                        Alberta : PROVINCE
UWI .               100160906613W500 : UNIQUE WELL ID
SLAT.WGS84                  54.70177 : SURFACE LATITUDE
SLON.WGS84                 -115.8965 : SURFACE LONGITUDE
~Curve Information -----------------------------------------
DEPT   .M      : DEPTH METER
CALWS  .MM     : CALIPER [CALXSED SPL. TO CALXDED @ 2920.8 M]
CALXDED.MM     : CALIPER X FROM DENSITY LOG [ADJ. TO RESISTIVITY LOG]
CALXSED.MM     : CALIPER S FROM SONIC LOG
CALYDED.MM     : CALIPER Y FROM DENSITY LOG [ADJ. TO RESISTIVITY LOG]
CDLLSED.V/V    : DENSITY POROSITY LIMESTONE [M=2710, F=1000] FROM DENSITY LOG [ADJ. TO RESISTIVITY LOG]
CDLSSED.V/V    : DENSITY POROSITY SANDSTONE [M=2650, F=1000] FROM DENSITY LOG [ADJ. TO RESISTIVITY LOG]
CNSLSED.V/V    : NEUTRON POROSITY LIMESTONE FROM DENSITY LOG [ADJ. TO RESISTIVITY LOG]
CNSSSED.V/V    : NEUTRON POROSITY SANDSTONE FROM DENSITY LOG [ADJ. TO RESISTIVITY LOG]
CONDWS .MMHO   : CONDUCTIVITY [1000/DRESWS]
DCORWS .KG/M3  : DENSITY CORRECTION [DRHOED]
DENWS  .KG/M3  : FORMATION BULK DENSITY [CALC FROM DPOLSWS, M=2710, F=1000]
DPOLSWS.V/V    : DENSITY POROSITY LIMESTONE [CNSSED CONVERTED TO LIMESTONE MATRIX , SPL TO CNSLSED @ 2299.7 M]
DRESWS .OHMM   : DEEP RESISTIVITY [RILDED]
DRHOED .KG/M3  : DENSITY CORRECTION FROM DENSITY LOG [ADJ. TO RESISTIVITY LOG]
DTED   .US/M   : DELTA -T FROM SONIC LOG
DTWS   .US/M   : COMPRESSIONAL SONIC [DTED]
GRDED  .GAPI   : GAMMA RAY FROM DENSITY LOG [ADJ. TO RESISTIVITY LOG]
GRSED  .GAPI   : GAMMA RAY FROM SONIC LOG
GRWS   .GAPI   : GAMMA RAY [GRSED SPL. TO GRDED @ 2923 M]
MRESWS .OHMM   : MEDIUM RESISTIVITY [RILMED]
NPOLSWS.V/V    : NEUTRON POROSITY LIMESTONE [CNSSSED MATRIX CONVERSION FOR LIMESTONE, SPL. TO CNSLSED @ 2299.6 M]
RHOBED .KG/M3  : BULK DENSITY FROM DENSITY LOG [ADJ. TO RESISTIVITY LOG]
RILDED .OHMM   : DEEP RESISTIVITY FROM RESISTIVITY LOG
RILMED .OHMM   : MEDIUM RESISTIVITY FROM RESISTIVITY LOG
RLLED  .OHMM   : SHALLOW RESISTIVITY FROM RESISTIVITY LOG
SPRED  .MV     : SPONTANEOUS POTENTIAL FROM RESISTIVITY LOG
SPWS   .MV     : SPONTANEOUS POTENTIAL [BASELINE 0 MV, SPRED]
SRESWS .OHMM   : SHALLOW RESISTIVITY [RLLED]
~Params ----------------------------------------------------
PD  .                         GL : PERMANENT DATUM
EPD .M                   1167.92 : ELEVATION PERMANENT DATUM
LMF .                         KB : LOG MEASURED FROM
DAPD.M                      4.32 : FEET ABOVE PERMANENT DATUM
DMF .                         KB : DRILLING MEASURED FROM
EKB .M                   1172.24 : KELLY BUSHING
EGL .M                   1167.92 : GROUND LEVEL
DATE.                   10/19/84 : RUN DATE
RUN .                          1 : RUN NUMBER
DD  .M                      2939 : DEPTH DRILLER
DL  .M                      2936 : DEPTH LOGGER
BLI .M                    2935.4 : BOTTOM LOG INTERVAL
TLI .M                       190 : TOP LOG INTERVAL
CBD .M                       190 : CASING BOTTOM DRILLER
CBL .M                       190 : CASING BOTTOM LOGGER
BS  .MM                      200 : BIT SIZE
BSD .M                      2939 : BIT SIZE AT DEPTH
DFT .                   GEL CHEM : DRILLING FLUID TYPE
DFD .                       1140 : DRILLING FLUID DENSITY
DFV .                         65 : DRILLING FLUID VISCOSITY
DFPH.                         10 : DRILLING FLUID PH
DFL .                          9 : DRILLING FLUID LOSS
RMS .OHMM                    2.9 : RESISTIVITY MUD SAMPLE
MST .DEGC                     20 : MUD SAMPLE TEMPERATURE
RMF .OHMM                    2.4 : RESISTIVITY MUD FILTRATE SAMPLE
MFST.DEGC                     23 : MUD FILTRATE SAMPLE TEMPERATURE
RMC .OHMM                    2.4 : RESISTIVITY MUD CAKE
MCST.DEGC                     21 : MUD CAKE SAMPLE TEMPERATURE
RMB .OHMM                    1.1 : RESISTIVITY MUD AT BHT
TCS .HRS                       8 : TIME CIRCULATED STOPPED
LUN .                        321 : LOGGING UNIT NUMBER
LUL .            GRANDE PARAIRIE : LOGGING UNIT LOCATION
ENGI.                    LEWYCKY : RECORDING ENGINEER
WITN.                     GODWIN : WITNESSED BY
CLNT.                    A2DTECH : CLIENT CODE
ORIG. 6.5"/100M 16.5"/100M PRINT : ORIGIN OF DATA
UWI .           100160906613W500 : UNIQUE WELL ID
DICO.     A2D Technologies, Inc. : DIGITIZING COMPANY
~Other -----------------------------------------------------
DIL-BHC-CDCN LOG RAN
BHC RAN IN COMBINATION WITH DIL
NEUTRON POROSITY SS CONVERTED TO LS BY THE HELP OF COMPULOG/CNS CHART
~ASCII -----------------------------------------------------
# ...
 1550.00000  206.13270    -999.25  206.13270    -999.25    -999.25    -999.25    -999.25    -999.25  130.09990    -999.25    -999.25    -999.25    7.68640    -999.25  273.91170  273.91170    -999.25   44.72480   44.72480   12.79900    -999.25    -999.25    7.68640   12.79900   14.62230   21.09200  -51.30280   14.62230
 1600.00000  258.95610    -999.25  258.95610    -999.25    -999.25    -999.25    -999.25    -999.25  206.40260    -999.25    -999.25    -999.25    4.84490    -999.25  335.11070  335.11070    -999.25   51.52580   51.52580    5.80100    -999.25    -999.25    4.84490    5.80100    7.58650   47.45760  -22.81150    7.58650
 1650.00000  289.20250    -999.25  289.20250    -999.25    -999.25    -999.25    -999.25    -999.25  285.84500    -999.25    -999.25    -999.25    3.49840    -999.25  295.27920  295.27920    -999.25   79.78680   79.78680    3.98650    -999.25    -999.25    3.49840    3.98650    4.87380   59.21810  -13.79840    4.87380
 1700.00000  303.25260    -999.25  303.25260    -999.25    -999.25    -999.25    -999.25    -999.25  213.99070    -999.25    -999.25    -999.25    4.67310    -999.25  279.68340  279.68340    -999.25   79.97820   79.97820    4.90880    -999.25    -999.25    4.67310    4.90880    4.29650   70.26890   -6.96550    4.29650
 1750.00000  259.30630    -999.25  259.30630    -999.25    -999.25    -999.25    -999.25    -999.25  119.63870    -999.25    -999.25    -999.25    8.35850    -999.25  236.86090  236.86090    -999.25   79.65750   79.65750   10.07790    -999.25    -999.25    8.35850   10.07790    9.63080   68.43760   -9.51600    9.63080
 1800.00000  287.81260    -999.25  287.81260    -999.25    -999.25    -999.25    -999.25    -999.25   39.62290    -999.25    -999.25    -999.25   25.23790    -999.25  178.56260  178.56260    -999.25   42.86350   42.86350   31.80320    -999.25    -999.25   25.23790   31.80320   42.69330   66.49990  -10.00410   42.69330
 1850.00000  228.39920    -999.25  228.39920    -999.25    -999.25    -999.25    -999.25    -999.25  101.71390    -999.25    -999.25    -999.25    9.83150    -999.25  194.80620  194.80620    -999.25   15.77680   15.77680   24.11000    -999.25    -999.25    9.83150   24.11000   52.73960  -41.89580 -114.94630   52.73960
 1900.00000  277.52030    -999.25  277.52030    -999.25    -999.25    -999.25    -999.25    -999.25  516.82260    -999.25    -999.25    -999.25    1.93490    -999.25  233.56270  233.56270    -999.25   63.12910   63.12910    2.34930    -999.25    -999.25    1.93490    2.34930    3.21390   64.68510  -17.41030    3.21390
 1950.00000  246.04310    -999.25  246.04310    -999.25    -999.25    -999.25    -999.25    -999.25   40.27730    -999.25    -999.25    -999.25   24.82790    -999.25  183.16540  183.16540    -999.25   32.42240   32.42240   30.35460    -999.25    -999.25   24.82790   30.35460   47.12380   91.01580   -6.33180   47.12380
 2000.00000  217.83860    -999.25  217.83860    -999.25    -999.25    -999.25    -999.25    -999.25   55.58150    -999.25    -999.25    -999.25   17.99160    -999.25  183.89580  183.89580    -999.25   36.70680   36.70680   23.89770    -999.25    -999.25   17.99160   23.89770   31.28190   73.36910  -17.51240   31.28190
 2050.00000  249.52280    -999.25  249.52280    -999.25    -999.25    -999.25    -999.25    -999.25   60.34780    -999.25    -999.25    -999.25   16.57060    -999.25  202.85060  202.85060    -999.25   52.47320   52.47320   25.44250    -999.25    -999.25   16.57060   25.44250   32.20970   77.23960   -5.08340   32.20970
 2100.00000  263.35080    -999.25  263.35080    -999.25    -999.25    -999.25    -999.25    -999.25   34.51270    -999.25    -999.25    -999.25   28.97480    -999.25  172.91850  172.91850    -999.25   36.56160   36.56160   35.88900    -999.25    -999.25   28.97480   35.88900   58.40870   47.15290   -5.63760   58.40870
 2150.00000  238.51390    -999.25  238.51390    -999.25    -999.25    -999.25    -999.25    -999.25   34.06680    -999.25    -999.25    -999.25   29.35410    -999.25  171.17060  171.17060    -999.25   15.99450   15.99450   52.42510    -999.25    -999.25   29.35410   52.42510  264.36760  -43.60940  -94.04260  264.36760
 2200.00000  237.58710    -999.25  237.58710    -999.25    -999.25    -999.25    -999.25    -999.25   30.73490    -999.25    -999.25    -999.25   32.53630    -999.25  166.88100  166.88100    -999.25   13.08360   13.08360   53.26830    -999.25    -999.25   32.53630   53.26830  242.34880  -46.59870  -94.67460  242.34880
 2250.00000  246.32240    -999.25  246.32240    -999.25    -999.25    -999.25    -999.25    -999.25   13.63250    -999.25    -999.25    -999.25   73.35390    -999.25  160.68930  160.68930    -999.25   13.61910   13.61910  131.10460    -999.25    -999.25   73.35390  131.10460  314.20040   -9.84030  -55.55880  314.20040
 2300.00000  221.73510  223.96120  221.73510  231.41520    0.01320    -999.25    0.00700    -999.25   38.89670   27.64760 2687.42800    0.01320   25.70910   27.64760  163.20120  163.20120   15.74120   15.38090   15.38090   51.94300    0.00700 2690.15330   25.70910   51.94300  124.31220  -68.88510 -112.24630  124.31220
 2350.00000  239.24720  223.72390  239.24720    -999.25    0.20240    -999.25    -999.25    -999.25   36.58840  -43.27920 2363.89600    0.20240   27.33110  -43.27920  154.56270  154.56270    -999.25   25.83210   25.83210   40.02130    -999.25 2083.01270   27.33110   40.02130  239.41530  -56.98540  -97.98930  239.41530
 2400.00000  257.04070    -999.25  257.04070    -999.25    -999.25    -999.25    -999.25    -999.25   46.74050    -999.25    -999.25    -999.25   21.39470    -999.25  188.44300  188.44300    -999.25   47.54800   47.54800   24.23100    -999.25    -999.25   21.39470   24.23100   31.25090   27.14660  -11.50000   31.25090
 2450.00000  248.66940    -999.25  248.66940    -999.25    -999.25    -999.25    -999.25    -999.25  242.66540    -999.25    -999.25    -999.25    4.12090    -999.25  244.89630  244.89630    -999.25   79.21400   79.21400    4.81930    -999.25    -999.25    4.12090    4.81930    6.13730   36.92760  -15.66210    6.13730
 2500.00000  360.93230    -999.25  360.93230    -999.25    -999.25    -999.25    -999.25    -999.25  290.57100    -999.25    -999.25    -999.25    3.44150    -999.25  262.84330  262.84330    -999.25   72.96840   72.96840    3.56140    -999.25    -999.25    3.44150    3.56140    4.63780   28.67960  -40.42700    4.63780
 2550.00000  398.18710    -999.25  398.18710    -999.25    -999.25    -999.25    -999.25    -999.25  313.76490    -999.25    -999.25    -999.25    3.18710    -999.25  275.68480  275.68480    -999.25   78.32560   78.32560    3.02040    -999.25    -999.25    3.18710    3.02040    4.14190    6.64860  -60.45440    4.14190
 2600.00000  243.68280    -999.25  243.68280    -999.25    -999.25    -999.25    -999.25    -999.25  135.73860    -999.25    -999.25    -999.25    7.36710    -999.25  215.06570  215.06570    -999.25   69.18340   69.18340    9.10050    -999.25    -999.25    7.36710    9.10050   11.48430   55.22810   -5.78130   11.48430
 2650.00000  285.53440    -999.25  285.53440    -999.25    -999.25    -999.25    -999.25    -999.25  299.17730    -999.25    -999.25    -999.25    3.34250    -999.25  261.72340  261.72340    -999.25   87.92840   87.92840    3.75350    -999.25    -999.25    3.34250    3.75350    5.91110   13.15360  -33.15430    5.91110
 2700.00000  299.83940    -999.25  299.83940    -999.25    -999.25    -999.25    -999.25    -999.25  253.73630    -999.25    -999.25    -999.25    3.94110    -999.25  263.04370  263.04370    -999.25  100.88210  100.88210    4.07740    -999.25    -999.25    3.94110    4.07740    6.48420   20.45980  -19.98820    6.48420
 2750.00000  212.01880    -999.25  212.01880    -999.25    -999.25    -999.25    -999.25    -999.25   54.35460    -999.25    -999.25    -999.25   18.39770    -999.25  186.77570  186.77570    -999.25   40.37060   40.37060   25.46980    -999.25    -999.25   18.39770   25.46980   34.63950   69.74810   -6.14950   34.63950
