~Version ---------------------------------------------------
VERS.      2.0 : CWLS log ASCII Standard -VERSION 2.0
WRAP.       NO : One line per depth step
CREA. 08/01/17 : LAS Creation Date
~Well ------------------------------------------------------
STRT.FT                1050.0 : START DEPTH
STOP.FT               10150.0 : STOP DEPTH
STEP.FT              50.00000 : STEP LENGTH
NULL.                 -999.25 : NULL VALUE
COMP.  THE ADAPTABLE TOOL CO. : COMPANY
WELL. B.A. TWO FOX 2-21-63-17 : WELL
FLD .                      WC : FIELD
LOC .                         : LOCATION
CTRY.                  CANADA : COUNTRY
SRVC.            Schlumberger : SERVICE COMPANY
DATE.             31-Mar-1960 : LOGDATE
PROV.                 Alberta : PROVINCE
UWI .        100022106317W500 : UNIQUE WELL ID
SLAT.WGS84           54.45975 : SURFACE LATITUDE
SLON.WGS84          -116.5047 : SURFACE LONGITUDE
~Curve Information -----------------------------------------
DEPT  .FT         : Depth Curve
CALWS .IN         : CALIPER [MCALED]
CILDED.MMHO       : CONDUCTIVITY FROM IEL LOG
CONDWS.MMHO       : CONDUCTIVITY [1000/DRESWS]
DRESWS.OHMM       : DEEP RESISTIVITY [1000/CILDED IF ILDED<4, ILDED]
DTED  .US/F       : DELTA-T FROM BCS LOG
DTWS  .US/F       : COMPRESSIONAL SONIC [DTED]
GRSED .UgRa-Eq/T  : GAMMA RAY FROM BCS LOG
GRWS  .GAPI       : GAMMA RAY [GRSED]
ILDED .OHMM       : DEEP INDUCTION FROM IEL LOG
MCALED.IN         : MICRO CALIPER FROM MICRO LOG
SNED  .OHMM       : SHORT NORMAL FROM IEL LOG
SPRED .MV         : SPONTANEOUS POTENTIAL FROM IEL LOG
SPWS  .MV         : SPONTANEOUS POTENTIAL [BASELINE 0 MV, SPRED]
SRESWS.OHMM       : SHALLOW RESISTIVITY [SNED]
~Params ----------------------------------------------------
LMF .                     KB : LOG MEASURED FROM
DMF .                     KB : DRILLING MEASURED FROM
EKB .FT                 3069 : KELLY BUSHING
DATE.               03/31/60 : RUN DATE
RUN .                      2 : RUN NUMBER
DD  .FT                10188 : DEPTH DRILLER
DL  .FT                10189 : DEPTH LOGGER
BLI .FT                10184 : BOTTOM LOG INTERVAL
TLI .FT                 6100 : TOP LOG INTERVAL
CBD .FT                 1060 : CASING BOTTOM DRILLER
BS  .IN                    9 : BIT SIZE
BSD .FT                10188 : BIT SIZE AT DEPTH
DFT .                    GEL : DRILLING FLUID TYPE
DFD .                    9.6 : DRILLING FLUID DENSITY
DFV .                    127 : DRILLING FLUID VISCOSITY
DFPH.                    9.5 : DRILLING FLUID PH
DFL .                    5.9 : DRILLING FLUID LOSS
RMS .OHMM                2.4 : RESISTIVITY MUD SAMPLE
MST .DEGF                 70 : MUD SAMPLE TEMPERATURE
RMF .OHMM                1.1 : RESISTIVITY MUD FILTRATE SAMPLE
MFST.DEGF                 74 : MUD FILTRATE SAMPLE TEMPERATURE
RMC .OHMM               2.19 : RESISTIVITY MUD CAKE
MCST.DEGF                 73 : MUD CAKE SAMPLE TEMPERATURE
RMB .OHMM               0.99 : RESISTIVITY MUD AT BHT
TCS .HRS                 4.5 : TIME CIRCULATED STOPPED
LUN .                  15250 : LOGGING UNIT NUMBER
LUL .                     DC : LOGGING UNIT LOCATION
ENGI.              HAUSEGGER : RECORDING ENGINEER
WITN.                    MAY : WITNESSED BY
CLNT.                A2DTECH : CLIENT CODE
ORIG.            2" 5" PRINT : ORIGIN OF DATA
UWI .       100022106317W500 : UNIQUE WELL ID
DICO. A2D Technologies, Inc. : DIGITIZING COMPANY
~Other -----------------------------------------------------
~ASCII -----------------------------------------------------
 1050.00000    -999.25    -999.25    -999.25    -999.25    -999.25    -999.25    2.88620   47.62230    -999.25    -999.25    -999.25    -999.25    -999.25    -999.25
 1100.00000    9.65900   97.75330  128.21010    7.79970  116.73230  116.73230    4.82780   79.65790    7.79970    9.65900    8.97020  -56.85240   -5.96370    8.97020
 1150.00000   14.67500  211.16790  211.16790    4.73560  113.84390  113.84390    6.14820  101.44530    3.16880   14.67500    4.81610  -56.77270   -5.64490    4.81610
 1200.00000   12.36270  208.18320  208.18320    4.80350  133.44900  133.44900    4.95980   81.83670    3.39340   12.36270    4.84960  -56.03740   -4.66900    4.84960
 1250.00000   12.57610  224.03150  224.03150    4.46370  120.96540  120.96540    5.71030   94.21990    3.09940   12.57610    5.18180  -55.63080   -4.02320    5.18180
 1300.00000    9.93030   71.46590   93.48420   10.69700  104.52830  104.52830    4.21070   69.47660   10.69700    9.93030   12.33050  -59.67370   -7.82700   12.33050
 1350.00000   10.52300  155.83870  201.85710    4.95400  115.25800  115.25800    5.89310   97.23530    4.95400   10.52300    6.28360  -55.58960   -3.50230    6.28360
 1400.00000   13.89020  439.50670  439.50670    2.27530  118.04470  118.04470    8.38520  138.35580    1.56340   13.89020    2.89760  -53.92520   -1.59880    2.89760
 1450.00000   14.78030  245.13470  245.13470    4.07940  113.47040  113.47040    4.77820   78.84110    2.87100   14.78030    4.51690  -53.92060   -1.35350    4.51690
 1500.00000   10.99810  196.64370  196.64370    5.08530  124.54940  124.54940    5.72160   94.40640    3.85140   10.99810    5.58090  -54.53600   -1.72980    5.58090
 1550.00000   14.77390  267.94310  267.94310    3.73210  139.40390  139.40390    4.81910   79.51510    2.44710   14.77390    3.68170  -56.62060   -3.57530    3.68170
 1600.00000    9.89900  161.53080  246.03880    4.06440  125.33870  125.33870    4.86380   80.25270    4.06440    9.89900    5.49570  -56.62010   -3.33410    5.49570
 1650.00000    9.14830   96.63340  128.79130    7.76450  108.74320  108.74320    3.71070   61.22660    7.76450    9.14830   10.53040  -65.57260  -12.04750   10.53040
 1700.00000   13.97300  211.67880  211.67880    4.72410  153.38840  153.38840    1.57600   26.00400    3.23640   13.97300    5.90920  -59.70210   -5.93630    5.90920
 1750.00000   12.63110  212.82770  212.82770    4.69860  110.34170  110.34170    5.89830   97.32200    3.38560   12.63110    5.12280  -58.62680   -4.62190    5.12280
 1800.00000   11.62760  181.46300  181.46300    5.51080  116.28870  116.28870    5.64250   93.10130    3.83820   11.62760    5.31280  -58.62180   -4.37780    5.31280
 1850.00000    9.44950  107.08580  140.72020    7.10630  108.70870  108.70870    5.85020   96.52830    7.10630    9.44950    8.89740  -58.49360   -4.00900    8.89740
 1900.00000    9.10950  128.49720  169.29640    5.90680  129.39540  129.39540    4.98470   82.24760    5.90680    9.10950    7.76180  -58.51570   -3.79200    7.76180
 1950.00000   12.27420  285.20220  285.20220    3.50630  101.66500  101.66500    4.81870   79.50850    2.18040   12.27420    3.85730  -58.81190   -3.84750    3.85730
 2000.00000    9.12820  108.15520  135.28320    7.39190  127.41690  127.41690    5.60140   92.42310    7.39190    9.12820   10.59520  -60.80820   -5.60470   10.59520
 2050.00000   13.36850  306.43480  306.43480    3.26330  126.72390  126.72390    4.82840   79.66860    2.30320   13.36850    3.56020  -60.48850   -5.04590    3.56020
 2100.00000    8.67560  128.05480  188.23180    5.31260  101.64110  101.64110    4.06510   67.07330    5.31260    8.67560    7.53100  -74.73620  -19.05290    7.53100
 2150.00000   10.74040  222.30020  222.30020    4.49840  105.73780  105.73780    5.19270   85.67960    3.16580   10.74040    4.42910  -60.35400   -4.43160    4.42910
 2200.00000    9.42830  191.14720  191.14720    5.23160  103.57620  103.57620    4.15070   68.48570    3.26510    9.42830    5.00630  -61.96570   -5.80260    5.00630
 2250.00000    9.33350  186.46280  222.48430    4.49470  112.73410  112.73410    5.36390   88.50440    4.49470    9.33350    6.33450  -62.56700   -5.99540    6.33450
 2300.00000    9.01750   94.24950  127.58850    7.83770  108.22270  108.22270    3.34950   55.26680    7.83770    9.01750    9.75620  -68.08910  -10.99230    9.75620
 2350.00000   10.11910  194.94450  194.94450    5.12970  104.73360  104.73360    4.43170   73.12220    3.52340   10.11910    4.93200  -61.04770   -3.42220    4.93200
 2400.00000    8.80030  101.58540  146.23300    6.83840   99.54940   99.54940    3.04890   50.30690    6.83840    8.80030    9.12450  -71.51920  -13.36850    9.12450
 2450.00000    8.78170   52.89680   79.23680   12.62040  108.38880  108.38880    3.66600   60.48980   12.62040    8.78170   16.19210  -76.98380  -18.30440   16.19210
 2500.00000   12.15970  252.57870  252.57870    3.95920  105.82980  105.82980    2.89940   47.84010    2.76620   12.15970    5.12840  -59.41890   -0.21430    5.12840
 2550.00000    8.68120   67.89640   81.09840   12.33070   99.84950   99.84950    2.90830   47.98700   12.33070    8.68120   15.81330  -79.02910  -19.29920   15.81330
 2600.00000   11.30430  197.05430  197.05430    5.07470  118.43250  118.43250    3.97580   65.59990    3.52640   11.30430    5.15410  -62.36170   -2.10310    5.15410
 2650.00000   11.76350  205.53990  205.53990    4.86520   90.98980   90.98980    3.46060   57.09990    3.40680   11.76350    5.37800  -64.41840   -3.63460    5.37800
 2700.00000    8.62820   59.28640   79.22740   12.62190   79.71990   79.71990    3.03610   50.09560   12.62190    8.62820   15.74900  -81.85600  -20.54350   15.74900
 2750.00000   12.56990  208.87620  208.87620    4.78750  114.75070  114.75070    3.84330   63.41450    3.40260   12.56990    4.87830  -65.36630   -3.52860    4.87830
 2800.00000    8.49110   61.49730   99.45200   10.05510  101.74430  101.74430    3.14180   51.83970   10.05510    8.49110   19.60050  -81.34090  -18.97800   19.60050
 2850.00000    9.07620   65.60230   88.78630   11.26300   85.80660   85.80660    2.49720   41.20300   11.26300    9.07620   15.76340  -71.14810   -8.25650   15.76340
 2900.00000    9.24080   55.52490   69.66120   14.35520   88.27180   88.27180    3.86590   63.78730   14.35520    9.24080   18.14360  -82.49300  -19.07620   18.14360
 2950.00000    9.59860  100.01800  138.72130    7.20870   96.81610   96.81610    3.86160   63.71640    7.20870    9.59860    8.89800  -68.32950   -4.38400    8.89800
 3000.00000   10.21890  190.96450  190.96450    5.23660   93.22180   93.22180    2.81680   46.47720    3.58160   10.21890    5.62160  -67.76520   -3.29450    5.62160
 3050.00000   12.71640  195.77900  195.77900    5.10780  105.18940  105.18940    4.21290   69.51290    3.86580   12.71640    5.84580  -69.15700   -4.16100    5.84580
 3100.00000    8.63120   57.92220   75.84150   13.18540   87.54270   87.54270    3.07020   50.65910   13.18540    8.63120   20.15330  -91.49830  -25.98980   20.15330
 3150.00000    9.19470   99.20910  142.19490    7.03260  100.34630  100.34630    4.59850   75.87520    7.03260    9.19470    9.67970  -69.69370   -3.71020    9.67970
 3200.00000    9.56590   98.59710  132.73870    7.53360   85.57170   85.57170    3.20860   52.94190    7.53360    9.56590   10.30550  -71.65520   -5.19350   10.30550
 3250.00000   12.05160  161.77870  212.99250    4.69500   99.12670   99.12670    4.59820   75.87030    4.69500   12.05160    6.35520  -70.19560   -3.25880    6.35520
 3300.00000   10.95460  111.21880  147.74100    6.76860   99.26780   99.26780    4.64270   76.60450    6.76860   10.95460    9.54180  -73.00560   -5.59380    9.54180
 3350.00000   11.72530  118.73960  162.01940    6.17210   88.58400   88.58400    6.50130  107.27060    6.17210   11.72530    8.57120  -76.51490   -8.62490    8.57120
 3400.00000   12.21640  120.79440  165.94210    6.02620   96.65230   96.65230    5.06530   83.57740    6.02620   12.21640    8.61630  -75.26520   -6.90020    8.61630
 3450.00000   11.80950  135.67350  179.33360    5.57620  104.50020  104.50020    6.20400  102.36600    5.57620   11.80950    8.31090  -75.78560   -6.94240    8.31090
