~Version ---------------------------------------------------
VERS.      2.0 : CWLS log ASCII Standard -VERSION 2.0
WRAP.       NO : One line per depth step
CREA. 11/19/14 : LAS Creation Date
~Well ------------------------------------------------------
STRT.M                               400.0 : START DEPTH
STOP.M                              2600.0 : STOP DEPTH
STEP.M                            50.00000 : STEP LENGTH
NULL.                              -999.25 : NULL VALUE
COMP.        TERRAQUEST ENERGY CORPORATION : COMPANY
WELL. TERRAQUEST ET AL MCLEANSC 11-4-74-21 : WELL
FLD .                                      : FIELD
LOC .                                      : LOCATION
CTRY.                               CANADA : COUNTRY
SRVC.                       REEVES COMPACT : SERVICE COMPANY
DATE.                          20-Dec-2002 : LOGDATE
PROV.                              Alberta : PROVINCE
UWI .                     100110407421W500 : UNIQUE WELL ID
SLAT.WGS84                        55.38264 : SURFACE LATITUDE
SLON.WGS84                       -117.1674 : SURFACE LONGITUDE
~Curve Information -----------------------------------------
DEPT    .M      : Depth Curve
CALWS   .MM     : CALIPER [CALXDED]
CALXDED .MM     : CALIPER  X AXIS  FROM DENSITY LOG
CALYDED .MM     : CALIPER  Y AXIS  FROM DENSITY LOG
CONDWS  .MMHO   : CONDUCTIVITY [1000/DRESWS]
DCORED  .KG/M3  : DENSITY CORRECTION [G/C3*1000] FROM DENSITY LOG
DCORWS  .KG/M3  : DENSITY CORRECTION [DCORED]
DENED   .KG/M3  : COMPENSATED BULK DENSITY [G/C3*1000] FROM DENSITY LOG [ADJ. TO DPHISSED/DPHILSED]
DENWS   .KG/M3  : DFORMATION BULK DENSITY [CALC. FROM DPOLSWS, M=2710, F=1000]
DPHILSED.V/V    : DENSITY POROSITY L.IMESTONE [M=2710, F=1000] FROM DENSITY LOG
DPOLSWS .V/V    : DENSITY POROSITY LIMESTONE [DPORSSED CONVERTED TO LIMESTONE MATRIX , M=2710, F=1000 SPL. TO DPHILSED @ 1200.6 M]
DPORSSED.V/V    : DENSITY POROSITY SANDSTONE [M=2650, F= 1000] FROM DENSITY LOG
DRESWS  .OHMM   : DEEP RESISTIVITY [ILDED]
DTED    .US/M   : DELTA TIME FROM SONIC LOG
DTWS    .US/M   : COMPRESSIONAL SONIC [DTED]
GRDED   .GAPI   : GAMMA RAY FROM DENSITY LOG
GRED    .GAPI   : GAMMA RAY FROM CASED HOLE CBL LOG [ADJ. TO RESISTVITY LOG]
GRWS    .GAPI   : GAMMA RAY [GRED SPL. TO GRDED @ 430.2 M]
ILDED   .OHMM   : DEEP INDUCTION RESISTIVITY FROM RESISTIVITY LOG
ILMED   .OHMM   : MEDIUM INDUCTION RESISTIVITY FROM RESISTIVITY LOG
MRESWS  .OHMM   : MEDIUM RESISTIVITY [ILMED]
NPOLSWS .V/V    : NEUTRON POROSITY LIMESTONE [NPORSSED MATRIX  CONVERSION FOR LIMESTONE , SPL. TO NPORLSED @ 1199.9 M]
NPORLSED.V/V    : NEUTRON POROSITY LIMESTONE FROM DENSITY LOG
NPORSSED.V/V    : NEUTRON POROSITY SANDSTONE FROM DENSITY LOG
PEED    .B/E    : PHOTO ELECTRIC CROSS SECTION FROM DENSITY LOG
PEFWS   .B/E    : PHOTOELCTRIC FACTOR [PEED]
SFEED   .OHMM   : SHALLOW FOCUSSED ELECTRIC FROM RESISTIVITY LOG
SPRED   .MV     : SPONTANEOUS POTENTIAL FROM RESISTIVITY LOG
SPWS    .MV     : SPONTANEOUS POTENTIAL [BASELINE 0 MV, SPRED]
SRESWS  .OHMM   : SHALLOW RESISTIVITY [SFEED]
TENDED  .N      : TENSION [KG*9.80665002864] FROM DENSITY LOG
~Params ----------------------------------------------------
PD  .                         GL : PERMANENT DATUM
EPD .M                     633.6 : ELEVATION PERMANENT DATUM
LMF .                         KB : LOG MEASURED FROM
DAPD.M                       5.1 : FEET ABOVE PERMANENT DATUM
DMF .                         KB : DRILLING MEASURED FROM
EKB .M                     638.7 : KELLY BUSHING
EGL .M                     633.6 : GROUND LEVEL
DATE.                   12/20/02 : RUN DATE
RUN .                          1 : RUN NUMBER
DD  .M                      2640 : DEPTH DRILLER
DL  .M                    2640.3 : DEPTH LOGGER
BLI .M                    2639.2 : BOTTOM LOG INTERVAL
TLI .M                       459 : TOP LOG INTERVAL
CS  .MM                    219.1 : CASING SIZE
CBD .M                       459 : CASING BOTTOM DRILLER
CBL .M                     459.5 : CASING BOTTOM LOGGER
BS  .MM                      200 : BIT SIZE
BSD .M                      2640 : BIT SIZE AT DEPTH
DFT .                   GEL CHEM : DRILLING FLUID TYPE
DFD .                       1100 : DRILLING FLUID DENSITY
DFV .                         70 : DRILLING FLUID VISCOSITY
DFPH.                       10.5 : DRILLING FLUID PH
DFL .                          6 : DRILLING FLUID LOSS
MSS .                   FLOWLINE : MUD SAMPLE SOURCE
RMS .OHMM                    1.1 : RESISTIVITY MUD SAMPLE
MST .DEGC                     25 : MUD SAMPLE TEMPERATURE
RMF .OHMM                    0.9 : RESISTIVITY MUD FILTRATE SAMPLE
MFST.DEGC                     25 : MUD FILTRATE SAMPLE TEMPERATURE
RMC .OHMM                    1.0 : RESISTIVITY MUD CAKE
MCST.DEGC                     25 : MUD CAKE SAMPLE TEMPERATURE
MFSS.                      PRESS : MUD FILTRATE SAMPLE SOURCE
MCSS.                     FILTER : MUD CAKE SAMPLE SOURCE
RMB .OHMM                   0.53 : RESISTIVITY MUD AT BHT
TCS .HRS                     6.5 : TIME CIRCULATED STOPPED
LUN .                       1058 : LOGGING UNIT NUMBER
LUL .                        WCT : LOGGING UNIT LOCATION
ENGI.                     BRETON : RECORDING ENGINEER
WITN.                     WATTON : WITNESSED BY
CLNT.                    A2DTECH : CLIENT CODE
ORIG. 6.5"/100M 16.5"/100M PRINT : ORIGIN OF DATA
UWI .           100110407421W500 : UNIQUE WELL ID
DICO.     A2D Technologies, Inc. : DIGITIZING COMPANY
~Other -----------------------------------------------------
AIS-CNS-PDS-CSS LOG RUN IC COMBO & CBL LOG RUN
RHOB VERIFIED FROM 2" SECTION.
~ASCII -----------------------------------------------------
# ...
 1600.00000  211.63070  211.63070  215.42600   92.31650   -1.10000   -1.10000 2592.40000 2589.95800    0.07020    0.07020    -999.25   10.83230  184.64790  184.64790   17.11670    -999.25   17.11670   10.83230   11.54470   11.54470    0.09100    0.09100    -999.25    4.60240    4.60240   24.75840 -113.06370  -77.24690   24.75840 18248.63700
 1650.00000  218.84540  218.84540  221.65780  191.90540    0.20000    0.20000 2641.30000 2639.54800    0.04120    0.04120    -999.25    5.21090  225.81820  225.81820   62.63700    -999.25   62.63700    5.21090    6.17210    6.17210    0.15760    0.15760    -999.25    3.83210    3.83210    7.84010  -39.30150   -4.28110    7.84010 18677.11310
 1700.00000  206.44320  206.44320  212.09690   66.94160   96.50000   96.50000 2650.70000 2640.57400    0.04060    0.04060    -999.25   14.93840  197.36740  197.36740   42.74700    -999.25   42.74700   14.93840   16.04820   16.04820    0.08000    0.08000    -999.25    3.92090    3.92090   53.55750  -40.48350  -10.25390   53.55750 19290.11800
 1750.00000  202.77490  202.77490  208.21060   55.38600    3.50000    3.50000 2669.40000 2671.52500    0.02250    0.02250    -999.25   18.05510  190.67870  190.67870   38.97900    -999.25   38.97900   18.05510   19.67280   19.67280    0.07700    0.07700    -999.25    3.82670    3.82670   33.65930  -39.91810   -8.73120   33.65930 19629.43790
 1800.00000  200.15530  200.15530  206.50740   29.77110   11.50000   11.50000 2681.80000 2682.81100    0.01590    0.01590    -999.25   33.58960  181.18960  181.18960   27.02570    -999.25   27.02570   33.58960   43.05190   43.05190    0.05680    0.05680    -999.25    4.01900    4.01900   58.75870  -38.77470   -8.10480   58.75870 19965.38630
 1850.00000  241.50290  241.50290  290.13200  226.31090  111.50000  111.50000 2484.50000 2483.59600    0.13240    0.13240    -999.25    4.41870  266.48860  266.48860  120.29640    -999.25  120.29640    4.41870    4.31470    4.31470    0.34410    0.34410    -999.25    2.79170    2.79170    5.17680  -57.19570  -25.69880    5.17680 20551.41990
 1900.00000  200.02720  200.02720  204.02400    2.87950   19.30000   19.30000 2641.40000 2642.45500    0.03950    0.03950    -999.25  347.28510  163.49990  163.49990   18.56930    -999.25   18.56930  347.28510  599.67370  599.67370    0.03210    0.03210    -999.25    4.55340    4.55340  439.79470 -112.04380  -81.24910  439.79470 21043.07430
 1950.00000  200.19330  200.19330  203.30000    3.23510   -3.00000   -3.00000 2667.00000 2671.69600    0.02240    0.02240    -999.25  309.11120  162.99080  162.99080   10.82280    -999.25   10.82280  309.11120  590.67870  590.67870    0.02850    0.02850    -999.25    4.22400    4.22400  273.42030 -138.67300 -109.17720  273.42030 21512.80700
 2000.00000  200.33970  200.33970  204.90810   15.57040   -6.60000   -6.60000 2657.20000 2652.88600    0.03340    0.03340    -999.25   64.22430  171.76470  171.76470   14.25300    -999.25   14.25300   64.22430   55.60240   55.60240    0.06380    0.06380    -999.25    4.21650    4.21650   54.21630 -117.56580  -89.36890   54.21630 21864.44600
 2050.00000  200.45460  200.45460  203.79680    1.22290    2.80000    2.80000 2701.70000 2703.33100    0.00390    0.00390    -999.25  817.75270  160.80020  160.80020   11.75890    -999.25   11.75890  817.75270 1989.83110 1989.83110    0.02050    0.02050    -999.25    4.60680    4.60680  888.21680 -137.27270 -110.39690  888.21680 22099.12300
 2100.00000  196.33780  196.33780  204.06800   50.54030   15.10000   15.10000 2617.20000 2621.76400    0.05160    0.05160    -999.25   19.78620  168.77660  168.77660    8.19640    -999.25    8.19640   19.78620   24.58620   24.58620    0.04300    0.04300    -999.25    4.42020    4.42020   75.14490 -145.80250 -120.19410   75.14490 22625.89310
 2150.00000  199.76760  199.76760  203.83390    8.87870   29.60000   29.60000 2749.20000 2745.56800   -0.02080   -0.02080    -999.25  112.62930  159.34260  159.34260   24.44180    -999.25   24.44180  112.62930  198.71590  198.71590    0.09100    0.09100    -999.25    2.47370    2.47370  160.33820 -106.07290  -81.80600  160.33820 23122.84320
 2200.00000  202.16990  202.16990  205.06750   24.41570    3.10000    3.10000 2699.00000 2695.80700    0.00830    0.00830    -999.25   40.95730  174.68430  174.68430   27.58490    -999.25   27.58490   40.95730   43.33330   43.33330    0.06740    0.06740    -999.25    3.71240    3.71240   44.05800  -57.99180  -35.00990   44.05800 23406.21810
 2250.00000  216.91380  216.91380  255.07400   99.84130  180.90000  180.90000 2454.30000 2455.38100    0.14890    0.14890    -999.25   10.01590  224.99190  224.99190   68.43040    -999.25   68.43040   10.01590   10.58940   10.58940    0.19460    0.19460    -999.25    3.24390    3.24390   13.78660  -46.71910  -26.30200   13.78660 24111.88800
 2300.00000  221.99250  221.99250  266.39940  196.24000  118.00000  118.00000 2527.90000 2529.25300    0.10570    0.10570    -999.25    5.09580  263.89910  263.89910  110.30140    -999.25  110.30140    5.09580    5.27140    5.27140    0.32490    0.32490    -999.25    3.00590    3.00590    6.70800  -45.77780  -29.15050    6.70800 24407.00440
 2350.00000  205.02280  205.02280  255.64440  136.08770  125.90000  125.90000 2595.20000 2600.04700    0.06430    0.06430    -999.25    7.34820  244.01880  244.01880   95.30780    -999.25   95.30780    7.34820    7.65290    7.65290    0.24790    0.24790    -999.25    3.11960    3.11960    9.21820  -35.42340  -22.58600    9.21820 24793.76790
 2400.00000  201.89170  201.89170  209.30700   86.35730   26.80000   26.80000 2694.40000 2694.95200    0.00880    0.00880    -999.25   11.57980  217.62880  217.62880   86.66540    -999.25   86.66540   11.57980   12.42320   12.42320    0.15410    0.15410    -999.25    3.94150    3.94150   14.66660  -23.64080  -14.59320   14.66660 25298.00620
 2450.00000  210.41650  210.41650  220.74960  132.71750  193.00000  193.00000 2500.10000 2508.56200    0.11780    0.11780    -999.25    7.53480  246.71690  246.71690  108.66130    -999.25  108.66130    7.53480    8.16030    8.16030    0.23930    0.23930    -999.25    2.98560    2.98560   11.04890  -34.73930  -22.59210   11.04890 25567.92640
 2500.00000  200.23230  200.23230  203.62010   26.31990   17.70000   17.70000 2521.20000 2520.19000    0.11100    0.11100    -999.25   37.99410  263.66760  263.66760  138.91700    -999.25  138.91700   37.99410   50.46870   50.46870    0.19780    0.19780    -999.25    2.69960    2.69960   53.40960  -24.66190  -14.71860   53.40960 25781.54660
 2550.00000  199.82750  199.82750  201.31180   44.57980   11.20000   11.20000 2687.10000 2686.06000    0.01400    0.01400    -999.25   22.43170  184.25000  184.25000   80.33990    -999.25   80.33990   22.43170   23.28150   23.28150    0.05360    0.05360    -999.25    4.21360    4.21360   32.84510  -27.04810  -20.70090   32.84510 26380.34850
 2600.00000  199.45700  199.45700  202.41940    2.98970   -3.20000   -3.20000 2685.60000 2689.65100    0.01190    0.01190    -999.25  334.48610  165.11450  165.11450   20.31660    -999.25   20.31660  334.48610 2021.32510 2021.32510    0.03450    0.03450    -999.25    3.99990    3.99990  686.86080  -69.77720  -66.39930  686.86080 26422.15820
