~Version ---------------------------------------------------
VERS. 2.0 : CWLS log ASCII Standard -VERSION 2.0
WRAP.  NO : ONE LINE PER DEPTH STEP
~Well ------------------------------------------------------
STRT.F                      557.7428 : START DEPTH
STOP.F                    10838.7428 : STOP DEPTH
STEP.F                       0.50000 : STEP LENGTH
NULL.                        -999.25 : NULL VALUE
COMP.           PETROFINA CANADA LTD : COMPANY
WELL. FINA AMOCO HB FOXCK 6-35-60-18 : WELL
FLD .                                : FIELD
LOC .                                : LOCATION
CTRY.                         CANADA : COUNTRY
SRVC.         Schlumberger of Canada : SERVICE COMPANY
DATE.                    29-Aug-1976 : LOGDATE
PROV.                        Alberta : PROVINCE
UWI .               100063506018W500 : UNIQUE WELL ID
SLAT.WGS84                  54.22952 : SURFACE LATITUDE
SLON.WGS84                 -116.5928 : SURFACE LONGITUDE
~Curve Information -----------------------------------------
DEPT   .F                 : 
SPR    .MV                : SPONTANEOUS POTENTIAL FROM RESISTIVITY
ILD    .OHMM              : DEEP INDUCTION RESISTIVITY
ILM    .OHMM              : INDUCTION MEDIUM RESISTIVITY
LL8    .OHMM              : LATEROLOG-8 RESISTIVITY
CALD   .IN   70 280 01 00 : CALIPER
DCOR   .G/C3 45 356 01 00 : DENSITY CORRECTION
GRD    .GAPI 45 310 01 00 : GAMMA RAY FROM DENSITY LOG
RHOB   .G/C3 45 350 01 00 : BULK DENSITY
DPOR_SS.DEC               : DENSITY POROSITY SANDSTONE
NPOR_S .DEC               : ENCHANCED THERMAL NEUTRON POROSITY IN SELECTED LITHOLOGY SANDSTONE
DPOR_LS.DEC               : DENSITY POROSITY LIMESTONE
NPOR_LS.DEC               : ENCHANCED THERMAL NEUTRON POROSITY IN SELECTED LITHOLOGY SANDSTONE
DT     .US/F 60 520 00 00 : ACOUSTIC TRANSIT TIME SLOWNESS, DELTA T
CALS   .IN                : 
GRS    .GAPI              : GAMMA RAY FROM SONIC LOG
GR     .GAPI              : GAMMA RAY
~Params ----------------------------------------------------
PD  .                     GL : PERMANENT DATUM
EPD .FT                 3085 : ELEVATION PERMANENT DATUM
LMF .                     KB : LOG MEASURED FROM
DAPD.FT                 15.7 : FEET ABOVE PERMANENT DATUM
EKB .FT               3100.9 : KELLY BUSHING
EDF .FT               3085.2 : DRILLING FLOOR
EGL .FT               3085.5 : GROUND LEVEL
DATE.               08/29/76 : RUN DATE
RUN .                      1 : RUN NUMBER
DD  .FT                10843 : DEPTH DRILLER
DL  .FT                10840 : DEPTH LOGGER
BLI .FT                10834 : BOTTOM LOG INTERVAL
TLI .FT                 1119 : TOP LOG INTERVAL
CBD .FT                 1119 : CASING BOTTOM DRILLER
CBL .FT                 1119 : CASING BOTTOM LOGGER
BS  .IN                 8.75 : BIT SIZE
BSD .FT                10843 : BIT SIZE AT DEPTH
DFT .               GEL CHEM : DRILLING FLUID TYPE
DFD .                    9.3 : DRILLING FLUID DENSITY
DFV .                    150 : DRILLING FLUID VISCOSITY
DFPH.                   10.5 : DRILLING FLUID PH
DFL .                    7.0 : DRILLING FLUID LOSS
MSS .            CIRCULATION : MUD SAMPLE SOURCE
RMS .OHMM               2.43 : RESISTIVITY MUD SAMPLE
MST .DEGF                 76 : MUD SAMPLE TEMPERATURE
RMF .OHMM               2.33 : RESISTIVITY MUD FILTRATE SAMPLE
MFST.DEGF                 73 : MUD FILTRATE SAMPLE TEMPERATURE
RMC .OHMM               2.22 : RESISTIVITY MUD CAKE
MCST.DEGF                 67 : MUD CAKE SAMPLE TEMPERATURE
RMB .OHMM               0.86 : RESISTIVITY MUD AT BHT
TCS .HRS                   3 : TIME CIRCULATED STOPPED
LUN .                   7691 : LOGGING UNIT NUMBER
LUL .                    WCT : LOGGING UNIT LOCATION
ENGI.              CROCKFORD : RECORDING ENGINEER
WITN.                 HALKOW : WITNESSED BY
CLNT.                A2DTECH : CLIENT CODE
ORIG.            2" 5" PRINT : ORIGIN OF DATA
UWI .       100063506018W500 : UNIQUE WELL ID
DICO. A2D Technologies, Inc. : DIGITIZING COMPANY
~Other -----------------------------------------------------
~ASCII -----------------------------------------------------
# ...
 1783.24280  -42.57320    4.76840    3.74330    4.47930    -999.25    -999.25    -999.25    -999.25    -999.25    -999.25    -999.25    -999.25  107.09710    9.70310   80.39040   81.26980
 1783.74280  -42.49130    4.64930    3.66040    4.57480    -999.25    -999.25    -999.25    -999.25    -999.25    -999.25    -999.25    -999.25  105.16910   10.04610   81.17960   76.30540
 1784.24280  -42.44960    4.39600    3.56830    4.48740    -999.25    -999.25    -999.25    -999.25    -999.25    -999.25    -999.25    -999.25  103.54670    9.46000   81.77730   71.34100
 1784.74280  -42.39330    4.17190    3.47870    4.33600    -999.25    -999.25    -999.25    -999.25    -999.25    -999.25    -999.25    -999.25  103.63000    9.07080   81.78510   66.03800
 1785.24280  -42.36870    4.05280    3.39140    4.19370    -999.25    -999.25    -999.25    -999.25    -999.25    -999.25    -999.25    -999.25  104.71700    9.47900   81.56450   53.50640
 1785.74280  -42.41520    3.95520    3.30630    4.09400    -999.25    -999.25    -999.25    -999.25    -999.25    -999.25    -999.25    -999.25  105.66210    9.71640   81.17660   40.05750
 1786.24280  -42.42130    3.75230    3.19540    4.03300    -999.25    -999.25    -999.25    -999.25    -999.25    -999.25    -999.25    -999.25  106.43190    9.67190   80.80310   26.60860
 1786.74280  -42.21920    3.36700    3.00690    3.93910    -999.25    -999.25    -999.25    -999.25    -999.25    -999.25    -999.25    -999.25  107.81360    9.63130   80.45220   26.99180
 1787.24280  -41.77790    2.94280    2.71660    3.80430    -999.25    -999.25    -999.25    -999.25    -999.25    -999.25    -999.25    -999.25  109.46070    9.67750   79.90720   34.79690
 1787.74280  -41.23210    2.57210    2.37820    3.66590    -999.25    -999.25    -999.25    -999.25    -999.25    -999.25    -999.25    -999.25  109.45490    9.69600   79.31190   42.60190
 1788.24280  -40.68420    2.32860    2.06590    3.51090    -999.25    -999.25    -999.25    -999.25    -999.25    -999.25    -999.25    -999.25  108.27770    9.41930   78.97460   48.43360
 1788.74280  -40.34010    2.25850    1.79460    3.17640    -999.25    -999.25    -999.25    -999.25    -999.25    -999.25    -999.25    -999.25  111.77400    9.16750   78.48440   50.90830
 1789.24280  -40.43680    2.32900    1.64450    2.59890    -999.25    -999.25    -999.25    -999.25    -999.25    -999.25    -999.25    -999.25  120.59300    9.14940   76.81160   53.38290
 1789.74280  -40.77180    2.50790    1.75370    2.15980    -999.25    -999.25    -999.25    -999.25    -999.25    -999.25    -999.25    -999.25  133.09970    9.21020   73.61730   55.93880
 1790.24280  -40.97440    2.71500    2.09730    2.36930    -999.25    -999.25    -999.25    -999.25    -999.25    -999.25    -999.25    -999.25  148.98920    9.74260   69.80200   59.32250
 1790.74280  -40.65670    2.95650    2.56430    3.95440    -999.25    -999.25    -999.25    -999.25    -999.25    -999.25    -999.25    -999.25  159.90540   10.75190   65.22990   62.70610
 1791.24280  -39.96230    3.29380    3.06650   10.69270    -999.25    -999.25    -999.25    -999.25    -999.25    -999.25    -999.25    -999.25  160.78740   11.17410   59.58760   66.73810
 1791.74280  -39.88690    3.92730    3.52560   33.52070    -999.25    -999.25    -999.25    -999.25    -999.25    -999.25    -999.25    -999.25  155.16940   10.07530   53.51650   66.60490
 1792.24280  -40.58720    4.92570    3.97960   40.89210    -999.25    -999.25    -999.25    -999.25    -999.25    -999.25    -999.25    -999.25  145.04610    8.95360   48.11940   66.44020
 1792.74280  -41.56600    6.04490    4.36830   20.86920    -999.25    -999.25    -999.25    -999.25    -999.25    -999.25    -999.25    -999.25  133.83900    8.82390   46.12890   66.27540
 1793.24280  -42.24050    6.68200    4.50580    9.06790    -999.25    -999.25    -999.25    -999.25    -999.25    -999.25    -999.25    -999.25  130.33820    8.86910   49.59330   66.28350
 1793.74280  -42.31680    6.34870    4.45470    5.99100    -999.25    -999.25    -999.25    -999.25    -999.25    -999.25    -999.25    -999.25  132.19990    9.14850   56.22900   66.44620
 1794.24280  -42.16740    5.58160    4.32820    5.97440    -999.25    -999.25    -999.25    -999.25    -999.25    -999.25    -999.25    -999.25  129.91480    9.58920   63.88670   66.60890
 1794.74280  -41.96060    4.90940    4.15360    6.73310    -999.25    -999.25    -999.25    -999.25    -999.25    -999.25    -999.25    -999.25  122.62370   10.06500   70.72470   66.94140
 1795.24280  -41.88890    4.41390    3.98430    7.35950    -999.25    -999.25    -999.25    -999.25    -999.25    -999.25    -999.25    -999.25  113.52300    9.98050   74.58830   67.79180
 1795.74280  -42.02560    4.23290    3.82190    7.37760    -999.25    -999.25    -999.25    -999.25    -999.25    -999.25    -999.25    -999.25  104.99610    9.49380   76.16940   68.64230
 1796.24280  -42.26650    4.27350    3.69100    7.07560    -999.25    -999.25    -999.25    -999.25    -999.25    -999.25    -999.25    -999.25  101.34560    9.31520   76.28680   69.52180
 1796.74280  -42.47770    4.33240    3.64910    6.69910    -999.25    -999.25    -999.25    -999.25    -999.25    -999.25    -999.25    -999.25  102.40490    9.25370   75.91870   68.84710
 1797.24280  -42.56470    4.37250    3.69070    6.23270    -999.25    -999.25    -999.25    -999.25    -999.25    -999.25    -999.25    -999.25  104.27010    9.26310   75.55410   68.14840
 1797.74280  -42.52390    4.41290    3.75420    5.73960    -999.25    -999.25    -999.25    -999.25    -999.25    -999.25    -999.25    -999.25  105.41620    9.33960   75.38530   67.44980
 1798.24280  -42.41170    4.45370    3.81890    5.28560    -999.25    -999.25    -999.25    -999.25    -999.25    -999.25    -999.25    -999.25  105.13070    9.47040   75.44450   64.61550
 1798.74280  -42.25460    4.48960    3.88480    4.93830    -999.25    -999.25    -999.25    -999.25    -999.25    -999.25    -999.25    -999.25  103.24530    9.53240   75.79580   60.79920
 1799.24280  -42.07730    4.53800    3.95190    4.79630    -999.25    -999.25    -999.25    -999.25    -999.25    -999.25    -999.25    -999.25  100.94240    9.50960   76.43370   56.98290
 1799.74280  -41.98410    4.68250    4.05510    4.83310    -999.25    -999.25    -999.25    -999.25    -999.25    -999.25    -999.25    -999.25   99.52980    9.48710   77.23710   55.56750
 1800.24280  -42.06080    5.00780    4.25290    4.91850    -999.25    -999.25    -999.25    -999.25    -999.25    -999.25    -999.25    -999.25   98.64410    9.47470   77.90520   57.68820
 1800.74280  -42.22620    5.45640    4.58020    4.97900    -999.25    -999.25    -999.25    -999.25    -999.25    -999.25    -999.25    -999.25   97.88760    9.46370   77.88350   59.80900
 1801.24280  -42.29530    5.94510    4.99760    5.09000    -999.25    -999.25    -999.25    -999.25    -999.25    -999.25    -999.25    -999.25   97.35470    9.45300   77.13430   61.66840
 1801.74280  -41.99300    6.47360    5.43080    5.50590    -999.25    -999.25    -999.25    -999.25    -999.25    -999.25    -999.25    -999.25   96.88690    9.41660   75.68410   61.26410
 1802.24280  -41.25780    7.04390    5.79660    6.21920    -999.25    -999.25    -999.25    -999.25    -999.25    -999.25    -999.25    -999.25   96.27550    9.33340   73.84450   60.90410
 1802.74280  -40.43320    7.65890    6.10230    7.02500    -999.25    -999.25    -999.25    -999.25    -999.25    -999.25    -999.25    -999.25   94.90100    9.22490   72.02340   60.48750
 1803.24280  -39.71110    8.17070    6.42450    7.77410    -999.25    -999.25    -999.25    -999.25    -999.25    -999.25    -999.25    -999.25   92.73190    9.12090   70.46930   58.62660
 1803.74280  -39.11540    8.55850    6.76450    8.15010    -999.25    -999.25    -999.25    -999.25    -999.25    -999.25    -999.25    -999.25   91.07070    9.06540   69.37960   56.41810
 1804.24280  -38.69930    8.92420    7.15120    8.24430    -999.25    -999.25    -999.25    -999.25    -999.25    -999.25    -999.25    -999.25   91.02660    9.05330   68.56410   54.20970
