~Version ---------------------------------------------------
VERS. 2.0 : CWLS log ASCII Standard -VERSION 2.0
WRAP.  NO : ONE LINE PER DEPTH STEP
~Well ------------------------------------------------------
STRT.M                           300.0 : START DEPTH
STOP.M                          2700.0 : STOP DEPTH
STEP.M                        50.00000 : STEP LENGTH
NULL.                          -999.25 : NULL VALUE
COMP.                SABINE CANADA LTD : COMPANY
WELL. SABINE ET AL VIRGHILLS 3-9-65-12 : WELL
FLD .                                  : FIELD
LOC .                                  : LOCATION
CTRY.                           CANADA : COUNTRY
SRVC.                     Schlumberger : SERVICE COMPANY
DATE.                      18-Nov-1978 : LOGDATE
PROV.                          Alberta : PROVINCE
UWI .                 100030906512W500 : UNIQUE WELL ID
SLAT.WGS84                    54.60666 : SURFACE LATITUDE
SLON.WGS84                   -115.7567 : SURFACE LONGITUDE
~Curve Information -----------------------------------------
DEPT.M    0   1   0  0 : 1 MEASURED DEPTH
ILD .OHMM 07 120 46 00 : INDUCTION DEEP RESISTIVITY
ILM .OHMM 07 120 44 00 : INDUCTION MEDIUM RESISTIVITY
SPR .MV   07 010 01 00 : SPONTANEOUS POTENTIAL FROM RESISTIVITY LOG
SFL .OHMM 07 220 01 00 : SPHERICALLY FOCUSED LOG
CILD.MMHO 07 110 46 00 : INDUCTION DEEP CONDUCTIVITY
GRS .GAPI 60 310 01 00 : GAMMA RAY FROM SONIC LOG
DT  .US/M 60 500 00 00 : DELTA-T (INTERVAL TRANSIT TIME)
CALS.MM   60 280 50 00 : CALIPER FROM SONIC LOG
~Params ----------------------------------------------------
PD  .                         GL : PERMANENT DATUM
EPD .M                    997.18 : ELEVATION PERMANENT DATUM
LMF .                         KB : LOG MEASURED FROM
DAPD.M                       3.8 : FEET ABOVE PERMANENT DATUM
DMF .                         KB : DRILLING MEASURED FROM
EKB .M                      1001 : KELLY BUSHING
EGL .M                    997.18 : GROUND LEVEL
DATE.                   11/18/78 : RUN DATE
RUN .                          1 : RUN NUMBER
DD  .M                      2734 : DEPTH DRILLER
DL  .M                    2734.5 : DEPTH LOGGER
BLI .M                    2733.5 : BOTTOM LOG INTERVAL
TLI .M                       187 : TOP LOG INTERVAL
CS  .MM                      244 : CASING SIZE
CBD .M                       187 : CASING BOTTOM DRILLER
CBL .M                       187 : CASING BOTTOM LOGGER
BS  .MM                      222 : BIT SIZE
BSD .M                      2734 : BIT SIZE AT DEPTH
DFT .                        GEL : DRILLING FLUID TYPE
DFD .                       1120 : DRILLING FLUID DENSITY
DFV .                        102 : DRILLING FLUID VISCOSITY
DFPH.                        9.5 : DRILLING FLUID PH
DFL .                        8.8 : DRILLING FLUID LOSS
MSS .                   FLOWLINE : MUD SAMPLE SOURCE
RMS .OHMM                   2.01 : RESISTIVITY MUD SAMPLE
MST .DEGC                     18 : MUD SAMPLE TEMPERATURE
RMF .OHMM                   1.92 : RESISTIVITY MUD FILTRATE SAMPLE
MFST.DEGC                     18 : MUD FILTRATE SAMPLE TEMPERATURE
MFSS.                       CIRC : MUD FILTRATE SAMPLE SOURCE
RMB .OHMM                   0.82 : RESISTIVITY MUD AT BHT
TCS .HRS                    1300 : TIME CIRCULATED STOPPED
TLAB.HRS                    1930 : TIME LOGGER AT BOTTOM
LUN .                       7809 : LOGGING UNIT NUMBER
LUL .                       5270 : LOGGING UNIT LOCATION
ENGI.                     STROUD : RECORDING ENGINEER
WITN.                    TAXBOCK : WITNESSED BY
CLNT.                    A2DTECH : CLIENT CODE
ORIG. 6.5"/100M 16.5"/100M PRINT : ORIGIN OF DATA
UWI .           100030906512W500 : UNIQUE WELL ID
DICO.     A2D Technologies, Inc. : DIGITIZING COMPANY
~Other -----------------------------------------------------
~ASCII -----------------------------------------------------
  300.00000    2.77070    -999.25  -36.94060    2.46950  338.54020    -999.25    -999.25    -999.25
  350.00000    9.42650    -999.25  -46.59670    7.60200  111.35280    -999.25    -999.25    -999.25
  400.00000    8.92980    -999.25  -44.48080    6.90820  113.22520    -999.25    -999.25    -999.25
  450.00000    3.28210    -999.25  -37.34790    2.70380  304.48500    -999.25    -999.25    -999.25
  500.00000    3.51250    -999.25  -37.80100    3.13490  285.06170    -999.25    -999.25    -999.25
  550.00000    3.77080    -999.25  -38.63400    3.27040  265.15660    -999.25    -999.25    -999.25
  600.00000    4.21480    -999.25  -38.33200    3.53500  237.21730    -999.25    -999.25    -999.25
  650.00000    5.73320    -999.25  -39.34270    5.16720  201.26050    -999.25    -999.25    -999.25
  700.00000    3.59050    -999.25  -36.70790    3.41500  276.70850    -999.25    -999.25    -999.25
  750.00000    5.50720    -999.25  -58.72900    5.10610  181.54090    -999.25    -999.25    -999.25
  800.00000    4.28510    -999.25  -61.99300    3.87700  228.57740    -999.25    -999.25    -999.25
  850.00000    3.16410    -999.25  -39.28320    2.93680  303.83400    -999.25    -999.25    -999.25
  900.00000    4.53250    -999.25  -47.00030    4.21970  220.67060    -999.25    -999.25    -999.25
  950.00000    5.99780    6.36220  -46.55900    6.34660    -999.25  102.13080  331.50220  331.07840
 1000.00000    5.70900    5.14010  -48.60590    4.84990    -999.25  103.08630  339.31350  344.17930
 1050.00000    5.09120    4.27080  -46.79920    4.54840    -999.25   95.99470  480.90080  370.19230
 1100.00000    4.74730    4.50660  -41.98840    5.28730    -999.25    -999.25    -999.25    -999.25
 1150.00000    6.24940    6.50590  -38.63850    8.64600    -999.25    -999.25    -999.25    -999.25
 1200.00000    6.21520    -999.25  -42.64000    6.73620  159.17360    -999.25    -999.25    -999.25
 1250.00000    3.34440    -999.25  -35.57920    3.67810  279.11720    -999.25    -999.25    -999.25
 1300.00000    0.55570    -999.25  -30.79330    1.06490  554.67720    -999.25    -999.25    -999.25
 1350.00000    5.12970    5.47000  -41.93520    6.41540    -999.25   55.00960  272.84500  255.36730
 1400.00000    6.09640    6.64390  -51.39460    9.58390    -999.25   71.54850  272.29220  266.69820
 1450.00000   11.17480   11.98430  -48.31570   15.29940    -999.25   71.40350  305.86120  286.51250
 1500.00000    2.55110    3.98950  -97.43940    8.65050    -999.25   57.28060  273.29520  285.18210
 1550.00000    4.69800    4.98960  -34.16110    5.97390    -999.25   85.68230  263.02360  289.46770
 1600.00000    7.56470    8.51450  -38.46300    9.44490    -999.25   90.34540  253.81030  288.11250
 1650.00000    1.92480    3.23770 -139.73230   11.35230    -999.25   29.87400  214.48700  276.41810
 1700.00000  116.05840  162.31120 -159.24510 1103.22850    -999.25   14.31680  163.28640  275.77310
 1750.00000  131.29170  177.87010  -78.38860  379.78940    -999.25   11.76220  158.95260  266.83120
 1800.00000   13.32620   14.43670  -57.72220   24.29990    -999.25   27.62750  185.54600  233.62730
 1850.00000    9.67960   10.33830  -22.55260   13.29110    -999.25   73.51300  220.83440  277.41650
 1900.00000   91.67930   83.15900  -18.66760  159.30710    -999.25  147.97160  211.60610  241.21130
 1950.00000 1503.72730  392.17970  -52.30270  494.13760    -999.25   16.80250  163.84840  255.81480
 2000.00000   28.25060   50.38380 -126.13270  323.45780    -999.25   10.71470  173.32210  240.47450
 2050.00000  960.19540  509.74430  -63.86660  541.67160    -999.25   16.54550  159.95660  247.34020
 2100.00000   39.76450   81.41260 -143.45850  341.55520    -999.25   11.62840  156.39830  255.80690
 2150.00000   15.78640   17.27800 -129.65120   33.65180    -999.25   44.42570  194.32080  239.21020
 2200.00000   10.58280    9.54650  -80.21780   11.95460    -999.25   38.38880  182.32450  248.15320
 2250.00000    4.92530    4.62970  -56.27450    5.92750    -999.25   80.73230  253.79880  352.91830
 2300.00000    4.40500    4.78740  -53.91670    5.58480    -999.25   76.55910  247.17730  315.14790
 2350.00000    5.48450    5.64490  -64.03110    7.28900    -999.25   75.83120  240.65410  311.46470
 2400.00000    9.38170   10.70590  -31.13790   13.77740    -999.25   61.81170  207.59250  248.93010
 2450.00000    6.19230    7.30430  -30.79490    9.29750    -999.25   88.28520  220.99960  253.30430
 2500.00000    5.56420    6.09420  -22.91200    8.70360    -999.25   83.68270  227.26200  253.71320
 2550.00000   19.15740   23.14690   -7.70870   28.64580    -999.25   43.52030  192.39440  235.43660
 2600.00000  119.72320  148.68820  -17.04550  288.80640    -999.25   50.58440  207.68050  233.51950
 2650.00000   33.45130   37.83210  -12.18920   47.37760    -999.25   39.05540  181.11490  222.13940
 2700.00000   37.26170   40.72070 -193.94760  241.24400    -999.25   12.20180  166.33310  216.23840
