~Version ---------------------------------------------------
VERS.      2.0 : CWLS log ASCII Standard -VERSION 2.0
WRAP.       NO : One line per depth step
CREA. 12/15/17 : LAS Creation Date
~Well ------------------------------------------------------
STRT.FT                                 1000.0 : START DEPTH
STOP.FT                                 9900.0 : STOP DEPTH
STEP.FT                               50.00000 : STEP LENGTH
NULL.                                  -999.25 : NULL VALUE
COMP. THE BRITISH AMERICAN OIL COMPANY LIMITED : COMPANY
WELL.                  B.A. MEEKWAP 10-1-66-19 : WELL
FLD .                                          : FIELD
LOC .                                          : LOCATION
CTRY.                                   CANADA : COUNTRY
SRVC.                   Schlumberger of Canada : SERVICE COMPANY
DATE.                              27-Feb-1961 : LOGDATE
PROV.                                  Alberta : PROVINCE
UWI .                         100100106619W500 : UNIQUE WELL ID
SLAT.WGS84                            54.68526 : SURFACE LATITUDE
SLON.WGS84                           -116.7316 : SURFACE LONGITUDE
~Curve Information -----------------------------------------
DEPT  .FT         : Depth Curve
CILDED.MMHO       : CONDUCTIVITY FROM RESISTIVITY LOG
CONDWS.MMHO       : CONDUCTIVITY [1000/DRESWS]
DRESWS.OHMM       : DEEP RESISTIVITY [1000/CILDED IF ILDED <=3, ILDED]
DT1ED .US/F       : DELTA TIME [SPAN 1'] FROM SONIC LOG [ADJ. TO RESISTIVITY LOG]
DTED  .US/F       : DELTA TIME [SPAN 3'] FROM SONIC LOG [ADJ. TO RESISTIVITY LOG]
DTWS  .US/F       : COMPRESSIONAL SONIC [DTED]
GRSED .UgRa-Eq/T  : GAMMA RAY FROM SONIC LOG [ADJ. TO RESISTIVITY LOG]
GRWS  .GAPI       : GAMMA RAY [GRSED*16.5]
ILDED .OHMM       : DEEP  INDUCTION LOG RESISTIVITY FROM RESISTIVITY LOG
SNED  .OHMM       : SHORT NORMAL 16" RESISTIVITY FROM RESISTIVITY LOG
SPRED .MV         : SPONTANEOUS POTENTIAL FROM RESISTIVITY LOG
SPWS  .MV         : SPONTANEOUS POTENTIAL [BASELINE 0 MV, SPRED]
SRESWS.OHMM       : SHALLOW RESISTIVITY [SNED]
~Params ----------------------------------------------------
LMF .                     KB : LOG MEASURED FROM
DMF .                     KB : DRILLING MEASURED FROM
EKB .FT                 2815 : KELLY BUSHING
DATE.               02/27/61 : RUN DATE
RUN .                      2 : RUN NUMBER
DD  .FT                 9915 : DEPTH DRILLER
DL  .FT                 9909 : DEPTH LOGGER
BLI .FT                 9908 : BOTTOM LOG INTERVAL
TLI .FT                 6157 : TOP LOG INTERVAL
CBD .FT                 1004 : CASING BOTTOM DRILLER
BS  .IN                 6.25 : BIT SIZE
BSD .FT                 9915 : BIT SIZE AT DEPTH
DFT .                    GEL : DRILLING FLUID TYPE
DFD .                   10.4 : DRILLING FLUID DENSITY
DFV .                     84 : DRILLING FLUID VISCOSITY
DFPH.                      9 : DRILLING FLUID PH
DFL .                      7 : DRILLING FLUID LOSS
RMF .OHMM               1.95 : RESISTIVITY MUD FILTRATE SAMPLE
MFST.DEGF                 64 : MUD FILTRATE SAMPLE TEMPERATURE
RMC .OHMM                3.9 : RESISTIVITY MUD CAKE
MCST.DEGF                 64 : MUD CAKE SAMPLE TEMPERATURE
TCS .HRS                 9.5 : TIME CIRCULATED STOPPED
LUN .                  1573C : LOGGING UNIT NUMBER
LUL .                     WC : LOGGING UNIT LOCATION
ENGI.               STAFFORD : RECORDING ENGINEER
WITN.               ANDERSON : WITNESSED BY
CLNT.                A2DTECH : CLIENT CODE
ORIG.            2" 5" PRINT : ORIGIN OF DATA
UWI .       100100106619W500 : UNIQUE WELL ID
DICO. A2D Technologies, Inc. : DIGITIZING COMPANY
~Other -----------------------------------------------------
~ASCII -----------------------------------------------------
 1000.00000    -999.25    -999.25    -999.25    -999.25    -999.25    -999.25    3.07350   50.71280    -999.25    -999.25    -999.25    -999.25    -999.25
 1050.00000  113.56920  112.54800    8.88510    -999.25  110.13210  110.13210    3.87170   63.88310    8.88510    7.05860 -120.12300   -6.38830    7.05860
 1100.00000  159.40940  160.21790    6.24150    -999.25  132.75560  132.75560    3.31070   54.62660    6.24150    7.07500 -115.29790   -1.56320    7.07500
 1150.00000  211.79540  210.92150    4.74110    -999.25  125.16180  125.16180    4.47250   73.79630    4.74110    4.41230 -118.41880   -3.41730    4.41230
 1200.00000  226.64980  238.42450    4.19420    -999.25  121.43000  121.43000    4.66300   76.93950    4.19420    4.38830 -119.18030   -2.61560    4.38830
 1250.00000  389.15140  389.15140    2.56970    -999.25  146.10800  146.10800    6.31870  104.25860    2.43580    3.53850 -119.54020   -2.63170    3.53850
 1300.00000  203.66740  212.97440    4.69540    -999.25  128.35150  128.35150    5.59010   92.23660    4.69540    4.67530 -118.88870   -2.66840    4.67530
 1350.00000  365.14140  365.14140    2.73870    -999.25  129.07080  129.07080    5.77390   95.26940    2.61890    3.16720 -117.27360   -1.74600    3.16720
 1400.00000  111.10500  110.29980    9.06620    -999.25  101.75990  101.75990    5.71450   94.28920    9.06620    9.41570 -119.52820   -4.68880    9.41570
 1450.00000  187.28900  187.28900    5.33930    -999.25  110.14700  110.14700    4.27430   70.52600    5.05030    5.11780 -115.89550   -1.74880    5.11780
 1500.00000  273.17320  285.49400    3.50270    -999.25  122.76050  122.76050    4.88440   80.59260    3.50270    4.35470 -118.15700   -4.42230    4.35470
 1550.00000  379.55590  379.55590    2.63470    -999.25  123.81230  123.81230    4.76860   78.68190    2.50000    2.74260 -115.10900   -1.37430    2.74260
 1600.00000  303.06340  319.18290    3.13300    -999.25  120.22380  120.22380    5.98330   98.72360    3.13300    3.51340 -116.33120   -2.59650    3.51340
 1650.00000  166.71310  157.87810    6.33400    -999.25  107.08570  107.08570    5.03440   83.06760    6.33400    5.32180 -115.58170   -1.84700    5.32180
 1700.00000  326.13460  326.13460    3.06620    -999.25  110.58630  110.58630    4.46900   73.73930    2.93190    3.51540 -114.70650   -0.97180    3.51540
 1750.00000  119.39280  121.68710    8.21780    -999.25  102.60510  102.60510    3.77300   62.25450    8.21780    7.60410 -129.57120  -15.83650    7.60410
 1800.00000  296.52310  298.67690    3.34810    -999.25  137.46080  137.46080    4.76990   78.70340    3.34810    4.01960 -116.42250   -2.68780    4.01960
 1850.00000   57.35500   55.26390   18.09500    -999.25  108.97960  108.97960    3.12770   51.60710   18.09500   17.96070 -134.73250  -20.99780   17.96070
 1900.00000   36.18240   31.77110   31.47510    -999.25   66.15090   66.15090    2.77390   45.76930   31.47510   24.91790 -117.25700   -3.75910   24.91790
 1950.00000  227.87610  235.87130    4.23960    -999.25   97.23790   97.23790    4.00020   66.00330    4.23960    4.46850 -115.31570   -2.46470    4.46850
 2000.00000   81.77010   80.44150   12.43140    -999.25   97.42010   97.42010    3.44470   56.83760   12.43140   12.84880 -116.23440   -4.02600   12.84880
 2050.00000  238.16930  238.16930    4.19870    -999.25  101.82370  101.82370    4.21900   69.61350    3.93150    4.22740 -113.58860   -2.02290    4.22740
 2100.00000   39.07250   36.29380   27.55290    -999.25   67.01690   67.01690    3.02290   49.87780   27.55290   27.97590 -124.36220  -10.98390   27.97590
 2150.00000   92.79610   90.66430   11.02970    -999.25  108.57620  108.57620    3.46580   57.18570   11.02970    9.65360 -128.13100  -13.51320    9.65360
 2200.00000  242.96750  242.96750    4.11580    -999.25  100.76040  100.76040    4.00180   66.02970    3.88570    4.77200 -115.81120   -1.84610    4.77200
 2250.00000  108.54050  106.46910    9.39240    -999.25   89.55810   89.55810    3.67420   60.62430    9.39240    8.48050 -116.11210   -2.37740    8.48050
 2300.00000   77.63470   73.74470   13.56030    -999.25  103.39980  103.39980    5.13620   84.74730   13.56030   13.28610 -133.66640  -19.93170   13.28610
 2350.00000  248.56450  260.43020    3.83980    -999.25   95.73190   95.73190    3.91000   64.51500    3.83980    4.97600 -116.14690   -2.41220    4.97600
 2400.00000   38.98990   34.31340   29.14310    -999.25   69.74580   69.74580    2.60870   43.04350   29.14310   31.23580 -126.97970  -13.24500   31.23580
 2450.00000  243.01910  255.34960    3.91620    -999.25  103.38080  103.38080    4.35800   71.90700    3.91620    4.29010 -115.11860   -1.38390    4.29010
 2500.00000  102.06470  103.60980    9.65160    -999.25   94.86340   94.86340    2.79220   46.07130    9.65160   12.17530 -120.82970   -7.09500   12.17530
 2550.00000  239.24190  252.21950    3.96480    -999.25  104.08980  104.08980    4.02270   66.37370    3.96480    4.58810 -116.36010   -2.62540    4.58810
 2600.00000  240.44800  251.44580    3.97700    -999.25  107.13980  107.13980    4.33740   71.56710    3.97700    4.68160 -115.95670   -2.22200    4.68160
 2650.00000  168.94510  173.05830    5.77840    -999.25   95.15380   95.15380    4.09150   67.50970    5.77840    6.74890 -117.43010   -3.69540    6.74890
 2700.00000  201.12410  208.98200    4.78510    -999.25  102.26640  102.26640    3.66950   60.54680    4.78510    6.16160 -115.94450   -2.20980    6.16160
 2750.00000  134.97710  136.28060    7.33780    -999.25   98.78590   98.78590    5.88140   97.04310    7.33780    7.76390 -120.57420   -6.13140    7.76390
 2800.00000  136.97060  139.06270    7.19100    -999.25   98.96040   98.96040    5.58860   92.21190    7.19100    7.80050 -121.13410   -5.96410    7.80050
 2850.00000  150.91640  151.72430    6.59090    -999.25  106.33700  106.33700    6.04640   99.76560    6.59090    8.13080 -118.78620   -2.88430    8.13080
 2900.00000  124.55080  125.56350    7.96410    -999.25  108.29380  108.29380    7.16560  118.23240    7.96410   10.48100 -118.44860   -1.81950   10.48100
 2950.00000  156.43890  159.02800    6.28820    -999.25  101.45450  101.45450    6.46110  106.60810    6.28820    7.81470 -119.16230   -1.81980    7.81470
 3000.00000  150.14710  153.78460    6.50260    -999.25   94.71930   94.71930    5.21630   86.06900    6.50260    7.38660 -123.27790   -5.37500    7.38660
 3050.00000  152.99960  156.77670    6.37850    -999.25  102.07620  102.07620    5.48940   90.57510    6.37850    7.40360 -124.02980   -5.56650    7.40360
 3100.00000  153.46930  157.12890    6.36420    -999.25  103.09690  103.09690    5.34970   88.27010    6.36420    7.50910 -123.49840   -4.47090    7.50910
 3150.00000  127.48850  129.63950    7.71370    -999.25   95.24890   95.24890    5.54500   91.49250    7.71370    9.02680 -122.42660   -2.83870    9.02680
 3200.00000  140.97820  142.67370    7.00900    -999.25   91.08490   91.08490    5.86070   96.70150    7.00900    7.60640 -123.34970   -3.42720    7.60640
 3250.00000  139.76520  143.33840    6.97650    -999.25   89.77390   89.77390    5.26960   86.94840    6.97650    7.64190 -125.32280   -5.09270    7.64190
 3300.00000  141.56380  144.54630    6.91820    -999.25   94.76290   94.76290    6.05090   99.83990    6.91820    7.81610 -123.64610   -3.10840    7.81610
 3350.00000  136.65910  138.59050    7.21550    -999.25   93.95100   93.95100    5.57830   92.04200    7.21550    7.95380 -123.46900   -2.70490    7.95380
 3400.00000  115.09680  115.43350    8.66300    -999.25   91.69770   91.69770    5.85710   96.64220    8.66300    9.47730 -125.22080   -5.29910    9.47730
 3450.00000  146.14710  148.16790    6.74910    -999.25   83.89490   83.89490    5.98610   98.77070    6.74910    7.82520 -122.09160   -3.01770    7.82520
 3500.00000  124.49500  124.21900    8.05030    -999.25   92.50240   92.50240    5.58580   92.16570    8.05030    8.78920 -122.34240   -4.11080    8.78920
 3550.00000  153.83120  157.38860    6.35370    -999.25   96.65290   96.65290    6.06230  100.02790    6.35370    7.73320 -121.53700   -4.14770    7.73320
