~Version ---------------------------------------------------
VERS. 2.0 : CWLS log ASCII Standard -VERSION 2.0
WRAP.  NO : ONE LINE PER DEPTH STEP
~Well ------------------------------------------------------
STRT.F                          1050.0 : START DEPTH
STOP.F                         10100.0 : STOP DEPTH
STEP.F                        50.00000 : STEP LENGTH
NULL.                          -999.25 : NULL VALUE
COMP.             PETROFINA CANADA LTD : COMPANY
WELL.        FINA ET AL WIND 7-7-61-16 : WELL
FLD .                                  : FIELD
LOC .                                  : LOCATION
CTRY.                           CANADA : COUNTRY
SRVC. Schlumberger Well Surveying Corp : SERVICE COMPANY
DATE.                      23-Jan-1978 : LOGDATE
PROV.                          Alberta : PROVINCE
UWI .                 100070706116W500 : UNIQUE WELL ID
SLAT.WGS84                    54.25864 : SURFACE LATITUDE
SLON.WGS84                    -116.383 : SURFACE LONGITUDE
~Curve Information -----------------------------------------
DEPT   .F                 : 
CALD   .IN   45 280 60 00 : CALIPER FROM DENSITY LOG
DRHO   .G/C3 45 356 01 00 : BULK DENSITY CORRECTION
GRD    .GAPI 45 310 01 00 : GAMMA RAY FROM DENSITY LOG
RHOB   .G/C3 45 350 01 00 : BULK DENSITY
NPHI_SS.DEC  42 890 03 00 : NEUTRON POROSITY SANDSTONE
DPHI_SS.DEC  45 890 12 00 : DENSITY POROSITY SANDSTONE
NPHI_LS.DEC  42 890 01 00 : NEUTRON POROSITY LIMESTONE
DPHI_LS.DEC  45 890 10 00 : DENSITY POROSITY LIMESTONE
LL8    .OHMM 07 220 08 00 : LATEROLOG 8
SPR    .MV   07 010 01 00 : SPONTANEOUS POTENTIAL FROM RESISTIVITY LOG
ILD    .OHMM 07 120 46 00 : INDUCTION DEEP RESISTIVITY
ILM    .OHMM 07 120 44 00 : INDUCTION MEDIUM RESISTIVITY
DT     .US/F 60 500 00 00 : DELTA-T (INTERVAL TRANSIT TIME)
CALS   .IN   60 280 50 00 : CALIPER FROM SONIC LOG
GRS    .GAPI 60 310 01 00 : GAMMA RAY FROM SONIC LOG
GRD_R  .GAPI 45 310 01 00 : GAMMA RAY FROM DENSITY LOG FROM REPEAT
GRS_R  .GAPI 60 310 01 00 : GAMMA RAY FROM SONIC LOG FROM REPEAT
~Params ----------------------------------------------------
PD  .                     GL : PERMANENT DATUM
EPD .FT               2840.2 : ELEVATION PERMANENT DATUM
LMF .                     KB : LOG MEASURED FROM
DAPD.FT                 13.8 : FEET ABOVE PERMANENT DATUM
EKB .FT                 2854 : KELLY BUSHING
EGL .FT               2840.2 : GROUND LEVEL
DATE.               01/23/78 : RUN DATE
RUN .                      1 : RUN NUMBER
DD  .FT                10130 : DEPTH DRILLER
DL  .FT                10136 : DEPTH LOGGER
BLI .FT                10130 : BOTTOM LOG INTERVAL
TLI .FT                 1041 : TOP LOG INTERVAL
CBD .FT                 1041 : CASING BOTTOM DRILLER
CBL .FT                 1041 : CASING BOTTOM LOGGER
BS  .IN                7.875 : BIT SIZE
BSD .FT                10130 : BIT SIZE AT DEPTH
DFT .               GEL CHEM : DRILLING FLUID TYPE
DFD .                    9.1 : DRILLING FLUID DENSITY
DFV .                     88 : DRILLING FLUID VISCOSITY
DFPH.                    9.6 : DRILLING FLUID PH
DFL .                      6 : DRILLING FLUID LOSS
MSS .               FLOWLINE : MUD SAMPLE SOURCE
RMF .OHMM                2.1 : RESISTIVITY MUD FILTRATE SAMPLE
MFST.DEGF                 61 : MUD FILTRATE SAMPLE TEMPERATURE
RMB .OHMM               0.67 : RESISTIVITY MUD AT BHT
TCS .HRS                 2.5 : TIME CIRCULATED STOPPED
LUN .                   7730 : LOGGING UNIT NUMBER
LUL .                    EDM : LOGGING UNIT LOCATION
ENGI.               CAMPBELL : RECORDING ENGINEER
WITN.                  SMITH : WITNESSED BY
CLNT.                A2DTECH : CLIENT CODE
ORIG.            2" 5" PRINT : ORIGIN OF DATA
UWI .       100070706116W500 : UNIQUE WELL ID
DICO. A2D Technologies, Inc. : DIGITIZING COMPANY
~Other -----------------------------------------------------
~ASCII -----------------------------------------------------
# ...
 3100.00000    8.89810    0.05520   70.53790    2.48140    0.40880    0.17070    -999.25    -999.25   14.07120  -87.06490   10.05060   11.31420   81.14710    8.95650   78.32920    -999.25    -999.25
 3150.00000   10.04330    0.16720   67.33150    2.43560    0.38720    0.10770    -999.25    -999.25    5.92320  -86.35450    6.05640    5.66670   89.99370    9.55640   79.11710    -999.25    -999.25
 3200.00000    9.68310    0.07490   66.16370    2.53750    0.32850    0.07610    -999.25    -999.25    8.16710  -85.89840    8.38000    7.83900   84.96800    9.26510   74.08620    -999.25    -999.25
 3250.00000    9.63600    0.23300   73.63440    2.45340    0.32120    0.12560    -999.25    -999.25    6.47500  -85.68300    6.30030    6.07390   86.33150    9.15680   81.82540    -999.25    -999.25
 3300.00000    9.30500    0.02770   80.62850    2.48610    0.40880    0.11030    -999.25    -999.25    7.15340  -85.21170    6.19310    5.89210   84.10080    9.26830   88.88720    -999.25    -999.25
 3350.00000    9.67080    0.03630   81.95590    2.54660    0.33310    0.07800    -999.25    -999.25   11.77280  -88.04390   10.59980   10.27650   82.21840    9.27170   93.12210    -999.25    -999.25
 3400.00000   10.14700    0.06420   95.98860    2.52170    0.40280    0.09240    -999.25    -999.25    6.51960  -85.70000    6.04620    5.55890   92.86620    9.60540   99.37840    -999.25    -999.25
 3450.00000   10.79990    0.10430  116.56070    2.33020    0.41340    0.17760    -999.25    -999.25    7.26090  -88.33850    6.86490    6.42940   91.00570    9.68450  111.84210    -999.25    -999.25
 3500.00000   12.39690    0.07580  115.69950    2.43310    0.42460    0.11450    -999.25    -999.25    6.61930  -87.81880    6.26890    5.90660   94.90240   10.51730  117.42640    -999.25    -999.25
 3550.00000   11.57430    0.12720  120.72020    2.51210    0.40610    0.09620    -999.25    -999.25    7.94920  -86.96740    7.27470    6.76650   91.04810   10.08110  125.38120    -999.25    -999.25
 3600.00000   10.48720    0.04120  168.95530    2.50720    0.41410    0.07420    -999.25    -999.25    8.10740  -84.72520    6.52620    6.34890   97.95660    9.56560  171.23500    -999.25    -999.25
 3650.00000    9.90450    0.07160  120.40990    2.58340    0.31880    0.03040    -999.25    -999.25   12.57850  -86.12320   10.13410    9.28480   86.77910    9.58600  126.15350    -999.25    -999.25
 3700.00000    9.87450    0.07220  119.16260    2.54710    0.34420    0.07160    -999.25    -999.25   10.50130  -85.61210    8.66340    8.20870   88.41980    9.65160  116.34780    -999.25    -999.25
 3750.00000   10.15710    0.01850  111.86080    2.52930    0.33250    0.06690    -999.25    -999.25    9.12060  -86.95510    8.36680    7.91250   85.87840   10.65910  114.66070    -999.25    -999.25
 3800.00000   10.35680    0.09730  118.70550    2.54680    0.36990    0.06000    -999.25    -999.25    7.38050  -85.87750    6.45580    6.03750   91.92690   10.65390  130.42660    -999.25    -999.25
 3850.00000    9.54940    0.11130  109.63730    2.54770    0.33800    0.06130    -999.25    -999.25    8.32430  -86.16730    8.10030    7.89540   84.41390    9.55150  123.26270    -999.25    -999.25
 3900.00000    9.59800    0.06280  106.50720    2.57090    0.30530    0.02920    -999.25    -999.25    9.41580  -85.47460    8.84620    8.58480   82.41590    9.27850  102.07650    -999.25    -999.25
 3950.00000   10.10500    0.05730  117.83760    2.53760    0.37880    0.06130    -999.25    -999.25    7.11550  -85.02620    6.54860    6.23400   87.88820    9.99460  129.67040    -999.25    -999.25
 4000.00000   10.22340    0.07010  126.44530    2.49310    0.39720    0.08500    -999.25    -999.25    6.47150  -84.76440    5.88570    5.43910   92.83710   10.86100  128.33390    -999.25    -999.25
 4050.00000    9.69530    0.12440  115.31600    2.48950    0.38980    0.09350    -999.25    -999.25    6.74750  -84.25040    6.19610    6.00240   89.64070    9.52440  127.78820    -999.25    -999.25
 4100.00000    9.88940    0.07100  123.50320    2.49440    0.33420    0.10660    -999.25    -999.25    8.44480  -84.27980    7.94960    7.65290   83.70140    9.79030  120.55230    -999.25    -999.25
 4150.00000   10.45090    0.10040  111.36410    2.50580    0.35520    0.09360    -999.25    -999.25    7.49130  -84.22940    6.58850    6.28140   87.47370    9.64110  121.27330    -999.25    -999.25
 4200.00000   10.73120    0.06260  116.14580    2.45580    0.30020    0.10320    -999.25    -999.25    9.60050  -83.30720    9.09740    8.45540   82.26160    9.77500  131.01190    -999.25    -999.25
 4250.00000   11.26180    0.20650  124.99860    2.43590    0.32190    0.10200    -999.25    -999.25    8.36870  -82.22730    8.05000    7.91400   85.13350    9.79600  123.68230    -999.25    -999.25
 4300.00000   11.52890    0.07150  119.24670    2.50410    0.31240    0.08970    -999.25    -999.25    9.73620  -82.74060    9.33000    8.66420   82.55070    9.93610  122.55400    -999.25    -999.25
 4350.00000   10.55320    0.07760  119.96860    2.49330    0.32640    0.09770    -999.25    -999.25    8.50930  -81.98090    8.01710    7.68110   86.04160    9.76770  134.56660    -999.25    -999.25
 4400.00000   10.35040    0.09680  129.55580    2.51390    0.34990    0.07600    -999.25    -999.25    8.55450  -80.31220    6.93720    6.76170   88.83750    9.58580  133.63680    -999.25    -999.25
 4450.00000   10.46090    0.09230  135.00860    2.45610    0.35600    0.12250    -999.25    -999.25    8.62830  -79.89690    6.91910    6.73640   91.12220    9.51490  143.20590    -999.25    -999.25
 4500.00000    8.96110    0.05800   63.57300    2.59180    0.16230    0.00320    -999.25    -999.25  121.18780  -79.32130   21.20480   29.41910   58.82750    8.83880   59.59050    -999.25    -999.25
 4550.00000    9.77510    0.23430  133.56320    2.48650    0.37930    0.09860    -999.25    -999.25    9.64830  -78.74330    7.89800    7.35970   90.99740    9.40010  153.77890    -999.25    -999.25
 4600.00000    8.84700    0.12360  140.79380    2.54150    0.39100    0.05320    -999.25    -999.25   13.32850  -78.34010    9.91740    9.66440   92.44310    8.81470  147.43400    -999.25    -999.25
 4650.00000    8.81300    0.04760  150.55140    2.55180    0.39730    0.04540    -999.25    -999.25   13.91780  -77.81620    9.89940    9.28480   92.44820    8.86200  158.15960    -999.25    -999.25
 4700.00000   10.40220    0.24260  122.69400    2.40670    0.40640    0.13360    -999.25    -999.25    9.64500  -77.75540    7.20850    6.96440   93.26360    9.35120  144.53760    -999.25    -999.25
 4750.00000   10.23800    0.17370  123.05510    2.39500    0.38060    0.15400    -999.25    -999.25    5.86380  -77.98970    5.18590    4.84640   91.55670    9.88340  131.56830    -999.25    -999.25
 4800.00000   10.55960    0.20360  121.93700    2.43640    0.43530    0.13270    -999.25    -999.25    6.51400  -77.94620    5.65500    5.35670   90.38100   10.34570  137.00250    -999.25    -999.25
 4850.00000   10.43350    0.22200  114.98600    2.41080    0.38550    0.13070    -999.25    -999.25    6.51360  -76.45670    5.43920    5.21090   86.30340    9.73550  149.11260    -999.25    -999.25
 4900.00000   10.34010    0.19060  114.77040    2.41090    0.37300    0.15980    -999.25    -999.25    7.60480  -75.93940    6.65160    6.48620   84.10440    9.93100  126.60730    -999.25    -999.25
 4950.00000   10.76580    0.14130  120.03620    2.43870    0.35590    0.11820    -999.25    -999.25    8.29540  -76.00500    7.06280    6.88610   84.43090   10.08420  128.61300    -999.25    -999.25
 5000.00000   10.81330    0.18990  112.53530    2.51450    0.37130    0.09760    -999.25    -999.25    8.38460  -74.99330    7.04990    6.87440   81.79180   10.06360  135.33350    -999.25    -999.25
 5050.00000   11.11430    0.17350  115.79590    2.30150    0.49430    0.21580    -999.25    -999.25    5.59130  -73.95970    4.43680    4.25740   94.97510   10.64090  140.26770    -999.25    -999.25
 5100.00000   11.05590    0.20440  135.99320    2.31640    0.42260    0.20300    -999.25    -999.25    4.79670  -72.60840    3.56300    3.45190   99.29190   10.26740  163.17850    -999.25    -999.25
