~Version ---------------------------------------------------
VERS.      2.0 : CWLS log ASCII Standard -VERSION 2.0
WRAP.       NO : One line per depth step
CREA. 12/14/17 : LAS Creation Date
~Well ------------------------------------------------------
STRT.FT                          1000.0 : START DEPTH
STOP.FT                          9450.0 : STOP DEPTH
STEP.FT                        50.00000 : STEP LENGTH
NULL.                           -999.25 : NULL VALUE
COMP.      CANADIAN HOMESTEAD OILS LTD. : COMPANY
WELL. HOMESTEAD ET AL SNIPE 11-28-68-19 : WELL
FLD .                                   : FIELD
LOC .                                   : LOCATION
CTRY.                            CANADA : COUNTRY
SRVC.                      Schlumberger : SERVICE COMPANY
DATE.                       25-Dec-1972 : LOGDATE
PROV.                           Alberta : PROVINCE
UWI .                  100112806819W500 : UNIQUE WELL ID
SLAT.WGS84                     54.91868 : SURFACE LATITUDE
SLON.WGS84                    -116.8396 : SURFACE LONGITUDE
~Curve Information -----------------------------------------
DEPT    .FT    : Depth Curve
CALDED  .IN    : CALIPER FROM DENSITY LOG [ADJ. TO GRSED]
CALSED  .IN    : CALIPER FROM SONIC LOG
CALWS   .IN    : CALIPER [CALSED]
CONDWS  .MMHO  : CONDUCTIVITY [1000/DRESWS]
DRESWS  .OHMM  : DEEP RESISTIVITY [ILDED]
DTED    .US/F  : DELTA TIME FROM SONIC LOG
DTWS    .US/F  : COMPRESSIONAL SONIC [DTED]
GRDED   .GAPI  : GAMMA RAY FROM DENSITY LOG [ADJ. TO GRSED]
GRSED   .GAPI  : GAMMA RAY FROM SONIC LOG
GRWS    .GAPI  : GAMMA RAY [GRSED]
ILDED   .OHMM  : DEEP INDUCTION RESISTIVITY FROM RESISTIVITY LOG
ILMED   .OHMM  : MEDIUM INDUCTION  RESISTIVITY FROM RESISTIVITY LOG
LL8ED   .OHMM  : LATEROLOG 8 FROM RESISTIVITY LOG
MRESWS  .OHMM  : MEDIUM RESISTIVITY [ILMED]
NPHILSED.V/V   : NEUTRON POROSITY LIMESTONE FROM DENSITY LOG
NPHISSED.V/V   : NEUTRON POROSITY SANDSTONE FROM DENSITY LOG
NPOLSWS .V/V   : NEUTRON POROSITY LIMESTONE [NPHISSED MATRIX CONVERSION FOR LIMESTONE, SPL. TO NPHILSED @ 5498']
SPHILSED.V/V   : SONIC POROSITY LIMESTONE [DTM=55.6, DTF=189] FROM SONIC LOG
SPHISSED.V/V   : SONIC POROSITY SANDSTONE [DTM=47.6, DTF=189]  FROM SONIC LOG
SPOWS   .V/V   : SONIC POROSITY [SPHISSED SPL. TO SPHILSED @ 5403']
SPRED   .MV    : SPONTANEOUS POTENTIAL FROM RESISTIVITY LOG
SPWS    .MV    : SPONTANEOUS POTENTIAL [BASELINE 0, MV SPRED]
SRESWS  .OHMM  : SHALLOW RESISTIVITY [LL8ED]
~Params ----------------------------------------------------
PD  .                     GL : PERMANENT DATUM
EPD .FT                 2594 : ELEVATION PERMANENT DATUM
LMF .                     KB : LOG MEASURED FROM
DAPD.FT                   16 : FEET ABOVE PERMANENT DATUM
EKB .FT                 2610 : KELLY BUSHING
EGL .FT                 2594 : GROUND LEVEL
DATE.               12/25/72 : RUN DATE
RUN .                      1 : RUN NUMBER
DD  .FT                 9485 : DEPTH DRILLER
DL  .FT                 9485 : DEPTH LOGGER
BLI .FT                 9479 : BOTTOM LOG INTERVAL
TLI .FT                  972 : TOP LOG INTERVAL
CBD .FT                  972 : CASING BOTTOM DRILLER
CBL .FT                  972 : CASING BOTTOM LOGGER
BS  .IN                7.875 : BIT SIZE
BSD .FT                 9485 : BIT SIZE AT DEPTH
DFT .                    FGM : DRILLING FLUID TYPE
DFD .                    9.1 : DRILLING FLUID DENSITY
DFV .                     75 : DRILLING FLUID VISCOSITY
DFPH.                    9.5 : DRILLING FLUID PH
DFL .                      8 : DRILLING FLUID LOSS
MSS .               MEASURED : MUD SAMPLE SOURCE
RMS .OHMM               2.13 : RESISTIVITY MUD SAMPLE
MST .DEGF                 44 : MUD SAMPLE TEMPERATURE
RMF .OHMM                1.3 : RESISTIVITY MUD FILTRATE SAMPLE
MFST.DEGF                 75 : MUD FILTRATE SAMPLE TEMPERATURE
RMC .OHMM               2.06 : RESISTIVITY MUD CAKE
MCST.DEGF                 52 : MUD CAKE SAMPLE TEMPERATURE
CLNT.                A2DTECH : CLIENT CODE
ORIG.            2" 5" PRINT : ORIGIN OF DATA
UWI .       100112806819W500 : UNIQUE WELL ID
DICO. A2D Technologies, Inc. : DIGITIZING COMPANY
~Other -----------------------------------------------------
DIL-CNL-SLC LOG RUN
CALD/GRD DEPTH SHIFTED TO GRSED
~ASCII -----------------------------------------------------
# ...
 7200.00000    -999.25    8.54750    8.54750   13.65610   73.22720   39.50590   39.50590    -999.25   10.39590   10.39590   73.22720   70.29320  105.99760   70.29320    -999.25    -999.25    -999.25   -0.03930    -999.25   -0.03930 -189.81630 -134.46570  105.99760
 7250.00000    -999.25    8.42300    8.42300   11.78910   84.82410   48.80380   48.80380    -999.25   10.51520   10.51520   84.82410   69.00460  146.18690   69.00460    -999.25    -999.25    -999.25    0.00770    -999.25    0.00770 -192.19970 -137.38230  146.18690
 7300.00000    -999.25    8.45740    8.45740    0.63600 1572.40410   40.53230   40.53230    -999.25   10.89000   10.89000 1572.40410 1371.04320 1344.61690 1371.04320    -999.25    -999.25    -999.25   -0.04420    -999.25   -0.04420 -186.79350 -132.50670 1344.61690
 7350.00000    -999.25    8.40890    8.40890    0.62430 1601.84360   48.99840   48.99840    -999.25   10.77610   10.77610 1601.84360 1398.57630 1425.49980 1398.57630    -999.25    -999.25    -999.25    0.00950    -999.25    0.00950 -185.58940 -131.83850 1425.49980
 7400.00000    -999.25    8.50280    8.50280    0.61130 1635.79830   49.14740   49.14740    -999.25   14.35920   14.35920 1635.79830 1418.79180 1259.16160 1418.79180    -999.25    -999.25    -999.25    0.00950    -999.25    0.00950 -168.49370 -115.27340 1259.16160
 7450.00000    -999.25    8.59080    8.59080    0.65660 1523.10530   49.67130   49.67130    -999.25   12.75490   12.75490 1523.10530  997.57210 1428.97070  997.57210    -999.25    -999.25    -999.25    0.01430    -999.25    0.01430 -171.68850 -119.00410 1428.97070
 7500.00000    -999.25    8.29410    8.29410   28.85890   34.65130   53.50080   53.50080    -999.25    9.58110    9.58110   34.65130   46.22550  166.90470   46.22550    -999.25    -999.25    -999.25    0.04530    -999.25    0.04530 -180.18000 -128.02880  166.90470
 7550.00000    -999.25    8.22690    8.22690   33.73030   29.77460   50.83760   50.83760    -999.25   16.65100   16.65100   29.77460   56.63680  238.12330   56.63680    -999.25    -999.25    -999.25    0.02310    -999.25    0.02310 -180.29190 -128.67130  238.12330
 7600.00000    -999.25    7.77570    7.77570   50.30560   19.87850   55.21460   55.21460    -999.25   11.81180   11.81180   19.87850   37.21990  158.56240   37.21990    -999.25    -999.25    -999.25    0.05610    -999.25    0.05610 -166.07870 -114.99400  158.56240
 7650.00000    -999.25    8.18180    8.18180  139.42500    7.18220   52.64700   52.64700    -999.25   25.10960   25.10960    7.18220    9.42890   28.53050    9.42890    -999.25    -999.25    -999.25    0.03820    -999.25    0.03820 -162.33490 -111.78070   28.53050
 7700.00000    -999.25    8.32650    8.32650    5.73390  174.40140   46.68500   46.68500    -999.25   12.75230   12.75230  174.40140  208.36890  275.40760  208.36890    -999.25    -999.25    -999.25   -0.01530    -999.25   -0.01530 -165.46060 -115.44240  275.40760
 7750.00000    -999.25    8.32070    8.32070  208.75520    4.79030   57.20080   57.20080    -999.25   30.13430   30.13430    4.79030    4.66680    9.69720    4.66680    -999.25    -999.25    -999.25    0.07580    -999.25    0.07580 -138.73190  -89.24690    9.69720
 7800.00000    -999.25    8.29230    8.29230    8.92320  112.07290   52.13820   52.13820    -999.25   27.92020   27.92020  112.07290  129.67680  158.56310  129.67680    -999.25    -999.25    -999.25    0.03300    -999.25    0.03300  -90.11930  -41.16490  158.56310
 7850.00000    -999.25    8.64470    8.64470   45.97570   21.75060   57.59750   57.59750    -999.25   47.25140   47.25140   21.75060   23.94040   26.74460   23.94040    -999.25    -999.25    -999.25    0.07840    -999.25    0.07840  -63.39760  -14.97910   26.74460
 7900.00000    -999.25    8.28010    8.28010    6.47310  155.00110   50.73340   50.73340    -999.25   11.00980   11.00980  155.00110  206.83660  287.63590  206.83660    -999.25    -999.25    -999.25    0.02290    -999.25    0.02290  -87.81160  -39.92370  287.63590
 7950.00000    -999.25    8.36990    8.36990   65.68920   15.22320   40.00960   40.00960    -999.25   33.95030   33.95030   15.22320   18.24300   23.86840   18.24300    -999.25    -999.25    -999.25    0.06120    -999.25    0.06120  -54.67490   -7.32290   23.86840
 8000.00000    -999.25    8.91390    8.91390   85.78460   11.65710   63.02600   63.02600    -999.25   48.26240   48.26240   11.65710   13.85000   19.67010   13.85000    -999.25    -999.25    -999.25    0.10910    -999.25    0.10910  -55.99860   -9.17980   19.67010
 8050.00000    -999.25   10.71370   10.71370  220.94850    4.53430   75.91280   75.91280    -999.25   69.87230   69.87230    4.53430    4.83070    7.52630    4.83070    -999.25    -999.25    -999.25    0.19530    -999.25    0.19530  -66.98540  -20.69720    7.52630
 8100.00000    -999.25   11.88100   11.88100  240.62760    4.15580   74.72780   74.72780    -999.25   74.88940   74.88940    4.15580    3.87770    5.52550    3.87770    -999.25    -999.25    -999.25    0.19460    -999.25    0.19460  -85.44790  -40.50880    5.52550
 8150.00000    -999.25   14.86350   14.86350  326.49570    3.06290   81.09210   81.09210    -999.25   77.69580   77.69580    3.06290    2.59690    4.10180    2.59690    -999.25    -999.25    -999.25    0.23690    -999.25    0.23690  -77.38180  -35.26980    4.10180
 8200.00000    -999.25   13.65100   13.65100  301.80480    3.31340   82.60950   82.60950    -999.25   77.30590   77.30590    3.31340    2.91070    4.56660    2.91070    -999.25    -999.25    -999.25    0.24880    -999.25    0.24880  -93.85730  -54.60080    4.56660
 8250.00000    -999.25   14.23350   14.23350  247.07830    4.04730   75.70960   75.70960    -999.25   64.50280   64.50280    4.04730    3.83930    6.11800    3.83930    -999.25    -999.25    -999.25    0.19820    -999.25    0.19820  -99.52200  -63.10680    6.11800
 8300.00000    -999.25   13.34550   13.34550  327.85720    3.05020   83.14430   83.14430    -999.25   84.57670   84.57670    3.05020    2.71630    4.51450    2.71630    -999.25    -999.25    -999.25    0.24850    -999.25    0.24850  -98.33280  -64.74480    4.51450
 8350.00000    -999.25   13.94570   13.94570  311.50710    3.21020   81.38270   81.38270    -999.25   81.26410   81.26410    3.21020    2.84670    4.40170    2.84670    -999.25    -999.25    -999.25    0.24100    -999.25    0.24100  -80.33840  -49.60590    4.40170
 8400.00000    -999.25   13.66930   13.66930  312.21420    3.20300   81.14070   81.14070    -999.25   74.49690   74.49690    3.20300    2.99730    4.64000    2.99730    -999.25    -999.25    -999.25    0.23950    -999.25    0.23950  -60.99860  -33.09320    4.64000
 8450.00000    -999.25    8.14420    8.14420  126.31050    7.91700   64.32420   64.32420    -999.25   56.70270   56.70270    7.91700    9.42690   12.90140    9.42690    -999.25    -999.25    -999.25    0.12520    -999.25    0.12520  -56.14980  -31.10000   12.90140
 8500.00000    -999.25    8.07800    8.07800  106.79080    9.36410   63.79340   63.79340    -999.25   61.67980   61.67980    9.36410   10.64810   15.97280   10.64810    -999.25    -999.25    -999.25    0.12090    -999.25    0.12090  -46.43600  -24.22750   15.97280
 8550.00000    -999.25    8.15360    8.15360  122.85570    8.14020   66.01320   66.01320    -999.25   75.19860   75.19860    8.14020    9.17150   12.77250    9.17150    -999.25    -999.25    -999.25    0.13770    -999.25    0.13770  -36.77090  -17.38950   12.77250
 8600.00000    -999.25    8.10070    8.10070  137.70500    7.26190   67.36790   67.36790    -999.25   78.02500   78.02500    7.26190    8.29650   11.32060    8.29650    -999.25    -999.25    -999.25    0.14550    -999.25    0.14550  -27.09130  -10.56540   11.32060
 8650.00000    -999.25    8.04870    8.04870   86.66480   11.54830   62.38130   62.38130    -999.25   59.88740   59.88740   11.54830   13.57660   21.76610   13.57660    -999.25    -999.25    -999.25    0.11300    -999.25    0.11300  -33.95210  -19.45040   21.76610
 8700.00000    -999.25    8.15020    8.15020  152.39720    6.56180   68.00860   68.00860    -999.25   77.28640   77.28640    6.56180    7.12870    9.77290    7.12870    -999.25    -999.25    -999.25    0.15880    -999.25    0.15880  -39.33710  -26.39990    9.77290
