~Version ---------------------------------------------------
VERS.      2.0 : CWLS log ASCII Standard -VERSION 2.0
WRAP.       NO : One line per depth step
CREA. 12/01/17 : LAS Creation Date
~Well ------------------------------------------------------
STRT.FT                       1000.0 : START DEPTH
STOP.FT                       9450.0 : STOP DEPTH
STEP.FT                     50.00000 : STEP LENGTH
NULL.                        -999.25 : NULL VALUE
COMP.          TEXACO CANADA LIMITED : COMPANY
WELL. TEXCAN FINA SUNSET 10-13-69-20 : WELL
FLD .                                : FIELD
LOC .                                : LOCATION
CTRY.                         CANADA : COUNTRY
SRVC.                  Dresser Atlas : SERVICE COMPANY
DATE.                    24-Dec-1969 : LOGDATE
PROV.                        Alberta : PROVINCE
UWI .               100101306920W500 : UNIQUE WELL ID
SLAT.WGS84                  54.97681 : SURFACE LATITUDE
SLON.WGS84                 -116.9067 : SURFACE LONGITUDE
~Curve Information -----------------------------------------
DEPT  .FT    : Depth Curve
ACED  .US/F  : DELTA TIME (ACOUSTIC) FROM SONIC LOG [ADJ. TO RESISTIVITY LOG]
CALSED.IN    : CALIPER FROM SONIC LOG [ADJ. TO RESISTIVITY LOG]
CALWS .IN    : CALIPER [CALSED]
CONDWS.MMHO  : CONDUCTIVITY [1000/DRESWS]
DRESWS.OHMM  : DEEP RESISTIVITY [ILDED]
DTWS  .US/F  : COMPRESIONAL SONIC [ACED]
GRSED .GAPI  : GAMMA RAY FROM SONIC LOG [ADJ. TO RESISTIVITY LOG]
GRWS  .GAPI  : GAMMA RAY [GRSED]
ILDED .OHMM  : DEEP INDUCTION RESISTIVITY FROM RESISTIVITY LOG
ILMED .OHMM  : MEDIUM INDUCTION RESISTIVITY FROM RESISTIVITY LOG
MRESWS.OHMM  : MEDIUM RESISTIVITY [ILMED]
SFLED .OHMM  : SPHERICALLY FOCUSED RESISTIVITY FROM RESISTIVITY LOG
SPRED .MV    : SPONTANEOUS POTENTIAL FROM RESISTIVITY LOG
SPWS  .MV    : SPONTANEOUS POTENTIAL [BASELINE 0 MV, SPRED]
SRESWS.OHMM  : SHALLOW RESISTIVITY [SFLED]
~Params ----------------------------------------------------
PD  .                     GL : PERMANENT DATUM
EPD .FT                 2371 : ELEVATION PERMANENT DATUM
LMF .                     KB : LOG MEASURED FROM
DAPD.FT                   14 : FEET ABOVE PERMANENT DATUM
DMF .                     KB : DRILLING MEASURED FROM
EKB .FT                 2385 : KELLY BUSHING
EGL .FT                 2371 : GROUND LEVEL
DATE.               12/24/69 : RUN DATE
RUN .                      1 : RUN NUMBER
DD  .FT                 9457 : DEPTH DRILLER
DL  .FT                 9460 : DEPTH LOGGER
BLI .FT                 9458 : BOTTOM LOG INTERVAL
TLI .FT                  982 : TOP LOG INTERVAL
CS  .IN                8.625 : CASING SIZE
CBD .FT                  982 : CASING BOTTOM DRILLER
CBL .FT                  982 : CASING BOTTOM LOGGER
BS  .IN                7.875 : BIT SIZE
BSD .FT                 9457 : BIT SIZE AT DEPTH
DFT .                MUD GEL : DRILLING FLUID TYPE
DFD .                    9.5 : DRILLING FLUID DENSITY
DFV .                     90 : DRILLING FLUID VISCOSITY
DFPH.                    9.5 : DRILLING FLUID PH
DFL .                    8.3 : DRILLING FLUID LOSS
MSS .                   CIRC : MUD SAMPLE SOURCE
RMS .OHMM               1.85 : RESISTIVITY MUD SAMPLE
MST .DEGF                 68 : MUD SAMPLE TEMPERATURE
RMF .OHMM                1.5 : RESISTIVITY MUD FILTRATE SAMPLE
MFST.DEGF                 68 : MUD FILTRATE SAMPLE TEMPERATURE
RMC .OHMM                2.2 : RESISTIVITY MUD CAKE
MCST.DEGF                 68 : MUD CAKE SAMPLE TEMPERATURE
MFSS.                   MEAS : MUD FILTRATE SAMPLE SOURCE
MCSS.                   MEAS : MUD CAKE SAMPLE SOURCE
RMB .OHMM               0.62 : RESISTIVITY MUD AT BHT
TCS .HRS                   3 : TIME CIRCULATED STOPPED
LUN .                   6002 : LOGGING UNIT NUMBER
LUL .                     VV : LOGGING UNIT LOCATION
ENGI.       OFFORD KOWALCHUK : RECORDING ENGINEER
WITN.                BEATTIE : WITNESSED BY
CLNT.                A2DTECH : CLIENT CODE
ORIG.            2" 5" PRINT : ORIGIN OF DATA
UWI .       100101306920W500 : UNIQUE WELL ID
DICO. A2D Technologies, Inc. : DIGITIZING COMPANY
~Other -----------------------------------------------------
DIL-SFL-BHC LOG RUN
~ASCII -----------------------------------------------------
 1000.00000  132.43800   10.40650   10.40650  264.66930    3.77830  132.43800   68.13920   68.13920    3.77830    3.60870    3.60870    3.97350  -60.58690   -9.08400    3.97350
 1050.00000  169.65390    9.60370    9.60370  194.65100    5.13740  169.65390   64.19070   64.19070    5.13740    5.78930    5.78930    7.26240  -67.09570   -8.03860    7.26240
 1100.00000  200.34160   12.13840   12.13840  272.46470    3.67020  200.34160   67.39490   67.39490    3.67020    3.43260    3.43260    4.06590  -56.86770   -1.81990    4.06590
 1150.00000  156.14820   10.25170   10.25170  245.20620    4.07820  156.14820   72.43460   72.26790    4.07820    3.89180    3.89180    5.33330  -58.07030   -3.91640    5.33330
 1200.00000  138.53800    9.34330    9.34330  195.13840    5.12530  138.53800   68.51300   69.43370    5.12530    4.51950    4.51950    5.19880  -58.26220   -4.81870    5.19880
 1250.00000  127.89500    8.92730    8.92730  202.04060    4.94950  127.89500   70.90720   70.13850    4.94950    4.68470    4.68470    5.19910  -54.29060   -1.55280    5.19910
 1300.00000  122.11350    8.73350    8.73350  113.05950    8.84490  122.11350   67.81880   66.72360    8.84490    8.45070    8.45070    6.36180  -67.69470   -9.40290    6.36180
 1350.00000  101.18100    9.02810    9.02810   87.94770   11.37040  101.18100   61.22990   65.15360   11.37040    9.97700    9.97700    8.51830  -66.42510   -6.19140    8.51830
 1400.00000  135.79620   12.02270   12.02270  256.75260    3.89480  135.79620   70.75970   70.87680    3.89480    3.72560    3.72560    4.48050  -61.56650   -2.00220    4.48050
 1450.00000  134.87520   11.66020   11.66020  246.54520    4.05660  134.87520   78.22190   78.69270    4.05660    3.88580    3.88580    4.57560  -61.30870   -2.41820    4.57560
 1500.00000  135.54080    8.89440    8.89440  146.87090    6.80870  135.54080   56.66490   57.66630    6.80870    7.29570    7.29570    6.22210  -64.34260   -6.12150    6.22210
 1550.00000  136.34250   10.43870   10.43870  255.26480    3.91750  136.34250   79.26440   75.92120    3.91750    3.67490    3.67490    4.22570  -62.07290   -4.52120    4.22570
 1600.00000  125.47110    9.52390    9.52390  252.86370    3.95470  125.47110   70.91500   70.28820    3.95470    4.09170    4.09170    4.56300  -60.21550   -3.14470    4.56300
 1650.00000  136.25790    9.95600    9.95600  288.03500    3.47180  136.25790   85.19250   86.44320    3.47180    3.37290    3.37290    3.97840  -58.85010   -2.03590    3.97840
 1700.00000  124.83180    8.98370    8.98370  228.09510    4.38420  124.83180   91.83920   89.66990    4.38420    4.11040    4.11040    4.59760  -59.13170   -2.57580    4.59760
 1750.00000  108.94890    8.44230    8.44230  162.05620    6.17070  108.94890  110.60650  109.78330    6.17070    5.89060    5.89060    6.96660  -60.26810   -3.96880    6.96660
 1800.00000  124.30740    8.40800    8.40800  165.45610    6.04390  124.30740  124.07740  122.73530    6.04390    5.87610    5.87610    6.32120  -60.27030   -4.22760    6.32120
 1850.00000  118.25450    7.77580    7.77580  159.61180    6.26520  118.25450  141.52400  141.42640    6.26520    5.89800    5.89800    6.59010  -58.37960   -5.89260    6.59010
 1900.00000  122.38830    8.07970    8.07970  144.52120    6.91940  122.38830  166.57190  164.56950    6.91940    6.41130    6.41130    7.43000  -50.85540   -2.39360    7.43000
 1950.00000  120.71680    7.78170    7.78170  163.43080    6.11880  120.71680  124.81990  121.20730    6.11880    5.62820    5.62820    6.29730  -50.69350   -3.05470    6.29730
 2000.00000  111.30600    8.07950    8.07950  154.61690    6.46760  111.30600  109.58170  110.48800    6.46760    6.28720    6.28720    6.86310  -52.47730   -2.80500    6.86310
 2050.00000  115.56450    8.64100    8.64100  152.69970    6.54880  115.56450  108.31930  115.76120    6.54880    6.33290    6.33290    6.81750  -47.92890   -1.89680    6.81750
 2100.00000  111.51420    8.57330    8.57330  159.86700    6.25520  111.51420  108.04200  108.73980    6.25520    6.09060    6.09060    6.61180  -46.39400   -4.52590    6.61180
 2150.00000  117.61650    8.99330    8.99330  139.66090    7.16020  117.61650  121.92720  119.62270    7.16020    6.80680    6.80680    6.31360  -47.36540   -5.28870    6.31360
 2200.00000   86.89650    9.44270    9.44270  120.61200    8.29190   86.89650  111.63410  114.07330    8.29190    7.77060    7.77060    9.74560  -45.73970   -3.45300    9.74560
 2250.00000  139.82410    9.53420    9.53420  173.64430    5.75890  139.82410  125.24530  126.71970    5.75890    5.52280    5.52280    6.17770  -45.57930   -3.08400    6.17770
 2300.00000  106.24900    8.74140    8.74140  103.83890    9.63030  106.24900  110.23460  111.52890    9.63030    9.17860    9.17860    8.04390  -47.29120   -4.58720    8.04390
 2350.00000  113.13040    8.52190    8.52190  141.48270    7.06800  113.13040  118.68300  118.49560    7.06800    6.41930    6.41930    6.98610  -44.79940   -1.88550    6.98610
 2400.00000  133.13430    8.56100    8.56100  136.99570    7.29950  133.13430  108.57960  107.91760    7.29950    6.93390    6.93390    8.07270  -45.38920   -2.37920    8.07270
 2450.00000  148.26340    8.80450    8.80450  172.69990    5.79040  148.26340  123.04030  121.35400    5.79040    5.62750    5.62750    6.19270  -48.53120   -5.52120    6.19270
 2500.00000  129.61320    8.91850    8.91850  160.45960    6.23210  129.61320  122.45170  123.07860    6.23210    5.94020    5.94020    6.60250  -52.44030   -9.43030    6.60250
 2550.00000  117.44900   11.53640   11.53640  169.03880    5.91580  117.44900  131.90760  135.97950    5.91580    5.61930    5.61930    6.41150  -46.79840   -3.78840    6.41150
 2600.00000  119.46200   12.99890   12.99890  135.90830    7.35790  119.46200  142.01650  143.08180    7.35790    6.96120    6.96120    7.64350  -58.76860  -13.53930    7.64350
 2650.00000  119.40770   12.82220   12.82220  153.55320    6.51240  119.40770  130.42200  130.49290    6.51240    6.18480    6.18480    7.01280  -63.66120  -12.40800    7.01280
 2700.00000  124.18960   10.78750   10.78750  156.00770    6.41000  124.18960  147.56910  151.08650    6.41000    6.81040    6.81040    8.70800  -63.59860   -7.58970    8.70800
 2750.00000  108.02880   11.65550   11.65550  128.71500    7.76910  108.02880  123.12240  123.12240    7.76910    8.00080    8.00080    9.66320  -64.24920   -8.24030    9.66320
 2800.00000  102.50260   10.73270   10.73270  161.83850    6.17900  102.50260   97.45040   96.15640    6.17900    5.86310    5.86310    6.22580  -65.39270   -9.38380    6.22580
 2850.00000  115.34380   10.82450   10.82450  174.96890    5.71530  115.34380  116.88810  117.20730    5.71530    6.12730    6.12730    6.67040  -62.31010   -6.30120    6.67040
 2900.00000  130.78880   11.83880   11.83880  195.53400    5.11420  130.78880  110.43760  114.00150    5.11420    5.36630    5.36630    5.92600  -60.66930   -4.66040    5.92600
 2950.00000  132.20770   10.60400   10.60400  170.59990    5.86180  132.20770  104.49370  104.78550    5.86180    6.28280    6.28280    6.32540  -61.70640   -5.69750    6.32540
 3000.00000   97.42900   11.54980   11.54980  139.99720    7.14300   97.42900  115.33560  120.90400    7.14300    7.58240    7.58240    6.95740  -62.24460   -6.23570    6.95740
 3050.00000  105.53740    9.42240    9.42240  221.75900    4.50940  105.53740  116.08330  113.45610    4.50940    4.70540    4.70540    5.14440  -61.26580   -5.25690    5.14440
 3100.00000  109.19460    9.11670    9.11670  176.98180    5.65030  109.19460  116.20180  111.08020    5.65030    5.89650    5.89650    6.00470  -61.34010   -5.65080    6.00470
 3150.00000  121.17510    9.77890    9.77890  217.02800    4.60770  121.17510  118.59720  117.83170    4.60770    4.80890    4.80890    5.26770  -60.82270   -6.41180    5.26770
 3200.00000  123.72620    8.09890    8.09890  249.61360    4.00620  123.72620  126.68560  133.28090    4.00620    4.18060    4.18060    5.03690  -60.27010   -7.14610    5.03690
 3250.00000  116.62710    8.10840    8.10840  282.19090    3.54370  116.62710  207.26550  177.76480    3.54370    3.70350    3.70350    4.86240  -55.64030   -3.79470    4.86240
