~Version ---------------------------------------------------
VERS.      2.0 : CWLS log ASCII Standard -VERSION 2.0
WRAP.       NO : One line per depth step
CREA. 12/18/17 : LAS Creation Date
~Well ------------------------------------------------------
STRT.FT                         850.0 : START DEPTH
STOP.FT                        9350.0 : STOP DEPTH
STEP.FT                      50.00000 : STEP LENGTH
NULL.                         -999.25 : NULL VALUE
COMP. CALIFORNIA STANDARD OIL COMPANY : COMPANY
WELL.  CALSTAN GOOSE RIVER 4-34-67-18 : WELL
FLD .                                 : FIELD
LOC .                                 : LOCATION
CTRY.                          CANADA : COUNTRY
SRVC.                    Schlumberger : SERVICE COMPANY
DATE.                     23-Feb-1963 : LOGDATE
PROV.                         Alberta : PROVINCE
UWI .                100043406718W500 : UNIQUE WELL ID
SLAT.WGS84                   54.83765 : SURFACE LATITUDE
SLON.WGS84                  -116.6666 : SURFACE LONGITUDE
~Curve Information -----------------------------------------
DEPT  .FT    : Depth Curve
CALSED.IN    : CALIPER FROM SONIC LOG
CALWS .IN    : CALIPER [CALSED]
CILDED.MMHO  : DEEP INDUCTION CONDUCTIVITY FROM RESISTIVITY LOG
CONDWS.MMHO  : CONDUCTIVITY [1000/DRESWS]
DRESWS.OHMM  : DEEP RESISTIVITY [1000/CILDED IF ILDED<=1, IDLED]
DTED  .US/F  : DELTA-T FROM SONIC LOG
DTWS  .US/F  : COMPRESSIONAL SONIC [DTED]
GRSED .GAPI  : GAMMA RAY FROM SONIC LOG
GRWS  .GAPI  : GAMMA RAY [GRSED]
ILDED .OHMM  : DEEP INDUCTION RESISTIVITY FROM RESISTIVITY LOG
SNED  .OHMM  : SHORT NORMAL RESISTIVITY FROM RESISTIVITY LOG
SPRED .MV    : SPONTANEOUS POTENTIAL FROM RESISTIVITY LOG
SPWS  .MV    : SPONTANEOUS POTENTIAL [BASELINE 0 MV, SPRED]
SRESWS.OHMM  : SHALLOW RESISTIVITY [SNED]
~Params ----------------------------------------------------
PD  .                     GL : PERMANENT DATUM
EPD .FT                 2528 : ELEVATION PERMANENT DATUM
LMF .                     KB : LOG MEASURED FROM
DAPD.FT                   13 : FEET ABOVE PERMANENT DATUM
EKB .FT                 2541 : KELLY BUSHING
EGL .FT                 2528 : GROUND LEVEL
DATE.               02/23/63 : RUN DATE
RUN .                      2 : RUN NUMBER
DD  .FT                 9393 : DEPTH DRILLER
DL  .FT                 9370 : DEPTH LOGGER
BLI .FT                 9369 : BOTTOM LOG INTERVAL
TLI .FT                 7200 : TOP LOG INTERVAL
CBD .FT                  949 : CASING BOTTOM DRILLER
CBL .FT                  948 : CASING BOTTOM LOGGER
BS  .IN                 8.75 : BIT SIZE
BSD .FT                 9393 : BIT SIZE AT DEPTH
DFT .               GEL CHEM : DRILLING FLUID TYPE
DFD .                    9.3 : DRILLING FLUID DENSITY
DFV .                    165 : DRILLING FLUID VISCOSITY
DFPH.                    9.5 : DRILLING FLUID PH
DFL .                    7.6 : DRILLING FLUID LOSS
MSS .            CIRCULATION : MUD SAMPLE SOURCE
RMS .OHMM               2.03 : RESISTIVITY MUD SAMPLE
MST .DEGF                 45 : MUD SAMPLE TEMPERATURE
RMF .OHMM               1.49 : RESISTIVITY MUD FILTRATE SAMPLE
MFST.DEGF                 63 : MUD FILTRATE SAMPLE TEMPERATURE
RMC .OHMM               2.37 : RESISTIVITY MUD CAKE
MCST.DEGF                 63 : MUD CAKE SAMPLE TEMPERATURE
RMB .OHMM               0.69 : RESISTIVITY MUD AT BHT
TCS .HRS                   3 : TIME CIRCULATED STOPPED
LUN .                   1534 : LOGGING UNIT NUMBER
LUL .                     VV : LOGGING UNIT LOCATION
ENGI.                MCKEOWN : RECORDING ENGINEER
WITN.                  SMITH : WITNESSED BY
CLNT.                A2DTECH : CLIENT CODE
ORIG.            2" 5" PRINT : ORIGIN OF DATA
UWI .       100043406718W500 : UNIQUE WELL ID
DICO. A2D Technologies, Inc. : DIGITIZING COMPANY
~Other -----------------------------------------------------
~ASCII -----------------------------------------------------
  850.00000    -999.25    -999.25    -999.25    -999.25    -999.25    -999.25    -999.25   44.98440   44.98440    -999.25    -999.25    -999.25    -999.25    -999.25
  900.00000    -999.25    -999.25    -999.25    -999.25    -999.25    -999.25    -999.25   50.65060   50.65060    -999.25    -999.25    -999.25    -999.25    -999.25
  950.00000   14.12230   14.12230    -999.25    -999.25    -999.25  139.67470  139.67470   47.04410   47.04410    -999.25    3.77540 -133.52820   -3.84510    3.77540
 1000.00000   12.21810   12.21810  261.77970  283.44670    3.52800  139.62920  139.62920   61.97070   61.97070    3.51380    3.88980 -131.51890   -1.83580    3.88980
 1050.00000   10.33030   10.33030  181.71450  208.99640    4.78480  132.32420  132.32420   65.74620   65.74620    4.78250    5.24520 -132.18430   -2.59650    5.24520
 1100.00000    8.54730    8.54730   85.57600   79.68320   12.54970  116.08670  116.08670   53.13690   53.13690   12.49710   12.62450 -140.70040  -11.23730   12.62450
 1150.00000    8.76870    8.76870  123.41810  125.85350    7.95690  118.70720  118.70720   54.16190   54.16190    7.89730    7.76080 -139.95350  -10.61420    7.76080
 1200.00000    9.25800    9.25800  165.01420  171.25930    5.83910  112.27260  112.27260   60.13800   60.13800    5.83910    6.34380 -132.86750   -3.65280    6.34380
 1250.00000    8.62930    8.62930   90.97280   87.31110   11.45330  113.84340  113.84340   57.82750   57.82750   11.44610   10.11130 -140.53560  -11.44470   10.11130
 1300.00000    8.92060    8.92060   93.00180   87.51210   11.43030  117.00420  117.00420   61.41120   61.41120   11.39140    8.70430 -140.00700  -11.04000    8.70430
 1350.00000    9.48350    9.48350  111.90270  114.36150    8.74420  108.70590  108.70590   55.92570   55.92570    8.85670    9.55430 -130.48220   -1.63980    9.55430
 1400.00000   11.18130   11.18130  239.09340  230.11560    4.36830  103.37210  103.37210   49.99900   49.99900    4.43120    4.99090 -131.33830   -2.61970    4.99090
 1450.00000   11.96940   11.96940  265.46740  304.32140    3.28600  135.15590  135.15590   46.27020   46.27020    3.28600    4.31310 -129.37240   -0.77840    4.31310
 1500.00000   13.05600   13.05600  330.21340  334.13530    2.99280  136.86590  136.86590   49.95660   49.95660    2.97240    3.60690 -130.90680   -2.43670    3.60690
 1550.00000   10.26880   10.26880  217.58900  218.17980    4.58470  129.01040  129.01040   57.02690   57.02690    4.60030    4.21300 -129.46280   -1.14870    4.21300
 1600.00000    8.61230    8.61230   43.11750   42.36660   23.60350   65.30800   65.30800   37.79160   37.79160   24.04470   26.39270 -131.56790   -3.66870   26.39270
 1650.00000    8.92590    8.92590  170.98680  168.71300    5.93050  107.30000  107.30000   60.82000   60.82000    5.95810    6.34380 -130.90470   -3.41760    6.34380
 1700.00000    9.79330    9.79330  266.13910  272.79180    3.66580  138.98770  138.98770   54.72200   54.72200    3.66580    4.07630 -129.37700   -2.30480    4.07630
 1750.00000   12.43350   12.43350  279.06890  296.41930    3.37360  138.30710  138.30710   54.37940   54.37940    3.40540    4.29250 -129.72900   -3.15600    4.29250
 1800.00000   10.23930   10.23930  164.30090  171.94580    5.82200  101.28950  101.28950   52.79780   52.79780    5.78400    6.34890 -130.54370   -5.26930    6.34890
 1850.00000    8.33190    8.33190   95.41420   91.51810   10.92680  114.35530  114.35530   44.78790   44.78790   10.91560   12.11990 -145.07620  -19.45100   12.11990
 1900.00000    9.39750    9.39750  146.67220  141.57260    7.06370  107.81680  107.81680   51.91620   51.91620    7.06990    7.67390 -131.81100   -5.63150    7.67390
 1950.00000   10.47060   10.47060  292.05910  312.04170    3.20470  120.01190  120.01190   65.98930   65.98930    3.20470    3.87380 -128.80920   -2.07170    3.87380
 2000.00000   11.53170   11.53170  263.26510  280.00220    3.57140  113.59470  113.59470   63.71280   63.71280    3.57840    4.40140 -128.42000   -1.56620    4.40140
 2050.00000    9.67900    9.67900  177.94560  181.60520    5.50770  102.43430  102.43430   57.52830   57.52830    5.49080    5.98850 -128.96840   -1.99830    5.98850
 2100.00000   10.64230   10.64230  192.19230  198.53480    5.03690  107.02020  107.02020   70.52970   70.52970    5.04460    5.99830 -128.82700   -1.73990    5.99830
 2150.00000   14.12110   14.12110  159.47860  159.27900    6.27830  139.79830  139.79830   60.50520   60.50520    6.27670    5.86430 -131.23110   -4.02770    5.86430
 2200.00000   13.63910   13.63910  163.93030  170.87010    5.85240  137.98800  137.98800   60.65540   60.65540    5.85240    6.28470 -131.65970   -4.33930    6.28470
 2250.00000   13.30580   13.30580  175.73240  175.91390    5.68460  110.91600  110.91600   93.52630   93.52630    5.67980    7.05450 -129.88140   -2.44470    7.05450
 2300.00000   11.77060   11.77060  135.22910  129.16140    7.74460  108.29070  108.29070  115.39090  115.39090    7.71790    9.41310 -129.52520   -1.83510    9.41310
 2350.00000   11.71690   11.71690  163.92730  169.66690    5.89390  116.63210  116.63210   83.59280   83.59280    5.89170    6.70150 -129.89180   -1.89730    6.70150
 2400.00000   14.20830   14.20830  151.87220  149.97600    6.66800  133.94410  133.94410   60.61190   60.61190    6.67560    6.17320 -133.17740   -4.88050    6.17320
 2450.00000   14.18780   14.18780  176.71200  170.12590    5.87800    -999.25    -999.25   64.34640   64.34640    5.87800    5.55000 -133.27460   -4.67340    5.55000
 2500.00000   11.59240   11.59240  130.89300  135.08770    7.40260  102.28280  102.28280   81.04610   81.04610    7.42670    7.74130 -132.85230   -3.94870    7.74130
 2550.00000   13.71810   13.71810  145.20590  145.91870    6.85340  117.50040  117.50040   67.39860   67.39860    6.86280    6.48710 -134.36750   -5.16160    6.48710
 2600.00000   13.61540   13.61540  138.42840  136.08770    7.34820  100.86300  100.86300   69.82170   69.82170    7.33370    6.70510 -133.18390   -3.67360    6.70510
 2650.00000   14.14540   14.14540  151.78930  149.58140    6.68670  118.93230  118.93230   67.15130   67.15130    6.70550    6.32710 -132.85300   -3.04030    6.32710
 2700.00000   14.12310   14.12310  124.26400  123.75930    8.08020  104.33270  104.33270   58.67600   58.67600    8.08020    7.11460 -132.64250   -2.88920    7.11460
 2750.00000   14.01130   14.01130  135.85800  133.88490    7.46910  112.65870  112.65870   64.90590   64.90590    7.48520    6.79500 -132.36000   -3.30940    6.79500
 2800.00000   11.27070   11.27070  140.37790  140.28970    7.12840   73.16040   73.16040   65.56910   65.56910    7.13670    6.37800 -131.57560   -3.22770    6.37800
 2850.00000   11.63480   11.63480  111.13380  109.98920    9.09180   91.28430   91.28430   76.20180   76.20180    9.11210    8.42790 -131.81540   -4.17480    8.42790
 2900.00000   13.48840   13.48840  166.21880  168.99620    5.91730  102.66150  102.66150   82.67640   82.67640    5.91590    6.51060 -130.27730   -3.33940    6.51060
 2950.00000   12.36890   12.36890  174.37610  173.49670    5.76380  102.62040  102.62040   90.78920   90.78920    5.76380    6.62450 -128.77190   -2.55290    6.62450
 3000.00000   12.76970   12.76970  152.37500  150.81140    6.63080  111.66730  111.66730   84.21990   84.21990    6.62870    7.75290 -128.88580   -3.72190    7.75290
 3050.00000   11.83310   11.83310  155.20110  152.22240    6.56940  107.70740  107.70740   84.73370   84.73370    6.56520    8.00230 -128.67120   -4.56230    8.00230
 3100.00000    9.36520    9.36520   89.58680   84.81840   11.78990   98.18910   98.18910  121.20990  121.20990   11.80960   16.79750 -126.32520   -3.27830   16.79750
 3150.00000    9.21410    9.21410  121.80120  119.66860    8.36050  112.76220  112.76220  136.93730  136.93730    8.32340   12.67420 -126.68440   -4.69250   12.67420
 3200.00000   11.07480   11.07480  166.90440  170.50590    5.86490   95.22730   95.22730   85.05170   85.05170    5.86490    6.45760 -128.98440   -7.66680    6.45760
 3250.00000   10.22440   10.22440  202.70120  201.18300    4.97060   96.77530   96.77530   82.02880   82.02880    4.93770    6.07040 -126.68240   -5.75760    6.07040
