~Version ---------------------------------------------------
VERS. 2.0 : CWLS log ASCII Standard -VERSION 2.0
WRAP.  NO : ONE LINE PER DEPTH STEP
~Well ------------------------------------------------------
STRT.M                                    400.0 : START DEPTH
STOP.M                                   2550.0 : STOP DEPTH
STEP.M                                 50.00000 : STEP LENGTH
NULL.                                   -999.25 : NULL VALUE
COMP.              HUSKY OIL OPERATIONS LIMITED : COMPANY
WELL. CANTERRA ET AL TWINING 10-30-32-23 #10-30 : WELL
FLD .                                           : FIELD
LOC .                                           : LOCATION
CTRY.                                    CANADA : COUNTRY
SRVC.                              Schlumberger : SERVICE COMPANY
DATE.                               19-Sep-1988 : LOGDATE
PROV.                                   Alberta : PROVINCE
UWI .                          100103003223W400 : UNIQUE WELL ID
SLAT.WGS84                             51.77547 : SURFACE LATITUDE
SLON.WGS84                            -113.2476 : SURFACE LONGITUDE
~Curve Information -----------------------------------------
DEPT   .M    0   1   0  0 : 1 MEASURED DEPTH
GRS    .GAPI 60 310 01 00 : GAMMA RAY FROM SONIC LOG
DT     .US/M 60 500 00 00 : DELTA-T (INTERVAL TRANSIT TIME)
CALS   .MM   60 280 50 00 : CALIPER FROM SONIC LOG
TENS   .KG   60 635 00 00 : TENSION FROM SONIC LOG
GRR_1  .GAPI 11 310 01 00 : GAMMA RAY FROM RESISTIVITY LOG
SPR_1  .MV   11 010 01 00 : SPONTANEOUS POTENTIAL FROM RESISTIVITY
LLD    .OHMM 11 220 10 00 : LATEROLOG DEEP RESISTIVITY
LLS    .OHMM 11 220 09 00 : LATEROLOG SHALLOW RESISTIVITY
TENR_1 .LB   11 635 00 00 : TENSION FROM RESISTIVITY LOG
GRR    .GAPI 07 310 01 00 : GAMMA RAY FROM RESISTIVITY LOG
ILD    .OHMM 07 120 46 00 : INDUCTION DEEP RESISTIVITY
ILM    .OHMM 07 120 44 00 : INDUCTION MEDIUM RESISTIVITY
SFLU   .OHMM 07 220 01 00 : SHALLOW FOCUSED RESISTIVITY (UNAVERAGED)
TENR   .KG   07 635 00 00 : TENSION FROM RESISTIVITY LOG
SPR    .MV   07 010 01 00 : SPONTANEOUS POTENTIAL FROM RESISTIVITY LOG
NPHI_LS.DEC  42 890 01 00 : NEUTRON POROSITY LIMESTONE
GRD    .GAPI 45 310 01 00 : GAMMA RAY FROM DENSITY LOG
DRHO   .K/M3 45 356 01 00 : BULK DENSITY CORRECTION
PEF    .B/E  45 358 01 00 : PHOTOELECTRIC FACTOR
RHOB   .K/M3 45 350 01 00 : BULK DENSITY
TEND   .KG   45 635 00 00 : TENSION FROM DENSITY LOG
CALD   .MM   45 280 60 00 : CALIPER FROM DENSITY LOG
CALSD  .MM   45 280 60 00 : MICRO RESISTIVITY CALIPER FROM DENSITY
NPHI_SS.DEC  42 890 03 00 : NEUTRON POROSITY SANDSTONE
~Params ----------------------------------------------------
PD  .                         GL : PERMANENT DATUM
EPD .M                     882.7 : ELEVATION PERMANENT DATUM
LMF .                         KB : LOG MEASURED FROM
DAPD.M                       4.9 : FEET ABOVE PERMANENT DATUM
DMF .                         KB : DRILLING MEASURED FROM
EKB .M                     887.6 : KELLY BUSHING
EDF .M                     887.4 : DRILLING FLOOR
EGL .M                     882.7 : GROUND LEVEL
DATE.                   09/19/88 : RUN DATE
RUN .                          1 : RUN NUMBER
DD  .M                      2564 : DEPTH DRILLER
DL  .M                    2561.2 : DEPTH LOGGER
BLI .M                    2560.7 : BOTTOM LOG INTERVAL
TLI .M                     392.2 : TOP LOG INTERVAL
CS  .MM                    244.5 : CASING SIZE
CBD .M                       393 : CASING BOTTOM DRILLER
CBL .M                     392.2 : CASING BOTTOM LOGGER
BS  .MM                      222 : BIT SIZE
BSD .M                      2564 : BIT SIZE AT DEPTH
DFT .                   GEL CHEM : DRILLING FLUID TYPE
DFD .                       1070 : DRILLING FLUID DENSITY
DFV .                        120 : DRILLING FLUID VISCOSITY
DFPH.                       10.5 : DRILLING FLUID PH
DFL .                          9 : DRILLING FLUID LOSS
MSS .                   FLOWLINE : MUD SAMPLE SOURCE
RMS .OHMM                   1.48 : RESISTIVITY MUD SAMPLE
MST .DEGC                   15.5 : MUD SAMPLE TEMPERATURE
RMF .OHMM                    0.9 : RESISTIVITY MUD FILTRATE SAMPLE
MFST.DEGC                   15.5 : MUD FILTRATE SAMPLE TEMPERATURE
RMC .OHMM                   2.31 : RESISTIVITY MUD CAKE
MCST.DEGC                   15.5 : MUD CAKE SAMPLE TEMPERATURE
MFSS.                   MEASURED : MUD FILTRATE SAMPLE SOURCE
MCSS.                 CALCULATED : MUD CAKE SAMPLE SOURCE
RMB .OHMM                  0.575 : RESISTIVITY MUD AT BHT
TCS .HRS                    1100 : TIME CIRCULATED STOPPED
TLAB.HRS                     630 : TIME LOGGER AT BOTTOM
LUN .                       8175 : LOGGING UNIT NUMBER
LUL .                     BROOKS : LOGGING UNIT LOCATION
ENGI.                    CAMERON : RECORDING ENGINEER
WITN.                    JOHNSON : WITNESSED BY
CLNT.                    A2DTECH : CLIENT CODE
ORIG. 6.5"/100M 16.5"/100M PRINT : ORIGIN OF DATA
UWI .           100103003223W400 : UNIQUE WELL ID
DICO.     A2D Technologies, Inc. : DIGITIZING COMPANY
~Other -----------------------------------------------------
~ASCII -----------------------------------------------------
# ...
 1850.00000   10.36970  178.51730  236.97200  992.64180    -999.25    -999.25    -999.25    -999.25    -999.25   11.73960   60.31180   53.60540  138.20710  698.70440 -141.96320    0.01590    9.57260   29.57190    5.36070 2907.90090  996.70320  239.08260  233.44280    0.04900
 1900.00000   21.95950  167.37600  268.38680 1023.94270    -999.25    -999.25    -999.25    -999.25    -999.25   18.71460   59.74240   46.65270  195.57940  732.58190 -141.56450    0.06390   20.50190   17.43260    3.72080 2795.36990 1041.77170  253.28900  269.34000    0.09990
 1950.00000   10.41410  162.57690  265.27620 1041.40590    -999.25    -999.25    -999.25    -999.25    -999.25   11.73920  264.90500  123.44120 1327.55310  736.57530 -178.91490   -0.00140    8.00750   59.54080    4.96940 2927.19460 1045.23580  253.27930  270.93730    0.01420
 2000.00000   14.51570  157.11350  244.95760 1063.36720    -999.25    -999.25    -999.25    -999.25    -999.25   14.37640   44.47490   78.61870  606.22960  765.22220 -294.55560    0.07180   14.05780    3.81970    3.28220 2796.30810 1077.30770  252.92340  236.14290    0.11120
 2050.00000   30.14190  167.93470  242.47940 1091.91650    -999.25    -999.25    -999.25    -999.25    -999.25   28.11040 1914.82800  278.71900 1841.42330  789.10890 -183.96030    0.01450   29.05310   11.44900    4.55610 2726.17430 1084.84900  231.11530  238.27550    0.04650
 2100.00000   85.83390  191.87990  245.49790 1113.48690    -999.25    -999.25    -999.25    -999.25    -999.25   95.21390   45.74620   43.09400   56.98530  796.70610   19.75160    0.08140   90.86190   10.00840    3.91660 2714.58690 1137.15390  238.46230  254.09360    0.12300
 2150.00000   87.83010  199.22930  248.86960 1141.00900   78.82150 -323.96250   48.56140   47.34760 3413.96880   88.93460   38.34520   33.98570   51.98840  813.75460    -999.25    0.10840   90.23370   15.73200    4.34420 2722.96410 1164.06120  242.10430  234.17280    0.15230
 2200.00000   35.91560  189.53570  239.04240 1162.60410   33.13780 -419.27360   60.69370   35.62990 3615.35600   41.89300   35.96750   26.96930   44.56830  825.92310  -43.15800    0.05090   36.78530   10.71510    4.80270 2686.98290 1182.91920  228.91410  230.39880    0.09030
 2250.00000   12.10210  172.18960  246.66320 1171.30250   13.97750    -999.25   65.15730   58.17610 3515.78780   14.06430   53.03190   41.94600   64.56640  855.74810   31.57410    0.01880   12.26510    5.87460    4.50170 2666.93800 1187.11820  219.97110  287.70560    0.05620
 2300.00000   43.06430  175.48060  230.83260 1198.36390   43.33190 -502.77120  194.23690  160.04640 3604.45140   42.67380  152.29440  103.92520  183.69830  859.40200    -999.25    0.05010   42.06990    8.12330    4.38430 2706.15500 1195.67330  219.85000  229.01500    0.08990
 2350.00000   23.47370  163.45300  242.66640 1216.54130   22.98240 -327.29500 4048.53490 3257.08470 3559.50710   23.77620 2065.49830  226.89800 1984.62720  884.94500  -98.02870    0.01220   23.01650   13.73950    4.49780 2702.85210 1238.68810  217.74360  300.46620    0.04160
 2400.00000   11.08490  192.09740  222.63700 1231.50400    -999.25    -999.25    -999.25    -999.25 2537.78880   14.29570    4.45690    5.70050   21.61900  902.40950 -313.76330    0.11240   15.87220   20.52450    4.93810 2566.04930 1256.25950  204.80780  220.37280    0.15230
 2450.00000   31.08200  166.28700  224.33780 1276.71610    -999.25    -999.25    -999.25    -999.25    -999.25   29.46680 1860.10800  833.77820  887.51100  917.65660 -242.13620    0.01940   27.45840   16.31460    4.87300 2722.60550 1277.49180  215.66490  217.56110    0.05620
 2500.00000   25.81170  183.97110  223.50960 1283.70010    -999.25    -999.25    -999.25    -999.25    -999.25   28.36780   61.61530   57.89640  104.27140  936.63350 -342.00920    0.05850   24.91310   15.13970    4.40930 2744.15330 1315.87830  216.47040  213.12260    0.09890
 2550.00000    -999.25  226.46620    -999.25 1284.22940    -999.25    -999.25    -999.25    -999.25    -999.25  151.92330    7.07120    6.76060    8.81970  939.06570 -518.26270    0.14510    -999.25   26.37750    3.36260 2543.73950 1336.93260  216.21260    -999.25    0.18550
