~Version ---------------------------------------------------
VERS.      2.0 : CWLS log ASCII Standard -VERSION 2.0
WRAP.       NO : One line per depth step
CREA. 08/22/13 : LAS Creation Date
~Well ------------------------------------------------------
STRT.M                            400.0 : START DEPTH
STOP.M                           2800.0 : STOP DEPTH
STEP.M                         50.00000 : STEP LENGTH
NULL.                           -999.25 : NULL VALUE
COMP.      HUSKY OIL OPERATIONS LIMITED : COMPANY
WELL. HUSKY ET AL VALLEYVIEW 14-3-70-21 : WELL
FLD .                                   : FIELD
LOC .                                   : LOCATION
CTRY.                            CANADA : COUNTRY
SRVC.                           Unknown : SERVICE COMPANY
DATE.                       23-Feb-1984 : LOGDATE
PROV.                           Alberta : PROVINCE
UWI .                  100140307021W500 : UNIQUE WELL ID
SLAT.WGS84                     55.03659 : SURFACE LATITUDE
SLON.WGS84                    -117.1192 : SURFACE LONGITUDE
~Curve Information -----------------------------------------
DEPT    .M      : DEPTH METER
CALDED  .MM     : CALIPER FROM DENSITY LOG
CALRED  .MM     : CALIPER FROM DLL-MSFL LOG
CALSED  .MM     : CALIPER FROM SONIC LOG
CALWS   .MM     : CALIPER [CALRED]
CONDWS  .MMHO   : CONDUCTIVITY [1000/DRESWS]
DCORWS  .KG/M3  : DENSITY CORRECTION [DRHOED]
DENWS   .KG/M3  : FORMATION BULK DENSITY [CALC FROM DPOLSWS, M=2710, F=1000]
DPHILSED.V/V    : DENSITY POROSITY LIMESTONE [M=2710,F=1000] FROM DENSITY LOG
DPHISSED.V/V    : DENSITY POROSITY SANDSTONE [M=2650,F=1000] FROM DENSITY LOG
DPOLSWS .V/V    : DENSITY POROSITY LIMESTONE [DPHISSED CONVERTED TO LIMESTONE MATRIX, M=2710,F=1000 SPL.TO DPHILSED @ 1476.6M]
DRESWS  .OHMM   : DEEP RESISTIVITY [LLDED]
DRHOED  .KG/M3  : DENSITY CORRECTION FROM DENSITY LOG
DTED    .US/M   : DELTA TIME FROM SONIC LOG
DTWS    .US/M   : COMPRESSIONAL SONIC [DTED]
GRDED   .GAPI   : GAMMA RAY FROM DENSITY LOG
GRSED   .GAPI   : GAMMA RAY FROM SONIC LOG
GRWS    .GAPI   : GAMMA RAY [GRSED]
ILDED   .OHMM   : DEEP INDUCTION FROM DIL-SFL LOG
ILMED   .OHMM   : MEDIUM INDUCTION FROM DIL-SFL LOG
LLDED   .OHMM   : DEEP LATEROLOG FROM DLL-MSFL LOG
LLSED   .OHMM   : SHALLOW LATEROLOG FROM DLL-MSFL LOG
MRESWS  .OHMM   : MEDIUM RESISTIVITY [ILMED]
MSFLED  .OHMM   : MICRO SPHERICALLY FOCUSED FROM DLL-MSFL LOG
NPHILSED.V/V    : NEUTRON POROSITY LIMESTONE FROM DENSITY LOG
NPHISSED.V/V    : NEUTRON POROSITY SANDSTONE FROM DENSITY LOG
NPOLSWS .V/V    : NEUTRON POROSITY LIMESTONE [NPHISSED MATRIX (SLB) CONVERSION FOR LIMESTONE, SPL.TO NPHILSED @ 1476.7M]
RHOBED  .KG/M3  : BULK DENSITY FROM DENSITY LOG
SFLUED  .OHMM   : SHALLOW FOCUSED FROM DIL-SFL LOG
SPR1ED  .MV     : SPONTANEOUS POTENTIAL FROM DIL-SFL LOG
SPRED   .MV     : SPONTANEOUS POTENTIAL FROM DLL-MSFL LOG
SPWS    .MV     : SPONTANEOUS POTENTIAL [BASELINE 0 MV, SPRED]
SRESWS  .OHMM   : SHALLOW RESISTIVITY [LLSED SPL.TO SFLUED @ 2824.5M]
~Params ----------------------------------------------------
PD  .                         GL : PERMANENT DATUM
EPD .M                     645.8 : ELEVATION PERMANENT DATUM
LMF .                         KB : LOG MEASURED FROM
DAPD.M                      6.45 : FEET ABOVE PERMANENT DATUM
DMF .                         KB : DRILLING MEASURED FROM
EKB .M                    652.25 : KELLY BUSHING
EDF .M                    651.95 : DRILLING FLOOR
EGL .M                     645.8 : GROUND LEVEL
DATE.                   02/23/84 : RUN DATE
RUN .                          1 : RUN NUMBER
DD  .M                      2835 : DEPTH DRILLER
DL  .M                      2829 : DEPTH LOGGER
BLI .M                      2828 : BOTTOM LOG INTERVAL
TLI .M                      2780 : TOP LOG INTERVAL
CS  .MM                      244 : CASING SIZE
CBD .M                       432 : CASING BOTTOM DRILLER
CBL .M                       434 : CASING BOTTOM LOGGER
BS  .MM                      222 : BIT SIZE
BSD .M                      2835 : BIT SIZE AT DEPTH
DFT .                   GEL CHEM : DRILLING FLUID TYPE
DFD .                       1110 : DRILLING FLUID DENSITY
DFV .                         64 : DRILLING FLUID VISCOSITY
DFPH.                       11.5 : DRILLING FLUID PH
DFL .                          9 : DRILLING FLUID LOSS
MSS .                   FLOWLINE : MUD SAMPLE SOURCE
RMS .OHMM                   2.67 : RESISTIVITY MUD SAMPLE
MST .DEGC                     18 : MUD SAMPLE TEMPERATURE
RMF .OHMM                   2.76 : RESISTIVITY MUD FILTRATE SAMPLE
MFST.DEGC                   17.8 : MUD FILTRATE SAMPLE TEMPERATURE
MFSS.                      PRESS : MUD FILTRATE SAMPLE SOURCE
MCSS.                      PRESS : MUD CAKE SAMPLE SOURCE
RMB .OHMM                  1.008 : RESISTIVITY MUD AT BHT
TCS .HRS                    1500 : TIME CIRCULATED STOPPED
TLAB.HRS                      30 : TIME LOGGER AT BOTTOM
LUN .                       8208 : LOGGING UNIT NUMBER
LUL .                        EDM : LOGGING UNIT LOCATION
ENGI.                     SMILEY : RECORDING ENGINEER
WITN.                    KENNEDY : WITNESSED BY
CLNT.                    A2DTECH : CLIENT CODE
ORIG. 6.5"/100M 16.5"/100M PRINT : ORIGIN OF DATA
UWI .           100140307021W500 : UNIQUE WELL ID
DICO.     A2D Technologies, Inc. : DIGITIZING COMPANY
~Other -----------------------------------------------------
DIL-MSFL-DI-SFL-FDC-CNL-BHC LOG RUN
RHOB,DRHO FROM SMALL SCALE SECTION
~ASCII -----------------------------------------------------
  400.00000    -999.25    -999.25    -999.25    -999.25    -999.25    -999.25    -999.25    -999.25    -999.25    -999.25    -999.25    -999.25    -999.25    -999.25    -999.25   52.17190   52.17190    -999.25    -999.25    -999.25    -999.25    -999.25    -999.25    -999.25    -999.25    -999.25    -999.25    -999.25    -999.25    -999.25    -999.25    -999.25
  450.00000  254.59810  232.87220  262.57530  232.87220  108.80450   22.66940 2105.83000    -999.25    0.32980    0.35330    9.19080   22.66940  404.91790  404.91790   90.78510  102.27660  102.27660    -999.25    -999.25    9.19080    7.16900    -999.25    6.43510    -999.25    0.54430    0.50680 2099.17580    -999.25    -999.25  -33.97020   -4.22260    7.16900
  500.00000  261.49650  226.25520  280.23920  226.25520   98.78880   56.37100 2179.58500    -999.25    0.28510    0.31020   10.12260   56.37100  370.38170  370.38170   77.78260   88.90120   88.90120    -999.25    -999.25   10.12260    7.92360    -999.25    7.17570    -999.25    0.43540    0.39330 2179.58500    -999.25    -999.25  -33.94850   -4.03460    7.92360
  550.00000  300.69690  226.06850  341.88680  226.06850   97.72020   48.50440 1991.15500    -999.25    0.39930    0.42040   10.23330   48.50440  334.07590  334.07590   68.91990   80.82130   80.82130    -999.25    -999.25   10.23330    8.01300    -999.25    5.57760    -999.25    0.48060    0.44000 1991.15500    -999.25    -999.25  -36.78490   -6.48440    8.01300
  600.00000  293.13230  240.21430  332.35550  240.21430  103.52720   67.98250 2042.80000    -999.25    0.36800    0.39020    9.65930   67.98250  330.54690  330.54690   75.12430   85.55680   85.55680    -999.25    -999.25    9.65930    7.70800    -999.25    7.96100    -999.25    0.52240    0.48370 2042.80000    -999.25    -999.25  -37.03360   -6.34650    7.70800
  650.00000  312.47920  252.61390  286.20470  252.61390  120.22270   20.06560 1989.34000    -999.25    0.40040    0.42140    8.31790   20.06560  398.77320  398.77320   84.53770   96.53310   96.53310    -999.25    -999.25    8.31790    7.04370    -999.25    5.24040    -999.25    0.46630    0.42510 1989.34000    -999.25    -999.25  -36.78180   -5.70810    7.04370
  700.00000  242.06370  218.46860  250.80780  218.46860   93.02150   88.86130 2379.07000    -999.25    0.16420    0.19350   10.75020   88.86130  360.33760  360.33760  102.55330  116.40860  116.40860    -999.25    -999.25   10.75020   10.10350    -999.25   12.32240    -999.25    0.42450    0.38220 2379.07000    -999.25    -999.25  -33.93250   -2.47220   10.10350
  750.00000  272.09040  215.90430  287.55070  215.90430  156.26710   86.94940 1937.53000    -999.25    0.43180    0.45170    6.39930   86.94940  338.11460  338.11460   77.50400   89.04180   89.04180    -999.25    -999.25    6.39930    5.54660    -999.25    4.94360    -999.25    0.51490    0.47580 1937.53000    -999.25    -999.25  -36.15810   -4.31110    5.54660
  800.00000  386.60030  221.88550  266.33080  221.88550  142.75520   28.95890 1614.95500    -999.25    0.62730    0.64040    7.00500   28.95890  308.16640  308.16640   88.97200  100.48550  100.48550    -999.25    -999.25    7.00500    5.90570    -999.25    7.22940    -999.25    0.46440    0.42320 1614.95500    -999.25    -999.25  -34.66630   -2.43260    5.90570
  850.00000  367.82930  212.24860  284.40100  212.24860  223.79880   18.54390 2246.74000    -999.25    0.24440    0.27090    4.46830   18.54390  333.59740  333.59740   83.74680   94.48160   94.48160    -999.25    -999.25    4.46830    4.16290    -999.25    3.88130    -999.25    0.52750    0.48910 2246.74000    -999.25    -999.25  -36.19490   -3.57460    4.16290
  900.00000  313.85920  250.33360  317.92630  250.33360  271.95340  128.96600 2004.19000    -999.25    0.39140    0.41280    3.67710  128.96600  352.97120  352.97120   75.98750   85.36460   85.36460    -999.25    -999.25    3.67710    3.24620    -999.25    2.83770    -999.25    0.51300    0.47380 2004.19000    -999.25    -999.25  -34.57710   -1.57020    3.24620
  950.00000  283.07610  226.46730  318.10040  226.46730  209.97820   77.56320 2099.56000    -999.25    0.33360    0.35700    4.76240   77.56320  338.22320  338.22320   79.11050   91.12000   91.12000    -999.25    -999.25    4.76240    4.34960    -999.25    3.41350    -999.25    0.46230    0.42100 2099.56000    -999.25    -999.25  -42.11810   -8.86670    4.34960
 1000.00000  285.58440  254.93120  287.50740  254.93120  296.38410   75.08600 1973.83000    -999.25    0.40980    0.43050    3.37400   75.08600  340.61050  340.61050   63.22260   71.76780   71.76780    -999.25    -999.25    3.37400    3.21100    -999.25    2.61470    -999.25    0.52540    0.48690 1973.83000    -999.25    -999.25  -39.21760   -5.76270    3.21100
 1050.00000  219.06680  211.25080  222.09200  211.25080   61.74710   31.69970 2370.32500    -999.25    0.16950    0.19860   16.19510   31.69970  252.50310  252.50310   46.17590   52.30890   52.30890    -999.25    -999.25   16.19510   21.47980    -999.25   38.07340    -999.25    0.29840    0.25440 2385.06150    -999.25    -999.25  -82.30250  -48.64420   21.47980
 1100.00000  307.38060  255.41130  283.65680  255.41130  232.45540   61.46390 1845.95500    -999.25    0.48730    0.50530    4.30190   61.46390  315.47180  315.47180   74.67040   85.19260   85.19260    -999.25    -999.25    4.30190    3.97100    -999.25    5.05780    -999.25    0.44080    0.39890 1859.09200    -999.25    -999.25  -42.05920   -8.19740    3.97100
 1150.00000  219.29760  206.48180  230.72770  206.48180   89.37350   28.76710 2307.62500    -999.25    0.20750    0.23530   11.18900   28.76710  289.13720  289.13720   54.71310   60.44680   60.44680    -999.25    -999.25   11.18900   14.60250    -999.25   20.69940    -999.25    0.34020    0.29650 2305.61230    -999.25    -999.25  -88.75590  -54.69070   14.60250
 1200.00000  249.76140  242.00970  247.64250  242.00970  164.97570    4.83330 2473.12000    -999.25    0.10720    0.13850    6.06150    4.83330  285.23530  285.23530   78.01010   88.77130   88.77130    -999.25    -999.25    6.06150    6.34340    -999.25    8.83020    -999.25    0.32630    0.28240 2473.63450    -999.25    -999.25  -45.01280  -10.99350    6.34340
 1250.00000  244.43970  243.12930  249.83960  243.12930  162.54350   -5.55480 2486.98000    -999.25    0.09880    0.13040    6.15220   -5.55480  282.93380  282.93380   75.11530   84.79210   84.79210    -999.25    -999.25    6.15220    6.41320    -999.25    7.95270    -999.25    0.30840    0.26450 2485.89870    -999.25    -999.25  -43.53000  -10.15540    6.41320
 1300.00000  283.89730  253.36660  289.48820  253.36660  146.05790   63.48930 2002.37500    -999.25    0.39250    0.41380    6.84660   63.48930  284.66490  284.66490   73.93130   84.46280   84.46280    -999.25    -999.25    6.84660    6.65840    -999.25    7.36330    -999.25    0.38390    0.34070 2029.29380    -999.25    -999.25  -38.90930   -6.17930    6.65840
 1350.00000  324.07470  293.79910  343.93270  293.79910  223.79380  126.44940 2147.24500    -999.25    0.30470    0.32910    4.46840  126.44940  301.25830  301.25830   76.28550   87.20200   87.20200    -999.25    -999.25    4.46840    4.25390    -999.25    4.28240    -999.25    0.46950    0.42840 2147.24500    -999.25    -999.25  -36.93410   -4.84890    4.25390
 1400.00000  228.35880  223.98770  230.25720  223.98770    1.29020    7.18470 2334.85000    -999.25    0.19100    0.21940  775.04690    7.18470  253.30880  253.30880  273.74620  299.85200  299.85200    -999.25    -999.25  775.04690  942.58990    -999.25 1536.01400    -999.25    0.29490    0.25090 2328.26730    -999.25    -999.25  -45.31660   -8.89990  942.58990
 1450.00000  263.30340  242.53460  258.12840  242.53460  109.40800    5.61900 2426.75500    -999.25    0.13530    0.16560    9.14010    5.61900  234.54140  234.54140   58.31070   64.22930   64.22930    -999.25    -999.25    9.14010   12.06360    -999.25   24.93430    -999.25    0.21860    0.17490 2420.74440    -999.25    -999.25  -76.63590  -41.03520   12.06360
