~Version ---------------------------------------------------
VERS.      2.0 : CWLS log ASCII Standard -VERSION 2.0
WRAP.       NO : One line per depth step
CREA. 12/15/17 : LAS Creation Date
~Well ------------------------------------------------------
STRT.FT                          300.0 : START DEPTH
STOP.FT                         9800.0 : STOP DEPTH
STEP.FT                       50.00000 : STEP LENGTH
NULL.                          -999.25 : NULL VALUE
COMP.        CANADIAN GULF OIL COMPANY : COMPANY
WELL.              CGOC  IOSEGUN 15-28 : WELL
FLD .                                  : FIELD
LOC .                                  : LOCATION
CTRY.                           CANADA : COUNTRY
SRVC. Schlumberger Well Surveying Corp : SERVICE COMPANY
DATE.                      08-Aug-1954 : LOGDATE
PROV.                          Alberta : PROVINCE
UWI .                 100152806721W500 : UNIQUE WELL ID
SLAT.WGS84                    54.83244 : SURFACE LATITUDE
SLON.WGS84                   -117.1373 : SURFACE LONGITUDE
~Curve Information -----------------------------------------
DEPT   .FT         : Depth Curve
CONDWS .MMHO       : CONDUCTIVITY [1000/DRESWS]
DRESWS .OHMM       : DEEP RESISTIVITY [LNED]
GRN1ED .UgRa-Eq/T  : GAMMA RAY FROM GRN LOG [ADJ. TO EL LOG]
GRNED  .GAPI       : GAMMA RAY FROM NEUTRON LOG [ADJ. TO EL LOG]
GRWS   .GAPI       : GAMMA RAY [GRNED SPL. TO GRN1ED*16.50 @ 9390']
LNED   .OHMM       : 64 INCH LONG NORMAL RESISTIVITY FROM EL LOG
LT18ED .OHMM       : LATERAL 18' FROM EL LOG
NEUT1ED.NAPI       : NEUTRON FROM GRN LOG [ADJ. TO EL LOG]
NEUTED .NAPI       : NEUTRON FROM NEUTRON LOG [ADJ. TO EL LOG]
NEUTWS .NAPI       : NEUTRON [NEUTED SPL. TO NEUT1ED @ 9596']
SNED   .OHMM       : 16 INCH SHORT NORMAL RESISTIVITY FROM EL LOG
SPRED  .MV         : SPONTANEOUS POTENTIAL FROM EL LOG
SPWS   .MV         : SPONTANEOUS POTENTIAL [BASELINE 0 MV, SPRED]
SRESWS .OHMM       : SHALLOW RESISTIVITY [SNED]
~Params ----------------------------------------------------
LMF .                     KB : LOG MEASURED FROM
DMF .                     KB : DRILLING MEASURED FROM
EKB .FT                 2318 : KELLY BUSHING
DATE.               08/08/54 : RUN DATE
RUN .                      2 : RUN NUMBER
DD  .FT                 9832 : DEPTH DRILLER
DL  .FT                 9832 : DEPTH LOGGER
BLI .FT                 9832 : BOTTOM LOG INTERVAL
TLI .FT                 9667 : TOP LOG INTERVAL
CBD .FT                  597 : CASING BOTTOM DRILLER
CBL .FT                  597 : CASING BOTTOM LOGGER
BS  .IN                    9 : BIT SIZE
BSD .FT                 9832 : BIT SIZE AT DEPTH
DFT .                AQUAGEL : DRILLING FLUID TYPE
DFD .                   10.5 : DRILLING FLUID DENSITY
DFV .                    250 : DRILLING FLUID VISCOSITY
DFPH.                     10 : DRILLING FLUID PH
DFL .                    5.2 : DRILLING FLUID LOSS
MSS .               FLOWLINE : MUD SAMPLE SOURCE
RMS .OHMM                2.0 : RESISTIVITY MUD SAMPLE
MST .DEGF                 59 : MUD SAMPLE TEMPERATURE
RMB .OHMM                0.7 : RESISTIVITY MUD AT BHT
TCS .HRS                   2 : TIME CIRCULATED STOPPED
LUN .                    770 : LOGGING UNIT NUMBER
LUL .                     PR : LOGGING UNIT LOCATION
ENGI.                 CARSON : RECORDING ENGINEER
WITN.              SCHOMAKER : WITNESSED BY
CLNT.                A2DTECH : CLIENT CODE
ORIG.            2" 5" PRINT : ORIGIN OF DATA
UWI .       100152806721W500 : UNIQUE WELL ID
DICO. A2D Technologies, Inc. : DIGITIZING COMPANY
~Other -----------------------------------------------------
~ASCII -----------------------------------------------------
# ...
 7650.00000    6.31420  158.46760    -999.25    7.33810    7.33810  158.46760  969.95910    -999.25  489.98590  489.98590   63.51380 -325.48460 -187.37690   63.51380
 7700.00000    2.94290  339.79700    -999.25    5.91550    5.91550  339.79700  357.21020    -999.25  658.89690  658.89690  130.93790 -334.39600 -197.14030  130.93790
 7750.00000    2.65580  376.54080    -999.25    3.06110    3.06110  376.54080  658.29940    -999.25  679.17800  679.17800  129.79830 -305.33360 -168.92570  129.79830
 7800.00000    3.13490  318.98790    -999.25    7.32520    7.32520  318.98790  551.00380    -999.25  686.10260  686.10260  119.91310 -290.39440 -154.83010  119.91310
 7850.00000   20.40550   49.00630    -999.25   14.41210   14.41210   49.00630   94.22820    -999.25  488.06790  488.06790   35.05440 -319.64380 -184.93140   35.05440
 7900.00000    6.77200  147.67630    -999.25   16.56800   16.56800  147.67630  161.61800    -999.25  559.80300  559.80300   71.35830 -313.44140 -179.57260   71.35830
 7950.00000   34.58600   28.91340    -999.25   15.13220   15.13220   28.91340   21.08510    -999.25  458.52950  458.52950   30.07230 -310.21360 -177.19680   30.07230
 8000.00000   13.47120   74.23270    -999.25   17.74230   17.74230   74.23270   17.47350    -999.25  545.83190  545.83190   50.47470 -308.54330 -176.37430   50.47470
 8050.00000    4.04130  247.49750    -999.25   15.91550   15.91550  247.49750  675.51660    -999.25  676.09140  676.09140   91.28180 -300.85960 -169.53420   91.28180
 8100.00000    3.64970  273.99460    -999.25   13.82910   13.82910  273.99460  523.25680    -999.25  575.01570  575.01570   93.54640 -318.58070 -188.10720   93.54640
 8150.00000    2.22260  449.91530    -999.25   20.70190   20.70190  449.91530 1037.55310    -999.25  604.33970  604.33970  120.01120 -302.48130 -172.85140  120.01120
 8200.00000   21.76360   45.94820    -999.25   26.40590   26.40590   45.94820   99.42330    -999.25  456.53610  456.53610   25.79320 -265.14850 -136.37060   25.79320
 8250.00000    2.54670  392.66330    -999.25   18.49850   18.49850  392.66330  832.55600    -999.25  489.52610  489.52610  125.84320 -230.38680 -102.45670  125.84320
 8300.00000   10.67740   93.67690    -999.25   34.20210   34.20210   93.67690   72.70700    -999.25  304.44730  304.44730   46.44240 -210.72100  -83.63440   46.44240
 8350.00000    1.68080  594.96810    -999.25    6.70760    6.70760  594.96810 1250.40630    -999.25  597.52340  597.52340  149.21500 -231.16120 -104.92660  149.21500
 8400.00000    2.37860  420.61810    -999.25   11.86560   11.86560  420.61810 1428.31130    -999.25  673.96960  673.96960  115.36010 -232.61090 -107.21980  115.36010
 8450.00000   43.83310   22.81380    -999.25   38.77690   38.77690   22.81380   20.60000    -999.25  162.59690  162.59690   13.23880 -214.80590  -90.26690   13.23880
 8500.00000   71.81950   13.92380    -999.25   36.68670   36.68670   13.92380   20.85800    -999.25  203.15990  203.15990   10.77760 -207.49380  -83.80260   10.77760
 8550.00000   72.88910   13.74140    -999.25   36.31690   36.31690   13.74140   20.31260    -999.25  223.36780  223.36780   13.77560 -195.55210  -72.70440   13.77560
 8600.00000   73.76590   13.55640    -999.25   38.06990   38.06990   13.55640   14.03220    -999.25  117.89330  117.89330    7.49430 -214.12180  -92.12610    7.49430
 8650.00000   84.65390   11.81320    -999.25   38.74880   38.74880   11.81320   10.95950    -999.25  180.95220  180.95220    7.54690 -209.19610  -88.04400    7.54690
 8700.00000   70.11300   14.26270    -999.25   35.76380   35.76380   14.26270    8.38390    -999.25  149.26740  149.26740    8.82590 -211.97280  -91.67270    8.82590
 8750.00000   98.44070   10.15840    -999.25   37.33550   37.33550   10.15840   12.17890    -999.25   99.28220   99.28220    5.94100 -201.26590  -81.81350    5.94100
 8800.00000   88.81340   11.25960    -999.25   38.24490   38.24490   11.25960   12.96190    -999.25   63.44090   63.44090    6.27680 -206.29790  -87.68910    6.27680
 8850.00000  100.83080    9.91760    -999.25   44.45560   44.45560    9.91760   10.00820    -999.25   77.07420   77.07420    6.26580 -195.61200  -77.85520    6.26580
 8900.00000   39.55400   25.28190    -999.25   33.80360   33.80360   25.28190   19.88700    -999.25  306.97660  306.97660   18.61390 -183.48780  -66.57450   18.61390
 8950.00000   27.39340   36.50520    -999.25   42.67110   42.67110   36.50520   25.51070    -999.25  353.69670  353.69670   28.63410 -185.01180  -68.95060   28.63410
 9000.00000   42.05410   23.77890    -999.25   49.64490   49.64490   23.77890   18.07650    -999.25  277.91270  277.91270   18.12490 -181.46520  -66.25170   18.12490
 9050.00000   47.99430   20.83580    -999.25   52.82090   52.82090   20.83580   19.40740    -999.25  269.83290  269.83290   16.26850 -174.30690  -59.93690   16.26850
 9100.00000   42.59220   23.47850    -999.25   47.73100   47.73100   23.47850   16.02660    -999.25  250.02870  250.02870   19.88880 -164.36640  -50.84850   19.88880
 9150.00000   50.91180   19.64180    -999.25   57.37880   57.37880   19.64180   17.35160    -999.25  273.76170  273.76170   16.97210 -162.65050  -49.97610   16.97210
 9200.00000   69.35250   14.41910    -999.25   51.63430   51.63430   14.41910   10.07870    -999.25  168.84110  168.84110   10.04350 -173.54450  -61.72210   10.04350
 9250.00000   46.88410   21.32920    -999.25   48.20180   48.20180   21.32920   19.20810    -999.25  305.39650  305.39650   21.44700 -156.48200  -45.50740   21.44700
 9300.00000   65.64110   15.23440   31.62180   73.93840   73.93840   15.23440   12.88540  423.06130  215.83540  215.83540   10.49870 -164.56090  -54.42990   10.49870
 9350.00000    1.80190  554.96010   47.19110  138.90400  138.90400  554.96010  652.28120  462.60310  318.95890  318.95890  179.64140 -149.81160  -40.53260  179.64140
 9400.00000    5.70370  175.35930   34.36940   96.92800  567.09430  175.35930  686.75030  443.50310  269.23510  269.23510   69.01620 -151.50600  -43.07050   69.01620
 9450.00000    2.79480  357.80610   15.43660   16.75660  254.70390  357.80610  236.41010  631.44150  691.64610  691.64610  140.17790 -145.43030  -37.84680  140.17790
 9500.00000    1.02010  980.27460   14.81030   12.46420  244.36990  980.27460 1257.97990  750.43040  905.30010  905.30010  194.60280 -167.92900  -61.19330  194.60280
 9550.00000    1.82970  546.57530   11.59970    9.12120  191.39440  546.57530 1624.73840  711.48120  860.87560  860.87560   86.79350 -222.59760 -116.70540   86.79350
 9600.00000    2.44200  409.49600   14.53210   27.23740  239.77970  409.49600  192.03110  596.08620  582.28220  596.08620  166.11990 -189.12160  -84.08150  166.11990
 9650.00000    6.94130  144.06500   20.07590   44.81620  331.25230  144.06500  236.30140  503.66860  490.74280  503.66860   56.84720 -114.08290   -9.88630   56.84720
 9700.00000    7.10700  140.70600   19.14840    -999.25  315.94860  140.70600  190.28570  512.50210    -999.25  512.50210   58.00780 -110.46170   -2.50180   58.00780
 9750.00000    0.84170 1188.11620   13.31300    -999.25  219.66450 1188.11620 1147.78600  740.00640    -999.25  740.00640  220.05370 -127.98130  -20.02140  220.05370
 9800.00000    3.47020  289.18710   17.51830    -999.25  289.05190  289.18710 3523.53020  664.08730    -999.25  664.08730   53.72870 -124.44580  -16.48590   53.72870
