~Version ---------------------------------------------------
VERS.      2.0 : CWLS log ASCII Standard -VERSION 2.0
WRAP.       NO : One line per depth step
CREA. 12/15/17 : LAS Creation Date
~Well ------------------------------------------------------
STRT.FT                  1000.0 : START DEPTH
STOP.FT                  9550.0 : STOP DEPTH
STEP.FT                50.00000 : STEP LENGTH
NULL.                   -999.25 : NULL VALUE
COMP.      THE PURE OIL COMPANY : COMPANY
WELL. PURE SAKWATAMAU 7-7-63-14 : WELL
FLD .                           : FIELD
LOC .                           : LOCATION
CTRY.                    CANADA : COUNTRY
SRVC.              Schlumberger : SERVICE COMPANY
DATE.               26-Dec-1963 : LOGDATE
PROV.                   Alberta : PROVINCE
UWI .          100070706314W500 : UNIQUE WELL ID
SLAT.WGS84              54.4354 : SURFACE LATITUDE
SLON.WGS84            -116.1027 : SURFACE LONGITUDE
~Curve Information -----------------------------------------
DEPT  .FT    : Depth Curve
CALDED.IN    : CALIPER FROM DENSITY LOG
CALWS .IN    : CALIPER [MCALED]
CILDED.MMHO  : CONDUCTIVITY FROM RESISTIVITY LOG
CONDWS.MMHO  : CONDUCTIVITY [1000/DRESWS]
DENED .SCPS  : BULK DENSITY FROM DENSITY LOG
DRESWS.OHMM  : DEEP RESISTIVITY [1000/CILDED IF ILDED<2, ILDED]
DT1ED .US/F  : DELTA TIME [BOTTOM SECTION] SPAN 1 FT [ADJ. TO DTED]
DTED  .US/F  : DELTA TIME 3 FT SPACING 3 FT PICKUP SPAN FROM SONIC LOG
DTWS  .US/F  : COMPRESSIONAL SONIC [DTED]
GRSED .GAPI  : GAMMA RAY FROM SONIC LOG
GRWS  .GAPI  : GAMMA RAY [GRSED]
ILDED .OHMM  : DEEP INDUCTION FROM RESISTIVITY LOG
MCALED.IN    : CALIPER FROM MICROLOG [ADJ. TO RESISTIVITY LOG]
SNED  .OHMM  : 16 INCH SHORT NORMAL RESISTIVITY FROM RESISTIVITY LOG
SPRED .MV    : SPONTANEOUS POTENTIAL FROM RESISTIVITY LOG
SPWS  .MV    : SPONTANEOUS POTENTIAL [BASELINE 0 MV, SPRED]
SRESWS.OHMM  : SHALLOW RESISTIVITY [SNED]
~Params ----------------------------------------------------
PD  .                     GL : PERMANENT DATUM
EPD .FT                  329 : ELEVATION PERMANENT DATUM
LMF .                     KB : LOG MEASURED FROM
DAPD.FT                   15 : FEET ABOVE PERMANENT DATUM
EKB .FT                 3044 : KELLY BUSHING
EGL .FT                 3029 : GROUND LEVEL
DATE.               12/26/63 : RUN DATE
RUN .                      1 : RUN NUMBER
DD  .FT                 9580 : DEPTH DRILLER
DL  .FT                 9563 : DEPTH LOGGER
BLI .FT                 9562 : BOTTOM LOG INTERVAL
TLI .FT                  994 : TOP LOG INTERVAL
CBD .FT                  994 : CASING BOTTOM DRILLER
CBL .FT                  994 : CASING BOTTOM LOGGER
BS  .IN                    9 : BIT SIZE
BSD .FT                 9580 : BIT SIZE AT DEPTH
DFT .               GEL CHEM : DRILLING FLUID TYPE
DFD .                    9.8 : DRILLING FLUID DENSITY
DFV .                    205 : DRILLING FLUID VISCOSITY
DFPH.                    9.5 : DRILLING FLUID PH
DFL .                    3.8 : DRILLING FLUID LOSS
RMS .OHMM               1.37 : RESISTIVITY MUD SAMPLE
MST .DEGF                 79 : MUD SAMPLE TEMPERATURE
RMF .OHMM               0.95 : RESISTIVITY MUD FILTRATE SAMPLE
MFST.DEGF                 73 : MUD FILTRATE SAMPLE TEMPERATURE
RMC .OHMM               1.63 : RESISTIVITY MUD CAKE
MCST.DEGF                 77 : MUD CAKE SAMPLE TEMPERATURE
RMB .OHMM               0.67 : RESISTIVITY MUD AT BHT
TCS .HRS                 2.5 : TIME CIRCULATED STOPPED
LUN .                   3704 : LOGGING UNIT NUMBER
LUL .                     VV : LOGGING UNIT LOCATION
ENGI.                  MILLS : RECORDING ENGINEER
WITN.                  SMITH : WITNESSED BY
CLNT.                A2DTECH : CLIENT CODE
ORIG.            2" 5" PRINT : ORIGIN OF DATA
UWI .       100070706314W500 : UNIQUE WELL ID
DICO. A2D Technologies, Inc. : DIGITIZING COMPANY
~Other -----------------------------------------------------
~ASCII -----------------------------------------------------
# ...
 3050.00000    -999.25   15.39680  147.52560  139.09410    -999.25    7.20600    -999.25   91.48210   91.48210   58.63560   58.63560    7.20600   15.39680    6.73160  -42.16240   -3.92380    6.73160
 3100.00000    -999.25   13.18010  171.04380  178.87810    -999.25    5.59040    -999.25  100.64960  100.64960   77.39990   77.39990    5.59040   13.18010    6.12160  -41.33840   -3.09980    6.12160
 3150.00000    -999.25   13.73840  126.95930  126.99060    -999.25    7.87460    -999.25   89.76140   89.76140   84.06230   84.06230    7.87460   13.73840    7.36190  -41.68100   -3.44240    7.36190
 3200.00000    -999.25   13.49100  185.11740  185.15090    -999.25    5.40100    -999.25  105.69370  105.69370   81.11110   81.11110    5.40100   13.49100    6.13160  -40.54700   -2.30840    6.13160
 3250.00000    -999.25   13.04940  189.62130  189.87580    -999.25    5.26660    -999.25  103.80750  103.80750  102.26510  102.26510    5.26660   13.04940    6.53500  -39.59020   -1.35160    6.53500
 3300.00000    -999.25   12.57300  109.03710  107.71170    -999.25    9.28400    -999.25   90.71070   90.71070  100.08450  100.08450    9.28400   12.57300   10.78920  -40.63680   -2.39820   10.78920
 3350.00000    -999.25   12.06010  153.28660  153.22620    -999.25    6.52630    -999.25  100.39900  100.39900   89.51510   89.51510    6.52630   12.06010    7.35760  -39.27630   -1.03770    7.35760
 3400.00000    -999.25   12.58720  133.13870  125.38870    -999.25    7.97520    -999.25   91.58600   91.58600   91.33820   91.33820    7.97520   12.58720    7.50030  -39.91150   -1.67290    7.50030
 3450.00000    -999.25   14.08240  133.78010  133.42580    -999.25    7.49480    -999.25   93.64770   93.64770   87.90530   87.90530    7.49480   14.08240    6.76270  -40.99450   -2.75590    6.76270
 3500.00000    -999.25   14.49090  179.05920  161.62140    -999.25    6.18730    -999.25   94.95530   94.95530   87.01660   87.01660    6.18730   14.49090    5.76830  -40.67850   -2.43990    5.76830
 3550.00000    -999.25   15.35910  165.69070  165.59600    -999.25    6.03900    -999.25   98.65910   98.65910   89.78170   89.78170    6.03900   15.35910    6.69320  -40.96320   -2.72460    6.69320
 3600.00000    -999.25   14.68020  169.47540  169.49730    -999.25    5.89980    -999.25   92.31920   92.31920   97.89620   97.89620    5.89980   14.68020    6.30240  -42.66870   -4.43010    6.30240
 3650.00000    -999.25   15.08710  154.25980  162.80280    -999.25    6.14240    -999.25  100.48730  100.48730   95.16460   95.16460    6.14240   15.08710    6.91890  -42.40730   -4.16870    6.91890
 3700.00000    -999.25   16.45210  129.45890  125.04690    -999.25    7.99700    -999.25  105.16670  105.16670   94.52300   94.52300    7.99700   16.45210    6.76440  -44.08320   -5.84460    6.76440
 3750.00000    -999.25   15.05050  182.28670  174.42870    -999.25    5.73300    -999.25  100.64760  100.64760   95.41860   95.41860    5.73300   15.05050    5.14200  -44.62810   -6.38950    5.14200
 3800.00000    -999.25   14.43330  121.95880  114.47810    -999.25    8.73530    -999.25   95.47840   95.47840   80.03600   80.03600    8.73530   14.43330    7.94140  -44.58290   -6.34430    7.94140
 3850.00000    -999.25   12.87720  116.25290  113.13750    -999.25    8.83880    -999.25   98.09750   98.09750   76.97920   76.97920    8.83880   12.87720    8.26390  -43.30690   -5.06830    8.26390
 3900.00000    -999.25   11.74420  140.78120  146.58460    -999.25    6.82200    -999.25   95.94480   95.94480   97.01260   97.01260    6.82200   11.74420    7.55490  -43.33930   -5.10070    7.55490
 3950.00000    -999.25   10.63730  146.72900  148.24480    -999.25    6.74560    -999.25   93.47270   93.47270  103.11620  103.11620    6.74560   10.63730    7.35840  -41.90290   -3.66430    7.35840
 4000.00000    -999.25   11.01840  185.28770  185.22290    -999.25    5.39890    -999.25  104.88350  104.88350   90.35110   90.35110    5.39890   11.01840    6.13270  -39.04700   -0.80840    6.13270
 4050.00000    -999.25   11.94340  132.74100  129.94980    -999.25    7.69530    -999.25   98.47530   98.47530   96.94220   96.94220    7.69530   11.94340    8.68880  -40.63340   -2.39480    8.68880
 4100.00000    -999.25   13.54100  139.63670  137.92150    -999.25    7.25050    -999.25   98.27260   98.27260   97.61450   97.61450    7.25050   13.54100    8.45310  -42.30090   -4.06230    8.45310
 4150.00000    -999.25   11.38930  111.58720  111.02110    -999.25    9.00730    -999.25  106.56230  106.56230  111.45140  111.45140    9.00730   11.38930   10.59630  -43.50330   -5.26470   10.59630
 4200.00000    -999.25   12.00550  116.90740  111.54610    -999.25    8.96490    -999.25  102.13380  102.13380  107.02880  107.02880    8.96490   12.00550   12.68480  -43.16100   -4.90080   12.68480
 4250.00000    -999.25   14.23370  196.37800  186.21970    -999.25    5.37000    -999.25  101.93140  101.93140   85.60590   85.60590    5.37000   14.23370    7.18510  -44.64530   -5.30530    7.18510
 4300.00000    -999.25   12.50400  166.46930  166.36680    -999.25    6.02200    -999.25   81.07090   81.07090   88.61620   88.61620    6.02200   12.50400    7.14050  -48.83930   -8.42490    7.14050
 4350.00000    -999.25   13.23830  227.01870  227.03020    -999.25    4.40470    -999.25   96.15260   96.15260   86.95400   86.95400    4.40470   13.23830    6.11090  -47.58610   -6.08640    6.11090
 4400.00000    -999.25   13.88300  207.08930  207.09510    -999.25    4.82870    -999.25   94.92520   94.92520   88.55080   88.55080    4.82870   13.88300    5.57900  -49.15670   -6.57710    5.57900
 4450.00000    -999.25   14.14360  135.01450  141.03780    -999.25    7.09030    -999.25   89.81790   89.81790   82.69030   82.69030    7.09030   14.14360    8.02570  -52.82120   -9.16180    8.02570
 4500.00000    -999.25   13.13740  217.78810  216.09010    -999.25    4.62770    -999.25   94.70690   94.70690   82.08940   82.08940    4.62770   13.13740    5.44720  -50.38920   -5.64990    5.44720
 4550.00000    -999.25   14.66970  236.64160  238.58570    -999.25    4.19140    -999.25   97.69050   97.69050   91.80260   91.80260    4.19140   14.66970    4.94780  -53.12780   -7.31410    4.94780
 4600.00000    -999.25   15.09930  186.07320  192.75990    -999.25    5.18780    -999.25   95.75600   95.75600   95.09290   95.09290    5.18780   15.09930    5.91780  -53.14780   -6.24880    5.91780
 4650.00000    -999.25   16.58930  500.58150  500.58150    -999.25    1.99770    -999.25   99.66210   99.66210   79.39650   79.39650    1.99750   16.58930    2.97720  -52.42810   -4.44930    2.97720
 4700.00000    -999.25   17.82870  285.59840  285.29040    -999.25    3.50520    -999.25  105.90210  105.90210   87.80880   87.80880    3.50520   17.82870    3.88860  -53.72100   -4.66230    3.88860
 4750.00000    -999.25   15.59870  286.49510  286.23770    -999.25    3.49360    -999.25   90.31860   90.31860   84.11780   84.11780    3.49360   15.59870    4.29410  -54.65700   -4.51850    4.29410
 4800.00000    -999.25   13.62680  289.84540  289.92520    -999.25    3.44920    -999.25   96.46300   96.46300   89.29830   89.29830    3.44920   13.62680    4.63640  -54.46190   -3.24890    4.63640
 4850.00000    -999.25    8.96890  130.16810  124.16500    -999.25    8.05380    -999.25   78.94890   78.94890   33.50070   33.50070    8.05380    8.96890   16.24030 -104.04090  -51.98770   16.24030
 4900.00000    -999.25   10.09570  558.83860  558.83860    -999.25    1.78940    -999.25   89.42910   89.42910   90.88090   90.88090    1.78790   10.09570    2.55860  -58.95640   -6.23850    2.55860
 4950.00000    -999.25   10.79750   90.56480   89.55680    -999.25   11.16610    -999.25  116.06350  116.06350   69.77390   69.77390   11.16610   10.79750   16.63660  -59.91830   -6.53580   16.63660
 5000.00000    -999.25   10.16780  123.48530  123.44000    -999.25    8.10110    -999.25   94.33280   94.33280   80.57740   80.57740    8.10110   10.16780   11.92520  -60.06810   -6.02100   11.92520
 5050.00000    -999.25   10.29050  126.15480  123.08040    -999.25    8.12480    -999.25   76.83920   76.83920   70.16100   70.16100    8.12480   10.29050   14.08550  -80.54380  -25.83540   14.08550
