~Version ---------------------------------------------------
VERS.      2.0 : CWLS log ASCII Standard -VERSION 2.0
WRAP.       NO : One line per depth step
CREA. 08/22/13 : LAS Creation Date
~Well ------------------------------------------------------
STRT.m                     450.0 : START DEPTH
STOP.m                    3450.0 : STOP DEPTH
STEP.m                  50.00000 : STEP LENGTH
NULL.                    -999.25 : NULL VALUE
COMP.  GULF CANADA RESOURCES INC : COMPANY
WELL. GULF ANTE CREEK 12-1-66-25 : WELL
FLD .                            : FIELD
LOC .                            : LOCATION
CTRY.                     CANADA : COUNTRY
SRVC.                    Unknown : SERVICE COMPANY
DATE.                30-Dec-1983 : LOGDATE
PROV.                    Alberta : PROVINCE
UWI .           100120106625W500 : UNIQUE WELL ID
SLAT.WGS84              54.68568 : SURFACE LATITUDE
SLON.WGS84             -117.6494 : SURFACE LONGITUDE
~Curve Information -----------------------------------------
DEPT     .m      : Depth Curve
C1DED    .MM     : CALIPER 1 CNLD (ADJ TO RES.)
C2DED    .MM     : CALIPER 2 CNLD (ADJ TO RES.)
CALSED   .MM     : CALIPER  SONIC (ADJ TO RES.)
CALWS    .MM     : CALIPER (CALSED)
CONDWS   .MMHO   : CONDUCTIVITY (1000/DRESWS)
DCORWS   .KG/M3  : DENSITY CORRECTION (DRHOED)
DENWS    .KG/M3  : BULK DENSITY  (DPHI_SSED/DPHI_LSED)
DPHI_LSED.V/V    : DENSITY POROSITY LIMESTONE  (ADJ TO RES.)
DPHI_SSED.V/V    : DENSITY POROSITY SANDSTONE  (ADJ TO RES.)
DPOLSWS  .V/V    : DENSITY POROSITY (M=2710 F=1000 DENWS)
DRESWS   .OHMM   : DEEP RESISTIVITY (ILDED)
DRHOED   .KG/M3  : DENSITY CORRECTION (ADJ TO RES.)
DTED     .US/M   : DELTA TIME  (ADJ TO RES.)
DTWS     .US/M   : DELTA TIME  (DTED)
GRDED    .GAPI   : GAMMA RAY  CNLD (ADJ TO RES.)
GRSED    .GAPI   : GAMMA RAY  SONIC (ADJ TO RES.)
GRWS     .GAPI   : GAMMA RAY (GRSED/GRDED @ 447.6)
ILDED    .OHMM   : INDUCTION DEEP RESISTIVITY
ILMED    .OHMM   : INDUCTION MEDIUM RESISTIVITY
MRESWS   .OHMM   : MEDIUM RESISTIVITY (ILMED)
NPHI_LSED.V/V    : NEUTRON POROSITY LIMESTONE (ADJ TO RES.)
NPHI_SSED.V/V    : NEUTRON POROSITY SANDSTONE (ADJ TO RES.)
NPOLSWS  .V/V    : NEUTRON POROSITY LIMESTONE (NPHI_SSED CONVERTED TO LS/NPHI_LSED)
RHOBED   .KG/M3  : BULK DENSITY (ADJ TO RES.)
SFLUED   .OHMM   : SHALLOW FOCUSED RESISTIVITY (UNAVERAGED)
SPRED    .MV     : SPONTANEOUS POTENTIAL FROM RESISTIVITY LOG
SPWS     .MV     : SPONTANEOUS POTENTIAL (SPRED) BASELINE 0 MV (PARTIALLY REVERSED)
SRESWS   .OHMM   : SHALLOW RESISTIVITY (SFLUED)
~Params ----------------------------------------------------
PD  .                         GL : PERMANENT DATUM
EPD .M                     763.3 : ELEVATION PERMANENT DATUM
LMF .                         KB : LOG MEASURED FROM
DAPD.M                      4.87 : FEET ABOVE PERMANENT DATUM
DMF .                         KB : DRILLING MEASURED FROM
EKB .M                    768.17 : KELLY BUSHING
EGL .M                     763.3 : GROUND LEVEL
DATE.                   12/30/83 : RUN DATE
RUN .                          1 : RUN NUMBER
DD  .M                    3487.5 : DEPTH DRILLER
DL  .M                    3487.6 : DEPTH LOGGER
BLI .M                    3486.7 : BOTTOM LOG INTERVAL
TLI .M                       449 : TOP LOG INTERVAL
CS  .MM                    244.5 : CASING SIZE
CBD .M                       449 : CASING BOTTOM DRILLER
CBL .M                       449 : CASING BOTTOM LOGGER
BS  .MM                    222.2 : BIT SIZE
BSD .M                    3487.5 : BIT SIZE AT DEPTH
DFT .                   GEL CHEM : DRILLING FLUID TYPE
DFD .                       1130 : DRILLING FLUID DENSITY
DFV .                         64 : DRILLING FLUID VISCOSITY
DFPH.                          9 : DRILLING FLUID PH
DFL .                         11 : DRILLING FLUID LOSS
MSS .                   FLOWLINE : MUD SAMPLE SOURCE
RMS .OHMM                   1.16 : RESISTIVITY MUD SAMPLE
MST .DEGC                   12.5 : MUD SAMPLE TEMPERATURE
RMF .OHMM                   0.94 : RESISTIVITY MUD FILTRATE SAMPLE
MFST.DEGC                   14.5 : MUD FILTRATE SAMPLE TEMPERATURE
RMC .OHMM                  0.327 : RESISTIVITY MUD CAKE
MCST.DEGC                   82.2 : MUD CAKE SAMPLE TEMPERATURE
MFSS.                      PRESS : MUD FILTRATE SAMPLE SOURCE
RMB .OHMM                  0.381 : RESISTIVITY MUD AT BHT
TCS .HRS                    1230 : TIME CIRCULATED STOPPED
TLAB.HRS                    2015 : TIME LOGGER AT BOTTOM
LUN .                       8156 : LOGGING UNIT NUMBER
LUL .                        EDM : LOGGING UNIT LOCATION
ENGI.                    GAGGINO : RECORDING ENGINEER
WITN.             GHORASHI ZADEH : WITNESSED BY
CLNT.                    A2DTECH : CLIENT CODE
ORIG. 6.5"/100M 16.5"/100M PRINT : ORIGIN OF DATA
UWI .           100120106625W500 : UNIQUE WELL ID
DICO.     A2D Technologies, Inc. : DIGITIZING COMPANY
~Other -----------------------------------------------------
~ASCII -----------------------------------------------------
# ...
 1700.00000  346.77660  322.43890  324.53160  324.53160   63.67720   27.46270 2118.86500    -999.25    0.32190    0.34570   15.70420   27.46270  314.91780  314.91780   76.43410   80.33710   76.43410   15.70420   16.84640   16.84640    -999.25    0.51450    0.53180 2205.03390   28.34640 -189.70970   -3.47290   28.34640
 1750.00000  293.34720  278.60660  276.47010  276.47010  106.26770   26.77940 2542.75000    -999.25    0.06500    0.09780    9.41020   26.77940  240.55750  240.55750   66.33800   69.74520   66.33800    9.41020    9.88500    9.88500    -999.25    0.28920    0.34630 2539.72580   10.09440 -168.80120   -1.64960   10.09440
 1800.00000  304.80950  251.99670  291.65510  291.65510   69.46280   13.94510 2541.92500    -999.25    0.06550    0.09830   14.39620   13.94510  222.96620  222.96620   61.78290   74.74710   61.78290   14.39620   15.10050   15.10050    -999.25    0.26480    0.32650 2544.17260   16.07190 -181.58280   -9.37530   16.07190
 1850.00000  288.64790  223.42440  268.62350  268.62350  100.19640  194.52880 2371.97500    -999.25    0.16850    0.19770    9.98040  194.52880  229.66300  229.66300   35.28240   39.39850   35.28240    9.98040   12.58440   12.58440    -999.25    0.23840    0.30440 2374.23540   12.95950 -229.74040  -27.12980   12.95950
 1900.00000  290.14890  258.65610  278.57150  278.57150   54.41550   -3.07650 2573.44000    -999.25    0.04640    0.07990   18.37710   -3.07650  211.40940  211.40940   72.57600   84.16740   72.57600   18.37710   21.22830   21.22830    -999.25    0.24220    0.30760 2562.84180   25.21670 -181.07870  -17.22160   25.21670
 1950.00000  249.94510  230.53310  238.82730  238.82730  114.75650   74.39120 2435.00500    -999.25    0.13030    0.16080    8.71410   74.39120  228.55340  228.55340   41.26270   43.18550   41.26270    8.71410   13.14210   13.14210    -999.25    0.26120    0.32350 2434.58450   19.15580 -157.23280  -14.40370   19.15580
 2000.00000  392.53970  379.42790  385.70350  385.70350  226.77790   88.79870 2087.35000    -999.25    0.34100    0.36410    4.40960   88.79870  379.32110  379.32110   66.67060   74.48800   66.67060    4.40960    3.39630    3.39630    -999.25    0.55830    0.57170 2087.78120    5.01390 -163.81880  -19.42070    5.01390
 2050.00000  289.76220  232.74440  269.98470  269.98470   31.21120    0.66720 2561.91400    0.08660    0.04940    0.08660   32.03980    0.66720  215.59340  215.59340   75.16910   81.09430   75.16910   32.03980   33.48570   33.48570    0.11300    0.15690    0.11300 2567.00630   43.48750 -221.58940  -38.75020   43.48750
 2100.00000  255.26830  244.28660  267.05640  267.05640   47.22060    2.03420 2593.03600    0.06840    -999.25    0.06840   21.17720    2.03420  209.63920  209.63920   76.07490   76.17670   76.07490   21.17720   22.12360   22.12360    0.07330    -999.25    0.07330 2597.10790   24.26400 -122.26140  -13.19440   24.26400
 2150.00000  267.61800  270.52220  283.06210  283.06210   33.72860   -2.23640 2634.07600    0.04440    -999.25    0.04440   29.64840   -2.23640  208.19570  208.19570   94.25270   99.57620   94.25270   29.64840   30.86760   30.86760    0.11540    -999.25    0.11540 2635.18210   37.26780  -68.21190   -0.57540   37.26780
 2200.00000  296.62410  279.62850  263.19860  263.19860   38.05460  246.11300 2720.26000   -0.00600    -999.25   -0.00600   26.27800  246.11300  171.03730  171.03730   25.20820   29.03680   25.20820   26.27800   23.46130   23.46130    0.07750    -999.25    0.07750 2717.30000   51.04590 -113.35960  -14.15140   51.04590
 2250.00000  270.69880  221.75560  232.72060  232.72060   61.41900  123.40860 2462.56300    0.14470    -999.25    0.14470   16.28160  123.40860  180.53640  180.53640   17.92660   20.64740   17.92660   16.28160   20.05480   20.05480    0.12190    -999.25    0.12190 2454.66870   48.32050  -37.79820    7.49960   48.32050
 2300.00000  217.18200  213.72560  219.12460  219.12460  216.68470  147.18790 2653.39900    0.03310    -999.25    0.03310    4.61500  147.18790  173.89930  173.89930   15.95550   15.39460   15.95550    4.61500    9.15190    9.15190    0.16010    -999.25    0.16010 2659.55570   87.27000 -149.72570  -24.41770   87.27000
 2350.00000  262.74010  236.59980  250.64540  250.64540    7.37740  246.20680 2772.24400   -0.03640    -999.25   -0.03640  135.55000  246.20680  168.08110  168.08110   20.68270   21.25480   20.68270  135.55000  238.13900  238.13900    0.01070    -999.25    0.01070 2774.65620  879.93550  -45.85190    5.32250  879.93550
 2400.00000  247.25520  226.44400  236.08480  236.08480   98.47270  131.03110 2621.42200    0.05180    -999.25    0.05180   10.15510  131.03110  164.87940  164.87940   24.61990   23.74090   24.61990   10.15510   19.17980   19.17980    0.02720    -999.25    0.02720 2621.23710   83.21690 -149.37620  -24.19380   83.21690
 2450.00000  266.53220  234.88420  250.13960  250.13960    0.53410   -2.11440 2870.39800   -0.09380    -999.25   -0.09380 1872.46720   -2.11440  167.13070  167.13070   10.44880   10.80740   10.44880 1872.46720  490.55470  490.55470    0.00250    -999.25    0.00250 2874.62040 1978.37020 -324.36010  -74.12720 1978.37020
 2500.00000  254.70210  230.95300  244.97830  244.97830   93.33580    8.50510 2662.12000    0.02800    -999.25    0.02800   10.71400    8.50510  204.07620  204.07620   60.32670   60.38500   60.32670   10.71400    9.46980    9.46980    0.11680    -999.25    0.11680 2661.68040   16.28370 -144.97810  -22.81320   16.28370
 2550.00000  287.30650  244.60440  261.59510  261.59510   31.85650  208.85020 2768.99500   -0.03450    -999.25   -0.03450   31.39080  208.85020  181.49050  181.49050   33.89060   35.87170   33.89060   31.39080   27.48180   27.48180    0.02820    -999.25    0.02820 2768.37790   74.31100 -160.21380  -27.10420   74.31100
 2600.00000  309.65120  250.61590  265.57660  265.57660   15.35260  239.44430 2758.56400   -0.02840    -999.25   -0.02840   65.13540  239.44430  171.28580  171.28580   16.66860   14.66200   16.66860   65.13540   80.56290   80.56290    0.02120    -999.25    0.02120 2759.24460  153.78240 -330.27430  -75.63090  153.78240
 2650.00000  226.53810  229.40310  232.63760  232.63760    5.48020   12.96130 2692.90000    0.01000    -999.25    0.01000  182.47500   12.96130  205.32750  205.32750   35.14530   36.67710   35.14530  182.47500  591.32080  591.32080    0.02790    -999.25    0.02790 2696.34840  291.07110 -259.92770  -55.46980  291.07110
 2700.00000  282.59200  222.80790  249.63810  249.63810    2.01110  248.59520 2708.63200    0.00080    -999.25    0.00080  497.24410  248.59520  168.66560  168.66560   11.30890   11.62300   11.30890  497.24410  349.89780  349.89780    0.00160    -999.25    0.00160 2695.42210 2000.00000   13.80680   22.80200 2000.00000
 2750.00000  308.03190  213.23330  240.54480  240.54480    0.79870  243.63650 2590.30000    0.07000    -999.25    0.07000 1251.99440  243.63650  165.51980  165.51980   10.03840   11.44810   10.03840 1251.99440  342.20890  342.20890    0.00630    -999.25    0.00630 2595.19240  882.72140 -351.97000  -81.64360  882.72140
 2800.00000  287.63930  213.47260  237.20370  237.20370    0.54470    -999.25 2532.67300    0.10370    -999.25    0.10370 1835.98360    -999.25  162.81680  162.81680   13.67310   11.62560   13.67310 1835.98360 1877.17380 1877.17380    0.00630    -999.25    0.00630 2528.80690 1919.80240 -254.36470  -53.69430 1919.80240
 2850.00000  328.51670  213.15620  244.90610  244.90610    0.72230  219.14740 2563.79500    0.08550    -999.25    0.08550 1384.54900  219.14740  172.72780  172.72780   14.77530   13.61210   14.77530 1384.54900  668.00030  668.00030    0.01140    -999.25    0.01140 2568.35080 1966.34910 -345.68600  -79.72410 1966.34910
 2900.00000  324.32970  210.84890  244.94020  244.94020    2.73860  224.01230 2604.83500    0.06150    -999.25    0.06150  365.14630  224.01230  155.43210  155.43210   12.75360   11.22670   12.75360  365.14630 1944.98120 1944.98120    0.00630    -999.25    0.00630 2612.25000 1990.79480 -213.31930  -41.84310 1990.79480
