~Version ---------------------------------------------------
VERS.      2.0 : CWLS log ASCII Standard -VERSION 2.0
WRAP.       NO : One line per depth step
CREA. 08/02/17 : LAS Creation Date
~Well ------------------------------------------------------
STRT.FT                        1050.0 : START DEPTH
STOP.FT                       10700.0 : STOP DEPTH
STEP.FT                      50.00000 : STEP LENGTH
NULL.                         -999.25 : NULL VALUE
COMP.            CHEVRON STANDARD LTD : COMPANY
WELL. CHEVRON GULF KAYBOBS 13-8-63-20 : WELL
FLD .                                 : FIELD
LOC .                                 : LOCATION
CTRY.                          CANADA : COUNTRY
SRVC.                    Schlumberger : SERVICE COMPANY
DATE.                     07-Dec-1977 : LOGDATE
PROV.                         Alberta : PROVINCE
UWI .                100130806320W500 : UNIQUE WELL ID
SLAT.WGS84                   54.44033 : SURFACE LATITUDE
SLON.WGS84                   -116.995 : SURFACE LONGITUDE
~Curve Information -----------------------------------------
DEPT    .FT    : Depth Curve
C13ED   .IN    : CALIPER 1-3 PAD ELECTRODE
C24ED   .IN    : CALIPER 2-4 PAD ELECTRODE
CALDED  .IN    : CALIPER FROM DENSITY LOG
CALSED  .IN    : CALIPER FROM SONIC LOG
CALWS   .IN    : CALIPER [CALSED]
CONDWS  .MMHO  : CONDUCTIVITY [1000/DRESWS]
DCORWS  .G/C3  : DENSITY CORRECTION [DRHOED]
DENWS   .G/C3  : BULK DENSITY [RHOBED]
DPHILSED.V/V   : DENSITY POROSITY [M=2.71 F=1.00] FROM DENSITY LOG
DPHISSED.V/V   : DENSITY POROSITY [M=2.65 F=1.00] FROM DENSITY LOG
DPOLSWS .V/V   : DENSITY POROSITY LIMESTONE  {CALCUKLATED FROM RHOBED]
DRESWS  .OHMM  : DEEP RESISTIVITY [ILDED]
DRHOED  .G/C3  : DENSITY CORRECTION FROM DENSITY LOG
DTED    .US/F  : DELTA TIME FROM SONIC LOG
DTWS    .US/F  : DELTA TIME [DTED]
GRDED   .GAPI  : GAMMA RAY FROM DENSITY LOG
GRSED   .GAPI  : GAMMA RAY FROM SONIC LOG
GRWS    .GAPI  : GAMMA RAY [GRSED]
ILDED   .OHMM  : INDUCTION LOG DEEP RESISTIVITY
ILMED   .OHMM  : INDUCTION LOG MEDIUM RESISTIVITY
LL8ED   .OHMM  : 8 INCH LATEROLOG RESISTIVITY
MRESWS  .OHMM  : MEDIUM RESISTIVITY [ILMED]
NPHILSED.V/V   : NEUTRON POROSITY LIMESTONE FROM DENSITY LOG
NPHISSED.V/V   : NEUTRON POROSITY SANDSTONE FROM DENSITY LOG
NPOLSWS .V/V   : NEUTRON POROSITY LIMESTONE [NPHILSED], SPLICED WITH CONVERTED MATRIX FROM SANDSTONE TO LIMESTONE FROM 2180'-6857'
RHOBED  .G/C3  : BULK DENSITY FROM DENSITY LOG
SPRED   .MV    : SPONTANEOUS POTENTIAL FROM RESISTIVITY LOG
SPWS    .MV    : SPONTANEOUS POTENTIAL [BASELINE 0 MV] [SPRED]
SRESWS  .OHMM  : SHALLOW RESISTIVITY [LL8ED]
TENDED  .LBF   : TENSION FROM DENSITY LOG
TENSED  .LBF   : TENSION FROM SONIC LOG
~Params ----------------------------------------------------
PD  .                     GL : PERMANENT DATUM
EPD .FT               2595.6 : ELEVATION PERMANENT DATUM
LMF .                     KB : LOG MEASURED FROM
DAPD.FT                 17.4 : FEET ABOVE PERMANENT DATUM
EKB .FT                 2613 : KELLY BUSHING
EGL .FT               2595.6 : GROUND LEVEL
DATE.               01/05/77 : RUN DATE
RUN .                      2 : RUN NUMBER
DD  .FT                10720 : DEPTH DRILLER
DL  .FT                10709 : DEPTH LOGGER
BLI .FT                10706 : BOTTOM LOG INTERVAL
TLI .FT                 6500 : TOP LOG INTERVAL
CBD .FT                 1090 : CASING BOTTOM DRILLER
CBL .FT                 1091 : CASING BOTTOM LOGGER
BS  .IN                 8.75 : BIT SIZE
BSD .FT                10720 : BIT SIZE AT DEPTH
DFT .         FGM MLGARD OIL : DRILLING FLUID TYPE
DFD .                    9.2 : DRILLING FLUID DENSITY
DFV .                     80 : DRILLING FLUID VISCOSITY
DFPH.                   10.5 : DRILLING FLUID PH
MSS .               FLOWLINE : MUD SAMPLE SOURCE
RMS .OHMM               1.43 : RESISTIVITY MUD SAMPLE
MST .DEGF                 70 : MUD SAMPLE TEMPERATURE
RMF .OHMM               1.08 : RESISTIVITY MUD FILTRATE SAMPLE
MFST.DEGF                 74 : MUD FILTRATE SAMPLE TEMPERATURE
LUN .                   7800 : LOGGING UNIT NUMBER
LUL .                    EDM : LOGGING UNIT LOCATION
ENGI.               FEINGOLD : RECORDING ENGINEER
WITN.             RICHARDSON : WITNESSED BY
CLNT.                A2DTECH : CLIENT CODE
ORIG.            2" 5" PRINT : ORIGIN OF DATA
UWI .       100130806320W500 : UNIQUE WELL ID
DICO. A2D Technologies, Inc. : DIGITIZING COMPANY
~Other -----------------------------------------------------
~ASCII -----------------------------------------------------
# ...
 2200.00000    -999.25    -999.25   13.96530    9.66990    9.66990  172.35870    0.20560    2.23640    -999.25    0.25450    0.27690    5.80220    0.20560   94.24900   94.24900   87.92830   77.71300   77.71300    5.80220    6.00000    6.38080    6.00000    -999.25    0.35580    0.31660    2.23640  -53.71130   -1.28290    6.38080 2997.85900 5466.26820
 2250.00000    -999.25    -999.25   11.03340   10.15770   10.15770  190.19000    0.11450    2.36080    -999.25    0.21620    0.20420    5.25790    0.11450  101.92360  101.92360   98.31140   87.02340   87.02340    5.25790    5.43090    5.52680    5.43090    -999.25    0.33900    0.29980    2.36080  -54.00720   -1.57880    5.52680 2141.25520 3909.49350
 2300.00000    -999.25    -999.25   11.15390   10.28250   10.28250  189.20760    0.05840    2.26510    -999.25    0.26870    0.26020    5.28520    0.05840   97.53760   97.53760   73.08900   70.25610   70.25610    5.28520    5.59490    6.79180    5.59490    -999.25    0.29390    0.25470    2.26510  -53.55980   -1.13140    6.79180 2158.08450 4198.63430
 2350.00000    -999.25    -999.25   13.13000   10.87070   10.87070  177.19890    0.18730    2.11710    -999.25    0.30440    0.34670    5.64340    0.18730  127.53300  127.53300   79.66470   71.56520   71.56520    5.64340    5.83840    5.14240    5.83840    -999.25    0.38110    0.34190    2.11710  -53.81160   -1.38320    5.14240 2854.56580 4281.88740
 2400.00000    -999.25    -999.25   13.67330    9.91330    9.91330  152.28350    0.19350    2.11560    -999.25    0.32810    0.34760    6.56670    0.19350   94.20010   94.20010   80.24790   69.77900   69.77900    6.56670    6.77850    6.85200    6.77850    -999.25    0.39590    0.35670    2.11560  -54.14120   -1.71280    6.85200 2160.47110 4541.48430
 2450.00000    -999.25    -999.25   14.98950   10.02690   10.02690  200.97200    0.07370    1.45340    -999.25    0.59870    0.73490    4.97610    0.07370   96.35640   96.35640   70.12660   65.47160   65.47160    4.97610    5.15480    6.07030    5.15480    -999.25    0.45570    0.41650    1.45340  -56.73120   -5.08580    6.07030 3246.99960 4517.03150
 2500.00000    -999.25    -999.25   11.03350   10.39620   10.39620   70.42850    0.01430    2.37180    -999.25    0.18480    0.19780   14.19880    0.01430   91.70520   91.70520   53.61870   46.31370   46.31370   14.19880   13.90990   13.12930   13.90990    -999.25    0.27700    0.23780    2.37180  -58.00470   -8.68490   13.12930 2653.61600 4774.20110
 2550.00000    -999.25    -999.25   10.77150   10.02690   10.02690   97.93460    0.00040    2.33660    -999.25    0.21000    0.21840   10.21090    0.00040  101.43190  101.43190   61.11080   56.40110   56.40110   10.21090   11.01200   13.80970   11.01200    -999.25    0.29810    0.25890    2.33660  -53.81510   -6.83270   13.80970 2989.39330 4921.26620
 2600.00000    -999.25    -999.25   11.65980    9.71490    9.71490  139.17200    0.21620    2.28170    -999.25    0.22340    0.25050    7.18940    0.21620   80.96800   80.96800   57.00210   48.77400   48.77400    7.18940    8.05770   13.04550    8.05770    -999.25    0.39080    0.35160    2.28170  -45.49870   -0.86530   13.04550 3246.65840 5019.89320
 2650.00000    8.80420    9.31740   15.01570    9.71200    9.71200  174.26160    0.09530    1.52690    -999.25    0.59960    0.69190    5.73850    0.09530   89.80110   89.80110   59.05910   70.44610   70.44610    5.73850    6.01320    6.41920    6.01320    -999.25    0.59860    0.55930    1.52690  -44.10900   -1.80120    6.41920 3142.31150 4992.91350
 2700.00000    9.42340    9.32830   11.12260    9.63380    9.63380  177.52120    0.04500    2.15040    -999.25    0.29460    0.32730    5.63440    0.04500   93.97660   93.97660   72.49880   68.18570   68.18570    5.63440    6.04820    7.85270    6.04820    -999.25    0.44700    0.40770    2.15040  -44.35250   -4.39370    7.85270 1507.11430 5440.31500
 2750.00000    9.41560    8.93040   10.13280    9.54390    9.54390   49.43810    0.02310    2.34360    -999.25    0.20110    0.21430   20.22730    0.02310   85.29480   85.29480   47.52190   51.01780   51.01780   20.22730   21.11800   22.88680   21.11800    -999.25    0.27450    0.23530    2.34360  -41.91520   -4.28210   22.88680 1831.81140 5619.71920
 2800.00000    9.93610   14.34690   12.08170   10.94160   10.94160  194.18230    0.13330    2.15230    -999.25    0.31530    0.32610    5.14980    0.13330   94.13120   94.13120   68.42760   68.82020   68.82020    5.14980    5.40620    6.03230    5.40620    -999.25    0.44930    0.41000    2.15230  -45.85260  -10.55680    6.03230 1455.40330 5624.91660
 2850.00000    9.57120   10.11890   11.94160   10.15510   10.15510  194.02410    0.14110    1.77270    -999.25    0.48990    0.54820    5.15410    0.14110   93.87370   93.87370   72.47710   66.53770   66.53770    5.15410    5.32430    5.67880    5.32430    -999.25    0.36140    0.32220    1.77270  -36.57480   -3.62810    5.67880 1701.35100 6018.18700
 2900.00000    9.08740    8.42840   10.13110    9.30110    9.30110   33.72970    0.04130    2.37130    -999.25    0.17690    0.19810   29.64750    0.04130   87.82380   87.82380   42.01150   47.66420   47.66420   29.64750   32.25430   37.57230   32.25430    -999.25    0.25940    0.22020    2.37130  -46.48810  -15.86700   37.57230 1910.22180 4796.55160
 2950.00000    9.68360    8.69090   10.32520    9.87190    9.87190  110.85430    0.03360    2.37190    -999.25    0.16610    0.19770    9.03870    0.03360   92.96540   92.96540   60.44510   68.54770   68.54770    9.03870    9.78200   11.48740    9.78200    -999.25    0.26840    0.22920    2.37190  -30.11660   -1.34530   11.48740 2282.39180 4364.72910
 3000.00000   10.07930    8.75500   11.65490    9.44370    9.44370  176.33890    0.21220    2.12690    -999.25    0.32020    0.34100    5.67090    0.21220  101.15390  101.15390   75.14010   65.28790   65.28790    5.67090    5.98630    6.38530    5.98630    -999.25    0.35290    0.31370    2.12690  -35.74270   -8.20550    6.38530 2350.88440 4475.85720
 3050.00000   18.20020   11.98500   14.98620    9.48620    9.48620  208.20320    0.06850    1.48000    -999.25    0.59990    0.71930    4.80300    0.06850   97.02770   97.02770   52.88990   68.31040   68.31040    4.80300    5.27280    6.17730    5.27280    -999.25    0.59900    0.55970    1.48000  -34.27160   -7.97470    6.17730 2887.84750 4593.15830
 3100.00000   10.36390    8.47750   11.16410    9.64690    9.64690   91.51280    0.01110    2.36970    -999.25    0.18280    0.19900   10.94030    0.01110   97.81120   97.81120   50.40460   57.98040   57.98040   10.94030   11.57710   12.92710   11.57710    -999.25    0.31700    0.27780    2.36970  -41.42990  -16.37950   12.92710 2589.56100 4853.66930
 3150.00000   10.33780    8.46210   11.12340    9.77060    9.77060  179.12480    0.12980    2.35010    -999.25    0.18110    0.21050    5.58270    0.12980   99.89460   99.89460   75.20530   68.45200   68.45200    5.58270    5.81640    5.97580    5.81640    -999.25    0.38280    0.34360    2.35010  -32.15670   -8.34040    5.97580 2514.80920 5013.33950
 3200.00000    -999.25    -999.25    9.84250    9.70350    9.70350  119.36660    0.20250    2.45980    -999.25    0.10820    0.14630    8.37750    0.20250   88.03780   88.03780   82.18350   74.66430   74.66430    8.37750    8.64800    9.50920    8.64800    -999.25    0.33220    0.29300    2.45980  -33.16070  -10.59090    9.50920 2754.76710 4975.98080
 3250.00000    -999.25    -999.25   10.52890    9.44750    9.44750  129.66640    0.25000    2.08460    -999.25    0.35260    0.36570    7.71210    0.25000   95.59450   95.59450   89.27920   93.95040   93.95040    7.71210    7.96140    8.81420    7.96140    -999.25    0.32010    0.28090    2.08460  -33.34070  -12.00500    8.81420 3539.77230 5133.44550
 3300.00000    -999.25    -999.25   13.32630    9.71600    9.71600  113.95750    0.17410    1.81500    -999.25    0.51590    0.52340    8.77520    0.17410   91.68480   91.68480   97.18450   93.84120   93.84120    8.77520    9.05800    9.62080    9.05800    -999.25    0.35230    0.31310    1.81500  -38.18840  -18.09300    9.62080 3458.90890 5143.10000
