~Version ---------------------------------------------------
VERS.      2.0 : CWLS log ASCII Standard -VERSION 2.0
WRAP.       NO : One line per depth step
CREA. 01/02/18 : LAS Creation Date
~Well ------------------------------------------------------
STRT.FT                          1500.0 : START DEPTH
STOP.FT                         13000.0 : STOP DEPTH
STEP.FT                        50.00000 : STEP LENGTH
NULL.                           -999.25 : NULL VALUE
COMP.  AMOCO CANADA PETROLEUM CO., LTD. : COMPANY
WELL. AMOCO ET AL BERLAND D-1 6-7-60-22 : WELL
FLD .                                   : FIELD
LOC .                                   : LOCATION
CTRY.                            CANADA : COUNTRY
SRVC.                      Schlumberger : SERVICE COMPANY
DATE.                       10-Dec-1976 : LOGDATE
PROV.                           Alberta : PROVINCE
UWI .                  100060706022W500 : UNIQUE WELL ID
SLAT.WGS84                     54.17117 : SURFACE LATITUDE
SLON.WGS84                    -117.2921 : SURFACE LONGITUDE
~Curve Information -----------------------------------------
DEPT    .FT    : Depth Curve
CALDED  .IN    : CALIPER FROM DENSITY LOG
CALSED  .IN    : CALIPER FROM SONIC LOG
CALWS   .IN    : CALIPER [CALDED]
CONDWS  .MMHO  : CONDUCTIVITY [1000/DRESWS]
DCORED  .G/C3  : DENSITY CORRECTION FROM DENSITY LOG
DCORWS  .G/C3  : DENSITY CORRECTION [DCORED]
DENWS   .G/C3  : BULK DENSITY [M=2.71 F=1.00] [TOP RHOBED 2287.5 M CALC. DPHISSED 7505' DPHILSED]
DPHILSED.V/V   : DENSITY POROSITY [M=2.71 F=1.00] FROM DENSITY LOG
DPHISSED.V/V   : DENSITY POROSITY [M=2.65 F=1.00] FROM DENSITY LOG
DPOLSWS .V/V   : DENSITY POROSITY [M=2.71 F=1.00] [CALC. FROM DENWS]
DRESWS  .OHMM  : DEEP RESISTIVITY [ILDED]
DTED    .US/F  : DELTA TIME FROM SONIC LOG [DEPTH ADJ TO LL8]
DTWS    .US/F  : DELTA TIME [DTED]
GRDED   .GAPI  : GAMMA RAY FROM DENSITY LOG
GRSED   .GAPI  : GAMMA RAY FROM SONIC LOG
GRWS    .GAPI  : GAMMA RAY [GRSED]
ILDED   .OHMM  : INDUCTION LOG DEEP RESISTIVITY
ILMED   .OHMM  : INDUCTION LOG MEDIUM RESISTIVITY
LL8ED   .OHMM  : 8 INCH LATEROLOG RESISTIVITY
MRESWS  .OHMM  : MEDIUM RESISTIVITY [ILMED]
NPHILSED.V/V   : NEUTRON POROSITY LIMESTONE FROM DENSITY LOG
NPHISSED.V/V   : NEUTRON POROSITY SANDSTONE FROM DENSITY LOG
NPOLSWS .V/V   : NEUTRON POROSITY LIMESTONE [TOP NPHISSED CONVERTED TO LIME FROM POWER LOG, 8750' NPHILSED]
RHOBED  .G/C3  : BULK DENSITY FROM DENSITY LOG [DEPTH ADJ TO LL8]
SPRED   .MV    : SPONTANEOUS POTENTIAL FROM RESISTIVITY LOG
SPWS    .MV    : SPONTANEOUS POTENTIAL [BASELINE 0 MV] [SPRED]
SRESWS  .OHMM  : SHALLOW RESISTIVITY [LL8ED]
~Params ----------------------------------------------------
PD  .                     GL : PERMANENT DATUM
EPD .M                  3639 : ELEVATION PERMANENT DATUM
LMF .                     KB : LOG MEASURED FROM
DAPD.M                    16 : FEET ABOVE PERMANENT DATUM
EKB .M                  3655 : KELLY BUSHING
EGL .M                  3639 : GROUND LEVEL
DATE.             12/10/1976 : RUN DATE
RUN .                      2 : RUN NUMBER
DD  .M                 12990 : DEPTH DRILLER
DL  .M                 13000 : DEPTH LOGGER
BLI .M                 12994 : BOTTOM LOG INTERVAL
TLI .M                  7504 : TOP LOG INTERVAL
CBD .M                  7499 : CASING BOTTOM DRILLER
CBL .M                  7504 : CASING BOTTOM LOGGER
BS  .MM                  8.5 : BIT SIZE
BSD .M                 13000 : BIT SIZE AT DEPTH
DFT .             GEL BARITE : DRILLING FLUID TYPE
DFD .                    9.1 : DRILLING FLUID DENSITY
DFV .                     73 : DRILLING FLUID VISCOSITY
DFPH.                    9.5 : DRILLING FLUID PH
DFL .                    8.9 : DRILLING FLUID LOSS
MSS .               FLOWLINE : MUD SAMPLE SOURCE
RMS .OHMM               1.44 : RESISTIVITY MUD SAMPLE
MST .DEGC                 60 : MUD SAMPLE TEMPERATURE
RMF .OHMM               1.12 : RESISTIVITY MUD FILTRATE SAMPLE
MFST.DEGC                 55 : MUD FILTRATE SAMPLE TEMPERATURE
RMB .OHMM               0.26 : RESISTIVITY MUD AT BHT
TCS .HRS                 6.5 : TIME CIRCULATED STOPPED
LUN .                   7635 : LOGGING UNIT NUMBER
LUL .                    EDM : LOGGING UNIT LOCATION
ENGI.                 MACKAY : RECORDING ENGINEER
WITN.                SHIRLEY : WITNESSED BY
CLNT.                A2DTECH : CLIENT CODE
ORIG.            2" 5" PRINT : ORIGIN OF DATA
UWI .       100060706022W500 : UNIQUE WELL ID
DICO. A2D Technologies, Inc. : DIGITIZING COMPANY
~Other -----------------------------------------------------
SPRED INTERFERENCE CAUSING RANDOM DRIFTING OF THE BASE LINE ABOVE 7218'
~ASCII -----------------------------------------------------
# ...
 5400.00000   14.52570    -999.25   14.52570   54.26050    0.24700    0.24700    2.11650    -999.25    0.31800    0.34710   18.42960   74.40800   74.40800   87.55190   86.37080   86.37080   18.42960   17.35400   19.23610   17.35400    -999.25    0.32180    0.27130    2.11650  -71.16970   -2.18530   19.23610
 5450.00000   15.09770    -999.25   15.09770   74.57010    0.25190    0.25190    2.12490    -999.25    0.32400    0.34220   13.41020   76.35300   76.35300   98.64870   98.88130   98.88130   13.41020   13.77630   14.13530   13.77630    -999.25    0.32700    0.27680    2.12490  -88.87340  -20.24060   14.13530
 5500.00000   13.79790    -999.25   13.79790  112.12900    0.15570    0.15570    2.00820    -999.25    0.38740    0.41040    8.91830   81.98110   81.98110  105.98160  102.58130  102.58130    8.91830    9.19980    9.92800    9.19980    -999.25    0.40500    0.36040    2.00820  -84.47710  -16.32590    9.92800
 5550.00000   15.00000    -999.25   15.00000  105.35850    0.21150    0.21150    2.02740    -999.25    0.37180    0.39920    9.49140   80.18090   80.18090  107.10030   98.67760   98.67760    9.49140    9.78340   10.72410    9.78340    -999.25    0.37210    0.32480    2.02740  -76.42470   -8.75510   10.72410
 5600.00000   14.30880    -999.25   14.30880   87.78780    0.22320    0.22320    2.00400    -999.25    0.39480    0.41290   11.39110   78.18420   78.18420  106.01970   94.12870   94.12870   11.39110   11.76050   12.25620   11.76050    -999.25    0.34660    0.29750    2.00400  -75.79930   -8.61130   12.25620
 5650.00000   15.00730    -999.25   15.00730   48.45310    0.26360    0.26360    2.19770    -999.25    0.27680    0.29960   20.63850   71.49900   71.49900   81.69380   75.52250   75.52250   20.63850   19.51640   18.17250   19.51640    -999.25    0.27650    0.22420    2.19770  -65.45050   -6.95170   18.17250
 5700.00000   14.52240    -999.25   14.52240  123.71340    0.26410    0.26410    2.20610    -999.25    0.27080    0.29470    8.08320   80.12520   80.12520  110.42190  106.44220  106.44220    8.08320    8.35030    8.89580    8.35030    -999.25    0.36870    0.32110    2.20610  -47.89040   -7.33630    8.89580
 5750.00000   14.56420    -999.25   14.56420   92.93250    0.23890    0.23890    2.08450    -999.25    0.34170    0.36580   10.76050   79.42940   79.42940  114.53090  100.24540  100.24540   10.76050   11.10630   11.59680   11.10630    -999.25    0.37810    0.33120    2.08450  -31.81340   -9.20410   11.59680
 5800.00000   14.99970    -999.25   14.99970   97.36060    0.26080    0.26080    2.14990    -999.25    0.30950    0.32750   10.27110   78.75980   78.75980  114.17450   99.61940   99.61940   10.27110   10.58900   11.02560   10.58900    -999.25    0.38340    0.33700    2.14990  -12.04250   -7.37790   11.02560
 5850.00000   15.00910   14.82000   15.00910   93.11680    0.24810    0.24810    2.08670    -999.25    0.33800    0.36450   10.73920   77.68730   77.68730  107.04690  101.10430  101.10430   10.73920   11.09170   11.67440   11.09170    -999.25    0.33100    0.28100    2.08670  -32.31700   -6.70730   11.67440
 5900.00000   15.00000   13.51100   15.00000   67.52100    0.20340    0.20340    1.99350    -999.25    0.39630    0.41900   14.81020   75.83500   75.83500  104.68900   92.18610   92.18610   14.81020   14.22710   13.94470   14.22710    -999.25    0.30600    0.25480    1.99350  -43.08770   -3.54740   13.94470
 5950.00000   14.24800   12.90500   14.24800   41.17450    0.26400    0.26400    2.41200    -999.25    0.14810    0.17430   24.28690   70.78590   70.78590   96.96010   95.62970   95.62970   24.28690   23.29950   21.28890   23.29950    -999.25    0.23180    0.17950    2.41200  -32.86610   -6.09030   21.28890
 6000.00000   14.67860   12.72600   14.67860   32.77420    0.23010    0.23010    2.29930    -999.25    0.21440    0.24020   30.51180   73.01340   73.01340   88.31770   85.60990   85.60990   30.51180   28.17490   27.28830   28.17490    -999.25    0.21160    0.16010    2.29930    2.34920   -2.97040   27.28830
 6050.00000   14.43110   12.57100   14.43110   47.90690    0.13800    0.13800    2.53340    -999.25    0.07290    0.10330   20.87380   73.34420   73.34420  106.17990  100.87410  100.87410   20.87380   19.80940   19.57330   19.80940    -999.25    0.24940    0.19680    2.53340  -14.91850   -8.59310   19.57330
 6100.00000   14.15960   12.84900   14.15960   63.89570    0.26420    0.26420    2.50100    -999.25    0.11630    0.12220   15.65050   75.27540   75.27540  107.21620   97.30070   97.30070   15.65050   14.91090   15.26600   14.91090    -999.25    0.24650    0.19390    2.50100  -30.14500   -9.87240   15.26600
 6150.00000   13.55500   12.50600   13.55500   80.28390    0.12750    0.12750    2.47590    -999.25    0.10060    0.13690   12.45580   77.58830   77.58830  112.46130  110.66540  110.66540   12.45580   12.75100   13.51710   12.75100    -999.25    0.30150    0.25010    2.47590  -37.41050   -3.89280   13.51710
 6200.00000   14.12000   13.42600   14.12000   87.87960    0.26220    0.26220    2.33280    -999.25    0.19090    0.22060   11.37920   79.43800   79.43800  114.80320  103.84620  103.84620   11.37920   11.73270   12.83890   11.73270    -999.25    0.31380    0.26300    2.33280  -54.65180   -8.23490   12.83890
 6250.00000   14.19120   12.74200   14.19120   83.30830    0.26210    0.26210    2.25780    -999.25    0.21970    0.26440   12.00360   80.09100   80.09100  110.86520  101.83460  101.83460   12.00360   12.37180   14.02060   12.37180    -999.25    0.30350    0.25220    2.25780  -68.07850   -8.76240   14.02060
 6300.00000   13.94480   12.69000   13.94480   86.25600    0.25000    0.25000    2.35400    -999.25    0.17730    0.20820   11.59340   85.58600   85.58600  123.86960  107.88130  107.88130   11.59340   11.94990   13.86650   11.94990    -999.25    0.34900    0.30010    2.35400  -78.05040   -8.52010   13.86650
 6350.00000   12.93080   12.95700   12.93080   63.36570    0.05140    0.05140    2.60070    -999.25    0.03670    0.06390   15.78140   85.00890   85.00890  123.18510  110.28220  110.28220   15.78140   16.26970   18.59950   16.26970    -999.25    0.35570    0.30720    2.60070  -82.87380   -8.58090   18.59950
 6400.00000   12.96870   12.42400   12.96870   70.41910    0.00550    0.00550    2.58500    -999.25    0.04140    0.07310   14.20070   85.50060   85.50060  124.53000  110.89000  110.89000   14.20070   14.64560   17.35700   14.64560    -999.25    0.36100    0.31290    2.58500  -85.46950   -6.41390   17.35700
 6450.00000   12.89680   12.58700   12.89680   77.14500    0.01660    0.01660    2.57900    -999.25    0.04530    0.07660   12.96260   84.74140   84.74140  116.90620  112.79270  112.79270   12.96260   13.37370   16.42880   13.37370    -999.25    0.36070    0.31260    2.57900  -78.56010   -4.72830   16.42880
 6500.00000   12.74670   12.66900   12.74670   57.04960    0.01770    0.01770    2.56050    -999.25    0.05550    0.08740   17.52860   86.45380   86.45380  119.42960  111.93500  111.93500   17.52860   18.15370   22.64280   18.15370    -999.25    0.34940    0.30050    2.56050  -71.62490  -11.87260   22.64280
 6550.00000   12.72590   12.78000   12.72590   65.61250    0.11550    0.11550    2.51170    -999.25    0.08770    0.11600   15.24100   87.00390   87.00390  116.08910   97.04540   97.04540   15.24100   15.71260   18.74700   15.71260    -999.25    0.36470    0.31680    2.51170  -54.69650   -5.16500   18.74700
 6600.00000   12.93720   12.37400   12.93720   73.97050    0.04030    0.04030    2.57530    -999.25    0.04720    0.07880   13.51890   85.78540   85.78540  120.84620  106.29140  106.29140   13.51890   14.28350   17.30280   14.28350    -999.25    0.34300    0.29370    2.57530  -51.70500   -8.37780   17.30280
 6650.00000   13.02490   12.65200   13.02490   73.55970    0.02900    0.02900    2.57170    -999.25    0.04690    0.08090   13.59440   86.55470   86.55470  120.05780  101.09470  101.09470   13.59440   14.01230   17.31650   14.01230    -999.25    0.36540    0.31760    2.57170  -38.14270   -0.99060   17.31650
