~Version ---------------------------------------------------
VERS.      2.0 : CWLS log ASCII Standard -VERSION 2.0
WRAP.       NO : One line per depth step
CREA. 10/19/17 : LAS Creation Date
~Well ------------------------------------------------------
STRT.FT                     1150.0 : START DEPTH
STOP.FT                    11800.0 : STOP DEPTH
STEP.FT                   50.00000 : STEP LENGTH
NULL.                      -999.25 : NULL VALUE
COMP.         PETROFINA CANADA LTD : COMPANY
WELL. PCI AMMIN ECONOMY 11-15-68-2 : WELL
FLD .                              : FIELD
LOC .                              : LOCATION
CTRY.                       CANADA : COUNTRY
SRVC.                      Unknown : SERVICE COMPANY
DATE.                  01-Jan-1900 : LOGDATE
PROV.                      Alberta : PROVINCE
UWI .             100111506802W600 : UNIQUE WELL ID
SLAT.WGS84                54.88852 : SURFACE LATITUDE
SLON.WGS84               -118.2198 : SURFACE LONGITUDE
~Curve Information -----------------------------------------
DEPT    .FT    : Depth Curve
CALDED  .IN    : CALIPER FROM DENSITY LOG [ADJ.TO RESISTIVITY LOG]
CALSED  .IN    : CALIPER FROM SONIC LOG [ADJ.TO RESISTIVITY LOG]
CALWS   .IN    : CALIPER [CALSED]
CONDWS  .MMHO  : CONDUCTIVITY [1000/DRESWS]
DCORWS  .G/C3  : DENSITY CORRECTION [DRHOED]
DENWS   .G/C3  : FORMATION BULK DENSITY [CALC. FROM DPOLSWS, M=2.71, F=1.00]
DPHILSED.V/V   : DENSITY POROSITY LIMESTONE [ASSUMED, M=2.71, F=1.00] FROM DENSITY LOG [ADJ.TO RESISTIVITY LOG]
DPHISSED.V/V   : DENSITY POROSITY SANDSTONE [ASSUMED, M=2.65, F=1.00] FROM DENSITY LOG [ADJ.TO RESISTIVITY LOG]
DPOLSWS .V/V   : DENSITY POROSITY LIMESTONE [DPHISSED CONVERTED TO LIMESTONE MATRIX, M=2.71, F=1.00 SPL.TO DPHILSED @ 6552']
DRESWS  .OHMM  : DEEP RESISTIVITY [ILDED]
DRHOED  .G/C3  : DENSITY CORRECTION FROM DENSITY LOG [ADJ.TO RESISTIVITY LOG]
DTED    .US/F  : DELTA TIME FROM SONIC LOG [ADJ.TO RESISTIVITY LOG]
DTWS    .US/F  : COMPRESSIONAL SONIC [DTED]
GRDED   .GAPI  : GAMMA RAY FROM DENSITY LOG [ADJ.TO RESISTIVITY LOG]
GRSED   .GAPI  : GAMMA RAY FROM SONIC LOG [ADJ.TO RESISTIVITY LOG]
GRWS    .GAPI  : GAMMA RAY [GRSED SPL.TO GRDED @ 11698']
ILDED   .OHMM  : DEEP INDUCTION FROM RESISTIVITY LOG
ILMED   .OHMM  : MEDIUM INDUCTION FROM RESISTIVITY LOG
LL8ED   .OHMM  : LATEROLOG-8 FROM RESISTIVITY LOG
MRESWS  .OHMM  : MEDIUM RESISTIVITY [ILMED]
NPHILSED.V/V   : NEUTRON POROSITY LIMESTONE FROM DENSITY LOG [ADJ.TO RESISTIVITY LOG]
NPHISSED.V/V   : NEUTRON POROSITY SANDSTONE FROM DENSITY LOG [ADJ.TO RESISTIVITY LOG]
NPOLSWS .V/V   : NEUTRON POROSITY LIMESTONE [NPHISSED MATRIX (SLB) CONVERSION FOR LIMESTONE, SPL.TO NPHILSED @ 6552']
RHOBED  .G/C3  : BULK DENSITY FROM DENSITY LOG [ADJ.TO RESISTIVITY LOG]
SPRED   .MV    : SPONTANEOUS POTENTIAL FROM RESISTIVITY LOG
SPWS    .MV    : SPONTANEOUS POTENTIAL [BASELINE 0 MV, SPRED]
SRESWS  .OHMM  : SHALLOW RESISTIVITY [LL8ED]
~Params ----------------------------------------------------
PD  .                     GL : PERMANENT DATUM
EPD .FT               2259.3 : ELEVATION PERMANENT DATUM
LMF .                     KB : LOG MEASURED FROM
DAPD.FT                 13.7 : FEET ABOVE PERMANENT DATUM
EKB .FT                 2273 : KELLY BUSHING
EGL .FT               2259.3 : GROUND LEVEL
DATE.               10/12/76 : RUN DATE
RUN .                      1 : RUN NUMBER
DD  .FT                11825 : DEPTH DRILLER
DL  .FT                11801 : DEPTH LOGGER
BLI .FT                11795 : BOTTOM LOG INTERVAL
TLI .FT                 1228 : TOP LOG INTERVAL
CBD .FT                 1232 : CASING BOTTOM DRILLER
CBL .FT                 1228 : CASING BOTTOM LOGGER
BS  .IN                 8.75 : BIT SIZE
BSD .FT                11825 : BIT SIZE AT DEPTH
DFT .                    GEL : DRILLING FLUID TYPE
DFD .                    8.9 : DRILLING FLUID DENSITY
DFV .                    150 : DRILLING FLUID VISCOSITY
DFPH.                   10.5 : DRILLING FLUID PH
DFL .                    5.8 : DRILLING FLUID LOSS
MSS .               FLOWLINE : MUD SAMPLE SOURCE
RMF .OHMM               0.71 : RESISTIVITY MUD FILTRATE SAMPLE
MFST.DEGF                 76 : MUD FILTRATE SAMPLE TEMPERATURE
RMB .OHMM               0.28 : RESISTIVITY MUD AT BHT
TCS .HRS                 4.5 : TIME CIRCULATED STOPPED
LUN .                   7803 : LOGGING UNIT NUMBER
LUL .                     OC : LOGGING UNIT LOCATION
ENGI.                STADNYK : RECORDING ENGINEER
WITN.                  CLARK : WITNESSED BY
CLNT.                A2DTECH : CLIENT CODE
ORIG.          1" 2.5" PRINT : ORIGIN OF DATA
UWI .       100111506802W600 : UNIQUE WELL ID
DICO. A2D Technologies, Inc. : DIGITIZING COMPANY
~Other -----------------------------------------------------
DI-LL-FDC-CNL-BHC LOG RUN.
~ASCII -----------------------------------------------------
 1150.00000    -999.25    -999.25    -999.25    -999.25    -999.25    -999.25    -999.25    -999.25    -999.25    -999.25    -999.25    -999.25    -999.25    -999.25   35.40500   35.40500    -999.25    -999.25    -999.25    -999.25    -999.25    -999.25    -999.25    -999.25    -999.25    -999.25    -999.25
 1200.00000    -999.25    -999.25    -999.25    -999.25    -999.25    -999.25    -999.25    -999.25    -999.25    -999.25    -999.25    -999.25    -999.25    -999.25   52.28580   52.28580    -999.25    -999.25    -999.25    -999.25    -999.25    -999.25    -999.25    -999.25    -999.25    -999.25    -999.25
 1250.00000    -999.25   10.74410   10.74410  364.71060    -999.25    -999.25    -999.25    -999.25    -999.25    2.74190    -999.25  156.65060  156.65060    -999.25   97.22920   97.22920    2.74190    2.44340    8.04230    2.44340    -999.25    -999.25    -999.25    -999.25 -119.64760   -5.86030    8.04230
 1300.00000    -999.25    9.93270    9.93270  138.52590    -999.25    -999.25    -999.25    -999.25    -999.25    7.24810    -999.25  102.41450  102.41450    -999.25   78.07400   78.07400    7.24810    6.47160   15.06670    6.47160    -999.25    -999.25    -999.25    -999.25 -123.97080  -10.07160   15.06670
 1350.00000    -999.25   11.21310   11.21310  194.70400    -999.25    -999.25    -999.25    -999.25    -999.25    5.13600    -999.25  107.57500  107.57500    -999.25   86.60400   86.60400    5.13600    4.66660   10.99800    4.66660    -999.25    -999.25    -999.25    -999.25 -120.72160   -6.70980   10.99800
 1400.00000    -999.25   10.65570   10.65570  187.98630    -999.25    -999.25    -999.25    -999.25    -999.25    5.31960    -999.25   99.91800   99.91800    -999.25   93.83870   93.83870    5.31960    4.88730   13.34190    4.88730    -999.25    -999.25    -999.25    -999.25 -119.49210   -5.36840   13.34190
 1450.00000    -999.25   10.59210   10.59210  190.34930    -999.25    -999.25    -999.25    -999.25    -999.25    5.25350    -999.25  107.89490  107.89490    -999.25   90.70050   90.70050    5.25350    4.73510   11.31920    4.73510    -999.25    -999.25    -999.25    -999.25 -118.52760   -4.29130   11.31920
 1500.00000    -999.25   10.55740   10.55740   97.28480    -999.25    -999.25    -999.25    -999.25    -999.25   10.27910    -999.25   91.88510   91.88510    -999.25   65.77540   65.77540   10.27910    9.43750   23.98810    9.43750    -999.25    -999.25    -999.25    -999.25 -116.97080   -2.62260   23.98810
 1550.00000    -999.25   10.62860   10.62860  214.71060    -999.25    -999.25    -999.25    -999.25    -999.25    4.65930    -999.25  108.46550  108.46550    -999.25   73.67190   73.67190    4.65930    4.23730   10.68430    4.23730    -999.25    -999.25    -999.25    -999.25 -118.45410   -3.99400   10.68430
 1600.00000    -999.25   10.56080   10.56080  168.95320    -999.25    -999.25    -999.25    -999.25    -999.25    5.91880    -999.25  110.53670  110.53670    -999.25   71.95070   71.95070    5.91880    5.13840   16.26070    5.13840    -999.25    -999.25    -999.25    -999.25 -121.03290   -6.59050   16.26070
 1650.00000    -999.25   10.19440   10.19440  210.21460    -999.25    -999.25    -999.25    -999.25    -999.25    4.75740    -999.25  123.20140  123.20140    -999.25   89.86280   89.86280    4.75740    4.16760    9.75210    4.16760    -999.25    -999.25    -999.25    -999.25 -119.68130   -5.37140    9.75210
 1700.00000    -999.25   10.23490   10.23490  204.46550    -999.25    -999.25    -999.25    -999.25    -999.25    4.89080    -999.25  125.24310  125.24310    -999.25   71.25120   71.25120    4.89080    4.38480   10.39960    4.38480    -999.25    -999.25    -999.25    -999.25 -118.07670   -3.90020   10.39960
 1750.00000    -999.25    9.98590    9.98590   80.83680    -999.25    -999.25    -999.25    -999.25    -999.25   12.37060    -999.25  100.16580  100.16580    -999.25   52.36810   52.36810   12.37060   11.37940   25.32620   11.37940    -999.25    -999.25    -999.25    -999.25 -118.22290   -4.17890   25.32620
 1800.00000    -999.25   10.14780   10.14780  230.38270    -999.25    -999.25    -999.25    -999.25    -999.25    4.34380    -999.25  114.71700  114.71700    -999.25   72.25050   72.25050    4.34380    3.87440   13.31540    3.87440    -999.25    -999.25    -999.25    -999.25 -118.11210   -4.20060   13.31540
 1850.00000    -999.25   10.33770   10.33770  186.79020    -999.25    -999.25    -999.25    -999.25    -999.25    5.35360    -999.25  100.72220  100.72220    -999.25   83.07750   83.07750    5.35360    4.94920   13.74100    4.94920    -999.25    -999.25    -999.25    -999.25 -118.18270   -4.40460   13.74100
 1900.00000    -999.25   10.00030   10.00030  199.19180    -999.25    -999.25    -999.25    -999.25    -999.25    5.03590    -999.25  129.13910  129.13910    -999.25   71.27200   71.27200    5.03590    4.10780   10.54830    4.10780    -999.25    -999.25    -999.25    -999.25 -117.92030   -4.17450   10.54830
 1950.00000    -999.25   11.42320   11.42320  203.38850    -999.25    -999.25    -999.25    -999.25    -999.25    4.91670    -999.25  119.96460  119.96460    -999.25   79.36890   79.36890    4.91670    4.02720   11.76310    4.02720    -999.25    -999.25    -999.25    -999.25 -118.83060   -5.08480   11.76310
 2000.00000    -999.25   10.56640   10.56640  207.71450    -999.25    -999.25    -999.25    -999.25    -999.25    4.81430    -999.25  111.76860  111.76860    -999.25   71.73030   71.73030    4.81430    3.90880   11.62510    3.90880    -999.25    -999.25    -999.25    -999.25 -117.73620   -3.66020   11.62510
 2050.00000    -999.25   11.39870   11.39870  172.40180    -999.25    -999.25    -999.25    -999.25    -999.25    5.80250    -999.25   95.55980   95.55980    -999.25   78.28880   78.28880    5.80250    5.47730   13.45650    5.47730    -999.25    -999.25    -999.25    -999.25 -118.48080   -4.00010   13.45650
 2100.00000    -999.25   13.01070   13.01070  207.53780    -999.25    -999.25    -999.25    -999.25    -999.25    4.81840    -999.25  107.06220  107.06220    -999.25   73.66590   73.66590    4.81840    4.11190   12.52130    4.11190    -999.25    -999.25    -999.25    -999.25 -119.59330   -4.70510   12.52130
 2150.00000    -999.25   13.35950   13.35950  197.81450    -999.25    -999.25    -999.25    -999.25    -999.25    5.05530    -999.25  100.00750  100.00750    -999.25   79.70540   79.70540    5.05530    4.48840   11.32910    4.48840    -999.25    -999.25    -999.25    -999.25 -118.70540   -3.41250   11.32910
 2200.00000    -999.25   14.58840   14.58840  189.76770    -999.25    -999.25    -999.25    -999.25    -999.25    5.26960    -999.25  101.85220  101.85220    -999.25   91.14240   91.14240    5.26960    5.00210   11.30000    5.00210    -999.25    -999.25    -999.25    -999.25 -121.33410   -5.63380   11.30000
 2250.00000    -999.25   11.00300   11.00300   93.29580    -999.25    -999.25    -999.25    -999.25    -999.25   10.71860    -999.25   87.25080   87.25080    -999.25  111.88170  111.88170   10.71860    9.26910   17.72870    9.26910    -999.25    -999.25    -999.25    -999.25 -120.25600   -4.15100   17.72870
 2300.00000    -999.25    8.44290    8.44290   96.01630    -999.25    -999.25    -999.25    -999.25    -999.25   10.41490    -999.25   86.32910   86.32910    -999.25  103.31220  103.31220   10.41490    8.61380   15.91610    8.61380    -999.25    -999.25    -999.25    -999.25 -122.23350   -5.72370   15.91610
 2350.00000    -999.25   10.38190   10.38190  121.91700    -999.25    -999.25    -999.25    -999.25    -999.25    8.20230    -999.25  100.39840  100.39840    -999.25  135.26850  135.26850    8.20230    7.03260   14.63640    7.03260    -999.25    -999.25    -999.25    -999.25 -121.67960   -4.76240   14.63640
 2400.00000    -999.25   10.59080   10.59080  113.46150    -999.25    -999.25    -999.25    -999.25    -999.25    8.81390    -999.25   98.65250   98.65250    -999.25  140.17740  140.17740    8.81390    7.49980   17.25210    7.49980    -999.25    -999.25    -999.25    -999.25 -121.36120   -4.03930   17.25210
