~Version ---------------------------------------------------
VERS.      2.0 : CWLS log ASCII Standard -VERSION 2.0
WRAP.       NO : One line per depth step
CREA. 11/15/17 : LAS Creation Date
~Well ------------------------------------------------------
STRT.FT                                800.0 : START DEPTH
STOP.FT                               7500.0 : STOP DEPTH
STEP.FT                             50.00000 : STEP LENGTH
NULL.                                -999.25 : NULL VALUE
COMP.  CONOCOPHILLIPS CANADA RESOURCES CORP. : COMPANY
WELL. ESSO B.A. FENN WEST 14-15-36-21 #14-15 : WELL
FLD .                                        : FIELD
LOC .                                        : LOCATION
CTRY.                                 CANADA : COUNTRY
SRVC.                           Schlumberger : SERVICE COMPANY
DATE.                            11-Mar-1960 : LOGDATE
PROV.                                Alberta : PROVINCE
UWI .                       100141503621W400 : UNIQUE WELL ID
SLAT.WGS84                          52.09711 : SURFACE LATITUDE
SLON.WGS84                         -112.9239 : SURFACE LONGITUDE
~Curve Information -----------------------------------------
DEPT  .FT         : Depth Curve
CALWS .IN         : CALIPER [MCALED]
CILDED.MMHO       : CONDUCTIVITY INDUCTION LOG
CONDWS.MMHO       : CONDUCTIVITY [1000/DRESWS]
DRESWS.OHMM       : DEEP RESISTIVITY [ILDED]
DTED  .US/F       : DELTA TIME FROM SONIC LOG
DTWS  .US/F       : DELTA TIME [DTED]
GRSED .UgRa-Eq/T  : GAMMA RAY FROM SONIC LOG
GRWS  .GAPI       : GAMMA RAY [GRSED*16.50]
ILDED .OHMM       : DEEP INDUCTION RESISTIVITY
LLED  .OHMM       : LATEROLOG
MCALED.IN         : CALIPER MICROLOG
SNED  .OHMM       : SHORT NORMAL
SPRED .MV         : SPONTANEOUS POTENTIAL FROM RESISTIVITY
SPWS  .MV         : SPONTANEOUS POTENTIAL [BASELINE 0 MV] [SPRED]
SRESWS.OHMM       : SHALLOW RESISTIVITY [SNED]
~Params ----------------------------------------------------
LMF .                     KB : LOG MEASURED FROM
DMF .                     KB : DRILLING MEASURED FROM
EKB .FT                 2978 : KELLY BUSHING
DATE.               03/11/60 : RUN DATE
RUN .                      1 : RUN NUMBER
DD  .FT                 7548 : DEPTH DRILLER
DL  .FT                 7549 : DEPTH LOGGER
BLI .FT                 7545 : BOTTOM LOG INTERVAL
TLI .FT                 5100 : TOP LOG INTERVAL
CBD .FT                  778 : CASING BOTTOM DRILLER
CBL .FT                  779 : CASING BOTTOM LOGGER
BS  .IN                    9 : BIT SIZE
BSD .FT                 7548 : BIT SIZE AT DEPTH
DFT .             GYP STARCH : DRILLING FLUID TYPE
DFD .                   10.2 : DRILLING FLUID DENSITY
DFV .                     72 : DRILLING FLUID VISCOSITY
RMS .OHMM               0.59 : RESISTIVITY MUD SAMPLE
MST .DEGF                 68 : MUD SAMPLE TEMPERATURE
RMB .OHMM                0.3 : RESISTIVITY MUD AT BHT
TCS .HRS                   2 : TIME CIRCULATED STOPPED
LUN .                   2741 : LOGGING UNIT NUMBER
LUL .                      C : LOGGING UNIT LOCATION
ENGI.                MCKEOWN : RECORDING ENGINEER
WITN.                  ROGAN : WITNESSED BY
CLNT.                A2DTECH : CLIENT CODE
ORIG.            2" 5" PRINT : ORIGIN OF DATA
UWI .       100141503621W400 : UNIQUE WELL ID
DICO. A2D Technologies, Inc. : DIGITIZING COMPANY
~Other -----------------------------------------------------
~ASCII -----------------------------------------------------
  800.00000    -999.25  119.02090  119.01790    8.40210  125.26450  125.26450    4.64640   76.66560    8.40210    -999.25    -999.25    9.85210 -144.91480   -2.23570    9.85210
  850.00000    -999.25  184.82450  193.52840    5.16720  131.61140  131.61140    5.64680   93.17220    5.16720    -999.25    -999.25    6.62240 -145.00760   -2.32850    6.62240
  900.00000    -999.25  219.76490  257.23470    3.88750  111.08850  111.08850    5.73990   94.70830    3.88750    -999.25    -999.25    4.45170 -144.66050   -1.98140    4.45170
  950.00000    -999.25  204.94260  223.69360    4.47040  114.77200  114.77200    5.16980   85.30170    4.47040    -999.25    -999.25    5.36500 -142.71260   -0.03350    5.36500
 1000.00000    -999.25  192.49720  184.97970    5.40600  128.04750  128.04750    4.94270   81.55460    5.40600    -999.25    -999.25    6.46520 -143.02830   -1.10770    6.46520
 1050.00000    -999.25   91.49790   97.52860   10.25340   97.23120   97.23120    4.56480   75.31920   10.25340    -999.25    -999.25   10.54560 -142.20590   -1.05930   10.54560
 1100.00000    -999.25  133.19290  136.35680    7.33370  107.18110  107.18110    5.16940   85.29510    7.33370    -999.25    -999.25    7.74130 -141.28710   -0.91440    7.74130
 1150.00000    -999.25   63.38230   66.11480   15.12520  102.84120  102.84120    5.20810   85.93370   15.12520    -999.25    -999.25   19.38100 -144.05800   -3.90200   19.38100
 1200.00000    -999.25  162.22950  168.30480    5.94160  121.63310  121.63310    4.72860   78.02190    5.94160    -999.25    -999.25    7.29510 -142.20090   -2.08570    7.29510
 1250.00000    -999.25  211.30370  215.49400    4.64050  127.49880  127.49880    4.69330   77.43940    4.64050    -999.25    -999.25    7.39470 -142.12070   -2.04620    7.39470
 1300.00000    -999.25   77.29070   81.51020   12.26840  110.91460  110.91460    2.86460   47.26590   12.26840    -999.25    -999.25   15.84800 -156.06040  -16.02660   15.84800
 1350.00000    -999.25  207.19650  218.76090    4.57120  118.05090  118.05090    4.81510   79.44920    4.57120    -999.25    -999.25    5.05540 -142.14490   -2.15180    5.05540
 1400.00000    -999.25  119.72410  122.63170    8.15450  137.95230  137.95230    4.39330   72.48950    8.15450    -999.25    -999.25   11.25300 -143.31730   -3.36500   11.25300
 1450.00000    -999.25  169.82900  185.41870    5.39320  100.02450  100.02450    4.22080   69.64320    5.39320    -999.25    -999.25    6.30840 -140.36730   -0.45570    6.30840
 1500.00000    -999.25  292.06550  333.87870    2.99510  121.30710  121.30710    4.89810   80.81870    2.99510    -999.25    -999.25    3.41220 -140.88250   -1.01160    3.41220
 1550.00000    -999.25  267.65510  320.43070    3.12080  116.46710  116.46710    4.84120   79.87980    3.12080    -999.25    -999.25    3.37320 -140.86260   -1.03240    3.37320
 1600.00000    -999.25  184.61080  200.26840    4.99330  118.85770  118.85770    5.02520   82.91580    4.99330    -999.25    -999.25    6.36350 -141.19490   -1.40540    6.36350
 1650.00000    -999.25  241.61870  277.91670    3.59820  110.78910  110.78910    5.60080   92.41320    3.59820    -999.25    -999.25    3.90110 -140.18540   -0.43670    3.90110
 1700.00000    -999.25  238.87870  270.35800    3.69880  115.65920  115.65920    4.80350   79.25770    3.69880    -999.25    -999.25    3.97010 -141.16610   -1.45810    3.97010
 1750.00000    -999.25  229.65410  253.17100    3.94990  110.22630  110.22630    4.77420   78.77430    3.94990    -999.25    -999.25    4.36560 -140.95660   -1.28930    4.36560
 1800.00000    -999.25  415.82180  551.63280    1.81280  121.82110  121.82110    5.39480   89.01420    1.81280    -999.25    -999.25    2.30130 -139.80940   -0.18280    2.30130
 1850.00000    -999.25   60.68700   61.91610   16.15090   89.28940   89.28940    2.81900   46.51350   16.15090    -999.25    -999.25   22.07000 -160.90050  -21.31470   22.07000
 1900.00000    -999.25   77.43750   83.01300   12.04630   98.05490   98.05490    4.17490   68.88590   12.04630    -999.25    -999.25   16.38250 -159.01500  -19.46990   16.38250
 1950.00000    -999.25  193.28000  203.10750    4.92350   94.48260   94.48260    4.34330   71.66450    4.92350    -999.25    -999.25    5.44470 -145.70000   -6.19560    5.44470
 2000.00000    -999.25  190.46950  206.13460    4.85120   94.80400   94.80400    4.74840   78.34860    4.85120    -999.25    -999.25    5.34710 -143.50950   -4.04580    5.34710
 2050.00000    -999.25  221.38290  239.10290    4.18230  113.18000  113.18000    4.19660   69.24390    4.18230    -999.25    -999.25    4.86390 -142.66680   -3.24380    4.86390
 2100.00000    -999.25  178.71360  204.61610    4.88720  101.63820  101.63820    4.50430   74.32090    4.88720    -999.25    -999.25    5.11650 -142.48620   -3.10400    5.11650
 2150.00000    -999.25  177.58740  185.01730    5.40490  104.84700  104.84700    4.11420   67.88430    5.40490    -999.25    -999.25    5.86260 -143.04000   -3.69850    5.86260
 2200.00000    -999.25  120.93290  137.55350    7.26990   90.42910   90.42910    3.47210   57.28970    7.26990    -999.25    -999.25    7.65040 -142.82780   -3.52700    7.65040
 2250.00000    -999.25  220.21540  234.68670    4.26100  136.10210  136.10210    4.28900   70.76850    4.26100    -999.25    -999.25    4.82290 -141.12680   -1.86670    4.82290
 2300.00000    -999.25  120.45310  117.16320    8.53510   90.68010   90.68010    4.13780   68.27370    8.53510    -999.25    -999.25    9.16560 -142.38530   -3.16600    9.16560
 2350.00000    -999.25  151.92550  141.41470    7.07140   84.46050   84.46050    3.38550   55.86070    7.07140    -999.25    -999.25    7.70400 -142.68170   -3.50310    7.70400
 2400.00000    -999.25  167.83630  166.45030    6.00780   85.27560   85.27560    4.01250   66.20620    6.00780    -999.25    -999.25    7.05560 -140.52060   -1.38270    7.05560
 2450.00000    -999.25  166.41330  169.82540    5.88840  122.91080  122.91080    3.84300   63.40950    5.88840    -999.25    -999.25    7.21820 -140.85310   -1.75590    7.21820
 2500.00000    -999.25  124.05750  125.94140    7.94020   86.69160   86.69160    3.45080   56.93820    7.94020    -999.25    -999.25    9.02880 -140.89840   -1.84190    9.02880
 2550.00000    -999.25  195.13080  202.86860    4.92930  103.18540  103.18540    4.46100   73.60650    4.92930    -999.25    -999.25    5.52050 -141.38670   -2.37100    5.52050
 2600.00000    -999.25  205.36330  217.35820    4.60070  101.76860  101.76860    4.50690   74.36380    4.60070    -999.25    -999.25    5.00260 -139.98830   -1.01330    5.00260
 2650.00000    -999.25  251.17240  271.96820    3.67690  107.17280  107.17280    4.50550   74.34080    3.67690    -999.25    -999.25    4.50670 -139.66450   -0.91730    4.50670
 2700.00000    -999.25  103.58070  107.86210    9.27110  109.51930  109.51930    4.90180   80.87970    9.27110    -999.25    -999.25    9.94730 -143.24140   -5.29520    9.94730
 2750.00000    -999.25  136.05100  140.14240    7.13560  109.81820  109.81820    6.01770   99.29200    7.13560    -999.25    -999.25    8.04970 -144.77660   -4.89540    8.04970
 2800.00000    -999.25  136.31710  138.42940    7.22390  101.21120  101.21120    5.73230   94.58300    7.22390    -999.25    -999.25    7.97300 -145.06410   -3.24800    7.97300
 2850.00000    -999.25  124.66110  126.03820    7.93410   96.99280   96.99280    5.67100   93.57150    7.93410    -999.25    -999.25    9.07120 -149.98070   -6.22960    9.07120
 2900.00000    -999.25  125.39190  126.40470    7.91110  100.87630  100.87630    5.56400   91.80600    7.91110    -999.25    -999.25    8.79100 -150.08450   -6.29430    8.79100
 2950.00000    -999.25  109.49440  110.62800    9.03930   90.14460   90.14460    5.78670   95.48050    9.03930    -999.25    -999.25   10.79470 -149.52150   -5.87960   10.79470
 3000.00000    -999.25  125.56490  126.73790    7.89030  101.94520  101.94520    6.19150  102.15970    7.89030    -999.25    -999.25   10.15980 -148.57580   -5.08230   10.15980
 3050.00000    -999.25   78.74070   74.63630   13.39830   87.90500   87.90500    8.07390  133.21930   13.39830    -999.25    -999.25   19.80290 -146.27680   -2.93160   19.80290
