~Version ---------------------------------------------------
VERS.      2.0 : CWLS log ASCII Standard -VERSION 2.0
WRAP.       NO : One line per depth step
CREA. 11/20/17 : LAS Creation Date
~Well ------------------------------------------------------
STRT.FT                            1200.0 : START DEPTH
STOP.FT                           11350.0 : STOP DEPTH
STEP.FT                          50.00000 : STEP LENGTH
NULL.                             -999.25 : NULL VALUE
COMP.       AMOCO CANADA PETROLEUM CO LTD : COMPANY
WELL. AMOCO MOBIL L-2 WAHIGAN 10-16-64-23 : WELL
FLD .                                     : FIELD
LOC .                                     : LOCATION
CTRY.                              CANADA : COUNTRY
SRVC.                             Unknown : SERVICE COMPANY
DATE.                         06-Feb-1976 : LOGDATE
PROV.                             Alberta : PROVINCE
UWI .                    100101606423W500 : UNIQUE WELL ID
SLAT.WGS84                       54.53986 : SURFACE LATITUDE
SLON.WGS84                      -117.4124 : SURFACE LONGITUDE
~Curve Information -----------------------------------------
DEPT    .FT    : Depth Curve
ACED    .US/F  : ACOUSTIC TIME FROM SONIC LOG [ADJ. TO RESISTIVITY LOG]
CALDED  .IN    : CALIPER FROM DENSITY LOG
CALSED  .IN    : CALIPER FROM SONIC LOG [ADJ. TO RESISTIVITY LOG]
CALWS   .IN    : CALIPER [CALDED]
CONDWS  .MMHO  : CONDUCTIVITY [1000/DRESWS]
CORRED  .G/C3  : DENSITY CORRECTION FROM DENSITY LOG [ADJ. TO RESISTIVITY LOG]
DCORWS  .G/C3  : DENSITY CORRECTION [CORRED]
DENWS   .G/C3  : FORMATION BULK DENSITY [RHOBED]
DPHILSED.V/V   : DENSITY POROSITY LIMESTONE [M=2.71, F=1.00] FROM DENSITY LOG [ADJ. TO RESISTIVITY LOG]
DPHISSED.V/V   : DENSITY POROSITY SANDSTONE [M=2.65, F=1.00]FROM DENSITY LOG [ADJ. TO RESISTIVITY LOG]
DPOLSWS .V/V   : DENSITY POROSITY LIMESTONE [CALC. FROM DENWS, M=2.71, F=1.00]
DRESWS  .OHMM  : DEEP RESISTIVITY [ILDED]
DTWS    .US/F  : COMPRESSIONAL SONIC [ACED]
GRDED   .GAPI  : GAMMA RAY FROM DENSITY LOG
GRSED   .GAPI  : GAMMA RAY FROM SONIC LOG [ADJ. TO RESISTIVITY LOG]
GRWS    .GAPI  : GAMMA RAY [GRSED SPL. TO GRDED @ 11348']
ILDED   .OHMM  : DEEP INDUCTION LOG RESISTIVITY FROM RESISTIVITY LOG
ILMED   .OHMM  : MEDIUM INDUCTION LOG RESISTIVITY FROM RESISTIVITY LOG
MRESWS  .OHMM  : MEDIUM RESISTIVITY [ILMED]
NPHILSED.V/V   : NEUTRON POROSITY LIMESTONE FROM DENSITY LOG [ADJ. TO RESISTIVITY LOG]
NPHISSED.V/V   : NEUTRON POROSITY SANDSTONE FROM DENSITY LOG [ADJ. TO RESISTIVITY LOG]
NPOLSWS .V/V   : NEUTRON POROSITY LIMESTONE [NPHISSED MATRIX CONVERSION FOR LIMESTONE & SPL. TO NPHILSED @ 6845']
RHOBED  .G/C3  : BULK DENSITY FROM DENSITY LOG [ADJ. TO RESISTIVITY LOG]
SFLED   .OHMM  : SPHERICALLY FOCUSED RESISTIVITY FROM RESISTIVITY LOG
SPRED   .MV    : SPONTANEOUS POTENTIAL FROM RESISTIVITY LOG
SPWS    .MV    : SPONTANEOUS POTENTIAL [BASELINE 0 MV, SPRED]
SRESWS  .OHMM  : SHALLOW RESISTIVITY [SFLED]
~Params ----------------------------------------------------
PD  .                     GL : PERMANENT DATUM
EPD .FT               2628.5 : ELEVATION PERMANENT DATUM
LMF .                     KB : LOG MEASURED FROM
DAPD.FT                 13.5 : FEET ABOVE PERMANENT DATUM
DMF .                     KB : DRILLING MEASURED FROM
EKB .FT                 2642 : KELLY BUSHING
EGL .FT               2628.5 : GROUND LEVEL
DATE.               02/06/76 : RUN DATE
RUN .                      1 : RUN NUMBER
DD  .FT                11378 : DEPTH DRILLER
DL  .FT                11410 : DEPTH LOGGER
BLI .FT                11408 : BOTTOM LOG INTERVAL
TLI .FT                 1219 : TOP LOG INTERVAL
CS  .IN                9.625 : CASING SIZE
CBD .FT                 1208 : CASING BOTTOM DRILLER
CBL .FT                 1219 : CASING BOTTOM LOGGER
BS  .IN                 8.75 : BIT SIZE
BSD .FT                11378 : BIT SIZE AT DEPTH
DFT .           MUD GEL CHEM : DRILLING FLUID TYPE
DFD .                    9.3 : DRILLING FLUID DENSITY
DFV .                    135 : DRILLING FLUID VISCOSITY
DFPH.                     10 : DRILLING FLUID PH
DFL .                    8.1 : DRILLING FLUID LOSS
MSS .                   CIRC : MUD SAMPLE SOURCE
RMS .OHMM                3.5 : RESISTIVITY MUD SAMPLE
MST .DEGF                 67 : MUD SAMPLE TEMPERATURE
RMF .OHMM                3.5 : RESISTIVITY MUD FILTRATE SAMPLE
MFST.DEGF                 62 : MUD FILTRATE SAMPLE TEMPERATURE
RMC .OHMM                2.8 : RESISTIVITY MUD CAKE
MCST.DEGF                 67 : MUD CAKE SAMPLE TEMPERATURE
MFSS.                   MEAS : MUD FILTRATE SAMPLE SOURCE
MCSS.                   MEAS : MUD CAKE SAMPLE SOURCE
RMB .OHMM               1.21 : RESISTIVITY MUD AT BHT
TCS .HRS                   7 : TIME CIRCULATED STOPPED
LUN .                   6155 : LOGGING UNIT NUMBER
LUL .                    EDM : LOGGING UNIT LOCATION
ENGI.                    GAU : RECORDING ENGINEER
WITN.                  KAREL : WITNESSED BY
CLNT.                A2DTECH : CLIENT CODE
ORIG.            2" 5" PRINT : ORIGIN OF DATA
UWI .       100101606423W500 : UNIQUE WELL ID
DICO. A2D Technologies, Inc. : DIGITIZING COMPANY
~Other -----------------------------------------------------
~ASCII -----------------------------------------------------
# ...
 2500.00000  144.92720   14.06310   11.09160   14.06310  351.74110    0.16490    0.16490    2.18540    -999.25    0.30120    0.30680    2.84300  144.92720  116.06930   81.67880   81.67880    2.84300    3.13120    3.13120    -999.25    0.48370    0.44430    2.18540    3.92980  -76.20340   -8.41500    3.92980
 2550.00000   86.52360   12.36760    9.90530   12.36760  116.91120    0.09800    0.09800    2.50640    -999.25    0.08850    0.11900    8.55350   86.52360   83.96540   64.79860   64.79860    8.55350    9.62950    9.62950    -999.25    0.24030    0.20030    2.50640   10.30530  -73.35120   -5.56280   10.30530
 2600.00000  130.73000   13.25680   11.00470   13.25680  301.43180    0.22830    0.22830    2.23960    -999.25    0.25740    0.27510    3.31750  130.73000  104.09420   77.47300   77.47300    3.31750    3.54610    3.54610    -999.25    0.38680    0.34680    2.23960    4.82660  -72.69860   -4.91020    4.82660
 2650.00000  147.48510   13.77240   11.42720   13.77240  366.98590    0.19200    0.19200    2.19180    -999.25    0.29010    0.30300    2.72490  147.48510  105.98630   77.26610   77.26610    2.72490    3.07930    3.07930    -999.25    0.43020    0.39020    2.19180    4.33580  -75.93910   -8.15070    4.33580
 2700.00000  117.54500   12.25970   11.70340   12.25970  333.73180    0.21240    0.21240    2.06450    -999.25    0.35710    0.37750    2.99710  117.54500   97.09340   73.86320   73.86320    2.99710    3.27500    3.27500    -999.25    0.37420    0.33420    2.06450    4.18210  -74.33010   -6.54170    4.18210
 2750.00000   85.84960   11.33500    9.92680   11.33500  126.80220    0.06910    0.06910    2.43840    -999.25    0.12660    0.15880    7.88630   85.84960   90.73270   53.78550   53.78550    7.88630    8.59880    8.59880    -999.25    0.28530    0.24530    2.43840    9.34350  -78.43950  -10.65110    9.34350
 2800.00000   93.19140   10.45710    9.50350   10.45710  101.17260    0.13720    0.13720    2.31690    -999.25    0.20460    0.22990    9.88410   93.19140   79.57890   50.35510   50.35510    9.88410   10.95440   10.95440    -999.25    0.32100    0.28100    2.31690   10.55960  -78.08980  -10.30140   10.55960
 2850.00000   94.13750   13.29080    9.90130   13.29080  201.80010    0.17850    0.17850    2.53120    -999.25    0.07330    0.10460    4.95540   94.13750   98.03350   85.55460   85.55460    4.95540    5.19330    5.19330    -999.25    0.30510    0.26510    2.53120    5.55960  -80.32380  -12.53540    5.55960
 2900.00000  161.31850   12.84410   12.04330   12.84410  306.46640    0.07360    0.07360    1.55110    -999.25    0.59960    0.67770    3.26300  161.31850   91.14520   63.54530   63.54530    3.26300    3.42230    3.42230    -999.25    0.53220    0.49440    1.55110    4.04410  -84.68810  -16.89970    4.04410
 2950.00000   83.84360    9.97980    9.63260    9.97980  225.25650    0.13410    0.13410    1.86140    -999.25    0.50480    0.49630    4.44020   83.84360   93.95890   67.01420   67.01420    4.44020    4.90360    4.90360    -999.25    0.45220    0.41230    1.86140    7.41950  -77.87810  -10.08970    7.41950
 3000.00000  116.16190   13.19510   12.07820   13.19510  288.65860    0.13890    0.13890    1.71050    -999.25    0.58750    0.58450    3.46430  116.16190   94.72500   65.88830   65.88830    3.46430    3.66120    3.66120    -999.25    0.44150    0.40160    1.71050    4.10880  -78.81930  -11.03090    4.10880
 3050.00000   94.57760    9.23950    9.08590    9.23950  102.31440    0.19690    0.19690    2.37700    -999.25    0.16790    0.19470    9.77380   94.57760   75.51650   55.80310   55.80310    9.77380   11.41150   11.41150    -999.25    0.34550    0.30550    2.37700   13.99550  -78.55740  -10.76900   13.99550
 3100.00000  116.68580   11.08650   11.33440   11.08650  259.76720    0.13110    0.13110    1.84430    -999.25    0.49860    0.50630    3.84960  116.68580   94.20650   63.88440   63.88440    3.84960    4.05130    4.05130    -999.25    0.35540    0.31540    1.84430    8.43780  -71.90380   -4.21200    8.43780
 3150.00000   96.52800   10.27350    9.78580   10.27350  286.17220    0.15150    0.15150    2.34440    -999.25    0.22040    0.21380    3.49440   96.52800  105.86080   89.56950   89.56950    3.49440    3.88420    3.88420    -999.25    0.41350    0.37350    2.34440    5.02330  -70.77090   -3.44620    5.02330
 3200.00000   87.21290   10.94650    9.65730   10.94650  177.40290    0.16490    0.16490    2.52650    -999.25    0.07130    0.10730    5.64420   87.21290   97.39730   68.00810   68.00810    5.64420    6.45740    6.45740    -999.25    0.36200    0.32200    2.52650    7.94890  -73.59830   -6.64310    7.94890
 3250.00000   99.87810   11.87060   10.79370   11.87060  242.55950    0.23290    0.23290    2.39500    -999.25    0.15460    0.18420    4.12270   99.87810  109.00980   84.62180   84.62180    4.12270    4.52940    4.52940    -999.25    0.43020    0.39020    2.39500    5.56260  -72.24860   -5.66050    5.56260
 3300.00000   93.82090   12.96320   10.72450   12.96320  189.06810    0.18630    0.18630    2.10050    -999.25    0.33740    0.35640    5.28910   93.82090  126.29670   95.27370   95.27370    5.28910    5.76340    5.76340    -999.25    0.46670    0.42690    2.10050    6.63310  -75.14910   -8.92800    6.63310
 3350.00000   92.17750   13.48140   10.99530   13.48140  172.15260    0.22030    0.22030    2.21830    -999.25    0.26370    0.28750    5.80880   92.17750  133.18840   96.52100   96.52100    5.80880    6.40860    6.40860    -999.25    0.46050    0.42060    2.21830    7.54860  -73.23070   -7.37910    7.54860
 3400.00000  100.23780   13.31120   10.67870   13.31120  181.38940    0.21800    0.21800    2.09660    -999.25    0.33540    0.35870    5.51300  100.23780  147.82140  117.65590  117.65590    5.51300    5.95940    5.95940    -999.25    0.48130    0.44180    2.09660    7.35700  -70.95140   -5.46690    7.35700
 3450.00000   90.65260   13.33070   10.89890   13.33070  140.23020    0.22350    0.22350    2.27390    -999.25    0.23240    0.25500    7.13150   90.65260  152.28000  125.56830  125.56830    7.13150    8.12020    8.12020    -999.25    0.45700    0.41710    2.27390   10.51190  -71.83130   -6.71630   10.51190
 3500.00000   95.35880   12.88120   11.19580   12.88120  160.29490    0.22850    0.22850    2.24470    -999.25    0.25680    0.27210    6.23850   95.35880  143.75000   95.29970   95.29970    6.23850    7.21460    7.21460    -999.25    0.46310    0.42330    2.24470   10.08560  -71.71410   -6.96620   10.08560
 3550.00000   94.87610   13.31810   11.27060   13.31810  173.75290    0.23420    0.23420    2.36890    -999.25    0.17400    0.19940    5.75530   94.87610  146.11910  119.17210  119.17210    5.75530    6.37650    6.37650    -999.25    0.46810    0.42840    2.36890    9.00380  -73.05870   -8.67790    9.00380
 3600.00000   94.04490   12.33530   11.43270   12.33530  221.44470    0.11040    0.11040    2.00980    -999.25    0.37370    0.40950    4.51580   94.04490  135.92400  105.92740  105.92740    4.51580    4.85490    4.85490    -999.25    0.52260    0.48440    2.00980    6.75470  -73.01080   -8.99940    6.75470
 3650.00000   96.93670   13.34530   11.62630   13.34530  212.89730    0.19940    0.19940    2.17180    -999.25    0.29640    0.31470    4.69710   96.93670  149.90950  119.19790  119.19790    4.69710    4.89130    4.89130    -999.25    0.46580    0.42600    2.17180    6.59230  -73.37420   -9.72990    6.59230
 3700.00000   97.36910   12.48060   11.61370   12.48060  168.03340    0.20610    0.20610    2.11350    -999.25    0.32520    0.34880    5.95120   97.36910  131.13320   95.33960   95.33960    5.95120    6.49080    6.49080    -999.25    0.45940    0.41950    2.11350    7.65010  -74.50420  -11.22940    7.65010
 3750.00000   92.05500   11.90750   11.63740   11.90750  169.07310    0.22430    0.22430    2.19180    -999.25    0.28000    0.30300    5.91460   92.05500  133.47140  104.51900  104.51900    5.91460    6.63940    6.63940    -999.25    0.45960    0.41970    2.19180    8.90690  -72.32660   -9.41890    8.90690
