~Version ---------------------------------------------------
VERS.      2.0 : CWLS log ASCII Standard -VERSION 2.0
WRAP.       NO : One line per depth step
CREA. 12/14/17 : LAS Creation Date
~Well ------------------------------------------------------
STRT.FT                          1000.0 : START DEPTH
STOP.FT                          9450.0 : STOP DEPTH
STEP.FT                        50.00000 : STEP LENGTH
NULL.                           -999.25 : NULL VALUE
COMP.      CANADIAN HOMESTEAD OILS LTD. : COMPANY
WELL. HOMESTEAD ET AL SNIPE 11-28-68-19 : WELL
FLD .                                   : FIELD
LOC .                                   : LOCATION
CTRY.                            CANADA : COUNTRY
SRVC.                      Schlumberger : SERVICE COMPANY
DATE.                       25-Dec-1972 : LOGDATE
PROV.                           Alberta : PROVINCE
UWI .                  100112806819W500 : UNIQUE WELL ID
SLAT.WGS84                     54.91868 : SURFACE LATITUDE
SLON.WGS84                    -116.8396 : SURFACE LONGITUDE
~Curve Information -----------------------------------------
DEPT    .FT    : Depth Curve
CALDED  .IN    : CALIPER FROM DENSITY LOG [ADJ. TO GRSED]
CALSED  .IN    : CALIPER FROM SONIC LOG
CALWS   .IN    : CALIPER [CALSED]
CONDWS  .MMHO  : CONDUCTIVITY [1000/DRESWS]
DRESWS  .OHMM  : DEEP RESISTIVITY [ILDED]
DTED    .US/F  : DELTA TIME FROM SONIC LOG
DTWS    .US/F  : COMPRESSIONAL SONIC [DTED]
GRDED   .GAPI  : GAMMA RAY FROM DENSITY LOG [ADJ. TO GRSED]
GRSED   .GAPI  : GAMMA RAY FROM SONIC LOG
GRWS    .GAPI  : GAMMA RAY [GRSED]
ILDED   .OHMM  : DEEP INDUCTION RESISTIVITY FROM RESISTIVITY LOG
ILMED   .OHMM  : MEDIUM INDUCTION  RESISTIVITY FROM RESISTIVITY LOG
LL8ED   .OHMM  : LATEROLOG 8 FROM RESISTIVITY LOG
MRESWS  .OHMM  : MEDIUM RESISTIVITY [ILMED]
NPHILSED.V/V   : NEUTRON POROSITY LIMESTONE FROM DENSITY LOG
NPHISSED.V/V   : NEUTRON POROSITY SANDSTONE FROM DENSITY LOG
NPOLSWS .V/V   : NEUTRON POROSITY LIMESTONE [NPHISSED MATRIX CONVERSION FOR LIMESTONE, SPL. TO NPHILSED @ 5498']
SPHILSED.V/V   : SONIC POROSITY LIMESTONE [DTM=55.6, DTF=189] FROM SONIC LOG
SPHISSED.V/V   : SONIC POROSITY SANDSTONE [DTM=47.6, DTF=189]  FROM SONIC LOG
SPOWS   .V/V   : SONIC POROSITY [SPHISSED SPL. TO SPHILSED @ 5403']
SPRED   .MV    : SPONTANEOUS POTENTIAL FROM RESISTIVITY LOG
SPWS    .MV    : SPONTANEOUS POTENTIAL [BASELINE 0, MV SPRED]
SRESWS  .OHMM  : SHALLOW RESISTIVITY [LL8ED]
~Params ----------------------------------------------------
PD  .                     GL : PERMANENT DATUM
EPD .FT                 2594 : ELEVATION PERMANENT DATUM
LMF .                     KB : LOG MEASURED FROM
DAPD.FT                   16 : FEET ABOVE PERMANENT DATUM
EKB .FT                 2610 : KELLY BUSHING
EGL .FT                 2594 : GROUND LEVEL
DATE.               12/25/72 : RUN DATE
RUN .                      1 : RUN NUMBER
DD  .FT                 9485 : DEPTH DRILLER
DL  .FT                 9485 : DEPTH LOGGER
BLI .FT                 9479 : BOTTOM LOG INTERVAL
TLI .FT                  972 : TOP LOG INTERVAL
CBD .FT                  972 : CASING BOTTOM DRILLER
CBL .FT                  972 : CASING BOTTOM LOGGER
BS  .IN                7.875 : BIT SIZE
BSD .FT                 9485 : BIT SIZE AT DEPTH
DFT .                    FGM : DRILLING FLUID TYPE
DFD .                    9.1 : DRILLING FLUID DENSITY
DFV .                     75 : DRILLING FLUID VISCOSITY
DFPH.                    9.5 : DRILLING FLUID PH
DFL .                      8 : DRILLING FLUID LOSS
MSS .               MEASURED : MUD SAMPLE SOURCE
RMS .OHMM               2.13 : RESISTIVITY MUD SAMPLE
MST .DEGF                 44 : MUD SAMPLE TEMPERATURE
RMF .OHMM                1.3 : RESISTIVITY MUD FILTRATE SAMPLE
MFST.DEGF                 75 : MUD FILTRATE SAMPLE TEMPERATURE
RMC .OHMM               2.06 : RESISTIVITY MUD CAKE
MCST.DEGF                 52 : MUD CAKE SAMPLE TEMPERATURE
CLNT.                A2DTECH : CLIENT CODE
ORIG.            2" 5" PRINT : ORIGIN OF DATA
UWI .       100112806819W500 : UNIQUE WELL ID
DICO. A2D Technologies, Inc. : DIGITIZING COMPANY
~Other -----------------------------------------------------
DIL-CNL-SLC LOG RUN
CALD/GRD DEPTH SHIFTED TO GRSED
~ASCII -----------------------------------------------------
# ...
 2550.00000    -999.25    9.94760    9.94760  153.67890    6.50710   78.82050   78.82050    -999.25   82.66620   82.66620    6.50710    5.69750    7.18050    5.69750    -999.25    -999.25    -999.25    -999.25    0.19130    0.19130 -123.08600   -7.29540    7.18050
 2600.00000    -999.25   11.39860   11.39860  162.51710    6.15320   88.45870   88.45870    -999.25   84.78590   84.78590    6.15320    5.05840    6.86780    5.05840    -999.25    -999.25    -999.25    -999.25    0.24460    0.24460 -123.43250   -8.45070    6.86780
 2650.00000    -999.25   11.51170   11.51170  128.30630    7.79380   96.68120   96.68120    -999.25   84.31090   84.31090    7.79380    6.09030    7.23770    6.09030    -999.25    -999.25    -999.25    -999.25    0.30800    0.30800 -124.01600   -9.83500    7.23770
 2700.00000    -999.25   10.75120   10.75120  164.09310    6.09410  102.43220  102.43220    -999.25   90.04260   90.04260    6.09410    4.78560    6.39780    4.78560    -999.25    -999.25    -999.25    -999.25    0.34450    0.34450 -122.40220   -9.03000    6.39780
 2750.00000    -999.25    9.40560    9.40560  174.39830    5.73400  103.48100  103.48100    -999.25   95.97400   95.97400    5.73400    4.57820    6.73880    4.57820    -999.25    -999.25    -999.25    -999.25    0.33300    0.33300 -121.37340   -8.80600    6.73880
 2800.00000    -999.25    8.73450    8.73450  151.93660    6.58180   95.17260   95.17260    -999.25   99.16850   99.16850    6.58180    5.74400    7.65610    5.74400    -999.25    -999.25    -999.25    -999.25    0.29510    0.29510 -120.21620   -8.44960    7.65610
 2850.00000    -999.25    9.46840    9.46840  195.48430    5.11550  106.84300  106.84300    -999.25  101.55250  101.55250    5.11550    4.09790    6.18530    4.09790    -999.25    -999.25    -999.25    -999.25    0.37280    0.37280 -119.76720   -8.80940    6.18530
 2900.00000    -999.25   10.08340   10.08340  215.94080    4.63090  109.52340  109.52340    -999.25   97.46500   97.46500    4.63090    3.84490    5.89000    3.84490    -999.25    -999.25    -999.25    -999.25    0.39310    0.39310 -115.96910   -5.79880    5.89000
 2950.00000    -999.25    9.78080    9.78080  187.11520    5.34430  108.02410  108.02410    -999.25  101.55480  101.55480    5.34430    4.61330    6.95740    4.61330    -999.25    -999.25    -999.25    -999.25    0.38570    0.38570 -117.26580   -7.70010    6.95740
 3000.00000    -999.25   10.32500   10.32500  200.29240    4.99270  110.11560  110.11560    -999.25   97.98000   97.98000    4.99270    4.37390    6.74890    4.37390    -999.25    -999.25    -999.25    -999.25    0.39780    0.39780 -116.84520   -7.88100    6.74890
 3050.00000    -999.25    8.69580    8.69580  170.72140    5.85750  108.10100  108.10100    -999.25  126.86920  126.86920    5.85750    5.32100    8.24820    5.32100    -999.25    -999.25    -999.25    -999.25    0.38410    0.38410 -114.92850   -6.56280    8.24820
 3100.00000    -999.25    8.00180    8.00180  180.32960    5.54540  106.27650  106.27650    -999.25  112.25500  112.25500    5.54540    5.12550    8.19790    5.12550    -999.25    -999.25    -999.25    -999.25    0.37310    0.37310 -114.98680   -7.22570    8.19790
 3150.00000    -999.25   10.71210   10.71210  191.09380    5.23570   96.79270   96.79270    -999.25   70.66640   70.66640    5.23570    4.35710    5.69540    4.35710    -999.25    -999.25    -999.25    -999.25    0.30740    0.30740 -117.95680  -10.85240    5.69540
 3200.00000    -999.25    9.00990    9.00990  206.68420    4.83830   93.49490   93.49490    -999.25   94.73840   94.73840    4.83830    4.46740    6.16340    4.46740    -999.25    -999.25    -999.25    -999.25    0.28960    0.28960 -112.92380   -6.53960    6.16340
 3250.00000    -999.25    9.11200    9.11200  205.57940    4.86430   94.99760   94.99760    -999.25   95.00440   95.00440    4.86430    4.38000    6.17830    4.38000    -999.25    -999.25    -999.25    -999.25    0.30140    0.30140 -112.44150   -6.77390    6.17830
 3300.00000    -999.25    9.42070    9.42070  218.53300    4.57600   96.52780   96.52780    -999.25   93.31850   93.31850    4.57600    4.11950    5.96490    4.11950    -999.25    -999.25    -999.25    -999.25    0.30330    0.30330 -111.87200   -6.91750    5.96490
 3350.00000    -999.25   10.09480   10.09480  276.95460    3.61070  104.24400  104.24400    -999.25   96.37860   96.37860    3.61070    3.19110    5.28180    3.19110    -999.25    -999.25    -999.25    -999.25    0.35450    0.35450 -111.32070   -7.08640    5.28180
 3400.00000    -999.25    9.32770    9.32770  198.45400    5.04020   96.26110   96.26110    -999.25  102.61660  102.61660    5.04020    4.55850    6.06030    4.55850    -999.25    -999.25    -999.25    -999.25    0.30400    0.30400 -111.67930   -8.15810    6.06030
 3450.00000    -999.25    9.62730    9.62730  256.82510    3.89370   95.36320   95.36320    -999.25   97.08780   97.08780    3.89370    3.48730    5.22720    3.48730    -999.25    -999.25    -999.25    -999.25    0.29070    0.29070 -110.10090   -7.29990    5.22720
 3500.00000    -999.25   10.39840   10.39840  225.17450    4.44100   92.56620   92.56620    -999.25  100.17720  100.17720    4.44100    4.05460    5.93740    4.05460    -999.25    -999.25    -999.25    -999.25    0.27970    0.27970 -109.41130   -7.32690    5.93740
 3550.00000    -999.25   10.73000   10.73000  247.48200    4.04080   94.09880   94.09880    -999.25   97.97580   97.97580    4.04080    3.70610    5.42140    3.70610    -999.25    -999.25    -999.25    -999.25    0.28950    0.28950 -109.27980   -7.90850    5.42140
 3600.00000    -999.25   10.23120   10.23120  488.42430    2.04740  109.22700  109.22700    -999.25   84.79230   84.79230    2.04740    1.81060    3.50330    1.81060    -999.25    -999.25    -999.25    -999.25    0.39140    0.39140 -106.38780   -5.73670    3.50330
 3650.00000    -999.25    9.65410    9.65410  558.77220    1.78970  117.96730  117.96730    -999.25   93.09880   93.09880    1.78970    1.55430    2.98030    1.55430    -999.25    -999.25    -999.25    -999.25    0.42850    0.42850 -106.50750   -6.56950    2.98030
 3700.00000   12.99190   11.01160   11.01160  422.22600    2.36840  104.58640  104.58640   88.08590   89.48730   89.48730    2.36840    2.11650    3.20530    2.11650    -999.25    0.32520    0.28130    -999.25    0.36540    0.36540 -106.90910   -7.69130    3.20530
 3750.00000   12.03420   10.21010   10.21010  383.53850    2.60730  102.03370  102.03370  104.05760  100.80900  100.80900    2.60730    2.33570    3.64730    2.33570    -999.25    0.32070    0.27680    -999.25    0.34000    0.34000 -106.87030   -8.36920    3.64730
 3800.00000   10.56600   10.01030   10.01030  238.12700    4.19940   90.00630   90.00630   86.99420   88.80230   88.80230    4.19940    3.99430    5.78530    3.99430    -999.25    0.26260    0.21860    -999.25    0.26320    0.26320 -107.36440   -9.57630    5.78530
 3850.00000   11.03600    9.65910    9.65910  237.84610    4.20440   94.20200   94.20200   87.48990   79.69770   79.69770    4.20440    3.87570    4.74140    3.87570    -999.25    0.26210    0.21810    -999.25    0.28340    0.28340 -107.70720  -10.13920    4.74140
 3900.00000   13.96970   10.76190   10.76190  524.66200    1.90650  113.71340  113.71340   76.63190   75.65250   75.65250    1.90650    1.72190    2.95610    1.72190    -999.25    0.43910    0.39710    -999.25    0.41430    0.41430 -109.28980  -11.60490    2.95610
 3950.00000    9.44350    9.28510    9.28510  264.39640    3.78220  124.48930  124.48930   77.72400   76.02600   76.02600    3.78220    3.00090    4.95650    3.00090    -999.25    0.33410    0.29030    -999.25    0.45060    0.45060 -107.36330   -9.55980    4.95650
 4000.00000    8.49430    7.64380    7.64380  174.10080    5.74380   82.81670   82.81670   54.73390   58.14340   58.14340    5.74380    7.16680   12.43560    7.16680    -999.25    0.26340    0.21940    -999.25    0.20570    0.20570 -140.96970  -43.04820   12.43560
 4050.00000    9.55860    9.04100    9.04100  209.25960    4.77880   90.98570   90.98570   74.67600   71.15240   71.15240    4.77880    4.72750    7.25430    4.72750    -999.25    0.28360    0.23960    -999.25    0.28360    0.28360 -106.38720   -8.34820    7.25430
