~Version ---------------------------------------------------
VERS. 2.0 : CWLS log ASCII Standard -VERSION 2.0
WRAP.  NO : ONE LINE PER DEPTH STEP
~Well ------------------------------------------------------
STRT.F                 1200.0 : START DEPTH
STOP.F                10800.0 : STOP DEPTH
STEP.F               50.00000 : STEP LENGTH
NULL.                 -999.25 : NULL VALUE
COMP. SUN OIL COMPANY LIMITED : COMPANY
WELL. BEC ROSEVEAR 6-34-54-15 : WELL
FLD .                         : FIELD
LOC .                         : LOCATION
CTRY.                  CANADA : COUNTRY
SRVC.  Schlumberger of Canada : SERVICE COMPANY
DATE.             25-Mar-1971 : LOGDATE
PROV.                 Alberta : PROVINCE
UWI .        100063405415W500 : UNIQUE WELL ID
SLAT.WGS84           53.70553 : SURFACE LATITUDE
SLON.WGS84          -116.1304 : SURFACE LONGITUDE
~Curve Information -----------------------------------------
DEPT  .F    0   1   0  0 : 1 MEASURED DEPTH
NEUT  .NAPI 35 330 01 00 : NEUTRON
GRN   .GAPI 35 310 01 00 : GAMMA RAY FROM GRN LOG
GRS   .GAPI 60 310 01 00 : GAMMA RAY FROM SONIC LOG
DT    .US/F 60 500 00 00 : DELTA-T (INTERVAL TRANSIT TIME)
CALS  .IN   60 280 50 00 : CALIPER FROM SONIC LOG
ILD   .OHMM 07 120 46 00 : INDUCTION DEEP RESISTIVITY
ILM   .OHMM 07 120 44 00 : INDUCTION MEDIUM RESISTIVITY
LL8   .OHMM 07 220 08 00 : LATEROLOG 8
SPR   .MV   07 010 01 00 : SPONTANEOUS POTENTIAL FROM RESISTIVITY LOG
CALI  .IN   41 280 60 00 : CALIPER
GR    .GAPI 41 310 01 00 : GAMMA RAY
SNP_LS.DEC  41 890 01 00 : SIDEWALL NEUTRON POROSITY [LIMESTONE]
CILD  .MMHO 07 110 46 00 : INDUCTION DEEP CONDUCTIVITY
SN    .OHMM 07 040 16 00 : SHORT NORMAL RESISTIVITY
~Params ----------------------------------------------------
PD  .                     GL : PERMANENT DATUM
EPD .FT               2803.5 : ELEVATION PERMANENT DATUM
LMF .                     KB : LOG MEASURED FROM
DAPD.FT                 15.5 : FEET ABOVE PERMANENT DATUM
EKB .FT                 2819 : KELLY BUSHING
EGL .FT               2803.5 : GROUND LEVEL
DATE.               03/25/71 : RUN DATE
RUN .                      1 : RUN NUMBER
DD  .FT                10590 : DEPTH DRILLER
DL  .FT                10587 : DEPTH LOGGER
BLI .FT                10581 : BOTTOM LOG INTERVAL
TLI .FT                 1243 : TOP LOG INTERVAL
CBD .FT                 1243 : CASING BOTTOM DRILLER
CBL .FT                 1243 : CASING BOTTOM LOGGER
BS  .IN                 8.75 : BIT SIZE
BSD .FT                10590 : BIT SIZE AT DEPTH
DFT .                    GEL : DRILLING FLUID TYPE
DFD .                   11.1 : DRILLING FLUID DENSITY
DFV .                    127 : DRILLING FLUID VISCOSITY
DFPH.                     10 : DRILLING FLUID PH
DFL .                      6 : DRILLING FLUID LOSS
MSS .                   CIRC : MUD SAMPLE SOURCE
RMS .OHMM               1.34 : RESISTIVITY MUD SAMPLE
MST .DEGF                 68 : MUD SAMPLE TEMPERATURE
RMF .OHMM               0.95 : RESISTIVITY MUD FILTRATE SAMPLE
MFST.DEGF                 50 : MUD FILTRATE SAMPLE TEMPERATURE
RMC .OHMM               1.98 : RESISTIVITY MUD CAKE
MCST.DEGF                 52 : MUD CAKE SAMPLE TEMPERATURE
RMB .OHMM               0.32 : RESISTIVITY MUD AT BHT
TCS .HRS                   4 : TIME CIRCULATED STOPPED
LUN .                   5628 : LOGGING UNIT NUMBER
ENGI.               PUOURSON : RECORDING ENGINEER
WITN.                 BAANUT : WITNESSED BY
CLNT.                A2DTECH : CLIENT CODE
ORIG.            2" 5" PRINT : ORIGIN OF DATA
UWI .       100063405415W500 : UNIQUE WELL ID
DICO. A2D Technologies, Inc. : DIGITIZING COMPANY
~Other -----------------------------------------------------
~ASCII -----------------------------------------------------
# ...
 3650.00000    -999.25    -999.25   58.43950   87.53730   11.09530    5.43530    -999.25    -999.25  -73.61180    -999.25    -999.25    -999.25  183.94360    5.66030
 3700.00000    -999.25    -999.25   64.13890   95.09190   11.44320    5.33990    -999.25    -999.25  -73.32340    -999.25    -999.25    -999.25  187.12290    5.64910
 3750.00000    -999.25    -999.25   46.84350   85.72900   10.60770    9.94640    -999.25    -999.25  -77.01220    -999.25    -999.25    -999.25  104.40700   10.84430
 3800.00000    -999.25    -999.25   65.29350   88.54840   10.65960    6.39120    -999.25    -999.25  -77.02180    -999.25    -999.25    -999.25  153.81560    6.48170
 3850.00000    -999.25    -999.25   35.43800   67.45620   10.59330   33.26390    -999.25    -999.25  -95.55400    -999.25    -999.25    -999.25   33.84230   37.27570
 3900.00000    -999.25    -999.25   57.28310   90.68560   10.63200    6.12010    -999.25    -999.25  -74.12550    -999.25    -999.25    -999.25  144.23610    6.98490
 3950.00000    -999.25    -999.25   38.16230   77.26720    9.18920   20.61280    -999.25    -999.25  -84.63460    -999.25    -999.25    -999.25   54.89640   22.97780
 4000.00000    -999.25    -999.25   60.23790  142.82870   11.08170    4.07230    -999.25    -999.25  -61.85940    -999.25    -999.25    -999.25  243.05590    5.07470
 4050.00000    -999.25    -999.25   39.91790   76.17500   10.62610   21.40560    -999.25    -999.25  -68.22780    -999.25    -999.25    -999.25   50.90860   19.30750
 4100.00000    -999.25    -999.25   62.16750   82.95950   10.69180    7.25040    -999.25    -999.25  -48.74140    -999.25    -999.25    -999.25  143.85290    7.83720
 4150.00000    -999.25    -999.25   63.19560   86.20020   11.15850    6.15640    -999.25    -999.25  -51.89080    -999.25    -999.25    -999.25  162.39680    7.06700
 4200.00000    -999.25    -999.25   79.20020   83.27710   10.43940    9.44120    -999.25    -999.25  -61.11700    -999.25    -999.25    -999.25  110.28730   10.38050
 4250.00000    -999.25    -999.25   82.77470   81.85170   10.40990    8.54170    -999.25    -999.25  -61.62530    -999.25    -999.25    -999.25  121.18860    9.00520
 4300.00000    -999.25    -999.25   92.04540   83.50650   10.61990    8.85910    -999.25    -999.25  -58.32970    -999.25    -999.25    -999.25  115.37060    9.37030
 4350.00000    -999.25    -999.25   94.94110   83.03670   10.53440    9.68410    -999.25    -999.25  -51.44840    -999.25    -999.25    -999.25  105.48090   10.39720
 4400.00000    -999.25    -999.25   91.67230   84.15960   10.64740    9.97350    -999.25    -999.25  -51.67260    -999.25    -999.25    -999.25  104.74670   10.67680
 4450.00000    -999.25    -999.25   92.64310   83.30030   10.64190   10.86250    -999.25    -999.25  -52.89240    -999.25    -999.25    -999.25   96.80840   11.99140
 4500.00000    -999.25    -999.25  104.49470   89.51840   10.34050    9.51600    -999.25    -999.25  -53.24900    -999.25    -999.25    -999.25  110.63570   11.38530
 4550.00000    -999.25    -999.25  100.02750   81.88380   10.93400   12.91500    -999.25    -999.25  -57.07410    -999.25    -999.25    -999.25   82.06430   15.62060
 4600.00000    -999.25    -999.25   95.16980   87.27550   10.93730    8.80930    -999.25    -999.25  -57.84120    -999.25    -999.25    -999.25  117.37050   10.03120
 4650.00000    -999.25    -999.25   93.88860   83.09250   11.45570    7.53260    -999.25    -999.25  -54.17260    -999.25    -999.25    -999.25  135.30540    7.73750
 4700.00000    -999.25    -999.25   79.26220   82.30650   11.23480    7.89740    -999.25    -999.25  -46.44460    -999.25    -999.25    -999.25  131.83720    8.19140
 4750.00000    -999.25    -999.25   80.76440   76.55540   10.64810   10.18540    -999.25    -999.25  -48.03760   10.29090    -999.25    -999.25  103.14870   10.81490
 4800.00000    -999.25    -999.25   84.14660   77.48880   10.60930    9.67060   10.01280   11.49780  -54.27670   14.44580   53.80490    0.21390    -999.25    -999.25
 4850.00000    -999.25    -999.25   95.66290   81.77600   10.60000    8.07070    8.48250    8.67490  -53.47420   14.40300   54.28000    0.26130    -999.25    -999.25
 4900.00000    -999.25    -999.25  100.47410   84.65940   10.58130    7.76010    8.10560    8.95050  -53.29260   15.54080   61.53630    0.25350    -999.25    -999.25
 4950.00000    -999.25    -999.25   93.57490   81.76490   10.55470    7.70550    8.25190    8.93870  -54.05270   14.20080   62.67750    0.25480    -999.25    -999.25
 5000.00000    -999.25    -999.25   97.49160   84.53780   10.60840    7.17690    7.53180    7.87540  -53.01250   13.60040   59.96790    0.36100    -999.25    -999.25
 5050.00000    -999.25    -999.25   80.09890   80.63460   10.39110    9.45190   10.06940   10.54400  -53.39310   13.27360   52.46880    0.38270    -999.25    -999.25
 5100.00000    -999.25    -999.25   62.86070   51.71120    9.75540   14.72750   17.27340   19.94270  -72.82750   10.39290   37.04280    0.18730    -999.25    -999.25
 5150.00000    -999.25    -999.25   89.35800   75.56160   10.52480   12.22540   12.73480   12.79440  -51.84760   12.20740   51.69280    0.31180    -999.25    -999.25
 5200.00000    -999.25    -999.25  100.16150   80.29900   10.57810    9.28750    9.77270    9.84540  -50.50070   12.90790   58.23560    0.44770    -999.25    -999.25
 5250.00000    -999.25    -999.25   86.56630   77.28170   10.03970   11.18360   11.68830   12.00600  -49.61100   11.87730   55.42520    0.34670    -999.25    -999.25
 5300.00000    -999.25    -999.25   91.88060   76.58920   10.13020    9.79710   10.36810   11.35610  -49.04720   11.69210   56.00570    0.32900    -999.25    -999.25
 5350.00000    -999.25    -999.25   93.62460   81.33920   10.11290    8.44850    9.30940   10.17330  -47.52640   11.27870   59.59650    0.38560    -999.25    -999.25
 5400.00000    -999.25    -999.25   94.42190   81.76890   10.10980    9.95830   10.76470   12.40890  -46.27290   11.46610   57.80140    0.45230    -999.25    -999.25
 5450.00000    -999.25    -999.25   98.54970   86.05770    9.89640   12.24440   13.62440   14.78650  -45.09990   12.17120   68.90480    0.35320    -999.25    -999.25
 5500.00000    -999.25    -999.25  106.30660   85.89230    9.75440   11.77090   13.11400   16.02710  -44.21560   11.64990   65.82200    0.33950    -999.25    -999.25
 5550.00000    -999.25    -999.25  102.30150   84.70350    9.59520   11.95670   13.26800   16.34270  -44.38510   11.18050   61.87270    0.33210    -999.25    -999.25
 5600.00000    -999.25    -999.25  107.60190   86.28670    9.72640   12.78790   14.14940   17.78220  -42.58460   11.18540   66.61460    0.34000    -999.25    -999.25
 5650.00000    -999.25    -999.25  111.02060   87.28630    9.61170   14.88050   16.75300   22.05680  -41.21990   10.82940   69.74470    0.32810    -999.25    -999.25
 5700.00000    -999.25    -999.25   96.98340   85.58430    9.80890   10.42050   11.34280   14.59840  -38.85990   10.42540   61.18450    0.25520    -999.25    -999.25
 5750.00000    -999.25    -999.25  110.68900   91.07000    9.93020   11.45050   12.55070   16.61260  -38.42830   10.72770   64.63970    0.26430    -999.25    -999.25
 5800.00000    -999.25    -999.25   82.53220   72.91230   10.42480    9.42930   11.34610   15.32140  -37.30230   11.06840   48.50380    0.19560    -999.25    -999.25
 5850.00000    -999.25    -999.25   87.48940   84.29450   10.63190    7.24810    7.58080    9.12250  -35.16560   11.27570   58.66010    0.36130    -999.25    -999.25
 5900.00000    -999.25    -999.25   90.90230   82.72540   10.22310    6.93610    7.25710    8.65580  -33.80520   12.88310   55.87100    0.38890    -999.25    -999.25
 5950.00000    -999.25    -999.25   98.07890   82.78750   10.10950    8.57850    9.28960   11.95170  -33.13260   11.91980   59.01220    0.37000    -999.25    -999.25
 6000.00000    -999.25    -999.25  100.47050   82.33580   10.25880    7.90000    8.53800    9.67970  -31.46790   13.13970   51.97350    0.36490    -999.25    -999.25
 6050.00000    -999.25    -999.25   93.05920   82.85020   10.69290    7.23260    7.59030    9.25430  -28.52420   14.04080   49.67720    0.45480    -999.25    -999.25
