~Version ---------------------------------------------------
VERS.      2.0 : CWLS log ASCII Standard -VERSION 2.0
WRAP.       NO : One line per depth step
CREA. 12/29/17 : LAS Creation Date
~Well ------------------------------------------------------
STRT.FT                       1500.0 : START DEPTH
STOP.FT                      10000.0 : STOP DEPTH
STEP.FT                     50.00000 : STEP LENGTH
NULL.                        -999.25 : NULL VALUE
COMP. PHILLIPS PETROLEUM CANADA LTD. : COMPANY
WELL.    PHILLIPS KAYBOB 10-17-64-19 : WELL
FLD .                         KAYBOB : FIELD
LOC .                                : LOCATION
CTRY.                         CANADA : COUNTRY
SRVC.                          Welex : SERVICE COMPANY
DATE.                    17-Sep-1958 : LOGDATE
PROV.                        Alberta : PROVINCE
UWI .               100101706419W500 : UNIQUE WELL ID
SLAT.WGS84                  54.54004 : SURFACE LATITUDE
SLON.WGS84                 -116.8321 : SURFACE LONGITUDE
~Curve Information -----------------------------------------
DEPT   .FT    : Depth Curve
CALWS  .IN    : CALIPER [MCALED]
CONDED .MMHO  : CONDUCTIVITY  [RESCALED FR. 0.4-0 TO 400-0]]
CONDWS .MMHO  : CONDUCTIVITY [1000/DRESWS]
DRESWS .OHMM  : DEEP RESISTIVITY [GUARDED]
GRNED  .CPS   : GAMMA RAY FROM NEUTRON LOG [CASEDHOLE][DEP. ADJ TO SPRED]
GRWS   .CPS   : GAMMA RAY [GRNED]
GUARDED.OHMM  : GUARD LOG RESISTIVITY
MCALED .IN    : CALIPER FROM MICROLOG
NEUTED .CPS   : NEUTRON FROM NEUTRON LOG [CASEDHOLE][DEP. ADJ TO SPRED]
NEUTWS .CPS   : NEUTRON [NEUTED]
SPRED  .MV    : SPONTANEOUS POTENTIAL FROM RESISTIVITY LOG [REMOVED SHIFT]
SPWS   .MV    : SPONTANEOUS POTENTIAL [BASELINE 0 MV] [SPRED]
~Params ----------------------------------------------------
LMF .                              KB : LOG MEASURED FROM
DAPD.FT                            14 : FEET ABOVE PERMANENT DATUM
DMF .                              KB : DRILLING MEASURED FROM
EKB .FT                          2588 : KELLY BUSHING
EDF .FT                          2586 : DRILLING FLOOR
EGL .FT                          2575 : GROUND LEVEL
DATE.                        09/17/58 : RUN DATE
RUN .                               1 : RUN NUMBER
DD  .FT                         10049 : DEPTH DRILLER
DL  .FT                         10047 : DEPTH LOGGER
BLI .FT                         10042 : BOTTOM LOG INTERVAL
TLI .FT                          1498 : TOP LOG INTERVAL
CS  .IN                         9.625 : CASING SIZE
CBD .FT                          1504 : CASING BOTTOM DRILLER
CBL .FT                          1498 : CASING BOTTOM LOGGER
BS  .IN                         7.875 : BIT SIZE
BSD .FT                         10049 : BIT SIZE AT DEPTH
DFT . OIL EMULSION GEL CAUSTIC TANNEX : DRILLING FLUID TYPE
DFD .                            10.9 : DRILLING FLUID DENSITY
DFV .                             114 : DRILLING FLUID VISCOSITY
DFPH.                             8.5 : DRILLING FLUID PH
DFL .                             4.1 : DRILLING FLUID LOSS
MSS .                      CIRCULATED : MUD SAMPLE SOURCE
RMS .OHMM                        3.84 : RESISTIVITY MUD SAMPLE
MST .DEGF                          54 : MUD SAMPLE TEMPERATURE
RMF .OHMM                           2 : RESISTIVITY MUD FILTRATE SAMPLE
MFST.DEGF                          72 : MUD FILTRATE SAMPLE TEMPERATURE
RMC .OHMM                        2.62 : RESISTIVITY MUD CAKE
MCST.DEGF                          69 : MUD CAKE SAMPLE TEMPERATURE
RMB .OHMM                        1.15 : RESISTIVITY MUD AT BHT
ENGI.                          FOWLER : RECORDING ENGINEER
WITN.                    HANKINS MOTE : WITNESSED BY
CLNT.                         A2DTECH : CLIENT CODE
ORIG.                     2" 5" PRINT : ORIGIN OF DATA
UWI .                100101706419W500 : UNIQUE WELL ID
DICO.          A2D Technologies, Inc. : DIGITIZING COMPANY
~Other -----------------------------------------------------
~ASCII -----------------------------------------------------
# ...
 7100.00000    8.30990   23.65000   20.05910   49.85260   56.70000   56.70000   49.85260    8.30990  634.13450  634.13450   -6.13140   -4.86570
 7150.00000    7.70830   12.90000   10.11400   98.87320   30.09730   30.09730   98.87320    7.70830  564.63510  564.63510 -160.45210 -160.44340
 7200.00000    8.34840   79.10000   56.73810   17.62490   46.00530   46.00530   17.62490    8.34840  668.52570  668.52570  -40.33410  -41.59500
 7250.00000    8.35490   19.90000   19.34920   51.68170   40.59080   40.59080   51.68170    8.35490  650.75440  650.75440  -25.48180  -27.99960
 7300.00000    8.37940    5.20000    3.72570  268.40710   59.15360   59.15360  268.40710    8.37940  614.26230  614.26230  -10.15750  -13.93860
 7350.00000    8.46410    4.35000    0.83460 1198.25000   39.49430   39.49430 1198.25000    8.46410  685.62370  685.62370  -19.72950  -24.78020
 7400.00000    8.47970   21.00000   19.05080   52.49120   62.43710   62.43710   52.49120    8.47970  569.17360  569.17360  -20.36430  -26.67200
 7450.00000    8.57240   25.90000   24.23010   41.27100   70.98180   70.98180   41.27100    8.57240  631.49570  631.49570  -30.00490  -37.58220
 7500.00000    8.46010    8.90000    4.11210  243.18680   92.05600   92.05600  243.18680    8.46010  347.19070  347.19070  -23.46430  -32.29860
 7550.00000    8.56920    5.00000    1.72200  580.72410   42.31700   42.31700  580.72410    8.56920  799.66490  799.66490  -36.00260  -46.10020
 7600.00000    8.61260    4.35000    1.64590  607.55720   33.17050   33.17050  607.55720    8.61260  804.99230  804.99230  -47.71600  -57.92290
 7650.00000    8.60080    4.60000    1.16180  860.74400   35.44270   35.44270  860.74400    8.60080  798.99900  798.99900  -37.14270  -47.45790
 7700.00000    8.56030    4.95000    1.61560  618.96570   35.31570   35.31570  618.96570    8.56030  838.34840  838.34840  -66.72840  -77.15290
 7750.00000    8.45380    5.10000    2.02690  493.37510   36.69510   36.69510  493.37510    8.45380  810.49770  810.49770  -30.03130  -40.56410
 7800.00000    8.50830    5.80000    3.44360  290.39670   31.45800   31.45800  290.39670    8.50830  766.80540  766.80540  -64.58000  -75.22160
 7850.00000    8.36390   11.75000    9.89810  101.02930   31.56040   31.56040  101.02930    8.36390  743.73950  743.73950  -62.31060  -73.06160
 7900.00000    8.38790    6.20000    3.64410  274.41490   34.49640   34.49640  274.41490    8.38790  747.37690  747.37690  -36.21170  -47.07090
 7950.00000    8.14660    7.90000    4.68030  213.66100   32.95810   32.95810  213.66100    8.14660  776.34670  776.34670  -47.27920  -58.24770
 8000.00000    8.46360    6.80000    4.28650  233.28990   29.71270   29.71270  233.28990    8.46360  788.84270  788.84270  -43.47430  -54.55110
 8050.00000    8.40490    5.00000    0.81160 1232.12550   35.00650   35.00650 1232.12550    8.40490  754.14450  754.14450  -66.43520  -77.62080
 8100.00000    8.32350    6.90000    3.45190  289.69290   36.81580   36.81580  289.69290    8.32350  756.46670  756.46670 -104.74410 -116.03900
 8150.00000    8.32270    9.80000    7.34710  136.10880   35.30050   35.30050  136.10880    8.32270  783.65090  783.65090 -116.04140 -127.44460
 8200.00000    7.97270    7.40000    4.60870  216.97860   33.58510   33.58510  216.97860    7.97270  665.05610  665.05610    -999.25    -999.25
 8250.00000    8.56660    4.40000    0.50250 1989.91830   30.79990   30.79990 1989.91830    8.56660  825.53850  825.53850 -159.95120 -171.57200
 8300.00000    8.14100   36.50000   15.44640   64.73980   39.96710   39.96710   64.73980    8.14100  593.91420  593.91420 -156.77760 -168.50720
 8350.00000    7.74580   23.90000   18.66510   53.57600   32.81990   32.81990   53.57600    7.74580  480.93620  480.93620 -209.29900 -221.13780
 8400.00000    8.41070   14.90000   14.65500   68.23610   51.60750   51.60750   68.23610    8.41070  479.38380  479.38380 -135.68560 -147.63280
 8450.00000    8.35520    5.05000    2.63580  379.39480   45.46930   45.46930  379.39480    8.35520  691.44110  691.44110  -70.06610  -82.12260
 8500.00000    8.27030    6.70000    3.87150  258.29460   43.88570   43.88570  258.29460    8.27030  677.03120  677.03120  -61.96240  -74.12710
 8550.00000    8.31300   17.90000   16.55550   60.40280   79.39500   79.39500   60.40280    8.31300  515.43190  515.43190  -36.17920  -48.45270
 8600.00000    8.03290    6.80000    3.14090  318.38040   36.00880   36.00880  318.38040    8.03290  733.73690  733.73690  -55.70340  -68.08630
 8650.00000    8.24890   65.20000   61.70400   16.20640   67.90650   67.90650   16.20640    8.24890  514.00850  514.00850  -34.61100  -47.10210
 8700.00000    8.23220   84.75000   89.36230   11.19040   69.52590   69.52590   11.19040    8.23220  468.55560  468.55560  -41.34740  -53.94790
 8750.00000    8.21000   98.10000  108.51520    9.21530   77.16050   77.16050    9.21530    8.21000  467.27090  467.27090  -45.48540  -58.19410
 8800.00000    8.18020   31.90000   28.11520   35.56790   54.57650   54.57650   35.56790    8.18020  604.74730  604.74730  -57.68830  -70.50580
 8850.00000    8.19730   90.15000   88.04410   11.35800   55.53690   55.53690   11.35800    8.19730  520.61600  520.61600  -59.26980  -72.19670
 8900.00000    7.92600   35.20000   30.94370   32.31680   49.26370   49.26370   32.31680    7.92600  467.35140  467.35140  -55.00660  -68.04170
 8950.00000   10.15760  271.20000  280.27300    3.56800   86.31190   86.31190    3.56800   10.15760  313.19440  313.19440  -63.76780  -76.91230
 9000.00000    8.71190  173.70000  202.84390    4.92990   98.27520   98.27520    4.92990    8.71190  402.02010  402.02010  -60.83260  -74.08530
 9050.00000   10.19680  267.90000  288.67530    3.46410   94.84540   94.84540    3.46410   10.19680  298.73300  298.73300  -58.35120  -71.71270
 9100.00000   10.48150  290.10000  350.25660    2.85510   92.66210   92.66210    2.85510   10.48150  301.15230  301.15230  -50.14930  -63.62020
 9150.00000    8.29030  151.70000  155.43400    6.43360  100.39950  100.39950    6.43360    8.29030  430.82560  430.82560  -36.59020  -50.16930
 9200.00000    7.85960  119.00000  120.19950    8.31950   77.41980   77.41980    8.31950    7.85960  414.89220  414.89220  -27.89320  -41.58160
 9250.00000    8.00000  141.80000  152.08430    6.57530   98.57480   98.57480    6.57530    8.00000  402.43870  402.43870  -11.90280  -25.69950
 9300.00000    7.97270   74.00000   75.95380   13.16590   94.69660   94.69660   13.16590    7.97270  428.88790  428.88790    4.07060   -9.83490
 9350.00000    7.72460  167.15000  177.31130    5.63980   98.33800   98.33800    5.63980    7.72460  375.15260  375.15260   12.18630   -1.83810
 9400.00000    8.03980  160.70000  167.45090    5.97190   99.49820   99.49820    5.97190    8.03980  340.33450  340.33450   12.08310   -3.96060
 9450.00000    7.82610   91.45000   97.29000   10.27860   68.87790   68.87790   10.27860    7.82610  401.64520  401.64530   -2.34720  -20.43050
 9500.00000    8.04470  145.70000  147.74760    6.76830  103.71020  103.71020    6.76830    8.04470  349.14010  349.14010  -19.61690  -39.71940
 9550.00000    7.74300   10.40000    8.20260  121.91210   90.67630   90.67630  121.91210    7.74300  424.64610  424.64610  -36.65400  -58.78590
 9600.00000    7.98220   16.15000   12.35630   80.93000  150.71710  150.71710   80.93000    7.98220  390.51140  390.51140  -61.14550  -85.31690
 9650.00000    7.79790   13.20000    9.95800  100.42180   47.51860   47.51860  100.42180    7.79790  340.20800  340.20800  -69.44530  -95.63590
 9700.00000    8.15920   46.45000   40.92980   24.43210  110.69320  110.69320   24.43210    8.15920  504.40440  504.40450  -48.26150  -76.49170
 9750.00000    7.94720   13.60000    9.55430  104.66470   73.04450   73.04450  104.66470    7.94720  536.09610  536.09610  -16.62080  -46.87020
 9800.00000    7.88600  106.20000   80.11340   12.48230   77.90220   77.90220   12.48230    7.88600  734.50040  734.50040   10.57200  -21.70680
 9850.00000    7.89250    3.70000    0.57040 1753.06550   40.84400   40.84400 1753.06550    7.89250  628.85600  628.85600    5.31070  -28.28720
