~Version ---------------------------------------------------
VERS.      2.0 : CWLS log ASCII Standard -VERSION 2.0
WRAP.       NO : One line per depth step
CREA. 09/06/13 : LAS Creation Date
~Well ------------------------------------------------------
STRT.M                    450.0 : START DEPTH
STOP.M                   4100.0 : STOP DEPTH
STEP.M                 50.00000 : STEP LENGTH
NULL.                   -999.25 : NULL VALUE
COMP.       CANTERRA ENERGY LTD : COMPANY
WELL. CANTERRA EDSON 6-21-51-18 : WELL
FLD .                     EDSON : FIELD
LOC .                           : LOCATION
CTRY.                    CANADA : COUNTRY
SRVC.              Schlumberger : SERVICE COMPANY
DATE.               24-Jan-1986 : LOGDATE
PROV.                   Alberta : PROVINCE
UWI .          100062105118W500 : UNIQUE WELL ID
SLAT.WGS84             53.41479 : SURFACE LATITUDE
SLON.WGS84            -116.5963 : SURFACE LONGITUDE
~Curve Information -----------------------------------------
DEPT    .M      : DEPTH METER
CALDED  .MM     : CALIPER FROM DENSITY LOG [ADJ. TO RESISTIVITY LOG]
CALSED  .MM     : CALIPER FROM DENSITY LOG [ADJ. TO RESISTIVITY LOG]
CALWS   .MM     : CALIPER [CALDED]
CONDWS  .MMHO   : CONDUCTIVITY [1000/DRESWS]
DCORWS  .KG/M3  : DENSITY CORRECTION [DRHOED]
DENWS   .KG/M3  : FORMATION BULK DENSITY [RHOBED]
DPHISSED.V/V    : DENSITY POROSITY SANDSTONE [M=2650,F=1000] FROM DENSITY LOG
DPOLSWS .V/V    : DENSITY POROSITY LIMESTONE [CALC FROM DENWS,M=2710,F=1000]
DRESWS  .OHMM   : DEEP RESISTIVITY [ILDED SPL. TO LLDED @2999M]
DRHOED  .KG/M3  : BULK DENSITY CORRECTION  FROM DENSITY LOG [ADJ. TO RESISTIVITY LOG]
DTED    .US/M   : DELTA-T FROM SONIC LOG [ADJ. TO RESISTIVITY LOG]
DTWS    .US/M   : COMPRESSIONAL SONIC [DTED]
GRRED   .GAPI   : GAMMA RAY FROM RESISTIVITY LOG
GRSED   .GAPI   : GAMMA RAY FROM SONIC LOG [ADJ. TO RESISTIVITY LOG]
GRWS    .GAPI   : GAMM ARY [SGRDDED SPL. TO GRRED @3001M-3014M]
ILDED   .OHMM   : DEEP INDUCTION RESISTIVITY FROM RESISTIVITY LOG
ILMED   .OHMM   : MEDIUM INDUCTION RESISTIVITY FROM RESISTIVITY LOG
LLDED   .OHMM   : DEEP RESISTIVITY FROM LATEROLOG
LLSED   .OHMM   : SHALLOW RESISTIVITY FROM LATEROLOG
MRESWS  .OHMM   : MEDIUM RESISTIVITY [ILMED]
NPHILSED.V/V    : NEUTRON POROSITY LIMESTONE FROM DENSITY LOG [ADJ. TO RESISTIVITY LOG]
NPHISSED.V/V    : NEUTRON POROSITY SANDSTONE FROM DENSITY LOG [ADJ. TO RESISTIVITY LOG]
NPOLSWS .V/V    : NEUTRON POROSITY LIMESTONE [NPHILSED]
PEFED   .B/E    : PHOTOELECTRIC FACTOR FROM DENSITY LOG [ADJ. TO RESISTIVITY LOG]
PEFWS   .B/E    : PHOTOELECTRIC FACTOR [PEFED]
PROXED  .OHMM   : PROXIMITY RESISTIVITY FROM RESISTIVITY LOG
RHOBED  .KG/M3  : BULK DENSITY FROM DENSITY LOG [ADJ. TO RESISTIVITY LOG]
SGRDDED .GAPI   : GAMMA RAY FROM DENSITY LOG [ADJ. TO RESISTIVITY LOG]
SPRED   .MV     : SPONTANEOUS POTENTIAL FROM RESISTIVITY LOG
SPWS    .MV     : SPONTANEOUS POTENTIAL [BASELINE 0 MV,SPRED]
SRESWS  .OHMM   : SHALLOW RESISTIVITY [LLSED]
TENDED  .N      : TENSION FROM DENSITY LOG [ADJ. TO RESISTIVITY LOG]
TENRED  .N      : TENSION FROM RESISTIVITY LOG
TENSED  .N      : TENSION FROM SONIC LOG [ADJ. TO RESISTIVITY LOG]
~Params ----------------------------------------------------
PD  .                         GL : PERMANENT DATUM
EPD .M                      1000 : ELEVATION PERMANENT DATUM
LMF .                         KB : LOG MEASURED FROM
DAPD.M                      10.6 : FEET ABOVE PERMANENT DATUM
DMF .                         KB : DRILLING MEASURED FROM
EKB .M                    1010.6 : KELLY BUSHING
EGL .M                      1000 : GROUND LEVEL
DATE.                   01/24/86 : RUN DATE
RUN .                          2 : RUN NUMBER
DD  .M                      4115 : DEPTH DRILLER
DL  .M                      4115 : DEPTH LOGGER
BLI .M                      4110 : BOTTOM LOG INTERVAL
TLI .M                      3020 : TOP LOG INTERVAL
CS  .MM                      244 : CASING SIZE
CBD .M                      3020 : CASING BOTTOM DRILLER
CBL .M                      3030 : CASING BOTTOM LOGGER
BS  .MM                      216 : BIT SIZE
BSD .M                      4115 : BIT SIZE AT DEPTH
DFT .                   GEL CHEM : DRILLING FLUID TYPE
DFD .                       1140 : DRILLING FLUID DENSITY
DFV .                         79 : DRILLING FLUID VISCOSITY
DFPH.                         11 : DRILLING FLUID PH
DFL .                        6.5 : DRILLING FLUID LOSS
MSS .                      PRESS : MUD SAMPLE SOURCE
RMS .OHMM                   0.73 : RESISTIVITY MUD SAMPLE
MST .DEGC                     23 : MUD SAMPLE TEMPERATURE
RMF .OHMM                   0.57 : RESISTIVITY MUD FILTRATE SAMPLE
MFST.DEGC                     21 : MUD FILTRATE SAMPLE TEMPERATURE
MFSS.                       MEAS : MUD FILTRATE SAMPLE SOURCE
MCSS.                       MEAS : MUD CAKE SAMPLE SOURCE
RMB .OHMM                  0.238 : RESISTIVITY MUD AT BHT
TCS .HRS                     730 : TIME CIRCULATED STOPPED
TLAB.HRS                    1850 : TIME LOGGER AT BOTTOM
LUN .                       8393 : LOGGING UNIT NUMBER
LUL .                        EDM : LOGGING UNIT LOCATION
ENGI.                      YOUNG : RECORDING ENGINEER
WITN.                    TIMMONS : WITNESSED BY
CLNT.                    A2DTECH : CLIENT CODE
ORIG. 6.5"/100M 16.5"/100M PRINT : ORIGIN OF DATA
UWI .           100062105118W500 : UNIQUE WELL ID
DICO.     A2D Technologies, Inc. : DIGITIZING COMPANY
~Other -----------------------------------------------------
DIL-SFL-CNL-LDT-BCS LOG RAN
SGRDDED ID DUPLICATE WITH GRRED @3018M-4005 HENCE SGRDDED SHOWING GAP
GRRED VARIFY BOTH LOG ID:-DILSFL_10110535,CNLD_9698906 @3018M-4005
~ASCII -----------------------------------------------------
# ...
 3600.00000  242.06150  231.72460  242.06150    1.82190    8.08490 2676.09800    -999.25    0.01980  548.87300    8.08490  171.41150  171.41150    8.78700   13.38770    8.78700    -999.25    -999.25  548.87300  316.42850    -999.25    0.11570    -999.25    0.11570    3.34510    3.34510  113.40350 2676.09800    -999.25 -113.14910 -112.60020  316.42850 20460.02930 8176.01770 1767.88500
 3650.00000  244.61660  227.16800  244.61660   10.61160    2.52360 2719.97020    -999.25   -0.00580   94.23660    2.52360  175.10000  175.10000   47.28770   55.77560   47.28770    -999.25    -999.25   94.23660   97.94820    -999.25    0.05470    -999.25    0.05470    4.81540    4.81540  117.21840 2719.97020    -999.25  -21.74550  -20.99010   97.94820 20576.19140 8279.74670 1788.78820
 3700.00000  299.49800  238.14490  299.49800   41.88060  172.45750 2534.00540    -999.25    0.10290   23.87740  172.45750  208.28730  208.28730   61.06790   72.63950   61.06790    -999.25    -999.25   23.87740   23.22580    -999.25    0.16380    -999.25    0.16380    3.92100    3.92100    2.53630 2534.00540    -999.25  -12.96460  -16.98480   23.22580 20840.32230 8308.53290 1806.18460
 3750.00000  289.86950  256.77970  289.86950   11.92560   11.85990 2678.99860    -999.25    0.01810   83.85330   11.85990  180.39950  180.39950   34.73590   37.00470   34.73590    -999.25    -999.25   83.85330   66.37650    -999.25    0.02420    -999.25    0.02420    4.71400    4.71400    5.32870 2678.99860    -999.25  -59.30510  -68.10090   66.37650 21269.92190 8439.55570 1825.52690
 3800.00000  258.01070  236.54570  258.01070   34.32670   12.29710 2733.64990    -999.25   -0.01380   29.13180   12.29710  189.80010  189.80010   53.89300   63.00740   53.89300    -999.25    -999.25   29.13180   29.69530    -999.25    0.10690    -999.25    0.10690    4.13640    4.13640    8.40740 2733.64990    -999.25  -41.23390  -54.80520   29.69530 22373.29300 8513.93710 1876.77030
 3850.00000  253.42390  233.00110  253.42390   71.65740   10.59360 2722.73220    -999.25   -0.00740   13.95530   10.59360  224.36200  224.36200   86.91580  100.00670   86.91580    -999.25    -999.25   13.95530   14.79540    -999.25    0.17050    -999.25    0.17050    4.47180    4.47180    6.39340 2722.73220    -999.25   -2.33950  -20.70250   14.79540 22331.24410 8618.35600 1898.33140
 3900.00000  279.12530  249.21200  279.12530   74.81560   98.89000 2702.60420    -999.25    0.00430   13.36620   98.89000  229.41850  229.41850   90.80780  101.24220   90.80780    -999.25    -999.25   13.36620   13.63070    -999.25    0.20310    -999.25    0.20310    3.40130    3.40130    4.74010 2702.60420    -999.25    2.23250  -24.93610   13.63070 22072.48240 8728.99750 1891.93050
 3950.00000  263.12410  230.45840  263.12410    1.48810   13.36860 2549.05440    -999.25    0.09410  671.99260   13.36860  220.54400  220.54400  111.92050  120.17190  111.92050    -999.25    -999.25  671.99260  723.75520    -999.25    0.10720    -999.25    0.10720    3.57320    3.57320    8.93330 2549.05440    -999.25  -37.25710  -73.23120  723.75520 22583.36330 8818.50150 1923.76820
 4000.00000  245.20850  227.35870  245.20850    0.02530   13.76450 2705.80570    -999.25    0.00250 39582.62890   13.76450  162.75920  162.75920    6.98260    8.24010    6.98260    -999.25    -999.25 39582.62890 58089.44140    -999.25    0.00630    -999.25    0.00630    4.45920    4.45920   11.36100 2705.80570    -999.25  -45.69410  -82.87920 58089.44140 22682.67190 8956.84390 1944.48010
 4050.00000  306.60540  219.10920  306.60540    1.86760  118.28740 2819.29900    -999.25   -0.06390  535.44480  118.28740  156.33240  156.33240    9.15910    7.81690    9.15910    -999.25    -999.25  535.44480  434.74100    -999.25    0.10270    -999.25    0.10270    2.90370    2.90370   46.35290 2819.29900    8.86730  -48.91380  -67.97330  434.74100 23516.24410 9042.58020 1946.36940
 4100.00000  280.08010  206.86260  280.08010    2.15930  110.96590 2821.64210    -999.25   -0.06530  463.10570  110.96590  170.30400  170.30400  110.24920  100.77720  110.24920    -999.25    -999.25  463.10570  522.92460    -999.25    0.06430    -999.25    0.06430    3.51020    3.51020   87.68680 2821.64210  110.30060  -22.35930  -28.22330  522.92460 23930.85160 9138.28900 1970.04280
