~Version ---------------------------------------------------
VERS.      2.0 : CWLS log ASCII Standard -VERSION 2.0
WRAP.       NO : One line per depth step
CREA. 12/21/17 : LAS Creation Date
~Well ------------------------------------------------------
STRT.FT                     300.0 : START DEPTH
STOP.FT                    9550.0 : STOP DEPTH
STEP.FT                  50.00000 : STEP LENGTH
NULL.                     -999.25 : NULL VALUE
COMP. BRITISH AMERICAN OIL CO LTD : COMPANY
WELL.  B.A. GOOSE RIVER 4-3-67-18 : WELL
FLD .                             : FIELD
LOC .                             : LOCATION
CTRY.                      CANADA : COUNTRY
SRVC.      Schlumberger of Canada : SERVICE COMPANY
DATE.                 18-Oct-1963 : LOGDATE
PROV.                     Alberta : PROVINCE
UWI .            100040306718W500 : UNIQUE WELL ID
SLAT.WGS84               54.76505 : SURFACE LATITUDE
SLON.WGS84               -116.666 : SURFACE LONGITUDE
~Curve Information -----------------------------------------
DEPT  .FT    : Depth Curve
CALSED.IN    : CALIPER FROM SONIC LOG [ADJ. TO MLL LOG]
CALWS .IN    : CALIPER [CALSED]
DTED  .US/F  : DELTA-T 3' SPAN FROM SONIC LOG [ADJ. TO MLL LOG]
DTWS  .US/F  : COMPRESSIONAL SONIC [DTED]
GRED  .GAPI  : GAMMA RAY FROM GR LOG [ADJ. TO MLL LOG]
GRSED .GAPI  : GAMMA RAY FROM SONIC LOG [ADJ. TO MLL LOG]
GRWS  .GAPI  : GAMMA RAY [GRED SPL. TO GRSED @ 984'][RESCALED PART FROM GR_CH TOP-300 0/250 TO 0/150 API]
MCALED.mm    : MLT CALIPER FROM MLL LOG
MINVED.OHMM  : MICROLOG INVERSE FROM MLL LOG
MNORED.OHMM  : MICROLOG NORMAL FROM MLL LOG
~Params ----------------------------------------------------
PD  .                     GL : PERMANENT DATUM
EPD .FT                   26 : ELEVATION PERMANENT DATUM
LMF .                     KB : LOG MEASURED FROM
EKB .FT               2665.5 : KELLY BUSHING
EGL .FT                 2652 : GROUND LEVEL
DATE.               10/18/63 : RUN DATE
RUN .                      1 : RUN NUMBER
DD  .FT                 9550 : DEPTH DRILLER
DL  .FT                 8557 : DEPTH LOGGER
BLI .FT                 9554 : BOTTOM LOG INTERVAL
TLI .FT                  979 : TOP LOG INTERVAL
CBD .FT                  978 : CASING BOTTOM DRILLER
CBL .FT                  979 : CASING BOTTOM LOGGER
BS  .IN                7.875 : BIT SIZE
BSD .FT                 9550 : BIT SIZE AT DEPTH
DFT .               GEL CHEM : DRILLING FLUID TYPE
DFD .                    9.8 : DRILLING FLUID DENSITY
DFV .                    112 : DRILLING FLUID VISCOSITY
DFPH.                      9 : DRILLING FLUID PH
DFL .                    6.8 : DRILLING FLUID LOSS
RMS .OHMM               3.01 : RESISTIVITY MUD SAMPLE
MST .DEGF                 61 : MUD SAMPLE TEMPERATURE
RMF .OHMM               1.85 : RESISTIVITY MUD FILTRATE SAMPLE
MFST.DEGF                 70 : MUD FILTRATE SAMPLE TEMPERATURE
RMC .OHMM               3.02 : RESISTIVITY MUD CAKE
MCST.DEGF                 70 : MUD CAKE SAMPLE TEMPERATURE
RMB .OHMM               0.93 : RESISTIVITY MUD AT BHT
TCS .HRS                   6 : TIME CIRCULATED STOPPED
LUN .                   3704 : LOGGING UNIT NUMBER
LUL .                     VV : LOGGING UNIT LOCATION
ENGI.                  MILLS : RECORDING ENGINEER
WITN.              MCDERMOTT : WITNESSED BY
CLNT.                A2DTECH : CLIENT CODE
ORIG.        2" 5" 25" PRINT : ORIGIN OF DATA
UWI .       100040306718W500 : UNIQUE WELL ID
DICO. A2D Technologies, Inc. : DIGITIZING COMPANY
~Other -----------------------------------------------------
GRS IS INVALID FROM 2090'-2126' UNKNOWN REASON CURVE DROPS TO ZERO API LINE - HENCE NULLED.
~ASCII -----------------------------------------------------
# ...
 6900.00000    9.37980    9.37980   51.50410   51.50410    -999.25   24.86420   24.86420  247.47730   16.31590   40.00000
 6950.00000    9.37010    9.37010   49.97060   49.97060    -999.25   19.69370   19.69370  254.52320   14.62370   40.00000
 7000.00000    9.29880    9.29880   50.50720   50.50720    -999.25   19.88540   19.88540  255.45030   17.72580   40.00000
 7050.00000    9.37600    9.37600   52.32850   52.32850    -999.25   15.18420   15.18420  257.60680   11.18430   29.43750
 7100.00000    9.31710    9.31710   50.55410   50.55410    -999.25   16.58890   16.58890  262.17880   14.87020   39.72180
 7150.00000    9.81870    9.81870   49.87470   49.87470    -999.25   14.40090   14.40090  278.64560    6.85100   15.36750
 7200.00000    9.65720    9.65720   51.77860   51.77860    -999.25   12.42810   12.42810  263.20500    2.92850    5.99200
 7250.00000    9.53810    9.53810   49.95540   49.95540    -999.25   13.98290   13.98290  262.42260    8.37850   18.42760
 7300.00000    9.50800    9.50800   49.68670   49.68670    -999.25   11.80220   11.80220  258.37640    7.97890   21.22110
 7350.00000    9.32120    9.32120   50.80510   50.80510    -999.25   12.72960   12.72960  256.80670   20.03200   37.53710
 7400.00000    9.04580    9.04580   49.70370   49.70370    -999.25   17.66100   17.66100  253.42090   12.72800   26.15600
 7450.00000    8.87540    8.87540   50.43810   50.43810    -999.25   18.75340   18.75340  249.96900    6.95600   18.35090
 7500.00000    7.82130    7.82130   54.91190   54.91190    -999.25   10.40310   10.40310  186.06260    2.39510    4.80010
 7550.00000    7.63760    7.63760   59.31250   59.31250    -999.25   13.19230   13.19230  185.72230    2.46640    5.01390
 7600.00000    8.49240    8.49240   52.87190   52.87190    -999.25   18.62550   18.62550  204.59950    2.41790    4.84390
 7650.00000    9.32670    9.32670   62.37770   62.37770    -999.25   34.76170   34.76170  242.70970    7.69250   11.22600
 7700.00000    9.12730    9.12730   49.68080   49.68080    -999.25   12.79790   12.79790  220.57870   11.29020   31.09640
 7750.00000    8.73590    8.73590   48.95410   48.95410    -999.25   15.16930   15.16930  222.53700    2.07890    4.16710
 7800.00000    9.16030    9.16030   51.86150   51.86150    -999.25   23.96060   23.96060  241.12980   10.55470   22.57970
 7850.00000    9.14530    9.14530   54.51030   54.51030    -999.25   26.91200   26.91200  233.56570    8.65950   21.96620
 7900.00000    9.86640    9.86640   64.30090   64.30090    -999.25   67.63630   67.63630  257.28420    4.93760    8.29460
 7950.00000    8.97760    8.97760   52.09610   52.09610    -999.25   19.15570   19.15570  233.00940   39.93360   40.00000
 8000.00000    8.89840    8.89840   60.86330   60.86330    -999.25   46.59370   46.59370  218.83880    9.72070   15.67700
 8050.00000   10.05230   10.05230   58.98240   58.98240    -999.25   56.22420   56.22420  266.74320    3.51890   33.79040
 8100.00000   10.44880   10.44880   56.39650   56.39650    -999.25   86.05160   86.05160  293.93130    0.26910   12.23610
 8150.00000   13.26200   13.26200   78.85340   78.85340    -999.25   67.28840   67.28840  351.48770    0.88740    1.20510
 8200.00000   14.53240   14.53240   82.60450   82.60450    -999.25   71.98460   71.98460  407.13150    1.16340    1.35740
 8250.00000   14.75330   14.75330   82.18450   82.18450    -999.25   70.93690   70.93690  415.24680    1.27780    1.51070
 8300.00000   14.88940   14.88940   84.55360   84.55360    -999.25   62.73100   62.73100  392.49100    0.78140    1.09820
 8350.00000   15.01970   15.01970   77.18620   77.18620    -999.25   64.18240   64.18240  371.83060    1.28170    1.40900
 8400.00000   14.49600   14.49600   85.29630   85.29630    -999.25   68.00390   68.00390  356.14360    1.26500    1.44710
 8450.00000   13.55390   13.55390   79.94790   79.94790    -999.25   71.95360   71.95360  318.93510    1.40630    1.57280
 8500.00000    9.14830    9.14830   63.83540   63.83540    -999.25   60.06510   60.06510  230.43390   10.33970   17.60160
 8550.00000    9.17880    9.17880   65.63910   65.63910    -999.25   66.76840   66.76840  233.70540    4.66830   11.26960
 8600.00000   10.00200   10.00200   68.10670   68.10670    -999.25   68.59560   68.59560  252.54970    6.20450    7.89770
 8650.00000    9.15510    9.15510   68.19720   68.19720    -999.25   67.71350   67.71350  232.87480    2.77930    4.90790
 8700.00000    8.93020    8.93020   66.40000   66.40000    -999.25   71.20780   71.20780  221.66330   20.15530   15.23560
 8750.00000    8.97570    8.97570   68.33430   68.33430    -999.25   70.49120   70.49120  231.31270    6.11750    7.22050
 8800.00000    9.93990    9.93990   80.52290   80.52290    -999.25   93.37950   93.37950  271.17800    1.80500    2.60870
 8850.00000    9.17740    9.17740   76.16310   76.16310    -999.25   68.03490   68.03490  244.14990    3.73280    4.92400
 8900.00000    9.32950    9.32950   71.84560   71.84560    -999.25   79.93770   79.93770  250.42880    1.61200    2.50840
 8950.00000    8.74000    8.74000   70.51020   70.51020    -999.25  128.58580  128.58580  208.99630   32.01650   40.00000
 9000.00000    8.57100    8.57100   58.75510   58.75510    -999.25   42.20130   42.20130  209.88020   25.08190   38.61780
 9050.00000    8.79270    8.79270   88.42060   88.42060    -999.25  156.52290  156.52290  211.62010   17.74490   32.35290
 9100.00000    8.41320    8.41320   54.03440   54.03440    -999.25   46.16810   46.16810  206.11850   28.18030   40.00000
 9150.00000    8.57010    8.57010   54.81570   54.81570    -999.25   38.23900   38.23900  208.32060   18.68870   39.97720
 9200.00000    8.82180    8.82180   53.79780   53.79780    -999.25   31.33440   31.33440  206.89060   26.62940   39.88770
 9250.00000    8.42760    8.42760   54.79820   54.79820    -999.25    9.51830    9.51830  209.42810   10.94330   23.94120
 9300.00000    8.28490    8.28490   53.79880   53.79880    -999.25   23.88090   23.88090  202.97650   24.37310   39.84370
 9350.00000    8.27080    8.27080   50.69200   50.69200    -999.25    9.98360    9.98360  205.29550   18.41200   40.05600
 9400.00000    8.19330    8.19330   50.39630   50.39630    -999.25   13.41200   13.41200  202.77840   19.98330   40.00000
 9450.00000    8.07500    8.07500   50.27350   50.27350    -999.25   17.85160   17.85160  202.22460   32.68420   40.00000
 9500.00000    8.04590    8.04590   55.81760   55.81760    -999.25   53.50890   53.50890  202.24240   12.40720   31.64580
 9550.00000    7.29970    7.29970   70.38550   70.38550    -999.25    -999.25    -999.25  167.98290    1.35800    2.01810
