~Version ---------------------------------------------------
VERS. 2.0 : CWLS log ASCII Standard -VERSION 2.0
WRAP.  NO : One line per depth step
~Well ------------------------------------------------------
STRT.FT                        600.0 : START DEPTH
STOP.FT                      10150.0 : STOP DEPTH
STEP.FT                     50.00000 : STEP LENGTH
NULL.                        -999.25 : NULL VALUE
COMP.     THE CALIFORNIA STANDARD CO : COMPANY
WELL. CALSTAN B A IOSEGUN 7-33-63-19 : WELL
FLD .                         KAYBOB : FIELD
LOC .                                : LOCATION
CTRY.                         CANADA : COUNTRY
SRVC.         Schlumberger of Canada : SERVICE COMPANY
DATE.                    08-Oct-1957 : LOGDATE
PROV.                        Alberta : PROVINCE
UWI .               100073306319W500 : UNIQUE WELL ID
SLAT.WGS84                  54.49249 : SURFACE LATITUDE
SLON.WGS84                 -116.8075 : SURFACE LONGITUDE
~Curve Information -----------------------------------------
DEPT.FT    : DEPTH FEET
CILD.MMHO  : CONDUCTIVITY FROM RESISTIVITY LOG
GRN .CU    : GAMMA RAY FROM NEUTRON LOG
ILD .OHMM  : INDUCTION LOG DEEP RESISTIVITY
LAT .OHMM  : 18 FOOT 8 INCH LATERAL RESISTIVITY FROM IEL
LN  .OHMM  : 64 INCH LONG NORMAL RESISTIVITY FROM IEL
MCAL.IN    : CALIPER MICROLOG
MLL .OHMM  : MICROLATEROLOG RESISTIVITY
NEUT.CU    : NEUTRON FROM NEUTRON LOG
SN  .OHMM  : 16 INCH SHORT NORMAL RESISTIVITY FROM IEL
SPR .MV    : SPONTANEOUS POTENTIAL FROM RESISTIVITY LOG
SPR1.MV    : SPONTANEOUS POTENTIAL FROM RESISTIVITY LOG
~Params ----------------------------------------------------
LMF .                     KB : LOG MEASURED FROM
DMF .                     KB : DRILLING MEASURED FROM
EKB .FT                 2601 : KELLY BUSHING
EGL .FT                 2588 : GROUND LEVEL
DATE.               10/08/57 : RUN DATE
RUN .                      1 : RUN NUMBER
DD  .FT                10194 : DEPTH DRILLER
DL  .FT                10189 : DEPTH LOGGER
BLI .FT                10188 : BOTTOM LOG INTERVAL
TLI .FT                  825 : TOP LOG INTERVAL
CBD .FT                  825 : CASING BOTTOM DRILLER
CBL .FT                  825 : CASING BOTTOM LOGGER
BS  .IN                    9 : BIT SIZE
BSD .FT                10194 : BIT SIZE AT DEPTH
DFT .                    GEL : DRILLING FLUID TYPE
DFD .                   10.6 : DRILLING FLUID DENSITY
DFV .                    177 : DRILLING FLUID VISCOSITY
DFPH.                    9.5 : DRILLING FLUID PH
DFL .                    5.4 : DRILLING FLUID LOSS
RMS .OHMM                8.0 : RESISTIVITY MUD SAMPLE
RMF .OHMM                1.6 : RESISTIVITY MUD FILTRATE SAMPLE
MFST.DEGF                 62 : MUD FILTRATE SAMPLE TEMPERATURE
RMC .OHMM                2.1 : RESISTIVITY MUD CAKE
MCST.DEGF                 62 : MUD CAKE SAMPLE TEMPERATURE
RMB .OHMM                1.0 : RESISTIVITY MUD AT BHT
TCS .HRS                   2 : TIME CIRCULATED STOPPED
LUN .                   1534 : LOGGING UNIT NUMBER
LUL .                     VV : LOGGING UNIT LOCATION
ENGI.               THOMPSON : RECORDING ENGINEER
WITN.                JOHNSON : WITNESSED BY
CLNT.                A2DTECH : CLIENT CODE
ORIG.            2" 5" PRINT : ORIGIN OF DATA
UWI .       100073306319W500 : UNIQUE WELL ID
DICO. A2D Technologies, Inc. : DIGITIZING COMPANY
~Other -----------------------------------------------------
~ASCII -----------------------------------------------------
  600.00000    -999.25   17.06130    -999.25    -999.25    -999.25    -999.25    -999.25  851.25520    -999.25    -999.25    -999.25
  650.00000    -999.25   14.27900    -999.25    -999.25    -999.25    -999.25    -999.25  900.06810    -999.25    -999.25    -999.25
  700.00000    -999.25   13.27600    -999.25    -999.25    -999.25    -999.25    -999.25  882.81120    -999.25    -999.25    -999.25
  750.00000    -999.25   13.53900    -999.25    -999.25    -999.25    -999.25    -999.25  809.72600    -999.25    -999.25    -999.25
  800.00000    -999.25   14.73340    -999.25    -999.25    -999.25    -999.25    -999.25  825.09210    -999.25    -999.25    -999.25
  850.00000  244.92190   20.99310    3.61700    4.60150    8.30500    -999.25    -999.25  889.80410    4.74430 -129.49480 -100.87680
  900.00000  147.83550   22.35140    6.65700    9.70240   11.46830    -999.25    -999.25 1139.88010    7.53640 -136.39210 -105.27180
  950.00000  333.01350   26.52920    2.74620    3.94800    6.76000    -999.25    -999.25  950.45920    4.51410 -131.12370 -102.86190
 1000.00000  337.53130   23.75440    2.63470    5.17480    5.22660    -999.25    -999.25  798.53880    3.26590 -126.92560  -99.44320
 1050.00000  335.16990   21.67630    2.58230    7.08990    3.83490    -999.25    -999.25  908.23830    2.98750 -122.75710  -93.36740
 1100.00000  194.89770   22.24220    4.93090    9.91440    5.32270    -999.25    -999.25 1023.88110    3.41120 -127.46880  -96.41740
 1150.00000   76.50830   22.78010   12.99990   12.07800   11.05130    -999.25    -999.25  882.06550    9.84300 -127.10450  -97.29100
 1200.00000  316.84680   25.86000    2.80700    5.04480    5.02300    -999.25    -999.25  954.16090    3.22640 -126.11700  -93.96320
 1250.00000  341.01740   23.19720    2.69170    4.54890    6.05460    -999.25    -999.25  859.98980    3.87640 -123.40540  -91.97410
 1300.00000  374.22320   25.18590    2.42480    4.39050    6.63940    -999.25    -999.25  883.28920    3.81770 -122.73680  -96.92610
 1350.00000  303.15960   22.45860    2.99030    3.41230    6.77000    -999.25    -999.25  989.68430    4.10840 -128.93490  -95.40150
 1400.00000  438.75270   26.17980    2.27020    4.18320    4.54220    -999.25    -999.25  863.97540    2.97180 -127.65480  -95.61030
 1450.00000  230.06760   23.33150    3.87230    9.90100    4.24940    -999.25    -999.25  881.81570    5.19100 -128.29490  -95.81330
 1500.00000  156.49490   25.82230    5.89780    8.10470    8.51210    -999.25    -999.25  840.13210    6.41790 -128.91630  -96.20340
 1550.00000  332.87890   27.28010    2.75470    4.38660    4.82840    -999.25    -999.25  820.38760    3.38790 -129.09040  -97.74700
 1600.00000  524.91420   22.09220    1.99410    3.37840    4.62780    -999.25    -999.25 1091.48080    2.82090 -129.30700  -96.98350
 1650.00000  125.60050   31.71980    8.04270    6.37790   10.04670    -999.25    -999.25  944.36320    9.31170 -129.82460  -99.01420
 1700.00000  396.29400   21.70210    2.30000    4.76750    4.95750    -999.25    -999.25 1034.66750    2.96800 -127.43110  -97.83070
 1750.00000  271.16830   25.10190    3.32340    4.55200    4.57670   13.23190    -999.25 1009.40290    3.87820 -126.99650  -97.51750
 1800.00000  114.21540   20.61230    8.90930    9.83690    9.54190   12.12790    7.10410  999.92380    8.61060 -135.61090 -103.54220
 1850.00000  412.39920   23.94130    2.49460    3.62260    3.91500   14.33550    1.67380  923.67760    2.49990 -128.41770  -97.71000
 1900.00000  129.53660   23.01910    8.42500    5.22050    7.75870   11.02470    6.88120  929.24220    6.72140 -128.06600 -100.47250
 1950.00000  129.90810   19.08620    8.53260    5.52200    8.91240   11.42690    7.28650 1029.14640    6.79690 -129.53330 -105.54320
 2000.00000  587.03540   20.79450    1.85350    4.34970    4.01920   13.21260    1.11330  833.75570    2.46500 -130.13450  -97.91870
 2050.00000  256.72530   24.37300    3.56880    6.43560    6.23400   12.24560    1.83880  793.87320    4.53230 -132.04280  -99.84770
 2100.00000  221.81870   18.34290    4.26720   15.99620    9.17200   12.26120    1.83460  857.99900    5.03830 -132.07670  -99.90960
 2150.00000  329.68820   23.77820    2.87090    8.80710    6.24270   11.10780    2.02220  873.90880    4.05870 -134.24130 -101.41810
 2200.00000  268.13780   20.28160    3.55920    4.57370    6.65660   11.58790    2.55100  955.51190    4.35580 -132.74960 -100.36730
 2250.00000  251.95940   18.22730    4.24590    4.22730    7.08680   12.02770    8.26620  858.56650    4.10170 -131.96290 -101.53190
 2300.00000  242.12870   21.43890    3.70200    8.00380    6.06420   12.60410    1.37260  874.48030    6.11370 -131.54440 -102.10930
 2350.00000   67.48030   15.99490   15.61230   12.94180   22.46130   10.37460   16.41350 1017.14170   18.49280 -136.98180 -105.87100
 2400.00000  271.49180   18.07240    3.24420    8.63270    8.94510   10.85070    2.04260 1012.30010    4.63630 -132.20450 -101.70150
 2450.00000   42.13940   21.30320   24.32910   19.78110   12.02060    8.43480   11.27600  937.59990   19.71480 -140.97480 -106.71490
 2500.00000  217.41740   14.41170    4.35970    3.54320    8.72790   11.17760    6.56930 1512.22940    6.34500 -132.63730 -101.15120
 2550.00000  237.74040   22.60700    3.78070    6.25130    5.90660   12.49590    1.52080  897.51650    3.93850 -132.60280 -100.29020
 2600.00000  115.04010   22.12410    9.87830    9.60580    8.05650   12.23010   17.09920  901.34760   10.90520 -133.50980 -101.85680
 2650.00000  123.90620   21.24530    7.79610   10.50480   10.52840   12.07180    3.72010  837.43880    7.22770 -136.18780 -102.37280
 2700.00000  256.68680   17.52910    3.59400    5.14720    6.60160   13.66250    3.11030 1017.15780    4.51460 -134.31850 -101.69920
 2750.00000   65.82660   14.72030   15.64380   27.48410   19.45470    9.92510   13.56880 1076.95420   16.27090 -152.19290 -116.62320
 2800.00000  110.52130   22.28170    9.19750   10.03200   10.46900    -999.25    9.09920  935.06520    9.15520 -134.58630 -101.51950
 2850.00000  303.85800   21.13500    2.94670    6.44240    5.79030    -999.25    -999.25  986.98030    4.28550 -132.29840 -100.33010
 2900.00000  235.93120   23.14430    3.87190    6.11580    6.35270    -999.25    -999.25  880.07840    4.90300 -132.56000  -99.97860
 2950.00000  192.88600   24.58340    4.86360    7.32610    7.57210    -999.25    -999.25  863.20770    6.39430 -133.71820 -100.56470
 3000.00000  161.87160   25.11910    5.92190    9.89820    9.74030    -999.25    -999.25  873.69920    7.20880 -137.00110 -103.73300
 3050.00000  163.72790   28.23540    5.75740    9.87430    8.97900    -999.25    -999.25  941.61640    7.11570 -137.96290 -104.42440
 3100.00000  179.96970   35.07010    5.04610    8.78580    8.72770    -999.25    -999.25  866.83960    7.06610 -136.75300 -103.72780
 3150.00000  122.32880   28.77900    8.24330    9.59370   15.04340    -999.25    -999.25  979.67200   11.02560 -138.26100 -104.15460
 3200.00000  143.81000   33.71820    6.78900   14.32890   11.19500    -999.25    -999.25  906.43770    8.38660 -137.09840 -102.91250
 3250.00000  129.34800   30.15170    7.47400   11.29470   10.98440    -999.25    -999.25 1002.17970    8.61190 -138.55780 -104.31320
 3300.00000  182.72820   31.07280    5.08000    9.04590    7.96930    -999.25    -999.25  967.45390    6.50990 -139.83460 -105.61450
 3350.00000  144.99440   26.55040    6.58830    8.71100    9.88820    -999.25    -999.25 1028.39500    7.93790 -139.93270 -105.01440
 3400.00000   80.22430   27.29690   13.13300   13.07760   14.89450    -999.25    -999.25  958.66270   13.98300 -145.39270 -109.57650
 3450.00000  159.53480   32.02850    6.01390    9.43020    8.85160    -999.25    -999.25 1001.09540    8.03300 -140.07310 -105.26330
 3500.00000  166.91930   32.79440    5.74210    9.32360    8.41420   11.57840    -999.25  996.79090    7.63430 -140.54500 -105.15170
 3550.00000  176.48890   33.19070    5.28230    9.37640    7.88610   12.01070    -999.25  981.38180    6.68930 -141.03680 -105.66910
 3600.00000  130.74630   25.03760    7.74540    9.99120   10.71850   12.03110    -999.25  953.73060    8.65030 -140.94130 -105.55070
