~Version ---------------------------------------------------
VERS. 2.0 : CWLS log ASCII Standard -VERSION 2.0
WRAP.  NO : ONE LINE PER DEPTH STEP
~Well ------------------------------------------------------
STRT.F                            1050.0 : START DEPTH
STOP.F                            9800.0 : STOP DEPTH
STEP.F                          50.00000 : STEP LENGTH
NULL.                            -999.25 : NULL VALUE
COMP.                TENNECO OIL COMPANY : COMPANY
WELL. TENN SUN A1 SAKWATAMAU 10-25-64-15 : WELL
FLD .                                    : FIELD
LOC .                                    : LOCATION
CTRY.                             CANADA : COUNTRY
SRVC.                       Schlumberger : SERVICE COMPANY
DATE.                        21-Feb-1963 : LOGDATE
PROV.                            Alberta : PROVINCE
UWI .                   100102506415W500 : UNIQUE WELL ID
SLAT.WGS84                      54.56867 : SURFACE LATITUDE
SLON.WGS84                     -116.1264 : SURFACE LONGITUDE
~Curve Information -----------------------------------------
DEPT.F    0   1   0  0 : 1 MEASURED DEPTH
CILD.MMHO 05 110 46 00 : INDUCTION DEEP CONDUCTIVITY
ILD .OHMM 05 120 46 00 : INDUCTION DEEP RESISTIVITY
SPR .MV   05 010 01 00 : SPONTANEOUS POTENTIAL FROM RESISTIVITY LOG
SN  .OHMM 05 040 16 00 : SHORT NORMAL RESISTIVITY
DT  .US/F 60 500 33 00 : DELTA-T (INTERVAL TRANSIT TIME)
GRS .GAPI 60 310 01 00 : GAMMA RAY FROM SONIC LOG
CALS.IN   60 280 50 00 : CALIPER FROM SONIC LOG
DT1 .US/F 60 500 31 00 : DELTA-T SHEAR - LOWER DIPOLE
~Params ----------------------------------------------------
PD  .                     GL : PERMANENT DATUM
EPD .FT              3480.18 : ELEVATION PERMANENT DATUM
LMF .                     KB : LOG MEASURED FROM
DAPD.FT                 11.6 : FEET ABOVE PERMANENT DATUM
DMF .                     KB : DRILLING MEASURED FROM
EKB .FT              3491.78 : KELLY BUSHING
EGL .FT              3490.18 : GROUND LEVEL
DATE.               02/21/63 : RUN DATE
RUN .                      1 : RUN NUMBER
DD  .FT                 9800 : DEPTH DRILLER
DL  .FT                 9804 : DEPTH LOGGER
BLI .FT                 9803 : BOTTOM LOG INTERVAL
TLI .FT                 1027 : TOP LOG INTERVAL
CBD .FT                 1024 : CASING BOTTOM DRILLER
CBL .FT                 1027 : CASING BOTTOM LOGGER
BS  .IN                 8.75 : BIT SIZE
BSD .FT                 9800 : BIT SIZE AT DEPTH
DFT .           OIL EMULSION : DRILLING FLUID TYPE
DFD .                    9.6 : DRILLING FLUID DENSITY
DFV .                     90 : DRILLING FLUID VISCOSITY
DFPH.                   10.5 : DRILLING FLUID PH
DFL .                    8.8 : DRILLING FLUID LOSS
RMS .OHMM               1.35 : RESISTIVITY MUD SAMPLE
MST .DEGF                 74 : MUD SAMPLE TEMPERATURE
RMF .OHMM              0.895 : RESISTIVITY MUD FILTRATE SAMPLE
MFST.DEGF                 74 : MUD FILTRATE SAMPLE TEMPERATURE
RMC .OHMM               1.92 : RESISTIVITY MUD CAKE
MCST.DEGF                 74 : MUD CAKE SAMPLE TEMPERATURE
RMB .OHMM              0.895 : RESISTIVITY MUD AT BHT
TCS .HRS                   3 : TIME CIRCULATED STOPPED
LUN .                   1572 : LOGGING UNIT NUMBER
LUL .                    EDM : LOGGING UNIT LOCATION
ENGI.                 HAINES : RECORDING ENGINEER
WITN.                 MORGAN : WITNESSED BY
CLNT.                A2DTECH : CLIENT CODE
ORIG.            2" 5" PRINT : ORIGIN OF DATA
UWI .       100102506415W500 : UNIQUE WELL ID
DICO. A2D Technologies, Inc. : DIGITIZING COMPANY
~Other -----------------------------------------------------
~ASCII -----------------------------------------------------
 1050.00000  308.89770    3.27110  -62.59380    4.96980  123.92240   77.56400   14.80840    -999.25
 1100.00000  128.07260    8.00120  -70.01570    6.67660  112.06500   60.27230   12.51840    -999.25
 1150.00000  131.33190    7.77460  -70.22900    6.53040  113.47250   76.56520   13.19410    -999.25
 1200.00000  185.80050    5.38050  -66.40300    5.85570  117.67530   72.52820   14.54870    -999.25
 1250.00000  288.92300    3.31940  -61.51030    3.56970  136.42580   76.06070   13.27270    -999.25
 1300.00000  270.10240    3.70130  -61.12220    4.12870  144.87410   63.27150   12.48330    -999.25
 1350.00000  219.00180    4.59310  -62.70170    4.81460  119.43660  113.85410   12.34840    -999.25
 1400.00000  337.77710    3.02130  -61.90210    2.87300  115.20340   94.42390   13.77900    -999.25
 1450.00000  209.83040    5.22840  -60.79350    4.78170   90.87440   74.82560   12.53120    -999.25
 1500.00000  179.13640    5.58350  -60.92620    4.77470  108.73140   82.54940   13.41750    -999.25
 1550.00000  396.60270    2.52060  -60.66880    3.13190  127.22220  106.48050   13.41340    -999.25
 1600.00000  375.22670    2.81860  -60.29110    2.40120  136.74870   83.89480   14.51270    -999.25
 1650.00000  376.64290    2.65530  -60.62660    2.24970  137.72250   80.63850   14.23250    -999.25
 1700.00000  210.89040    4.24910  -60.95090    4.80770  117.83200   64.33750   12.26040    -999.25
 1750.00000  357.53650    2.38060  -62.42120    2.92460  115.79240   82.34760   12.71950    -999.25
 1800.00000  342.05680    2.83660  -61.89150    2.33590  131.46600   77.84210   12.18190    -999.25
 1850.00000  276.00470    3.30490  -61.51980    3.88490  122.08150   62.16430   13.61590    -999.25
 1900.00000  311.66130    3.20950  -61.25170    2.72500  133.05910   66.40690   12.66760    -999.25
 1950.00000  442.74750    1.71060  -60.83440    2.44490  136.89130   95.48250   12.83430    -999.25
 2000.00000  340.43470    2.55690  -60.44990    2.89910  111.96090   86.04270   12.14880    -999.25
 2050.00000  423.29390    2.36230  -60.52830    1.92930  132.11510   70.22480   12.31270    -999.25
 2100.00000  152.00920    6.25600  -73.18280    5.58680  108.29360   63.68290   10.55020    -999.25
 2150.00000  168.52150    6.01000  -71.80660    4.28520  108.04360   50.11000   10.67090    -999.25
 2200.00000  205.16390    4.73610  -68.01570    4.10100  137.92100   61.34570   12.07970    -999.25
 2250.00000  211.25700    4.04140  -62.87960    4.37620  100.59240   98.97170   11.32800    -999.25
 2300.00000  278.32230    3.03060  -65.61950    3.71210  134.04330   75.98480   11.52070    -999.25
 2350.00000  297.58390    3.35980  -60.94340    2.81980  111.21370   68.55450   13.73320    -999.25
 2400.00000   66.60420   13.81960  -71.82050   10.11370  115.04030   53.87190   10.40600    -999.25
 2450.00000  282.61650    3.05830  -60.91840    3.76650  119.64880   75.03530   11.56720    -999.25
 2500.00000  317.32020    2.68210  -59.31760    3.11300  114.57500   82.13430   13.31870    -999.25
 2550.00000  358.47200    2.36630  -59.77100    3.19040  100.85540   78.50970   13.13040    -999.25
 2600.00000  367.17300    2.35940  -58.26810    2.67590  107.73800   71.14580   12.84070    -999.25
 2650.00000   91.82810    9.65190  -71.62760   11.50650  106.78580   52.97800   11.76480    -999.25
 2700.00000  260.91910    3.42780  -59.69410    4.06520  104.99870   72.50490   11.90540    -999.25
 2750.00000  211.11090    4.29160  -63.11870    6.24850  106.56600   75.53820   12.16960    -999.25
 2800.00000  353.63990    2.48560  -59.61600    2.99840   97.22410   68.06270   12.97930    -999.25
 2850.00000  286.80830    3.06590  -57.60870    3.83180  120.78180   68.75000   12.92170    -999.25
 2900.00000  288.55370    3.27400  -60.28720    3.64140   98.71490   61.58190   12.97370    -999.25
 2950.00000  178.16120    5.00210  -59.45710    5.47760  107.38480   55.55430   14.10170    -999.25
 3000.00000  290.56540    3.04510  -57.89090    4.01850   69.17570   48.68150   13.09820    -999.25
 3050.00000  228.72150    4.25840  -58.40270    4.48890   82.03720   48.15290   13.10060    -999.25
 3100.00000  246.89950    3.96180  -63.88690    5.33460  100.87190   80.12900   12.66250    -999.25
 3150.00000  145.13090    6.83640  -60.98830    6.24450   89.95050   60.01540   12.92000    -999.25
 3200.00000  354.45480    2.80240  -57.83610    3.26520  113.17900   78.25460   13.62730    -999.25
 3250.00000  203.17500    4.77600  -59.24790    5.71560  105.45400   77.54830   13.21810    -999.25
 3300.00000  215.21040    4.52410  -57.79210    5.06860   98.27640   91.18810   12.68170    -999.25
 3350.00000  176.95430    5.68970  -60.60200    5.68770   94.20650  101.18610   12.13280    -999.25
 3400.00000  218.59090    4.59700  -62.92730    5.14390  101.68960  101.81350   11.22310    -999.25
 3450.00000  243.28070    4.01390  -61.56570    4.94160  111.25670  123.77190    9.89090    -999.25
 3500.00000  156.14170    6.40990  -61.27240    7.62190  102.62380  104.40830    9.65930    -999.25
 3550.00000  194.48880    5.20570  -59.36100    5.81810  116.20920  115.29860   10.04490    -999.25
 3600.00000  167.62270    5.96660  -58.99970    6.34110   99.21450  118.83700    8.08360    -999.25
 3650.00000  181.91410    5.49750  -61.89690    5.78650   93.44520   95.52450    7.73840    -999.25
 3700.00000  204.80330    4.74000  -61.09580    5.36470  101.14020  117.61950    8.11540    -999.25
 3750.00000  166.98740    5.96440  -60.09380    6.69190  104.51480   99.75410    8.73410    -999.25
 3800.00000  192.27200    4.99640  -60.27760    5.57360   99.05780  104.08610    9.24900    -999.25
 3850.00000  190.24560    5.25470  -60.23290    5.63360  103.29980  105.72620    9.47770    -999.25
 3900.00000  176.16010    5.65860  -60.46890    6.46900  100.55490  114.04700   11.04000    -999.25
 3950.00000  210.13060    4.72410  -60.71530    5.69530  105.29540  110.66520    9.44970    -999.25
 4000.00000  139.84070    7.09930  -60.89000    7.77480   99.51040  105.75180   11.02550    -999.25
 4050.00000  174.20660    5.68040  -60.30650    6.47270  120.95590  102.52320   10.84690    -999.25
 4100.00000  208.13360    4.57260  -60.63220    6.30090  104.51470  121.09650   10.06030    -999.25
 4150.00000  193.18100    4.99970  -60.51720    6.52210   97.76160  120.42770    9.45000    -999.25
 4200.00000  200.23840    4.89460  -60.42800    6.29700  101.82980  110.65580   10.82200    -999.25
 4250.00000  181.78920    5.41820  -60.32940    7.54800   98.20610  118.58910   10.82870    -999.25
 4300.00000  169.08700    5.88720  -59.34830    8.14700  102.04080  111.42330   10.61850    -999.25
 4350.00000  122.08810    8.15930  -59.65480   11.26940  103.88650  134.82940    9.23580    -999.25
 4400.00000  126.13720    7.94660  -57.45120   13.33070  180.87920  178.77370    9.23600    -999.25
 4450.00000  159.06620    6.20690  -60.47620    7.09390   89.11600   96.03590   11.11820    -999.25
 4500.00000  248.95750    3.86960  -57.26880    5.58190   93.94700  113.10380   10.93220    -999.25
 4550.00000  206.05370    4.73330  -61.14520    6.35440   90.07450  122.20770   10.53600    -999.25
 4600.00000  211.60890    4.58230  -59.86390    6.37290   91.20440  114.29840   10.55070    -999.25
 4650.00000  284.27570    3.32240  -58.27330    4.89280  102.76500  113.35850   12.06570    -999.25
 4700.00000  314.57830    3.10620  -59.35790    4.22490  100.20080  111.10410   11.78790    -999.25
 4750.00000  264.31730    3.74280  -57.79020    4.88940   99.91070  120.75250   11.63540    -999.25
 4800.00000  573.94500    1.44040  -56.02260    2.81750  109.11510  132.71480    9.51650    -999.25
 4850.00000  559.39710    1.45300  -55.80490    2.49450  122.30740  123.91000    8.82330    -999.25
 4900.00000  364.98480    2.62030  -55.80120    3.57410   87.87380  106.75280    9.39490    -999.25
 4950.00000  313.70780    3.08350  -55.55750    3.89180   89.36580  114.14350   10.24490    -999.25
 5000.00000  140.05830    7.14780  -61.15300    9.30020   80.70020   95.44580   10.41650    -999.25
