~Version ---------------------------------------------------
VERS. 2.0 : CWLS log ASCII Standard -VERSION 2.0
WRAP.  NO : One line per depth step
~Well ------------------------------------------------------
STRT.M                             300.0 : START DEPTH
STOP.M                            1800.0 : STOP DEPTH
STEP.M                          50.00000 : STEP LENGTH
NULL.                            -999.25 : NULL VALUE
COMP. CANADIAN NATURAL RESOURCES LIMITED : COMPANY
WELL.        ELAN ET AL NIPISI 3-15-80-9 : WELL
FLD .                             NIPISI : FIELD
LOC .                                    : LOCATION
CTRY.                             CANADA : COUNTRY
SRVC.                       Schlumberger : SERVICE COMPANY
DATE.                        03-Nov-1989 : LOGDATE
PROV.                            Alberta : PROVINCE
UWI .                   100031508009W500 : UNIQUE WELL ID
SLAT.WGS84                 55.9289441664 : SURFACE LATITUDE
SLON.WGS84               -115.3252320748 : SURFACE LONGITUDE
~Curve Information -----------------------------------------
DEPT    .M                          : DEPTH METERS
CALSED  .MM                         : CALIPER FROM SONIC LOG
CALWS   .MM                         : CALIPER [CALSED]
CONDWS  .MMHO                       : CONDUCTIVITY [1000/DRESWS]
DCORWS  .KG/M3                      : DENSITY CORRECTION [DRHOED]
DENWS   .KG/M3                      : BULK DENSITY [M=2710 F=1000] [CALCULATED FROM DPOWS]
DPHILSED.V/V                        : DENSITY POROSITY [M=2710 F=1000] FROM DENSITY LOG
DPOLSWS .V/V                        : DENSITY POROSITY [M=2710 F=1000] [DPHILSED]
DRESWS  .OHMM                       : DEEP RESISTIVITY [ILDED]
DRHOED  .KG/M3                      : DENSITY CORRECTION FROM DENSITY LOG
DTED    .US/M                       : DELTA TIME FROM SONIC LOG
DTWS    .US/M                       : DELTA TIME [DTED]
GRDED   .GAPI                       : GAMMA RAY FROM DENSITY LOG
GRSED   .GAPI                       : GAMMA RAY FROM SONIC LOG
GRWS    .GAPI :   GAMMA RAY [SPLICE : 178 GRSED 182 GRDED] CSG @209M
ILDED   .OHMM                       : INDUCTION LOG DEEP RESISTIVITY
ILMED   .OHMM                       : INDUCTION LOG MEDIUM RESISTIVITY
MRESWS  .OHMM                       : MEDIUM RESISTIVITY [ILMED]
NPHILSED.V/V                        : NEUTRON POROSITY LIMESTONE FROM DENSITY LOG
NPOLSWS .V/V                        : NEUTRON POROSITY LIMESTONE [NPHILSED] CSG @209M
PEFED   .B/E                        : PHOTOELECTRIC FACTOR FROM DENSITY LOG
PEFWS   .B/E                        : PHOTOELECTRIC FACTOR [PEFED]
SFLUED  .OHMM                       : SPHERICALLY FOCUSED LOG RESISTIVITY
SPRED   .MV                         : SPONTANEOUS POTENTIAL FROM RESISTIVITY LOG
SPWS    .MV                         : SPONTANEOUS POTENTIAL [BASELINE 0 MV] [SPRED]
SRESWS  .OHMM                       : SHALLOW RESISTIVITY [SFLUED]
~Params ----------------------------------------------------
PD  .                         GL : PERMANENT DATUM
EPD .M                       647 : ELEVATION PERMANENT DATUM
LMF .                         KB : LOG MEASURED FROM
DAPD.M                       4.2 : FEET ABOVE PERMANENT DATUM
DMF .                         KB : DRILLING MEASURED FROM
EKB .M                     651.2 : KELLY BUSHING
EDF .M                     649.9 : DRILLING FLOOR
EGL .M                       647 : GROUND LEVEL
DATE.                   11/03/89 : RUN DATE
RUN .                          1 : RUN NUMBER
DD  .M                      1816 : DEPTH DRILLER
DL  .M                      1814 : DEPTH LOGGER
BLI .M                    1813.2 : BOTTOM LOG INTERVAL
TLI .M                       209 : TOP LOG INTERVAL
CS  .MM                    219.1 : CASING SIZE
CBD .M                       209 : CASING BOTTOM DRILLER
CBL .M                       209 : CASING BOTTOM LOGGER
BS  .MM                      200 : BIT SIZE
BSD .M                      1816 : BIT SIZE AT DEPTH
DFT .                   GEL CHEM : DRILLING FLUID TYPE
DFD .                       1150 : DRILLING FLUID DENSITY
DFV .                         49 : DRILLING FLUID VISCOSITY
DFPH.                         10 : DRILLING FLUID PH
DFL .                          9 : DRILLING FLUID LOSS
MSS .                   FLOWLINE : MUD SAMPLE SOURCE
RMS .OHMM                  0.516 : RESISTIVITY MUD SAMPLE
MST .DEGC                     20 : MUD SAMPLE TEMPERATURE
RMF .OHMM                   0.46 : RESISTIVITY MUD FILTRATE SAMPLE
MFST.DEGC                     20 : MUD FILTRATE SAMPLE TEMPERATURE
RMC .OHMM                  0.655 : RESISTIVITY MUD CAKE
MCST.DEGC                     20 : MUD CAKE SAMPLE TEMPERATURE
MFSS.                   MEASURED : MUD FILTRATE SAMPLE SOURCE
MCSS.                   MEASURED : MUD CAKE SAMPLE SOURCE
RMB .OHMM                    0.3 : RESISTIVITY MUD AT BHT
TCS .HRS                    2000 : TIME CIRCULATED STOPPED
TLAB.HRS                     345 : TIME LOGGER AT BOTTOM
LUN .                       8373 : LOGGING UNIT NUMBER
LUL .                   EDMONTON : LOGGING UNIT LOCATION
ENGI.              PLAXTON SPADY : RECORDING ENGINEER
WITN.                      PERRY : WITNESSED BY
CLNT.                    A2DTECH : CLIENT CODE
ORIG. 6.5"/100M 16.5"/100M PRINT : ORIGIN OF DATA
UWI .           100031508009W500 : UNIQUE WELL ID
DICO.     A2D Technologies, Inc. : DIGITIZING COMPANY
~Other -----------------------------------------------------
1. DPHILSED WAS BEST CURVE SO RHOBED WAS NOT KEPT IN ED/WSR FILE.
~ASCII -----------------------------------------------------
  300.00000  290.65700  290.65700  239.57260  111.66140 2099.53000    0.35700    0.35700    4.17410  111.66140  432.16720  432.16720   91.20330   92.18170   91.20330    4.17410    3.66160    3.66160    0.40380    0.40380    1.98790    1.98790    3.75530   38.45770   -5.42520    3.75530
  350.00000  200.58530  200.58530  155.84090   -0.33650 2087.38890    0.36410    0.36410    6.41680   -0.33650  407.86980  407.86980   62.32900   67.85790   62.32900    6.41680    6.94960    6.94960    0.39720    0.39720    2.46620    2.46620    6.71460   37.64350  -13.06900    6.71460
  400.00000  202.27730  202.27730  232.51490   72.83430 1998.98190    0.41580    0.41580    4.30080   72.83430  429.17940  429.17940   85.08310   83.15830   85.08310    4.30080    4.40960    4.40960    0.44260    0.44260    2.73530    2.73530    3.76910   38.79440    0.80660    3.76910
  450.00000  211.90940  211.90940  146.73950   -9.41200 2182.80710    0.30830    0.30830    6.81480   -9.41200  369.68830  369.68830   62.23970   65.75190   62.23970    6.81480    8.27420    8.27420    0.38420    0.38420    2.64230    2.64230    8.53780   39.68880   -2.92650    8.53780
  500.00000  252.51250  252.51250  201.04540   28.38300 2279.42210    0.25180    0.25180    4.97400   28.38300  377.83940  377.83940   76.21720   74.28830   76.21720    4.97400    4.77900    4.77900    0.41960    0.41960    2.81530    2.81530    4.43330   51.93470   -3.48060    4.43330
  550.00000  317.32130  317.32130  188.97870   84.73370 1901.85400    0.47260    0.47260    5.29160   84.73370  362.44630  362.44630   86.69230   82.22410   86.69230    5.29160    4.04040    4.04040    0.45250    0.45250    1.99180    1.99180    4.67940   46.61420   -6.86860    4.67940
  600.00000  289.29690  289.29690  296.70070   -4.28320 2155.96000    0.32400    0.32400    3.37040   -4.28320  520.46330  520.46330   67.07270   73.22610   67.07270    3.37040    2.97230    2.97230    0.41840    0.41840    2.75470    2.75470    3.06970   53.50530   -5.64240    3.06970
  650.00000  242.36040  242.36040  122.61510   10.54540 2538.31590    0.10040    0.10040    8.15560   10.54540  201.13930  201.13930   15.62250   13.90610   15.62250    8.15560    7.80420    7.80420    0.22560    0.22560    4.47960    4.47960   14.58080  -17.50370  -73.16520   14.58080
  700.00000  242.60590  242.60590   76.02540   21.45400 2596.62700    0.06630    0.06630   13.15350   21.45400  222.81120  222.81120   48.22380   36.49240   48.22380   13.15350   13.33570   13.33570    0.13680    0.13680    4.45800    4.45800   15.27200   14.72010  -37.45520   15.27200
  750.00000  254.37040  254.37040  149.77010   14.79180 2546.01100    0.09590    0.09590    6.67690   14.79180  258.77320  258.77320   37.19290   35.44430   37.19290    6.67690    6.40320    6.40320    0.22540    0.22540    4.04110    4.04110    6.64360   16.05590  -32.63320    6.64360
  800.00000  293.70790  293.70790  186.16430   32.96630 2275.65990    0.25400    0.25400    5.37160   32.96630  264.79440  264.79440   38.96490   40.29250   38.96490    5.37160    4.42030    4.42030    0.28900    0.28900    3.46330    3.46330    5.59430   17.19910  -28.00380    5.59430
  850.00000  254.94940  254.94940   78.65780   53.99720 2598.16600    0.06540    0.06540   12.71330   53.99720  243.60510  243.60510   46.09050   41.25200   46.09050   12.71330   12.05630   12.05630    0.13240    0.13240    3.90950    3.90950   14.83560   10.41520  -31.30150   14.83560
  900.00000  233.32800  233.32800   21.94560   -2.45320 2661.43600    0.02840    0.02840   45.56720   -2.45320  178.91570  178.91570   15.76740   16.42460   15.76740   45.56720   39.45950   39.45950    0.05820    0.05820    5.27650    5.27650   47.47760  -18.48050  -56.71100   47.47760
  950.00000  239.04750  239.04750   21.69120   13.93250 2614.75290    0.05570    0.05570   46.10160   13.93250  175.27840  175.27840   16.24990   15.60710   16.24990   46.10160   68.86070   68.86070    0.04080    0.04080    4.75770    4.75770  165.22150  -47.80990  -82.55420  165.22150
 1000.00000  233.09930  233.09930   42.34240   34.06250 2543.27490    0.09750    0.09750   23.61700   34.06250  191.46840  191.46840   17.89450   15.59030   17.89450   23.61700   34.49270   34.49270    0.10940    0.10940    4.53040    4.53040   57.28410  -45.93850  -77.19660   57.28410
 1050.00000  231.70680  231.70680   24.37890   25.54500 2633.39210    0.04480    0.04480   41.01910   25.54500  173.17490  173.17490   12.73680   13.26530   12.73680   41.01910   40.06250   40.06250    0.06120    0.06120    4.41320    4.41320   73.67660  -43.34930  -71.12120   73.67660
 1100.00000  232.62460  232.62460   23.45160    1.55750 2626.55200    0.04880    0.04880   42.64110    1.55750  174.99060  174.99060   12.88090    9.48360   12.88090   42.64110   42.50180   42.50180    0.05950    0.05950    5.27520    5.27520   63.42760  -29.00690  -53.29260   63.42760
 1150.00000  205.26480  205.26480   44.71110   12.18080 2771.21800   -0.03580   -0.03580   22.36580   12.18080  159.72860  159.72860   23.14390   23.45180   23.14390   22.36580   36.84860   36.84860    0.10680    0.10680    3.01320    3.01320  101.62890  -36.50070  -57.30020  101.62890
 1200.00000  204.88260  204.88260   22.77220   23.17890 2755.31490   -0.02650   -0.02650   43.91320   23.17890  160.16700  160.16700   16.87020   14.72490   16.87020   43.91320   71.84620   71.84620    0.10290    0.10290    3.20250    3.20250  162.42110  -40.00310  -57.31640  162.42110
 1250.00000  202.79890  202.79890   25.62140    0.47980 2677.16800    0.01920    0.01920   39.02990    0.47980  183.15350  183.15350   39.26270   38.06340   39.26270   39.02990   39.02560   39.02560    0.07630    0.07630    3.99460    3.99460   48.35890  -13.50120  -27.32830   48.35890
 1300.00000  279.21430  279.21430  272.63560   88.15860 2012.83300    0.40770    0.40770    3.66790   88.15860  293.29030  293.29030   76.75820   70.95980   76.75820    3.66790    3.35440    3.35440    0.34060    0.34060    2.28640    2.28640    3.53840    1.86440  -12.34310    3.53840
 1350.00000  324.02060  324.02060  315.51710  145.26780 2200.59110    0.29790    0.29790    3.16940  145.26780  309.82150  309.82150   73.65840   78.74890   73.65840    3.16940    2.94520    2.94520    0.38290    0.38290    2.69420    2.69420    3.28260    2.67010  -13.92750    3.28260
 1400.00000  350.28130  350.28130  405.71250   65.48910 2243.85400    0.27260    0.27260    2.46480   65.48910  333.07450  333.07450   83.83240   94.17970   83.83240    2.46480    2.16560    2.16560    0.40640    0.40640    2.40210    2.40210    2.61680    6.04510   -2.15550    2.61680
 1450.00000  210.25000  210.25000   60.55280   -0.62010 2686.23100    0.01390    0.01390   16.51450   -0.62010  200.79220  200.79220   31.98780   34.47490   31.98780   16.51450   17.61070   17.61070    0.09050    0.09050    4.31110    4.31110   18.91700   16.64300   -5.85400   18.91700
 1500.00000  224.28720  224.28720  138.09870   31.90580 2538.31590    0.10040    0.10040    7.24120   31.90580  244.92950  244.92950   63.77590   65.14230   63.77590    7.24120    6.71290    6.71290    0.18290    0.18290    3.64510    3.64510    8.08030   14.31720   -2.91870    8.08030
 1550.00000  276.69900  276.69900  198.16110  148.62940 2347.13790    0.21220    0.21220    5.04640  148.62940  274.83210  274.83210   74.98970   78.09550   74.98970    5.04640    4.27250    4.27250    0.35900    0.35900    2.92120    2.92120    4.75400    8.98340   -0.49720    4.75400
 1600.00000  239.14500  239.14500   99.46980    9.03130 2589.27390    0.07060    0.07060   10.05330    9.03130  219.82690  219.82690   48.51050   55.05830   48.51050   10.05330   10.15770   10.15770    0.17830    0.17830    3.86050    3.86050   26.21460   17.60870   -5.06340   26.21460
 1650.00000  220.88760  220.88760   29.42910    2.39650 2687.08590    0.01340    0.01340   33.98000    2.39650  186.65520  186.65520   23.33900   22.04640   23.33900   33.98000   37.91760   37.91760    0.06660    0.06660    4.84830    4.84830   47.51650   12.82350  -13.67880   47.51650
