~Version ---------------------------------------------------
VERS.      2.0 : CWLS log ASCII Standard -VERSION 2.0
WRAP.       NO : One line per depth step
CREA. 12/20/17 : LAS Creation Date
~Well ------------------------------------------------------
STRT.FT                    1500.0 : START DEPTH
STOP.FT                    9800.0 : STOP DEPTH
STEP.FT                  50.00000 : STEP LENGTH
NULL.                     -999.25 : NULL VALUE
COMP.  PHILLIPS PETROLEUM COMPANY : COMPANY
WELL. PHILLIPS KAYBOB 12-15-64-19 : WELL
FLD .                             : FIELD
LOC .                             : LOCATION
CTRY.                      CANADA : COUNTRY
SRVC.                       Welex : SERVICE COMPANY
DATE.                 11-Jan-1958 : LOGDATE
PROV.                     Alberta : PROVINCE
UWI .            100121506419W500 : UNIQUE WELL ID
SLAT.WGS84               54.53978 : SURFACE LATITUDE
SLON.WGS84              -116.7947 : SURFACE LONGITUDE
~Curve Information -----------------------------------------
DEPT  .FT    : Depth Curve
CALIED.IN    : CALIPER FROM CALIPER LOG
CALWS .IN    : CALIPER [CALIED]
CONDWS.MMHO  : CONDUCTIVITY [1000/DRESWS]
DRESWS.OHMM  : DEEP RESISTIVITY [LT09ED]
GRNED .CPS   : GAMMA RAY FROM GRN LOG [ADJ. TO RESISTIVITY LOG]
GRWS  .CPS   : GAMMA RAY [GRNED]
LT09ED.OHMM  : 9 FOOT LATERAL [3iZ9'] RESSITIVITY FROM RESISTIVITY LOG
LT16ED.OHMM  : 16 FOOT LATERAL[3iZ16'] RESSITIVITY FROM RESISTIVITY LOG
NEUTED.CPS   : NEUTRON FROM GRN LOG [ADJ. TO RESISTIVITY LOG]
NEUTWS.CPS   : NEUTRON [NEUTED]
SNED  .OHMM  : 18 INCH  SHORT NORMAL [2Z18"] FROM RESISTIVITY LOG
SPRED .MV    : SPONTANEOUS POTENTIAL FROM RESISTIVITY LOG
SPWS  .MV    : SPONTANEOUS POTENTIAL [BASELINE 0 MV,SPRED]
SRESWS.OHMM  : SHALLOW RESISTIVITY [SNED]
~Params ----------------------------------------------------
PD  .                                        GL : PERMANENT DATUM
EPD .FT                                    2430 : ELEVATION PERMANENT DATUM
LMF .                                        KB : LOG MEASURED FROM
DMF .                                        KB : DRILLING MEASURED FROM
EKB .FT                                    2442 : KELLY BUSHING
EGL .FT                                    2430 : GROUND LEVEL
DATE.                                  01/11/58 : RUN DATE
RUN .                                         1 : RUN NUMBER
DD  .FT                                    9825 : DEPTH DRILLER
DL  .FT                                    9817 : DEPTH LOGGER
BLI .FT                                    9816 : BOTTOM LOG INTERVAL
TLI .FT                                    1514 : TOP LOG INTERVAL
CS  .IN                                  13.375 : CASING SIZE
CBD .FT                                 1513.95 : CASING BOTTOM DRILLER
CBL .FT                                    1514 : CASING BOTTOM LOGGER
BS  .IN                                       9 : BIT SIZE
BSD .FT                                    9825 : BIT SIZE AT DEPTH
DFT . OIL EMULSION CAUSTIC GEL DRISCOSE RAYFLOW : DRILLING FLUID TYPE
DFD .                                      10.9 : DRILLING FLUID DENSITY
DFV .                                        74 : DRILLING FLUID VISCOSITY
DFPH.                                         9 : DRILLING FLUID PH
MSS .                                CIRCULATED : MUD SAMPLE SOURCE
RMS .OHMM                                   3.3 : RESISTIVITY MUD SAMPLE
MST .DEGF                                    54 : MUD SAMPLE TEMPERATURE
RMF .OHMM                                  0.56 : RESISTIVITY MUD FILTRATE SAMPLE
MFST.DEGF                                   182 : MUD FILTRATE SAMPLE TEMPERATURE
RMC .OHMM                                  1.25 : RESISTIVITY MUD CAKE
MCST.DEGF                                   182 : MUD CAKE SAMPLE TEMPERATURE
RMB .OHMM                                  1.05 : RESISTIVITY MUD AT BHT
ENGI.                           EDWARDS CARBERT : RECORDING ENGINEER
WITN.                           TIBBETTS HUNTER : WITNESSED BY
CLNT.                                   A2DTECH : CLIENT CODE
ORIG.                               2" 5" PRINT : ORIGIN OF DATA
UWI .                          100121506419W500 : UNIQUE WELL ID
DICO.                    A2D Technologies, Inc. : DIGITIZING COMPANY
~Other -----------------------------------------------------
EL-GRN-CALIPER LOG RUN
ALL GRN DATA FROM TOP TO 4600' & ALL EL DATA FROM TOP TO 3350' & 3500' TO 4600' FROM 2" SCALE SECTION
~ASCII -----------------------------------------------------
# ...
 3950.00000   11.27410   11.27410  101.52080    9.85020  109.34230  109.34230    9.85020    9.23850  223.23040  223.23040    7.93300  -85.90590   -4.88700    7.93300
 4000.00000   10.60350   10.60350   85.42410   11.70630   95.65180   95.65180   11.70630   10.80040  228.96040  228.96040    6.22890  -87.72940   -6.56440    6.22890
 4050.00000   11.14040   11.14040  114.28440    8.75010   89.11750   89.11750    8.75010    8.12100  237.69500  237.69500    5.82500  -88.47710   -7.16590    5.82500
 4100.00000   10.63450   10.63450  120.59960    8.29190   95.69840   95.69840    8.29190    7.49810  237.88100  237.88100    6.57290  -88.63620   -7.17800    6.57290
 4150.00000   11.56170   11.56170  113.43140    8.81590  107.11420  107.11420    8.81590    7.79300  234.72960  234.72960    6.01500  -88.02660   -6.42230    6.01500
 4200.00000   11.17470   11.17470   92.77640   10.77860   95.09700   95.09700   10.77860    8.36370  259.04210  259.04210    8.58630  -90.12960   -8.37820    8.58630
 4250.00000   11.80770   11.80770  121.57320    8.22550  103.83320  103.83320    8.22550    7.13550  238.95770  238.95770    5.83320  -87.62810   -5.73060    5.83320
 4300.00000   12.02950   12.02950  155.23610    6.44180   98.63550   98.63550    6.44180    5.29730  239.58030  239.58030    5.84010  -87.00920   -4.96560    5.84010
 4350.00000   12.78520   12.78520  127.75960    7.82720   95.87250   95.87250    7.82720    6.20580  234.29490  234.29490    5.80490  -87.46480   -5.27410    5.80490
 4400.00000   12.44790   12.44790  189.99130    5.26340  123.67570  123.67570    5.26340    4.82430  225.69970  225.69970    3.72450  -85.87920   -3.54240    3.72450
 4450.00000   12.69260   12.69260  250.16260    3.99740   86.54940   86.54940    3.99740    2.30770  225.66350  225.66350    3.17800  -85.86460   -3.34920    3.17800
 4500.00000   12.59730   12.59730  234.67570    4.26120   92.13500   92.13500    4.26120    3.32780  235.07810  235.07810    4.34420  -85.78260   -3.00690    4.34420
 4550.00000   12.25610   12.25610  142.45010    7.02000   90.31290   90.31290    7.02000    5.21690  237.21080  237.21080    6.07310  -86.69870   -3.66270    6.07310
 4600.00000   11.58220   11.58220  137.44760    7.27550   89.54080   89.54080    7.27550    6.19390  252.84410  252.84410   10.60640  -89.47540   -6.17740   10.60640
 4650.00000   11.92140   11.92140  115.02850    8.69350   78.09980   78.09980    8.69350    5.64170  228.71910  228.71910    5.59690  -87.46640   -3.90810    5.59690
 4700.00000   10.64300   10.64300   78.47630   12.74270   42.67870   42.67870   12.74270    9.34140  350.04280  350.04280   19.54690 -106.54300  -22.72270   19.54690
 4750.00000   12.01590   12.01590   33.29270   30.03660   45.64240   45.64240   30.03660   48.96930  225.80490  225.80490   17.49480 -100.87160  -16.79100   17.49480
 4800.00000   11.84250   11.84250   49.03790   20.39240   49.75230   49.75230   20.39240   19.97160  354.39760  354.39760   15.28740  -94.19380   -9.85290   15.28740
 4850.00000   11.91650   11.91650   67.79250   14.75090   81.36390   81.36390   14.75090   11.96850  286.31840  286.31840   12.91230  -97.27970  -12.67670   12.91230
 4900.00000   11.91380   11.91380   53.17400   18.80620   65.83260   65.83260   18.80620    7.38280  301.81820  301.81820   12.34630 -104.98080  -20.11750   12.34630
 4950.00000   12.49010   12.49010   48.46040   20.63540   64.59360   64.59360   20.63540   21.82560  303.18140  303.18140   13.00960 -106.70040  -21.57510   13.00960
 5000.00000   12.77250   12.77250   18.67190   53.55630   74.34250   74.34250   53.55630   96.34860  240.45310  240.45310   20.25930  -90.76410   -5.37850   20.25930
 5050.00000   12.48190   12.48190   52.37710   19.09230   51.98660   51.98660   19.09230   17.37940  299.39690  299.39690   14.72770 -127.45650  -41.81060   14.72770
 5100.00000   11.34770   11.34770   51.20460   19.52950   79.22880   79.22880   19.52950   18.07940  270.12070  270.12070   15.84120  -89.06690   -3.15900   15.84120
 5150.00000   11.40250   11.40250  165.22920    6.05220   68.20060   68.20060    6.05220    6.16900  317.57520  317.57520    7.81720  -91.67550   -8.06930    7.81720
 5200.00000   11.40190   11.40190   85.16440   11.74200   64.16400   64.16400   11.74200    7.92090  300.90750  300.90750    9.63680 -115.56210  -40.21510    9.63680
 5250.00000   12.85480   12.85480   49.97580   20.00970   51.95130   51.95130   20.00970   21.28130  222.93870  222.93870   26.80150 -104.37950  -37.23770   26.80150
 5300.00000   12.09000   12.09000   31.42940   31.81730   52.69190   52.69190   31.81730   12.00550  263.48850  263.48850   17.20380 -142.59720  -83.66060   17.20380
 5350.00000   10.32110   10.32110   79.14400   12.63520   91.97830   91.97830   12.63520   10.03040  281.02580  281.02580   10.88940  -60.83080  -10.15340   10.88940
 5400.00000   12.38260   12.38260   88.84620   11.25540   86.43980   86.43980   11.25540    8.67590  228.50640  228.50640    4.08100  -46.82730   -4.35520    4.08100
 5450.00000   11.15790   11.15790   86.80710   11.51980   87.66560   87.66560   11.51980    9.68270  247.93180  247.93180    9.48550  -43.79380   -4.57140    9.48550
 5500.00000    8.70400    8.70400   32.53160   30.73930   47.23500   47.23500   30.73930   12.91990  328.97580  328.97580   25.40500 -118.34910  -78.15780   25.40500
 5550.00000    9.95700    9.95700   20.67610   48.36500   85.37260   85.37260   48.36500   31.57910  277.11530  277.11530   17.84180  -45.25710   -4.09700   17.84180
 5600.00000   10.60930   10.60930   33.57940   29.78020   95.94420   95.94420   29.78020   36.89160  252.90440  252.90440   15.69950  -51.82770   -9.69240   15.69950
 5650.00000   10.95430   10.95430   70.61100   14.16210  100.23630  100.23630   14.16210    9.88270  242.38160  242.38160   10.45830  -57.08310  -13.97900   10.45830
 5700.00000   10.75370   10.75370  283.27010    3.53020  101.49240  101.49240    3.53020    4.47320  216.95230  216.95230    3.01010  -61.76110  -17.68180    3.01010
 5750.00000   13.33160   13.33160  302.78260    3.30270   82.96130   82.96130    3.30270    2.72160  211.40240  211.40240    4.32040  -75.70470  -30.65660    4.32040
 5800.00000    9.74060    9.74060   34.08340   29.33980  119.30290  119.30290   29.33980   16.54890  217.25840  217.25840   21.92540  -69.10970  -23.09280   21.92540
 5850.00000    9.32850    9.32850   24.86830   40.21190  138.33290  138.33290   40.21190   33.06750  338.93850  338.93850   75.65070  -65.03080  -18.03870   75.65070
 5900.00000    9.66260    9.66260    1.08800  919.13490   79.00030   79.00030  919.13490 2658.76120  333.30220  333.30220   39.79350  -91.69340  -43.73240   39.79350
 5950.00000    9.40100    9.40100   57.17680   17.48960   84.06910   84.06910   17.48960   14.40190  372.08350  372.08350   21.97370  -75.93220  -26.99600   21.97370
 6000.00000    9.45270    9.45270   40.72820   24.55300   72.07330   72.07330   24.55300   23.67680  410.90810  410.90810   25.20410  -70.19980  -19.76110   25.20410
 6050.00000    9.38470    9.38470   33.92210   29.47930   85.13200   85.13200   29.47930   21.19870  386.15080  386.15080   16.09620  -71.64140  -18.34700   16.09620
 6100.00000    9.25320    9.25320   21.02260   47.56790   53.24520   53.24520   47.56790   35.89360  359.89900  359.89900   25.26330 -111.18430  -55.01550   25.26330
 6150.00000    9.36240    9.36240    6.26570  159.59970   30.20640   30.20640  159.59970   64.42050  413.82920  413.82920   59.70270 -105.22480  -46.20040   59.70270
 6200.00000    9.18420    9.18420    3.62880  275.57350   33.57430   33.57430  275.57350  141.36490  420.73820  420.73820  127.60500 -175.73560 -113.83680  127.60500
 6250.00000    9.55410    9.55410   13.27710   75.31760   40.75120   40.75120   75.31760  108.77550  579.26180  579.26180  139.53900 -105.78570  -41.03130  139.53900
 6300.00000    9.54610    9.54610   12.32480   81.13690   90.19800   90.19800   81.13690  108.17520  549.08860  549.08860   41.72030  -74.56570   -6.95570   41.72030
 6350.00000    9.44950    9.44950    2.04220  489.66200   35.86260   35.86260  489.66200  340.41070  546.22350  546.22350  126.57510 -171.87410 -101.38970  126.57510
