~Version ---------------------------------------------------
VERS.      2.0 : CWLS log ASCII Standard -VERSION 2.0
WRAP.       NO : One line per depth step
CREA. 09/08/14 : LAS Creation Date
~Well ------------------------------------------------------
STRT.FT                                        700.0 : START DEPTH
STOP.FT                                       7150.0 : STOP DEPTH
STEP.FT                                     50.00000 : STEP LENGTH
NULL.                                        -999.25 : NULL VALUE
COMP. GREAT PLAINS DEVELOPMENT COMPANY OF CANADA LTD : COMPANY
WELL.            GRT PLNS B.A. THUNDER LK 12-18-60-5 : WELL
FLD .                                                : FIELD
LOC .                                                : LOCATION
CTRY.                                         CANADA : COUNTRY
SRVC.                                   Schlumberger : SERVICE COMPANY
DATE.                                    30-Mar-1962 : LOGDATE
PROV.                                        Alberta : PROVINCE
UWI .                               100121806005W500 : UNIQUE WELL ID
SLAT.WGS84                                  54.19013 : SURFACE LATITUDE
SLON.WGS84                                 -114.7475 : SURFACE LONGITUDE
~Curve Information -----------------------------------------
DEPT.FT    : DEPTH FEET
CALS.IN    : CALIPER FROM SONIC LOG
CILD.MMHO  : CONDUCTIVITY FROM IEL
DT  .US/F  : DELTA TIME SPACING 3' PICKUP SPAN 3' FROM SONIC LOG
DT_1.US/F  : DELTA TIME SPACING 3' PICKUP SPAN 1' FROM SONIC LOG
GRS .GAPI  : GAMMA RAY FROM SONIC LOG
ILD .OHMM  : INDUCTION LOG DEEP RESISTIVITY FROM IEL
SN  .OHMM  : 16 INCH SHORT NORMAL RESISTIVITY FROM IEL
SPR .MV    : SPONTANEOUS POTENTIAL FROM IEL
~Params ----------------------------------------------------
PD  .                     GL : PERMANENT DATUM
EPD .FT                 2230 : ELEVATION PERMANENT DATUM
LMF .                     KB : LOG MEASURED FROM
DAPD.FT                   12 : FEET ABOVE PERMANENT DATUM
EKB .FT                 2242 : KELLY BUSHING
EGL .FT                 2230 : GROUND LEVEL
DATE.               03/30/62 : RUN DATE
RUN .                      2 : RUN NUMBER
DD  .FT                 7155 : DEPTH DRILLER
DL  .FT                 7158 : DEPTH LOGGER
BLI .FT                 7157 : BOTTOM LOG INTERVAL
TLI .FT                 3200 : TOP LOG INTERVAL
CBD .FT                  735 : CASING BOTTOM DRILLER
BS  .IN                 8.75 : BIT SIZE
BSD .FT                 7155 : BIT SIZE AT DEPTH
DFT .                    GYP : DRILLING FLUID TYPE
DFD .                   10.5 : DRILLING FLUID DENSITY
DFV .                     90 : DRILLING FLUID VISCOSITY
DFPH.                      7 : DRILLING FLUID PH
DFL .                    6.8 : DRILLING FLUID LOSS
RMS .OHMM                1.8 : RESISTIVITY MUD SAMPLE
MST .DEGF                 60 : MUD SAMPLE TEMPERATURE
RMF .OHMM                1.2 : RESISTIVITY MUD FILTRATE SAMPLE
MFST.DEGF                 70 : MUD FILTRATE SAMPLE TEMPERATURE
RMC .OHMM                2.0 : RESISTIVITY MUD CAKE
MCST.DEGF                 70 : MUD CAKE SAMPLE TEMPERATURE
RMB .OHMM                1.8 : RESISTIVITY MUD AT BHT
TCS .HRS                 2.5 : TIME CIRCULATED STOPPED
LUN .                   1534 : LOGGING UNIT NUMBER
LUL .                    EDM : LOGGING UNIT LOCATION
ENGI.                SKILTON : RECORDING ENGINEER
WITN.                BUCKLEY : WITNESSED BY
CLNT.                A2DTECH : CLIENT CODE
ORIG.            2" 5" PRINT : ORIGIN OF DATA
UWI .       100121806005W500 : UNIQUE WELL ID
DICO. A2D Technologies, Inc. : DIGITIZING COMPANY
~Other -----------------------------------------------------
~ASCII -----------------------------------------------------
# ...
 4700.00000    8.26230   11.36490   49.12940   51.49530   16.18120   89.94090   89.80000 -126.50930
 4750.00000    8.22130   41.94730   54.58380   56.29420   10.69690   22.92720   69.05550 -130.44200
 4800.00000    8.20700   16.87970   50.14670   51.55660    9.66350   61.54240   70.81270 -132.22670
 4850.00000    8.21590   62.09610   54.30440   53.77240   10.66670   15.69450    -999.25 -133.89910
 4900.00000    8.33550   57.51010   50.45900   49.51170   11.88380   21.80280   55.24580 -126.69520
 4950.00000    8.11800  198.05220   52.98700   53.11090   13.91530    4.94030   31.44870 -135.08190
 5000.00000    8.05050  102.39500   53.48310   48.95950   13.29540    9.65110   44.02940 -130.07850
 5050.00000    8.59620  300.16850   70.16040   70.86380   63.81130    3.32990    5.80870  -88.72070
 5100.00000    8.33920    6.29330   50.25920   53.27880   17.92060  148.56860   86.73050 -107.01150
 5150.00000    8.44290   53.81980   51.89460   53.22510   15.24410   16.85580   48.39550 -116.22880
 5200.00000    8.21710  116.85570   54.55970   56.39500   23.89840    8.58800   29.69620 -113.86750
 5250.00000    8.55160   87.66690   69.33800   71.74700   49.11280   10.89690   12.49400  -50.78360
 5300.00000    8.62830  106.54380   65.47350   67.73570   40.86830    9.48190   10.32360  -46.00810
 5350.00000    9.49500  221.83070   79.65670   85.54680   67.17160    4.16150    4.98900  -44.39590
 5400.00000    8.71220  298.07700   78.93220   86.44280   74.93440    2.94820    3.95790  -38.69090
 5450.00000    8.75680  406.41510   88.70930   92.19270   77.72510    2.09800    3.05360  -42.91880
 5500.00000    8.56110  180.38280   71.80810   74.08600   58.38970    5.24450    6.08600  -68.58900
 5550.00000    8.69100   91.17150   66.51390   49.71520   34.04720   10.63160   11.07480  -49.70400
 5600.00000    9.95620  248.38500   81.83100   84.21330   60.44410    3.70040    4.49400  -44.89620
 5650.00000   10.48330  255.30440   82.37160   81.69600   67.18520    3.66700    4.30160  -43.27360
 5700.00000    9.70150  276.22660   89.29250   87.28430   65.21490    3.32940    4.04460  -41.75770
 5750.00000    9.54420  173.60860   83.96850   83.24420   60.96430    5.26980    6.52630  -41.13580
 5800.00000    8.79820  183.07470   81.38920  100.26660   59.71670    5.09270    6.33870  -45.84570
 5850.00000    8.81910   79.51730   66.20720   59.82610   40.78740   12.04240   13.47810  -47.65540
 5900.00000    8.86010  186.11550   74.06380   78.32330   56.06060    5.04290    6.62110  -49.48260
 5950.00000    8.72210  116.18500   71.80750   72.77030   45.44370    8.18030   10.40920  -45.09730
 6000.00000    8.61650  153.96060   65.39270   68.79560   49.64210    6.57720    8.44450  -41.68320
 6050.00000    8.75730   94.85260   66.56060   66.73590   38.08950   10.17480   12.88450  -42.33840
 6100.00000    8.69880  114.46550   67.84550   68.14170   44.67310    8.52540   10.92690  -43.03060
 6150.00000    8.87690  154.32820   67.50340   69.72320   45.77660    6.36520    7.50600  -43.45430
 6200.00000    8.68100  129.11360   65.18320   66.40630   50.41680    9.58700    9.88970  -43.64740
 6250.00000    8.77880   74.30100   63.91900   64.22040   39.00700   13.14500   13.83070  -41.47230
 6300.00000    8.77240   69.94030   63.62270   66.62810   47.13660   14.04240   15.04880  -41.96770
 6350.00000    9.35100  164.08410   84.49840   86.37130   81.70110    5.49400    7.42380  -39.24660
 6400.00000    9.70190  202.38370   77.51140   79.98800   60.64310    4.60650    6.23280  -50.95520
 6450.00000    9.58960  257.80550   79.33120   81.36420   66.32760    3.52030    5.18350  -42.01290
 6500.00000    8.67970   51.51580   69.74390   67.01950   54.93050   22.27430   21.42940  -34.51170
 6550.00000    8.73640  104.89810   61.20090   61.64310   39.63670    9.17530   13.36270  -42.55660
 6600.00000    8.66620   66.35010   59.40400   60.83060   35.36790   13.80900   25.07280  -46.22560
 6650.00000    8.67250   29.25730   54.11840   51.92770   24.98410   33.87810   37.90400  -43.44620
 6700.00000    8.62160   59.02590   60.98440   61.74820   37.26210   15.67630   22.65960  -35.66230
 6750.00000    8.57750   19.94230   54.13720   55.15670   61.51540   47.70610   47.11910  -47.05130
 6800.00000    8.61020   12.05130   64.14920   68.22980   27.77400   79.98310   49.92170  -42.87860
 6850.00000    8.84450  114.60120   63.88600   66.27260   53.29100    8.45130   12.74800  -44.44950
 6900.00000    8.57170    6.93430   53.76990   55.01290   19.25320  130.53530   68.28940  -62.51210
 6950.00000    8.56030  173.88620   70.68500   76.86760   71.96180    5.37150    8.90760  -43.38480
 7000.00000    8.64800   16.71470   54.86690   56.19800   24.01690   58.94180    -999.25  -44.86270
 7050.00000    8.30760    1.56230   50.68410   53.40290   23.24720  355.93420  108.01580  -55.46060
 7100.00000    8.68240  239.90750   71.16100   90.09900   95.28830    3.73810    9.17070  -49.53680
 7150.00000    8.58200   88.96340    -999.25    -999.25   80.31290   10.34750   22.01300  -56.41920
