~Version ---------------------------------------------------
VERS.      2.0 : CWLS log ASCII Standard -VERSION 2.0
WRAP.       NO : One line per depth step
CREA. 11/20/17 : LAS Creation Date
~Well ------------------------------------------------------
STRT.FT                    700.0 : START DEPTH
STOP.FT                   6900.0 : STOP DEPTH
STEP.FT                 50.00000 : STEP LENGTH
NULL.                    -999.25 : NULL VALUE
COMP.            SUN OIL COMPANY : COMPANY
WELL. SUN ET AL YEKAU 11-9-52-26 : WELL
FLD .                            : FIELD
LOC .                            : LOCATION
CTRY.                     CANADA : COUNTRY
SRVC.     Schlumberger of Canada : SERVICE COMPANY
DATE.                21-Nov-1972 : LOGDATE
PROV.                    Alberta : PROVINCE
UWI .           100110905226W400 : UNIQUE WELL ID
SLAT.WGS84              53.47802 : SURFACE LATITUDE
SLON.WGS84             -113.7795 : SURFACE LONGITUDE
~Curve Information -----------------------------------------
DEPT  .FT    : Depth Curve
CALSED.IN    : CALIPER FROM SONIC LOG [ADJ.TO RESISTIVITY LOG]
CALWS .IN    : CALIPER [CALSED]
CILDED.MMHO  : CONDUCTIVITY FROM RESISTIVITY LOG
CONDWS.MMHO  : CONDUCTIVITY [1000/DRESWS]
DRESWS.OHMM  : DEEP RESISTIVITY [1000/CILDED IF ILDED <=5, ILDED]
DTED  .US/F  : DELTA-T FROM SONIC LOG [ADJ.TO RESISTIVITY LOG]
DTWS  .US/F  : COMPRESSIONAL SONIC [DTED]
GRSED .GAPI  : GAMMA RAY FROM SONIC LOG
GRWS  .GAPI  : GAMMA RAY [GRSED]
ILDED .OHMM  : DEEP INDUCTION FROM RESISTIVITY LOG
SNED  .OHMM  : SHORT NORMAL 16" FROM RESISTIVITY LOG
SPRED .MV    : SPONTANEOUS POTENTIAL FROM RESISTIVITY LOG
SPWS  .MV    : SPONTANEOUS POTENTIAL [BASELINE 0 MV, SPRED]
SRESWS.OHMM  : SHALLOW RESISTIVITY [SNED]
~Params ----------------------------------------------------
PD  .                     GL : PERMANENT DATUM
EPD .FT                 2327 : ELEVATION PERMANENT DATUM
LMF .                     KB : LOG MEASURED FROM
DAPD.FT                   13 : FEET ABOVE PERMANENT DATUM
EKB .FT                 2340 : KELLY BUSHING
EGL .FT                 2327 : GROUND LEVEL
DATE.               11/21/72 : RUN DATE
RUN .                      1 : RUN NUMBER
DD  .FT                 6940 : DEPTH DRILLER
DL  .FT                 6942 : DEPTH LOGGER
BLI .FT                 6941 : BOTTOM LOG INTERVAL
TLI .FT                  748 : TOP LOG INTERVAL
CBD .FT                  748 : CASING BOTTOM DRILLER
CBL .FT                  748 : CASING BOTTOM LOGGER
BS  .IN                7.875 : BIT SIZE
BSD .FT                 6940 : BIT SIZE AT DEPTH
DFT .               GEL CHEM : DRILLING FLUID TYPE
DFD .                    9.5 : DRILLING FLUID DENSITY
DFV .                     72 : DRILLING FLUID VISCOSITY
DFPH.                    9.5 : DRILLING FLUID PH
DFL .                     10 : DRILLING FLUID LOSS
RMS .OHMM                1.3 : RESISTIVITY MUD SAMPLE
MST .DEGF                 75 : MUD SAMPLE TEMPERATURE
RMF .OHMM               1.06 : RESISTIVITY MUD FILTRATE SAMPLE
MFST.DEGF                 70 : MUD FILTRATE SAMPLE TEMPERATURE
RMB .OHMM               0.69 : RESISTIVITY MUD AT BHT
TCS .HRS                   2 : TIME CIRCULATED STOPPED
LUN .                   7636 : LOGGING UNIT NUMBER
LUL .                    EDM : LOGGING UNIT LOCATION
ENGI.                CUTRESS : RECORDING ENGINEER
WITN.                PATMORE : WITNESSED BY
CLNT.                A2DTECH : CLIENT CODE
ORIG.            2" 5" PRINT : ORIGIN OF DATA
UWI .       100110905226W400 : UNIQUE WELL ID
DICO. A2D Technologies, Inc. : DIGITIZING COMPANY
~Other -----------------------------------------------------
~ASCII -----------------------------------------------------
  700.00000    -999.25    -999.25    -999.25    -999.25    -999.25    -999.25    -999.25   52.69310   82.69310    -999.25    -999.25    -999.25    -999.25    -999.25
  750.00000    8.51770    8.51770    -999.25    -999.25    -999.25  123.22700  123.22700   90.27330   90.27330    -999.25    4.05040  -40.86670   -9.43810    -999.25
  800.00000   11.48430   11.48430  247.23630  247.23630    4.04470  134.34620  134.34620   89.17800   89.17800    4.05870    3.64390  -45.87150  -14.57500    3.64390
  850.00000    9.46640    9.46640  205.97470  205.97470    4.85500  109.65580  109.65580  107.51890  107.51890    4.85710    3.97620  -45.90140  -14.73960    3.97620
  900.00000    8.92750    8.92750  193.15520  188.19630    5.31360  105.44660  105.44660   84.13270   84.13270    5.31360    3.81790  -44.90850  -13.88060    3.81790
  950.00000    8.83140    8.83140  177.99430  184.09090    5.43210  114.03850  114.03850   92.89340   92.89340    5.43210    4.39480  -39.94050   -9.04730    4.39480
 1000.00000    8.26220    8.26220  140.00070  139.95210    7.14530  110.23910  110.23910   64.67050   64.67050    7.14530    5.77080  -37.92500   -7.16570    5.77080
 1050.00000    8.53600    8.53600  100.60800  100.14020    9.98600   94.92890   94.92890   62.22270   62.22270    9.98600    9.30080  -36.38240   -5.75690    9.30080
 1100.00000    9.13800    9.13800  211.44390  211.44390    4.72940  111.77630  111.77630   76.91570   76.91570    4.90850    3.88440  -37.96400   -7.47330    3.88440
 1150.00000    8.73590    8.73590  260.02530  260.02530    3.84580  121.41290  121.41290   77.34720   77.34720    3.70210    3.12110  -37.82410   -7.46720    3.12110
 1200.00000    8.28600    8.28600  142.34450  137.45330    7.27520  107.05260  107.05260   63.11480   63.11480    7.27520    6.67740  -48.73490  -18.51280    6.67740
 1250.00000    9.85320    9.85320  215.19060  215.19060    4.64700  111.97260  111.97260   73.30610   73.30610    4.65400    3.75830  -30.80660   -0.71830    3.75830
 1300.00000    7.80150    7.80150  140.15280  133.49890    7.49070  104.09920  104.09920   57.81940   57.81940    7.49070    6.82090  -41.15930  -10.98160    6.82090
 1350.00000    9.58490    9.58490  186.37550  188.90020    5.29380  103.79810  103.79810   74.34320   74.34320    5.29380    4.31240  -28.66690    1.65150    4.31240
 1400.00000    9.92780    9.92780  183.03720  183.03960    5.46330  112.13650  112.13650   63.82990   63.82990    5.46330    4.54890  -34.47520   -4.01700    4.54890
 1450.00000    8.00420    8.00420  198.95860  198.95860    5.02620  112.00720  112.00720   59.60790   59.60790    4.99150    5.33920  -55.04920  -24.45030    5.33920
 1500.00000    8.40520    8.40520  153.30350  153.14170    6.52990  104.42390  104.42390   58.44730   58.44730    6.52990    5.23360  -41.17810  -10.43940    5.23360
 1550.00000   10.82710   10.82710  216.49230  216.49230    4.61910  106.36770  106.36770   71.14500   71.14500    4.54370    3.89720  -40.85830   -9.97980    3.89720
 1600.00000    9.81240    9.81240  225.02500  225.02500    4.44400  135.43650  135.43650   74.64100   74.64100    4.44550    4.11370  -43.41540  -12.39610    4.11370
 1650.00000    9.43950    9.43950  173.02540  178.90050    5.58970   96.85800   96.85800   69.68330   69.68330    5.58970    4.49060  -46.91510  -15.75600    4.49060
 1700.00000    8.23550    8.23550  142.40820  142.15850    7.03440   94.08080   94.08080   78.69820   78.69820    7.03440    6.62810  -47.72430  -16.42450    6.62810
 1750.00000    8.55020    8.55020   94.71780   94.79570   10.54900   86.72900   86.72900   50.46070   50.46070   10.54900    9.06920  -49.24770  -17.80810    9.06920
 1800.00000    8.37220    8.37220  137.87850  137.87590    7.25290   89.00020   89.00020   54.33250   54.33250    7.25290    7.21480  -54.09670  -22.51730    7.21480
 1850.00000    8.44750    8.44750  115.10310  115.18750    8.68150   91.82380   91.82380   62.35030   62.35030    8.68150    7.86160  -49.88150  -18.16140    7.86160
 1900.00000    8.72290    8.72290  159.67480  139.63560    7.16150   97.08330   97.08330   71.88240   71.88240    7.16150    6.18520  -46.26790  -14.40800    6.18520
 1950.00000    9.24340    9.24340  203.89450  203.89450    4.90450  105.00760  105.00760   76.90780   76.90780    4.89840    4.32230  -45.43020  -13.42950    4.32230
 2000.00000    9.31400    9.31400  182.36670  182.41850    5.48190  102.50090  102.50090   84.04870   84.04870    5.48190    5.03010  -45.34200  -13.20150    5.03010
 2050.00000    9.70340    9.70340  130.49260  130.46310    7.66500   92.48360   92.48360  104.03080  104.03080    7.66500    6.18290  -48.79080  -16.51050    6.18290
 2100.00000   10.23720   10.23720  142.66030  142.61270    7.01200  101.24020  101.24020  117.64220  117.64220    7.01200    5.94640  -48.14550  -15.72450    5.94640
 2150.00000    9.89340    9.89340  136.46550  140.89070    7.09770   97.71870   97.71870  112.05310  112.05310    7.09770    6.40870  -47.16060  -14.59980    6.40870
 2200.00000    9.61720    9.61720  141.70120  142.24350    7.03020  100.86570  100.86570   99.03530   99.03530    7.03020    6.20170  -46.57840  -13.87690    6.20170
 2250.00000    8.48750    8.48750  141.08320  141.95670    7.04440  102.66580  102.66580  120.12010  120.12010    7.04440    6.28380  -47.71890  -14.87760    6.28380
 2300.00000    9.99460    9.99460  160.51500  160.56260    6.22810  105.63340  105.63340  108.19880  108.19880    6.22810    5.86420  -45.63570  -12.65450    5.86420
 2350.00000    8.71270    8.71270  131.98430  132.86740    7.52630  108.44770  108.44770  175.59680  175.59680    7.52630    9.37610  -43.36200  -10.24010    9.37610
 2400.00000    8.73790    8.73790  106.73340  107.95990    9.26270  103.59990  103.59990  189.85370  189.85370    9.26270   11.51110  -41.68760   -8.42590   11.51110
 2450.00000    9.33460    9.33460  148.12190  148.12400    6.75110  102.17940  102.17940  134.14940  134.14940    6.75110    7.27750  -34.56240   -1.16000    7.27750
 2500.00000    9.62170    9.62170  156.62920  156.58760    6.38620  101.98410  101.98410  137.56370  137.56370    6.38620    7.02460  -35.83550   -2.39360    7.02460
 2550.00000    9.95930    9.95930  207.27780  207.27780    4.82440  100.53050  100.53050  110.65640  110.65640    4.82570    5.23140  -36.11870   -2.74890    5.23140
 2600.00000   10.04380   10.04380  133.55590  136.39030    7.33190  100.60790  100.60790  130.71380  130.71380    7.33190    7.96090  -40.58210   -7.28490    7.96090
 2650.00000    9.31320    9.31320  134.25560  131.95920    7.57810   90.64690   90.64690  111.49190  111.49190    7.57810    6.71030  -42.94650   -9.72140    6.71030
 2700.00000    9.93190    9.93190  130.23260  130.17100    7.68220   91.78480   91.78480  124.62710  124.62710    7.68220    6.97980  -46.82900  -13.67650    6.97980
 2750.00000   10.20550   10.20550  146.52660  144.22310    6.93370   95.59990   95.59990  123.93810  123.93810    6.93370    6.44460  -52.26130  -19.18090    6.44460
 2800.00000   10.52550   10.52550  126.23150  126.21960    7.92270   89.70330   89.70330  105.63850  105.63850    7.92270    7.16790  -53.79940  -20.79100    7.16790
 2850.00000   10.25010   10.25010  130.74480  130.73780    7.64890   94.01620   94.01620  112.84120  112.84120    7.64890    6.48930  -54.24630  -21.31050    6.48930
 2900.00000   10.28780   10.28780  160.13550  160.01540    6.24940   93.84330   93.84330  123.09280  123.09280    6.24940    6.50410  -51.53100  -18.66730    6.50410
 2950.00000   10.81150   10.81150  174.18480  174.15530    5.74200  103.50150  103.50150  121.09690  121.09690    5.74200    6.57530  -49.65450  -16.86340    6.57530
 3000.00000    9.41670    9.41670  165.21410  165.40680    6.04570  104.19900  104.19900  140.91590  140.91590    6.04570    7.30650  -48.40280  -15.68380    7.30650
 3050.00000    8.24390    8.24390  105.44750  109.92880    9.09680   91.72150   91.72150  124.16830  124.16830    9.09680   11.18170  -49.53680  -16.88990   11.18170
 3100.00000    8.21860    8.21860   70.49090   73.72180   13.56450   86.84320   86.84320  126.16250  126.16250   13.56450   20.50960  -50.11910  -17.54470   20.50960
