~Version ---------------------------------------------------
VERS.      2.0 : CWLS log ASCII Standard -VERSION 2.0
WRAP.       NO : One line per depth step
CREA. 10/27/17 : LAS Creation Date
~Well ------------------------------------------------------
STRT.FT                              1150.0 : START DEPTH
STOP.FT                             12400.0 : STOP DEPTH
STEP.FT                            50.00000 : STEP LENGTH
NULL.                               -999.25 : NULL VALUE
COMP. HUDSONS BAY OIL & GAS COMPANY LIMITED : COMPANY
WELL.        HB SHELL SIMONETTE 13-23-63-25 : WELL
FLD .                                       : FIELD
LOC .                                       : LOCATION
CTRY.                                CANADA : COUNTRY
SRVC.                          Schlumberger : SERVICE COMPANY
DATE.                           12-Mar-1973 : LOGDATE
PROV.                               Alberta : PROVINCE
UWI .                      100132306325W500 : UNIQUE WELL ID
SLAT.WGS84                            54.47 : SURFACE LATITUDE
SLON.WGS84                        -117.6781 : SURFACE LONGITUDE
~Curve Information -----------------------------------------
DEPT   .FT    : Depth Curve
ASNED  .OHMM  : AMPLIFIED SHORT NORMAL RESISTIVITY FROM IEL LOG [ADJ. TO DIL LOG]
CALSED .IN    : CALIPER FROM SONIC LOG
CALWS  .IN    : CALIPER [CALSED]
CILD1ED.MMHO  : CONDUCTIVITY FROM IEL LOG [ADJ. TO DIL LOG]
CILDED .MMHO  : CONDUCTIVITY FROM DIL LOG
CONDWS .MMHO  : CONDUCTIVITY [1000/DRESWS]
DRESWS .OHMM  : DEEP RESISTIVITY [SPLICED ILDED/ILD1ED AT 1737/3618] [FROM TOP TO 1737 IF ILDED<5;1000/CILDED;ELSE ILDED/ILD1ED<1;1000/CILD1ED;ELSED ILD1ED]
DTED   .US/F  : DELTA TIME FROM SONIC LOG [DEPTH ADJ TO RESISTIVITY LOG]
DTWS   .US/F  : COMPRESSIONAL SONIC [DTED]
GRNED  .GAPI  : GAMMA RAY FROM GRN LOG
GRSED  .GAPI  : GAMMA RAY FROM SONIC LOG
GRWS   .GAPI  : GAMMA RAY [GRSED SPL.  TO GRNED @ 11962']
ILD1ED .OHMM  : DEEP INDUCTION RESISTIVITY  FROM IEL LOG [ADJ. TO DIL LOG]
ILDED  .OHMM  : DEEP  INDUCTION RESISTIVITY FROM DIL LOG
ILMED  .OHMM  : MEDIUM INDUCTION RESISTIVITY FROM DIL LOG
LL8ED  .OHMM  : LATEROLOG 8 FROM DIL LOG
MRESWS .OHMM  : MEDIUM RESISTIVITY [ILMED]
NEUTED .NAPI  : NEUTRON FROM GRN LOG [DEPTH ADJ TO RESISTIVITY LOG]
NEUTWS .NAPI  : NEUTRON [NEUTED]
SPED   .MV    : SPONTANEOUS POTENTIAL [SPRED SPL. TO SPR1ED @ 11990']
SPR1ED .MV    : SPONTANEOUS POTENTIAL FROM IEL LOG [ADJ. TO DIL LOG]
SPRED  .MV    : SPONTANEOUS POTENTIAL FROM DIL LOG
SPWS   .MV    : SPONTANEOUS POTENIAL [BASELINE 0 MV, SPRED]
SRESWS .OHMM  : SHALLOW RESISTIVITY [LL8ED SPL. TO ASNED @ 11946']
~Params ----------------------------------------------------
PD  .                     GL : PERMANENT DATUM
EPD .FT                 2976 : ELEVATION PERMANENT DATUM
LMF .                     KB : LOG MEASURED FROM
DAPD.FT                   21 : FEET ABOVE PERMANENT DATUM
EKB .FT                 2997 : KELLY BUSHING
EGL .FT                 2976 : GROUND LEVEL
DATE.             03/12/1973 : RUN DATE
RUN .                      1 : RUN NUMBER
DD  .FT                12400 : DEPTH DRILLER
DL  .FT                11435 : DEPTH LOGGER
BLI .FT                12434 : BOTTOM LOG INTERVAL
TLI .FT                11300 : TOP LOG INTERVAL
CS  .IN               13.375 : CASING SIZE
BS  .IN                 8.75 : BIT SIZE
BSD .FT                12434 : BIT SIZE AT DEPTH
DFT .              FRESH GEL : DRILLING FLUID TYPE
DFD .                    9.3 : DRILLING FLUID DENSITY
DFV .                    400 : DRILLING FLUID VISCOSITY
DFPH.                   10.5 : DRILLING FLUID PH
DFL .                    8.4 : DRILLING FLUID LOSS
RMB .OHMM                1.1 : RESISTIVITY MUD AT BHT
LUN .               7670 EDM : LOGGING UNIT NUMBER
ENGI.                 CALVIN : RECORDING ENGINEER
WITN.                FOGARTY : WITNESSED BY
CLNT.                A2DTECH : CLIENT CODE
ORIG.            2" 5' PRINT : ORIGIN OF DATA
UWI .       100132306325W500 : UNIQUE WELL ID
DICO. A2D Technologies, Inc. : DIGITIZING COMPANY
~Other -----------------------------------------------------
DIL-IEL-GRN-BCS LOG RUN
SUFFIX OF THE CURVES ARE NOT REMOVED DUE TO DIFFERENT TOOL. BUT THEY HAVE SAME MNEMONICS
~ASCII -----------------------------------------------------
# ...
 11300.00000    -999.25    8.71810    8.71810    -999.25    -999.25   27.61900   36.20690   57.35190   57.35190   26.82820   41.65550   41.65550    -999.25   36.20690   43.77810   76.65660   43.77810  147.58650  188.06460  -22.55120    -999.25  -57.55120  -13.97910   76.65660
 11350.00000    -999.25    8.74450    8.74450    -999.25    -999.25   15.82580   63.18810   54.73910   54.73910   25.09360   29.63870   29.63870    -999.25   63.18810   85.64270  404.39430   85.64270  209.68500  202.24050  -69.03520    -999.25 -104.03520  -59.97730  404.39430
 11400.00000    -999.25    9.90090    9.90090    -999.25    -999.25  202.84800    4.92980   78.77830   78.77830   82.72280   96.69040   96.69040    -999.25    4.92980    5.39610    7.20570    5.39610  125.45810  109.39250  -47.35600    -999.25  -82.35600  -37.55710    7.20570
 11450.00000    -999.25    9.50660    9.50660    -999.25    -999.25  204.80050    4.88280   70.41600   70.41600   77.66730   92.02000   92.02000    -999.25    4.88280    5.98880    8.47420    5.98880  138.54500  133.37480  -24.65380    -999.25  -59.65380  -14.11390    8.47420
 11500.00000    -999.25    9.05980    9.05980    -999.25    -999.25  151.42570    6.60390   64.83860   64.83860   61.64210   63.13410   63.13410    -999.25    6.60390    7.28150   12.79700    7.28150  165.58370  123.83290  -44.69050    -999.25  -79.69050  -34.49780   12.79700
 11550.00000    -999.25    9.75440    9.75440    -999.25    -999.25  246.56660    4.05570   77.03550   77.03550   90.97190   98.30660   98.30660    -999.25    4.05570    4.57750    6.52050    4.57750  121.87110  124.77690  -96.82510    -999.25 -131.82510  -87.90010    6.52050
 11600.00000    -999.25    8.90260    8.90260    -999.25    -999.25  101.35200    9.86660   62.09480   62.09480   63.54960   64.43150   64.43150    -999.25    9.86660   11.29160   16.77260   11.29160  184.53360  187.71840  -66.03080    -999.25 -101.03080  -58.38630   16.77260
 11650.00000    -999.25    8.96730    8.96730    -999.25    -999.25  104.25570    9.59180   63.27960   63.27960   68.56800   67.14480   67.14480    -999.25    9.59180   11.28830   16.26610   11.28830  195.88710  189.32620  -34.80270    -999.25  -69.80270  -28.43230   16.26610
 11700.00000    -999.25    8.83610    8.83610    -999.25    -999.25  128.22650    7.79870   66.65100   66.65100   83.50490   86.38690   86.38690    -999.25    7.79870    9.28800   12.83290    9.28800  159.44870  158.01990  -30.21400    -999.25  -65.21400  -25.40910   12.83290
 11750.00000    -999.25    8.83660    8.83660    -999.25    -999.25  152.86550    6.54170   68.11670   68.11670   78.88240   85.28160   85.28160    -999.25    6.54170    7.34520    9.80070    7.34520  155.24950  166.22800  -47.58660    -999.25  -82.58660  -44.47820    9.80070
 11800.00000    -999.25    8.68510    8.68510    -999.25    -999.25  109.90580    9.09870   66.94510   66.94510   76.58590   72.38420   72.38420    -999.25    9.09870   10.46200   15.59160   10.46200  165.02030  174.61250  -38.91590    -999.25  -73.91590  -37.49550   15.59160
 11850.00000    -999.25    8.66470    8.66470    -999.25    -999.25  235.93250    4.23850   72.45530   72.45530   81.90300   91.08090   91.08090    -999.25    4.23850    4.87010    6.83020    4.87010  144.73810  138.90260  -15.54840    -999.25  -50.54840  -15.83290    6.83020
 11900.00000    7.41120    8.76820    8.76820  195.12260    -999.25  194.54870    5.14010   77.32710   77.32710  104.59360  116.06880  116.06880    5.14010    4.50090    5.09770    7.20330    5.09770  129.87440  129.06360   -7.97250  -18.17120  -42.97250   -9.95350    7.20330
 11950.00000   38.95050    8.65960    8.65960   36.22020    -999.25   22.61810   44.21230   70.24610   70.24610  109.42360  111.00140  111.00140   44.21230   50.72200   69.87540 1587.98080   69.87540  170.17830  183.09160  -19.05980  -18.43170  -54.05980  -21.66850   38.95050
 12000.00000  136.48580    -999.25    -999.25   22.52750    -999.25   15.36510   65.08250   79.80310   79.80310   46.78630    -999.25   46.78630   65.08250    -999.25    -999.25    -999.25    -999.25  218.81570  218.81570  -19.20560  -19.20560    -999.25  -21.81430  136.48580
 12050.00000  187.87820    -999.25    -999.25   28.90810    -999.25   20.75910   48.17170   55.44110   55.44110   18.97950    -999.25   18.97950   48.17170    -999.25    -999.25    -999.25    -999.25  349.53120  349.53120  -24.11490  -24.11490    -999.25  -26.72360  187.87820
 12100.00000  175.06560    -999.25    -999.25   22.28990    -999.25   12.64990   79.05210   54.09930   54.09930   18.34040    -999.25   18.34040   79.05210    -999.25    -999.25    -999.25    -999.25  320.44180  320.44180  -29.32460  -29.32460    -999.25  -31.93330  175.06560
 12150.00000   83.63240    -999.25    -999.25   32.19080    -999.25   20.79370   48.09150   53.69690   53.69690   18.78120    -999.25   18.78120   48.09150    -999.25    -999.25    -999.25    -999.25  296.87730  296.87730  -58.32780  -58.32780    -999.25  -60.93650   83.63240
 12200.00000  155.10070    -999.25    -999.25   25.28410    -999.25   16.09880   62.11640   56.97530   56.97530   19.05490    -999.25   19.05490   62.11640    -999.25    -999.25    -999.25    -999.25  438.48490  438.48490  -68.71190  -68.71190    -999.25  -71.32060  155.10070
 12250.00000  104.17550    -999.25    -999.25    8.86600    -999.25    2.00000  500.00000   57.60520   57.60520   20.49150    -999.25   20.49150  500.00000    -999.25    -999.25    -999.25    -999.25  456.98430  456.98430  -68.86850  -68.86850    -999.25  -71.47720  104.17550
 12300.00000  214.98340    -999.25    -999.25    0.12300    -999.25    2.00000  500.00000   55.67270   55.67270   19.48130    -999.25   19.48130  500.00000    -999.25    -999.25    -999.25    -999.25  415.70980  415.70980  -65.25520  -65.25520    -999.25  -67.86390  214.98340
 12350.00000   91.13140    -999.25    -999.25   25.78820    -999.25   21.04210   47.52380   47.82620   47.82620   23.46830    -999.25   23.46830   47.52380    -999.25    -999.25    -999.25    -999.25  399.65340  399.65340  -67.22700  -67.22700    -999.25  -69.83570   91.13140
 12400.00000   17.79570    -999.25    -999.25  214.08030    -999.25  204.83410    4.88200   68.12540   68.12540   79.14240    -999.25   79.14240    4.88200    -999.25    -999.25    -999.25    -999.25  247.91500  247.91500 -150.12040 -150.12040    -999.25 -152.72910   17.79570
