~Version ---------------------------------------------------
VERS.      2.0 : CWLS log ASCII Standard -VERSION 2.0
WRAP.       NO : One line per depth step
CREA. 12/19/17 : LAS Creation Date
~Well ------------------------------------------------------
STRT.FT                    950.0 : START DEPTH
STOP.FT                   9500.0 : STOP DEPTH
STEP.FT                 50.00000 : STEP LENGTH
NULL.                    -999.25 : NULL VALUE
COMP. WESTCOAST PETROLEUM CO LTD : COMPANY
WELL.  WESTCOAST HOPE 2-35-62-13 : WELL
FLD .                            : FIELD
LOC .                            : LOCATION
CTRY.                     CANADA : COUNTRY
SRVC.                    Unknown : SERVICE COMPANY
DATE.                02-Oct-1972 : LOGDATE
PROV.                    Alberta : PROVINCE
UWI .           100023506213W500 : UNIQUE WELL ID
SLAT.WGS84              54.40188 : SURFACE LATITUDE
SLON.WGS84             -115.8339 : SURFACE LONGITUDE
~Curve Information -----------------------------------------
DEPT  .FT    : Depth Curve
CALSED.IN    : CALIPER FROM SONIC LOG [ADJ TO ILDED]
CALWS .IN    : CALIPER [CALSED]
CILDED.MMHO  : CONDUCTIVITY FROM RESISTIVITY LOG
CONDWS.MMHO  : CONDUCTIVITY [1000/DRESWS]
DRESWS.OHMM  : DEEP RESISTIVITY [ILDED] IF ILDED<2;1000/CILDED;ELSE ILDED
DTED  .US/F  : DELTA TIME FROM SONIC LOG [ADJ TO ILDED]
DTWS  .US/F  : DELTA TIME [DTED]
GRSED .GAPI  : GAMMA RAY FROM SONIC LOG [ADJ TO ILDED]
GRWS  .GAPI  : GAMMA RAY [GRSED]
ILDED .OHMM  : INDUCTION LOG DEEP RESISTIVITY
ILMED .OHMM  : INDUCTION LOG MEDIUM RESISTIVITY
LL8ED .OHMM  : 8 INCH LATEROLOG RESISTIVITY
MRESWS.OHMM  : MEDIUM RESISTIVITY [ILMED]
SPRED .MV    : SPONTANEOUS POTENTIAL FROM RESISTIVITY LOG
SPWS  .MV    : SPONTANEOUS POTENTIAL [BASELINE 0 MV] [SPRED]
SRESWS.OHMM  : SHALLOW RESISTIVITY [LL8ED]
~Params ----------------------------------------------------
PD  .                     GL : PERMANENT DATUM
EPD .FT                 3287 : ELEVATION PERMANENT DATUM
LMF .                     KB : LOG MEASURED FROM
DAPD.FT                   14 : FEET ABOVE PERMANENT DATUM
EKB .FT                 3301 : KELLY BUSHING
EGL .FT                 3287 : GROUND LEVEL
DATE.               10/02/72 : RUN DATE
RUN .                      1 : RUN NUMBER
DD  .FT                 9540 : DEPTH DRILLER
DL  .FT                 9542 : DEPTH LOGGER
BLI .FT                 9536 : BOTTOM LOG INTERVAL
TLI .FT                  962 : TOP LOG INTERVAL
CBD .FT                  961 : CASING BOTTOM DRILLER
CBL .FT                  962 : CASING BOTTOM LOGGER
BS  .IN                 8.75 : BIT SIZE
BSD .FT                 9540 : BIT SIZE AT DEPTH
DFT .               GEL CHEM : DRILLING FLUID TYPE
DFD .                    9.5 : DRILLING FLUID DENSITY
DFV .                    140 : DRILLING FLUID VISCOSITY
DFPH.                    9.5 : DRILLING FLUID PH
DFL .                      7 : DRILLING FLUID LOSS
MSS .             CIRCULATED : MUD SAMPLE SOURCE
RMS .OHMM               2.13 : RESISTIVITY MUD SAMPLE
MST .DEGF                 64 : MUD SAMPLE TEMPERATURE
RMF .OHMM               2.04 : RESISTIVITY MUD FILTRATE SAMPLE
MFST.DEGF                 70 : MUD FILTRATE SAMPLE TEMPERATURE
RMB .OHMM              0.812 : RESISTIVITY MUD AT BHT
TCS .HRS                  10 : TIME CIRCULATED STOPPED
LUN .                   5628 : LOGGING UNIT NUMBER
LUL .                    EDM : LOGGING UNIT LOCATION
ENGI.                  IBSEN : RECORDING ENGINEER
WITN.       GRUMBLY CHAUDHRY : WITNESSED BY
CLNT.                A2DTECH : CLIENT CODE
ORIG.            2" 5" PRINT : ORIGIN OF DATA
UWI .       100023506213W500 : UNIQUE WELL ID
DICO. A2D Technologies, Inc. : DIGITIZING COMPANY
~Other -----------------------------------------------------
DIL-SONIC LOGS RUN
DIL DATA ALL CURVES TOP-4590' FROM 2" SCALE
SONIC DATA ALL CURVES TOP-4600' FROM 2" SCALE
~ASCII -----------------------------------------------------
# ...
 5250.00000   10.79050   10.79050    -999.25  149.69840    6.68010   77.86420   77.86420   67.51230   67.51230    6.68010    6.10160   11.36070    6.10160  -80.35040  -14.25490   11.36070
 5300.00000   10.66410   10.66410    -999.25  127.42260    7.84790   78.67880   78.67880   64.30420   64.30420    7.84790    6.54460    9.97930    6.54460  -89.33550  -23.63200    9.97930
 5350.00000   10.17280   10.17280    -999.25   99.61750   10.03840   65.91270   65.91270   44.60660   44.60660   10.03840    7.93100   22.94630    7.93100 -114.02150  -48.71010   22.94630
 5400.00000   11.22070   11.22070    -999.25  193.56590    5.16620   78.15120   78.15120   50.54040   50.54040    5.16620    4.79640    9.53530    4.79640  -87.51490  -22.59550    9.53530
 5450.00000   10.56310   10.56310    -999.25  175.08790    5.71150   81.22450   81.22450   69.73510   69.73510    5.71150    5.37630    7.10060    5.37630  -74.27530   -9.74990    7.10060
 5500.00000   10.02050   10.02050    -999.25  156.11100    6.40570   78.29880   78.29880   70.58060   70.58060    6.40570    5.96560    8.70740    5.96560  -70.41020   -6.27490    8.70740
 5550.00000   10.77050   10.77050    -999.25  128.03930    7.81010   77.85400   77.85400   68.33500   68.33500    7.81010    7.29820    8.90420    7.29820  -67.38550   -3.64230    8.90420
 5600.00000    9.35590    9.35590    -999.25   63.60270   15.72260   76.72080   76.72080   31.89540   31.89540   15.72260   12.01490   24.66700   12.01490 -110.16110  -46.80990   24.66700
 5650.00000    9.62990    9.62990    -999.25   40.97810   24.40330   66.44010   66.44010   47.44200   47.44200   24.40330   26.26760   40.21710   26.26760  -69.22930   -6.27020   40.21710
 5700.00000   10.58810   10.58810    -999.25  102.48270    9.75780   90.13900   90.13900   80.17560   80.17560    9.75780   11.53650   17.73070   11.53650  -64.69850   -2.13340   17.73070
 5750.00000   10.20630   10.20630    -999.25  123.14060    8.12080   73.80130   73.80130   90.71130   90.71130    8.12080    7.44690   11.37180    7.44690  -62.92860   -0.75350   11.37180
 5800.00000   10.42950   10.42950    -999.25  126.00490    7.93620   76.37630   76.37630   70.61270   70.61270    7.93620    8.35370   12.11380    8.35370  -65.29750   -3.51450   12.11380
 5850.00000    8.84060    8.84060    -999.25    3.54300  282.24800   61.97430   61.97430   66.75660   66.75660  282.24800  248.92590  569.19450  248.92590  -71.98100  -10.71370  569.19450
 5900.00000    9.30950    9.30950    -999.25   19.02190   52.57090   64.47630   64.47630  107.94600  107.94600   52.57090   43.96860   84.81840   43.96860  -83.79720  -23.22350   84.81840
 5950.00000    9.18120    9.18120    -999.25   92.97310   10.77630   56.64260   56.64260   34.76230   34.76230   10.77630    9.01210   19.27800    9.01210 -102.44970  -42.57310   19.27800
 6000.00000    8.21520    8.21520    -999.25  111.26070    8.98790   69.32890   69.32890   10.01530   10.01530    8.98790    4.62040   21.47410    4.62040 -177.61580 -118.42930   21.47410
 6050.00000    9.16230    9.16230    -999.25    5.35880  186.60740   48.00990   48.00990   13.16320   13.16320  186.60740  108.09960 1478.55000  108.09960 -193.97300 -135.48020 1478.55000
 6100.00000   10.30850   10.30850    -999.25    2.12730  470.08700   48.86040   48.86040   14.56930   14.56930  470.08700  123.13260 1542.83740  123.13260 -134.81880  -77.01960 1542.83740
 6150.00000    9.86870    9.86870    -999.25  216.20690    4.62520   61.32530   61.32530   40.65790   40.65790    4.62520    4.04220   13.17230    4.04220  -97.11220  -40.00660   13.17230
 6200.00000    9.86280    9.86280    -999.25  243.41890    4.11210   65.29140   65.29140   32.59170   32.59170    4.11210    3.15620   14.24380    3.15620 -131.34190  -74.93340   14.24380
 6250.00000    9.44440    9.44440    -999.25   18.34810   54.50160   53.02390   53.02390   22.08860   22.08860   54.50160   38.97330  183.71670   38.97330  -64.59500   -8.87670  183.71670
 6300.00000    9.11880    9.11880    -999.25   17.84470   56.03920   55.93870   55.93870   27.10570   27.10570   56.03920   53.76230   67.77440   53.76230  -68.65640  -13.63170   67.77440
 6350.00000    9.34150    9.34150    -999.25   20.03350   49.91640   54.87210   54.87210   32.01440   32.01440   49.91640   47.51350   73.69910   47.51350  -62.30700   -7.97590   73.69910
 6400.00000    9.75080    9.75080    -999.25   33.39040   29.94870   54.81860   54.81860   25.61130   25.61130   29.94870   32.98210   36.20040   32.98210  -79.07300  -25.43550   36.20040
 6450.00000    9.13410    9.13410    -999.25   19.84690   50.38580   54.16700   54.16700   22.68090   22.68090   50.38580   46.56900   77.89940   46.56900  -72.37040  -19.43010   77.89940
 6500.00000    9.03980    9.03980    -999.25   21.70570   46.07090   54.55370   54.55370   28.35200   28.35200   46.07090   43.42280   60.45550   43.42280  -72.65100  -20.40080   60.45550
 6550.00000    8.93010    8.93010    -999.25   20.75650   48.17760   54.71260   54.71260   28.65000   28.65000   48.17760   45.40400   80.83350   45.40400  -68.28380  -16.72720   80.83350
 6600.00000   10.28150   10.28150    -999.25   98.08540   10.19520   68.26050   68.26050   67.34430   67.34430   10.19520    9.88860   12.04310    9.88860  -53.75760   -2.89460   12.04310
 6650.00000   10.88490   10.88490    -999.25   98.56390   10.14570   86.92880   86.92880  143.19130  143.19130   10.14570   10.20760   14.25790   10.20760  -60.81810   -9.55240   14.25790
 6700.00000    9.69020    9.69020    -999.25   93.66620   10.67620   69.28390   69.28390   84.30880   84.30880   10.67620   10.09790   12.84150   10.09790  -55.25430   -3.21650   12.84150
 6750.00000    9.41440    9.41440    -999.25    6.69340  149.40090   49.67220   49.67220   16.20660   16.20660  149.40090  212.70660  581.82730  212.70660  -79.55810  -26.75600  581.82730
 6800.00000    9.44170    9.44170    -999.25    1.73250  577.20860   49.58610   49.58610   13.01070   13.01070  577.20860  526.08770  415.47290  526.08770 -101.32010  -47.74980  415.47290
 6850.00000    9.75390    9.75390    -999.25    3.56140  280.78860   50.72990   50.72990   14.19850   14.19850  280.78860  229.88490  217.37450  229.88490 -124.35340  -70.01490  217.37450
 6900.00000    9.73490    9.73490    -999.25    0.65220 1533.28930   48.17660   48.17660    9.84460    9.84460 1533.28930  516.13360 1503.72570  516.13360 -130.05550  -74.94890 1503.72570
 6950.00000    9.63830    9.63830    -999.25    2.54750  413.46790   49.30130   49.30130   12.97730   12.97730  413.46790  279.62780  622.91650  279.62780 -125.84100  -69.96240  622.91650
 7000.00000    9.33930    9.33930    -999.25   11.38230   87.85540   49.62780   49.62780   11.32860   11.32860   87.85540   42.46410  347.60590   42.46410 -169.17650 -112.53350  347.60590
 7050.00000    7.81810    7.81810    -999.25   46.21370   21.63860   56.92100   56.92100   11.63110   11.63110   21.63860   11.08170  139.26950   11.08170 -187.60870 -130.19750  139.26950
 7100.00000    9.75130    9.75130    -999.25   15.01360   66.60610   50.77420   50.77420   11.71770   11.71770   66.60610   41.58550  323.78080   41.58550 -176.10230 -117.92290  323.78080
 7150.00000    9.83170    9.83170    -999.25   12.30630   81.25940   51.84830   51.84830   11.51840   11.51840   81.25940   70.32730  185.99340   70.32730 -149.08730  -90.13980  185.99340
 7200.00000    9.19520    9.19520    -999.25    0.81290 1237.70410   48.95820   48.95820    9.65610    9.65610 1237.70410  572.77540  965.36840  572.77540 -135.61170  -75.89210  965.36840
 7250.00000    9.36780    9.36780    -999.25    5.92970  168.64120   49.61040   49.61040   11.21110   11.21110  168.64120  103.22310  133.71150  103.22310 -124.08830  -63.60440  133.71150
 7300.00000    8.01590    8.01590    -999.25   32.88440   30.40960   54.50490   54.50490   11.39480   11.39480   30.40960   17.86070  340.84040   17.86070 -190.41280 -129.16070  340.84040
 7350.00000    9.72130    9.72130    -999.25   17.10530   58.46140   50.21130   50.21130    8.28830    8.28830   58.46140   75.56390  135.74060   75.56390 -161.00870  -98.98840  135.74060
