~Version ---------------------------------------------------
VERS.      2.0 : CWLS log ASCII Standard -VERSION 2.0
WRAP.       NO : One line per depth step
CREA. 01/05/18 : LAS Creation Date
~Well ------------------------------------------------------
STRT.FT                      950.0 : START DEPTH
STOP.FT                    10300.0 : STOP DEPTH
STEP.FT                   50.00000 : STEP LENGTH
NULL.                      -999.25 : NULL VALUE
COMP.         PETROFINA CANADA LTD : COMPANY
WELL. FINA ET AL KAYBOB 10-7-60-17 : WELL
FLD .                              : FIELD
LOC .                              : LOCATION
CTRY.                       CANADA : COUNTRY
SRVC.                 Schlumberger : SERVICE COMPANY
DATE.                  18-Jan-1976 : LOGDATE
PROV.                      Alberta : PROVINCE
UWI .             100100706017W500 : UNIQUE WELL ID
SLAT.WGS84                54.17689 : SURFACE LATITUDE
SLON.WGS84               -116.5329 : SURFACE LONGITUDE
~Curve Information -----------------------------------------
DEPT    .FT    : Depth Curve
CALDED  .IN    : CALIPER FROM DENSITY LOG [ADJ. TO RESISTIVITY LOG]
CALSED  .IN    : CALIPER FROM SONIC LOG
CALWS   .IN    : CALIPER [CALDED SPL. TO CALSED @ 1046']
CILDED  .MMHO  : CONDUCTIVITY FROM RESISTIVITY LOG
CONDWS  .MMHO  : CONDUCTIVITY [1000/DRESWS]
DCORED  .G/C3  : DENSITY CORRECTION FROM DENSITY LOG [ADJ. TO RESISTIVITY LOG]
DCORWS  .G/C3  : DENSITY CORRECTION [DCORED]
DENWS   .G/C3  : FORMATION BULK DENSITY [CALC. FROM DPOLSWS, M=M=2.71 F=1.00]
DPHILSED.V/V   : DENSITY POROSITY LIMESTONE [M=M=2.71 F=1.00] FROM DENSITY LOG [ADJ. TO RESISTIVITY LOG]
DPHISSED.V/V   : DENSITY POROSITY SANDSTONE [M=2.65 F=1.00] FROM DENSITY LOG [ADJ. TO RESISTIVITY LOG]
DPOLSWS .V/V   : DENSITY POROSITY LIMESTONE [DPHISSED CONVERTED TO LIMESTONE (M=2.71 F=1.00), SPL. TO DPHILSED @ 6847']
DRESWS  .OHMM  : DEEP RESISTIVITY [1000/CILDED, IF ILDED < 2, ILDED & SPL. TO ILDED @ 1043'-3980']
DTED    .US/F  : DELTA TIME FROM SONIC LOG
DTWS    .US/F  : COMPRESSIONAL SONIC [DTED]
GRDED   .GAPI  : GAMMA RAY FROM DENSITY LOG [ADJ. TO RESISTIVITY LOG]
GRSED   .GAPI  : GAMMA RAY FROM SONIC LOG
GRWS    .GAPI  : GAMMA RAY [GRSED]
ILDED   .OHMM  : DEEP  INDUCTION LOG RESISTIVITY FROM RESISTIVITY LOG
ILMED   .OHMM  : MEDIUM INDUCTION LOG RESISTIVITY FROM RESISTIVITY LOG
LL8ED   .OHMM  : 8 INCH LATEROLOG RESISTIVITY FROM RESISTIVITY LOG
MRESWS  .OHMM  : MEDIUM RESISTIVITY [ILMED]
NPHILSED.V/V   : NEUTRON POROSITY LIMESTONE FROM DENSITY LOG [ADJ. TO RESISTIVITY LOG]
NPHISSED.V/V   : NEUTRON POROSITY SANDSTONE FROM DENSITY LOG [ADJ. TO RESISTIVITY LOG]
NPOLSWS .V/V   : NEUTRON POROSITY LIMESTONE [NPHISSED MATRIX CONVERSION FOR LIMESTONE, SPL. TO NPHILSED @ 6847']
RHOBED  .G/C3  : BULK DENSITY FROM DENSITY LOG [ADJ. TO RESISTIVITY LOG]
SPRED   .MV    : SPONTANEOUS POTENTIAL FROM RESISTIVITY LOG
SPWS    .MV    : SPONTANEOUS POTENTIAL [BASELINE 0 MV, SPRED]
SRESWS  .OHMM  : SHALLOW RESISTIVITY [LL8ED]
~Params ----------------------------------------------------
PD  .                     GL : PERMANENT DATUM
EPD .FT              2627.65 : ELEVATION PERMANENT DATUM
LMF .                     KB : LOG MEASURED FROM
DAPD.FT                 14.2 : FEET ABOVE PERMANENT DATUM
EKB .FT              2641.85 : KELLY BUSHING
EGL .FT              2627.65 : GROUND LEVEL
DATE.               01/18/76 : RUN DATE
RUN .                      1 : RUN NUMBER
DD  .FT                10330 : DEPTH DRILLER
DL  .FT                10336 : DEPTH LOGGER
BLI .FT                10330 : BOTTOM LOG INTERVAL
TLI .FT                 1038 : TOP LOG INTERVAL
CBD .FT                 1039 : CASING BOTTOM DRILLER
CBL .FT                 1038 : CASING BOTTOM LOGGER
BS  .IN                 8.75 : BIT SIZE
BSD .FT                10330 : BIT SIZE AT DEPTH
DFT .            GEL CAUSTIC : DRILLING FLUID TYPE
DFD .                    9.1 : DRILLING FLUID DENSITY
DFV .                    220 : DRILLING FLUID VISCOSITY
DFPH.                   10.5 : DRILLING FLUID PH
DFL .                    9.5 : DRILLING FLUID LOSS
MSS .             CIRCULATED : MUD SAMPLE SOURCE
RMS .OHMM               2.67 : RESISTIVITY MUD SAMPLE
MST .DEGF                 52 : MUD SAMPLE TEMPERATURE
RMF .OHMM               2.43 : RESISTIVITY MUD FILTRATE SAMPLE
MFST.DEGF                 73 : MUD FILTRATE SAMPLE TEMPERATURE
RMB .OHMM               0.88 : RESISTIVITY MUD AT BHT
TCS .HRS                   4 : TIME CIRCULATED STOPPED
LUN .                   7667 : LOGGING UNIT NUMBER
LUL .                    EDM : LOGGING UNIT LOCATION
ENGI.                 DENNIS : RECORDING ENGINEER
WITN.                JOHNSON : WITNESSED BY
CLNT.                A2DTECH : CLIENT CODE
ORIG.            2" 5" PRINT : ORIGIN OF DATA
UWI .       100100706017W500 : UNIQUE WELL ID
DICO. A2D Technologies, Inc. : DIGITIZING COMPANY
~Other -----------------------------------------------------
~ASCII -----------------------------------------------------
# ...
 5950.00000   10.11890    9.80790    9.80790    -999.25   68.80230    0.02610    0.02610    2.56320    -999.25    0.05260    0.08580   14.53440   78.94730   78.94730   94.47510   96.09180   96.09180   14.53440   16.52130   18.07380   16.52130    -999.25    0.26610    0.22210    2.56690  -45.31910   -5.09910   18.07380
 6000.00000   10.91400    9.90590    9.90590    -999.25   77.51040    0.05020    0.05020    2.50580    -999.25    0.08740    0.11940   12.90150   78.64220   78.64220   76.40000   71.31150   71.31150   12.90150   14.04400   18.37580   14.04400    -999.25    0.34140    0.29770    2.51180  -50.18360  -10.31390   18.37580
 6050.00000    9.50910    9.59460    9.59460    -999.25   88.65140    0.05620    0.05620    2.65030    -999.25   -0.00020    0.03490   11.28060   74.57550   74.57550   89.34610   91.17900   91.17900   11.28060   12.44520   14.32190   12.44520    -999.25    0.28780    0.24380    2.70340  -44.41760   -4.89630   14.32190
 6100.00000    9.26200    9.30140    9.30140    -999.25   64.25950    0.01750    0.01750    2.61830    -999.25    0.01920    0.05360   15.56190   69.02100   69.02100   92.11430   88.10410   88.10410   15.56190   17.39670   19.13590   17.39670    -999.25    0.24100    0.19710    2.61990  -41.00670   -1.63900   19.13590
 6150.00000    9.75420    9.68380    9.68380    -999.25   63.56920    0.06330    0.06330    2.65080    -999.25   -0.00050    0.03460   15.73090   68.24000   68.24000   93.07880   94.70860   94.70860   15.73090   18.32040   25.23850   18.32040    -999.25    0.21310    0.16950    2.71930  -45.77030   -4.89790   25.23850
 6200.00000   10.74550   10.03170   10.03170    -999.25   90.15670    0.13980    0.13980    2.58910    -999.25    0.03690    0.07070   11.09180   74.32580   74.32580  107.35360   93.08950   93.08950   11.09180   12.14520   14.70090   12.14520    -999.25    0.27770    0.23370    2.58450  -46.81300   -7.28710   14.70090
 6250.00000    9.49310    9.61620    9.61620    -999.25   28.47230    0.01730    0.01730    2.57080    -999.25    0.04800    0.08140   35.12180   67.10460   67.10460   63.58240   62.69690   62.69690   35.12180   38.63980   40.21110   38.63980    -999.25    0.16290    0.12010    2.57080  -49.36550  -11.18620   40.21110
 6300.00000    9.42040    9.70570    9.70570    -999.25   49.88750    0.07230    0.07230    2.59280    -999.25    0.03470    0.06850   20.04590   73.39280   73.39280  106.37010  112.61900  112.61900   20.04590   17.55030   25.48990   17.55030    -999.25    0.30440    0.26050    2.59390  -38.10200   -1.26250   25.48990
 6350.00000    9.28820    9.47560    9.47560    -999.25   79.87670    0.06810    0.06810    2.52060    -999.25    0.07840    0.11070   12.51930   66.69930   66.69930   38.65870   42.18100   42.18100   12.51930   13.62720   14.91150   13.62720    -999.25    0.16230    0.11950    2.50690  -82.56420  -47.07800   14.91150
 6400.00000   10.34690    9.80720    9.80720    -999.25   50.89940    0.16860    0.16860    2.44090    -999.25    0.12670    0.15730   19.64660   73.55220   73.55220   42.08030   41.56560   41.56560   19.64660   20.54500   27.07150   20.54500    -999.25    0.15710    0.11440    2.44990  -67.80490  -33.66530   27.07150
 6450.00000   10.03460   10.36790   10.36790    -999.25  117.39290    0.17820    0.17820    2.48830    -999.25    0.09800    0.12960    8.51840   77.58120   77.58120   91.01010   89.36630   89.36630    8.51840    9.68410   10.26380    9.68410    -999.25    0.31380    0.26990    2.48820  -39.84700   -7.05390   10.26380
 6500.00000   11.94140   10.81890   10.81890    -999.25  155.34220    0.22420    0.22420    2.16910    -999.25    0.29150    0.31630    6.43740   86.06400   86.06400   95.71450  106.07930  106.07930    6.43740    6.90510    7.92460    6.90510    -999.25    0.41210    0.36940    2.16640  -33.02730   -1.45300    7.92460
 6550.00000   15.21420   13.14210   13.14210    -999.25  231.55210    0.21470    0.21470    1.95350    -999.25    0.42220    0.44240    4.32120   91.19910   91.19910  101.42730   89.24240   89.24240    4.32120    4.55200    6.22270    4.55200    -999.25    0.50260    0.46290    1.94460  -37.50540   -5.15100    6.22270
 6600.00000   11.06530   13.53870   13.53870    -999.25  146.24800    0.25000    0.25000    2.21390    -999.25    0.26430    0.29010    6.83770   98.85890   98.85890   96.58960   89.23790   89.23790    6.83770    6.10780    8.39260    6.10780    -999.25    0.53370    0.49560    2.21840  -44.01010  -10.86770    8.39260
 6650.00000    8.96880    9.11520    9.11520    -999.25    6.17130    0.05290    0.05290    2.53950    -999.25    0.06690    0.09970  162.04100   71.97310   71.97310  143.95790  140.83100  140.83100  162.04100  223.16280  323.95020  223.16280    -999.25    0.24500    0.20120    2.54320  -40.41960   -6.49320  323.95020
 6700.00000    9.06820    9.07250    9.07250    -999.25   24.56690    0.05080    0.05080    2.62160    -999.25    0.01720    0.05170   40.70520   53.05060   53.05060   88.81320   89.30200   89.30200   40.70520   45.85060   97.04380   45.85060    -999.25    0.10450    0.06290    2.63720  -72.52010  -37.80960   97.04380
 6750.00000    9.04130    9.12610    9.12610    -999.25   44.84390    0.04450    0.04450    2.64930    -999.25    0.00040    0.03550   22.29960   60.89190   60.89190   82.47880   81.14310   81.14310   22.29960   25.07090   27.04920   25.07090    -999.25    0.12400    0.08170    2.65910  -64.96590  -29.47140   27.04920
 6800.00000    8.74140    9.19080    9.19080    -999.25   77.71080    0.06290    0.06290    2.71290    -999.25   -0.03820   -0.00170   12.91330   62.14730   62.14730   94.73860   98.73390   98.73390   12.91330   19.43630   22.26740   19.43630    -999.25    0.15260    0.11000    2.72220  -63.49920  -27.22450   22.26740
 6850.00000    9.31910    9.23030    9.23030    -999.25   49.90390    0.09920    0.09920    2.82700   -0.06840    -999.25   -0.06840   20.03850   51.78460   51.78460   59.50300   62.23740   62.23740   20.03850   23.69850   51.02550   23.69850    0.08430    -999.25    0.08430    2.80100  -57.89620  -20.83360   51.02550
 6900.00000   10.63300    9.85650    9.85650    -999.25   88.43530    0.21580    0.21580    2.60120    0.06360    -999.25    0.06360   11.30770   52.13750   52.13750   36.53620   36.14660   36.14660   11.30770   13.13740   29.90650   13.13740    0.11670    -999.25    0.11670    2.59460  -96.92810  -59.08150   29.90650
 6950.00000    9.70560    9.56920    9.56920    -999.25    4.72680    0.04610    0.04610    2.73210   -0.01290    -999.25   -0.01290  211.56000   51.48230   51.48230   48.84650   45.43930   45.43930  211.56000  281.46150  233.50690  281.46150    0.01990    -999.25    0.01990    2.73260  -42.03140   -3.77900  233.50690
 7000.00000   12.18350   10.09280   10.09280    -999.25    1.55830    0.11580    0.11580    2.57410    0.07950    -999.25    0.07950  641.73310   49.57830   49.57830   21.84600   21.00830   21.00830  641.73310  624.46750  598.70960  624.46750    0.00900    -999.25    0.00900    2.59410  -77.17530  -38.89520  598.70960
 7050.00000    9.25570    9.25410    9.25410    -999.25   50.74820    0.02800    0.02800    2.70710    0.00170    -999.25    0.00170   19.72420   48.96380   48.96380   14.15890   12.30210   12.30210   19.72420   28.68910  192.14030   28.68910    0.01710    -999.25    0.01710    2.71080 -205.87970 -167.57210  192.14030
 7100.00000    8.95850    9.20200    9.20200    -999.25   60.98080    0.02040    0.02040    2.64070    0.04050    -999.25    0.04050   16.39860   52.91130   52.91130   11.40040   11.13980   11.13980   16.39860   23.56860  123.30690   23.56860    0.02500    -999.25    0.02500    2.63720 -187.01580 -148.68040  123.30690
 7150.00000    9.03050    8.88580    8.88580    -999.25  131.54090    0.04000    0.04000    2.75790   -0.02800    -999.25   -0.02800    7.60220   60.35550   60.35550   74.62850   72.96100   72.96100    7.60220    8.16860   10.22680    8.16860    0.15840    -999.25    0.15840    2.75030 -108.60720  -70.24420   10.22680
