~Version ---------------------------------------------------
VERS.      2.0 : CWLS log ASCII Standard -VERSION 2.0
WRAP.       NO : One line per depth step
CREA. 11/22/17 : LAS Creation Date
~Well ------------------------------------------------------
STRT.FT                              300.0 : START DEPTH
STOP.FT                            16950.0 : STOP DEPTH
STEP.FT                           50.00000 : STEP LENGTH
NULL.                              -999.25 : NULL VALUE
COMP.                        BANFF OIL LTD : COMPANY
WELL. BANFF AQUIT SIEBENS RAMR 14-21-37-11 : WELL
FLD .                                      : FIELD
LOC .                                      : LOCATION
CTRY.                               CANADA : COUNTRY
SRVC.                         Schlumberger : SERVICE COMPANY
DATE.                          21-Oct-1970 : LOGDATE
PROV.                              Alberta : PROVINCE
UWI .                     100142103711W500 : UNIQUE WELL ID
SLAT.WGS84                        52.19912 : SURFACE LATITUDE
SLON.WGS84                       -115.5164 : SURFACE LONGITUDE
~Curve Information -----------------------------------------
DEPT    .FT    : Depth Curve
CALDED  .IN    : CALIPER FROM DENSITY LOG [DEP. ADJ. TO ILMED]
CALNED  .IN    : CALIPER FROM NEUTRON LOG [DEP. ADJ. TO ILMED]
CALSED  .IN    : CALIPER FROM SONIC LOG [DEP. ADJ. TO ILMED]
CALWS   .IN    : CALIPER 148' CALSED 13012' CALNED 13190' CALDED 14980' CALSED 15315' CALDED 16246' CALSED]
CONDWS  .MMHO  : DEEP CONDUCTIVITY [1000/DRESWS]
DCORWS  .G/C3  : DENSITY CORRECTION [DRHOED]
DENWS   .G/C3  : BULK DENSITY [M=2.71, F=1.00] [RHOBED]
DPHILSED.V/V   : DENSITY POROSITY [M=2.71, F=1.00] FROM DENSITY LOG [DEP. ADJ. TO ILMED]
DPOLSWS .V/V   : DENSITY POROSITY [M=2.71, F=1.00] [CAL. FROM DENWS]
DRESWS  .OHMM  : DEEP RESISTIVITY [ILDED]
DRHOED  .G/C3  : DENSITY CORRECTION FROM DENSITY LOG [DEP. ADJ. TO ILMED]
DTED    .US/F  : DELTA TIME FROM SONIC LOG [DEP. ADJ. TO ILMED]
DTWS    .US/F  : DELTA TIME [DTED]
GRDED   .GAPI  : GAMMA RAY FROM DENSITY LOG [DEP. ADJ. TO ILMED]
GRNED   .GAPI  : GAMMA RAY FROM NEUTRON LOG [DEP. ADJ. TO ILMED]
GRSED   .GAPI  : GAMMA RAY FROM SONIC LOG [DEP. ADJ. TO ILMED]
GRWS    .GAPI  : GAMMA RAY [GRSED]
ILDED   .OHMM  : INDUCTION LOG DEEP RESISTIVITY
ILMED   .OHMM  : INDUCTION LOG MEDIUM RESISTIVITY
LL8ED   .OHMM  : 8 INCH LATEROLOG RESISTIVITY
MRESWS  .OHMM  : MEDIUM RESISTIVITY [ILMED]
NPOLSWS .V/V   : NEUTRON POROSITY LIMESTONE [SNPLSED]
RHOBED  .G/C3  : BULK DENSITY FROM DENSITY LOG [DEP. ADJ. TO ILMED]
SNPLSED .V/V   : SIDEWALL NEUTRON POROSITY [LIMESTONE] [DEP. ADJ. TO ILMED]
SPRED   .MV    : SPONTANEOUS POTENTIAL FROM RESIST. LOG [DIVIDED BY 2 BELOW 13778'], SHIFTS REMOVED, PATCHED]
SPWS    .MV    : SPONTANEOUS POTENTIAL [BASELINE 0 MV] [SPRED][PL. USE W/ RESERVATION]
SRESWS  .OHMM  : SHALLOW RESISTIVITY [LL8ED]
~Params ----------------------------------------------------
PD  .                     GL : PERMANENT DATUM
EPD .FT                 4914 : ELEVATION PERMANENT DATUM
LMF .                     KB : LOG MEASURED FROM
DAPD.FT                 18.7 : FEET ABOVE PERMANENT DATUM
EKB .FT               4932.7 : KELLY BUSHING
EGL .FT                 4914 : GROUND LEVEL
DATE.               10/21/70 : RUN DATE
RUN .                      4 : RUN NUMBER
DD  .FT                16960 : DEPTH DRILLER
DL  .FT                16960 : DEPTH LOGGER
BLI .FT                16954 : BOTTOM LOG INTERVAL
TLI .FT                16000 : TOP LOG INTERVAL
BS  .IN                8.375 : BIT SIZE
BSD .FT                16960 : BIT SIZE AT DEPTH
DFT .                    GEL : DRILLING FLUID TYPE
DFD .                   10.1 : DRILLING FLUID DENSITY
DFV .                     61 : DRILLING FLUID VISCOSITY
DFPH.                     10 : DRILLING FLUID PH
DFL .                    8.4 : DRILLING FLUID LOSS
MSS .               FLOWLINE : MUD SAMPLE SOURCE
RMS .OHMM               1.51 : RESISTIVITY MUD SAMPLE
MST .DEGF                 66 : MUD SAMPLE TEMPERATURE
RMF .OHMM               1.11 : RESISTIVITY MUD FILTRATE SAMPLE
MFST.DEGF                 70 : MUD FILTRATE SAMPLE TEMPERATURE
TCS .HRS                   4 : TIME CIRCULATED STOPPED
LUN .                   7002 : LOGGING UNIT NUMBER
LUL .                     RD : LOGGING UNIT LOCATION
ENGI.                 TALBOT : RECORDING ENGINEER
WITN.          LEMEE BRINKER : WITNESSED BY
CLNT.                A2DTECH : CLIENT CODE
ORIG.            2" 5" PRINT : ORIGIN OF DATA
UWI .       100142103711W500 : UNIQUE WELL ID
DICO. A2D Technologies, Inc. : DIGITIZING COMPANY
~Other -----------------------------------------------------
~ASCII -----------------------------------------------------
# ...
 5500.00000    -999.25    -999.25   13.72400   13.72400    2.30340    -999.25    -999.25    -999.25    -999.25  434.14450    -999.25   44.71310   44.71310    -999.25    -999.25   26.77240   26.77240  434.14450  882.69040  662.24610  882.69040    -999.25    -999.25    -999.25   47.55180  -30.53910  662.24610
 5550.00000    -999.25    -999.25   14.25720   14.25720    6.49840    -999.25    -999.25    -999.25    -999.25  153.88350    -999.25   60.97980   60.97980    -999.25    -999.25   94.63400   94.63400  153.88350  292.76930  273.21280  292.76930    -999.25    -999.25    -999.25   67.91130  -10.26490  273.21280
 5600.00000    -999.25    -999.25   14.24050   14.24050    5.27180    -999.25    -999.25    -999.25    -999.25  189.68910    -999.25   58.81680   58.81680    -999.25    -999.25   82.26210   82.26210  189.68910  206.16550  296.74280  206.16550    -999.25    -999.25    -999.25   66.54010  -11.72150  296.74280
 5650.00000    -999.25    -999.25   14.63440   14.63440   11.31740    -999.25    -999.25    -999.25    -999.25   88.35970    -999.25   71.95140   71.95140    -999.25    -999.25   95.47430   95.47430   88.35970   62.97290   98.75380   62.97290    -999.25    -999.25    -999.25   68.06800  -10.27900   98.75380
 5700.00000    -999.25    -999.25   13.52850   13.52850    3.25280    -999.25    -999.25    -999.25    -999.25  307.42480    -999.25   50.86910   50.86910    -999.25    -999.25   85.88610   85.88610  307.42480  934.19240  422.83890  934.19240    -999.25    -999.25    -999.25   66.07210  -12.36030  422.83890
 5750.00000    -999.25    -999.25   14.39770   14.39770   84.21690    -999.25    -999.25    -999.25    -999.25   11.87410    -999.25  126.24540  126.24540    -999.25    -999.25   77.17060   77.17060   11.87410    8.27710    8.82100    8.27710    -999.25    -999.25    -999.25   66.89010  -11.62770    8.82100
 5800.00000    -999.25    -999.25   14.54830   14.54830   45.62170    -999.25    -999.25    -999.25    -999.25   21.91940    -999.25   69.28150   69.28150    -999.25    -999.25   52.21730   52.21730   21.91940   18.06240   18.91630   18.06240    -999.25    -999.25    -999.25   69.91950   -8.68370   18.91630
 5850.00000    -999.25    -999.25   13.63520   13.63520   96.16960    -999.25    -999.25    -999.25    -999.25   10.39830    -999.25  112.37320  112.37320    -999.25    -999.25   69.08810   69.08810   10.39830    7.73840   10.82950    7.73840    -999.25    -999.25    -999.25   73.83270   -4.85280   10.82950
 5900.00000    -999.25    -999.25   13.89310   13.89310  105.56540    -999.25    -999.25    -999.25    -999.25    9.47280    -999.25  113.51320  113.51320    -999.25    -999.25   70.79080   70.79080    9.47280    6.94740    8.62660    6.94740    -999.25    -999.25    -999.25   60.81660  -17.94820    8.62660
 5950.00000    -999.25    -999.25   13.97520   13.97520   69.88070    -999.25    -999.25    -999.25    -999.25   14.31010    -999.25   77.91890   77.91890    -999.25    -999.25   61.58810   61.58810   14.31010   12.42210   14.89810   12.42210    -999.25    -999.25    -999.25   49.58970  -29.25430   14.89810
 6000.00000    -999.25    -999.25   14.39060   14.39060   50.41010    -999.25    -999.25    -999.25    -999.25   19.83730    -999.25   90.24920   90.24920    -999.25    -999.25   63.39640   63.39640   19.83730   16.42440   16.30010   16.42440    -999.25    -999.25    -999.25   48.68880  -30.23450   16.30010
 6050.00000    -999.25    -999.25   15.03080   15.03080   70.46970    -999.25    -999.25    -999.25    -999.25   14.19050    -999.25   98.27520   98.27520    -999.25    -999.25   65.78970   65.78970   14.19050   15.22800   16.03520   15.22800    -999.25    -999.25    -999.25   49.41570  -29.58690   16.03520
 6100.00000    -999.25    -999.25   15.06950   15.06950   60.87320    -999.25    -999.25    -999.25    -999.25   16.42760    -999.25  113.72990  113.72990    -999.25    -999.25   65.27480   65.27480   16.42760   13.42570   11.26710   13.42570    -999.25    -999.25    -999.25   52.29510  -26.78670   11.26710
 6150.00000    -999.25    -999.25   15.21880   15.21880   71.06920    -999.25    -999.25    -999.25    -999.25   14.07080    -999.25   93.08550   93.08550    -999.25    -999.25   61.92040   61.92040   14.07080   11.40220   10.35050   11.40220    -999.25    -999.25    -999.25   55.12620  -24.03490   10.35050
 6200.00000    -999.25    -999.25   15.24130   15.24130   79.78870    -999.25    -999.25    -999.25    -999.25   12.53310    -999.25   95.07460   95.07460    -999.25    -999.25   65.84440   65.84440   12.53310    9.13220    8.30730    9.13220    -999.25    -999.25    -999.25   58.50370  -20.73660    8.30730
 6250.00000    -999.25    -999.25   15.13690   15.13690   60.62040    -999.25    -999.25    -999.25    -999.25   16.49610    -999.25   95.64280   95.64280    -999.25    -999.25   55.33280   55.33280   16.49610   13.61200   10.82480   13.61200    -999.25    -999.25    -999.25   61.10290  -18.21670   10.82480
 6300.00000    -999.25    -999.25   14.45570   14.45570   64.57490    -999.25    -999.25    -999.25    -999.25   15.48590    -999.25   97.54040   97.54040    -999.25    -999.25   60.83390   60.83390   15.48590   12.72400   12.32060   12.72400    -999.25    -999.25    -999.25   61.18600  -18.21280   12.32060
 6350.00000    -999.25    -999.25   14.34030   14.34030   63.52840    -999.25    -999.25    -999.25    -999.25   15.74100    -999.25   83.28000   83.28000    -999.25    -999.25   64.49440   64.49440   15.74100   14.21100   11.60950   14.21100    -999.25    -999.25    -999.25   56.53440  -22.94370   11.60950
 6400.00000    -999.25    -999.25   15.17450   15.17450   91.07550    -999.25    -999.25    -999.25    -999.25   10.97990    -999.25  124.45630  124.45630    -999.25    -999.25   59.48920   59.48920   10.97990    9.68590    6.87290    9.68590    -999.25    -999.25    -999.25   57.88190  -21.67540    6.87290
 6450.00000    -999.25    -999.25   15.13080   15.13080  103.53570    -999.25    -999.25    -999.25    -999.25    9.65850    -999.25  107.73890  107.73890    -999.25    -999.25   65.37970   65.37970    9.65850    8.76550    7.46770    8.76550    -999.25    -999.25    -999.25   59.96940  -19.66720    7.46770
 6500.00000    -999.25    -999.25   14.82090   14.82090  114.22180    -999.25    -999.25    -999.25    -999.25    8.75490    -999.25  135.11600  135.11600    -999.25    -999.25   72.18100   72.18100    8.75490    5.97520    6.13600    5.97520    -999.25    -999.25    -999.25   59.23260  -20.48320    6.13600
 6550.00000    -999.25    -999.25   15.06500   15.06500   86.36250    -999.25    -999.25    -999.25    -999.25   11.57910    -999.25   99.07270   99.07270    -999.25    -999.25   55.55560   55.55560   11.57910   11.58140   10.69240   11.58140    -999.25    -999.25    -999.25   59.95050  -19.84460   10.69240
 6600.00000    -999.25    -999.25   15.11390   15.11390   77.21530    -999.25    -999.25    -999.25    -999.25   12.95080    -999.25  113.14500  113.14500    -999.25    -999.25   57.40440   57.40440   12.95080   11.21230   10.53580   11.21230    -999.25    -999.25    -999.25   59.15100  -20.72330   10.53580
 6650.00000    -999.25    -999.25   15.13530   15.13530   73.01190    -999.25    -999.25    -999.25    -999.25   13.69640    -999.25  108.91970  108.91970    -999.25    -999.25   57.31730   57.31730   13.69640   11.11470    8.27680   11.11470    -999.25    -999.25    -999.25   61.78160  -18.17200    8.27680
 6700.00000    -999.25    -999.25   15.05960   15.05960  102.48840    -999.25    -999.25    -999.25    -999.25    9.75720    -999.25  121.68620  121.68620    -999.25    -999.25   76.36430   76.36430    9.75720    7.40410    6.93180    7.40410    -999.25    -999.25    -999.25   61.98590  -18.04700    6.93180
 6750.00000    -999.25    -999.25   15.17110   15.17110   97.99790    -999.25    -999.25    -999.25    -999.25   10.20430    -999.25  115.45020  115.45020    -999.25    -999.25   64.72120   64.72120   10.20430    8.64470    9.33420    8.64470    -999.25    -999.25    -999.25   62.89860  -17.21350    9.33420
