~Version ---------------------------------------------------
VERS.      2.0 : CWLS log ASCII Standard -VERSION 2.0
WRAP.       NO : One line per depth step
CREA. 11/15/17 : LAS Creation Date
~Well ------------------------------------------------------
STRT.FT                                  300.0 : START DEPTH
STOP.FT                                 8650.0 : STOP DEPTH
STEP.FT                               50.00000 : STEP LENGTH
NULL.                                  -999.25 : NULL VALUE
COMP. CONOCOPHILLIPS CANADA ENERGY PARTNERSHIP : COMPANY
WELL.       ATLANTIS UNIT S THREECK 9-17-34-25 : WELL
FLD .                                          : FIELD
LOC .                                          : LOCATION
CTRY.                                   CANADA : COUNTRY
SRVC.                   Schlumberger of Canada : SERVICE COMPANY
DATE.                              23-Jul-1959 : LOGDATE
PROV.                                  Alberta : PROVINCE
UWI .                         100091703425W400 : UNIQUE WELL ID
SLAT.WGS84                            51.92011 : SURFACE LATITUDE
SLON.WGS84                            -113.503 : SURFACE LONGITUDE
~Curve Information -----------------------------------------
DEPT  .FT         : Depth Curve
CALMED.IN         : CALIPER FROM MICRO LATEROLOG
CALWS .IN         : CALIPER [MCALED SPL. TO CALMED @ 6192']
CILDED.MMHO       : CONDUCTIVITY INDUCTION LOG FROM INDUCTION ELERICAL LOG
CONDWS.MMHO       : CONDUCTIVITY [1000/DRESWS]
DRESWS.OHMM       : DEEP RESISTIVITY [1000/CILDED, IF <5 ILDED, ILDED]
GRNED .UgRa-Eq/T  : GAMMA RAY  FROM GAMMA RAY NEUTRON LOG
GRWS  .GAPI       : GAMMA RAY [GRNED*16.50]
ILDED .OHMM       : DEEP INDUCTION RESISTIVITY FROM INDUCTION ELERICAL LOG
MCALED.IN         : MICROLOG CALIPER FROM MICROLOG
MLLED .OHMM       : MICRO-LATEROLOG RESISTIVITY FROM MICRO LATEROLOG
NEUTED.CPS        : NEUTRON FROM  GAMMA RAY NEUTRON LOG
NEUTWS.CPS        : NEUTRON [NEUTED]
SNED  .OHMM       : SHORT NORMAL 16 'FROM INDUCTION ELERICAL LOG
SPRED .MV         : SPONTANEOUS POTENTIAL FROM RESISTIVITY LOG
SPWS  .MV         : SPONTANEOUS POTENTIAL [SPRED]
SRESWS.OHMM       : SHALLOW RESISTIVITY [SNED]
~Params ----------------------------------------------------
PD  .                     KB : PERMANENT DATUM
EKB .FT                 2985 : KELLY BUSHING
EGL .FT               2971.8 : GROUND LEVEL
DATE.               07/23/59 : RUN DATE
RUN .                      2 : RUN NUMBER
DD  .FT                 8668 : DEPTH DRILLER
DL  .FT                 8667 : DEPTH LOGGER
BLI .FT                 8662 : BOTTOM LOG INTERVAL
TLI .FT                 6271 : TOP LOG INTERVAL
CBD .FT                 1211 : CASING BOTTOM DRILLER
CBL .FT                 1211 : CASING BOTTOM LOGGER
BS  .IN                    9 : BIT SIZE
BSD .FT                 8668 : BIT SIZE AT DEPTH
DFT .                    GEL : DRILLING FLUID TYPE
DFD .                   10.2 : DRILLING FLUID DENSITY
DFV .                     78 : DRILLING FLUID VISCOSITY
DFPH.                    6.4 : DRILLING FLUID PH
DFL .                      7 : DRILLING FLUID LOSS
RMS .OHMM                1.4 : RESISTIVITY MUD SAMPLE
MST .DEGF                 70 : MUD SAMPLE TEMPERATURE
RMF .OHMM                  1 : RESISTIVITY MUD FILTRATE SAMPLE
MFST.DEGF                 70 : MUD FILTRATE SAMPLE TEMPERATURE
RMC .OHMM                1.4 : RESISTIVITY MUD CAKE
MCST.DEGF                 70 : MUD CAKE SAMPLE TEMPERATURE
RMB .OHMM               0.63 : RESISTIVITY MUD AT BHT
TCS .HRS                 1.5 : TIME CIRCULATED STOPPED
LUN .                   2548 : LOGGING UNIT NUMBER
LUL .                      C : LOGGING UNIT LOCATION
ENGI.                 YUNKER : RECORDING ENGINEER
WITN.                DOMENKO : WITNESSED BY
CLNT.                A2DTECH : CLIENT CODE
ORIG.            2" 5" PRINT : ORIGIN OF DATA
UWI .       100091703425W400 : UNIQUE WELL ID
DICO. A2D Technologies, Inc. : DIGITIZING COMPANY
~Other -----------------------------------------------------
~ASCII -----------------------------------------------------
# ...
 2450.00000    -999.25    -999.25  158.17380  177.20760    5.64310    3.86070   63.70150    5.64310    -999.25    -999.25  169.95800  169.95800    7.75870  -60.44170   -6.79620    7.75870
 2500.00000    -999.25    -999.25  111.22920  121.29740    8.24420    3.78850   62.51020    8.24420    -999.25    -999.25  185.77170  185.77170    9.79590  -61.31120   -7.66570    9.79590
 2550.00000    -999.25    -999.25   57.30960   52.50230   19.04680    3.73730   61.66550   19.04680    -999.25    -999.25  226.34250  226.34250   25.31080  -59.57490   -5.92940   25.31080
 2600.00000    -999.25    -999.25   48.39770   53.27880   18.76920    1.92240   31.71960   18.76920    -999.25    -999.25  205.36450  205.36450   26.89260  -90.73250  -37.08700   26.89260
 2650.00000    -999.25    -999.25  182.69220  196.63750    5.08550    3.63960   60.05340    5.08550    -999.25    -999.25  177.81320  177.81320    6.46590  -57.74350   -4.09800    6.46590
 2700.00000    -999.25    -999.25  180.78750  191.87970    5.21160    3.85580   63.62070    5.21160    -999.25    -999.25  176.02660  176.02660    6.40990  -57.31980   -3.67430    6.40990
 2750.00000    -999.25    -999.25   80.62100   71.42860   14.00000    2.66050   43.89820   14.00000    -999.25    -999.25  211.97600  211.97600   20.35930  -76.42080  -22.77530   20.35930
 2800.00000    -999.25    -999.25  176.81420  186.87050    5.35130    3.30340   54.50610    5.35130    -999.25    -999.25  183.01970  183.01970    6.71430  -58.01470   -4.36920    6.71430
 2850.00000    -999.25    -999.25  181.94440  181.94440    5.49620    4.20120   69.31980    4.96180    -999.25    -999.25  179.34380  179.34380    6.03150  -57.03130   -3.60360    6.03150
 2900.00000    -999.25    -999.25  171.09950  188.35940    5.30900    3.47960   57.41340    5.30900    -999.25    -999.25  189.44240  189.44240    6.51430  -56.67290   -3.65910    6.51430
 2950.00000    -999.25    -999.25  119.75880  122.18810    8.18410    2.98380   49.23270    8.18410    -999.25    -999.25  207.60490  207.60490   10.14900  -58.34100   -5.74380   10.14900
 3000.00000    -999.25    -999.25   40.58510   40.99170   24.39520    2.48370   40.98100   24.39520    -999.25    -999.25  220.72430  220.72430   34.86170  -61.53160   -9.34820   34.86170
 3050.00000    -999.25    -999.25  172.46870  190.98180    5.23610    3.72890   61.52680    5.23610    -999.25    -999.25  176.14540  176.14540    7.19560  -56.41170   -4.64220    7.19560
 3100.00000    -999.25    -999.25  192.19900  192.19900    5.20290    3.84030   63.36500    4.88530    -999.25    -999.25  176.77940  176.77940    6.15470  -56.04180   -4.68890    6.15470
 3150.00000    -999.25    -999.25  105.44560  116.72970    8.56680    3.79950   62.69170    8.56680    -999.25    -999.25  184.11520  184.11520    9.64270  -57.45880   -6.17670    9.64270
 3200.00000    -999.25    -999.25  215.18760  215.18760    4.64710    3.72820   61.51530    4.73360    -999.25    -999.25  171.74830  171.74830    5.66420  -55.95430   -4.67220    5.66420
 3250.00000    -999.25    -999.25  153.84990  170.74750    5.85660    5.12600   84.57900    5.85660    -999.25    -999.25  163.71300  163.71300    7.98330  -61.17020   -6.25710    7.98330
 3300.00000    -999.25    -999.25  134.84850  150.01280    6.66610    4.92700   81.29550    6.66610    -999.25    -999.25  167.57370  167.57370    8.75040  -61.81220   -6.27700    8.75040
 3350.00000    -999.25    -999.25  125.41530  138.58090    7.21600    4.95560   81.76740    7.21600    -999.25    -999.25  164.41270  164.41270    9.15770  -61.02060   -4.85920    9.15770
 3400.00000    -999.25    -999.25  115.58480  121.62790    8.22180    5.03890   83.14190    8.22180    -999.25    -999.25  165.44080  165.44080   10.13660  -62.96380   -6.18040   10.13660
 3450.00000    -999.25    -999.25  121.37330  131.47690    7.60590    5.13960   84.80340    7.60590    -999.25    -999.25  165.33620  165.33620    9.93990  -62.30070   -4.89110    9.93990
 3500.00000    -999.25    -999.25  104.36350  114.60660    8.72550    6.60540  108.98910    8.72550    -999.25    -999.25  170.91170  170.91170   11.30300  -63.35020   -5.31850   11.30300
 3550.00000    -999.25    -999.25  109.25710  117.67890    8.49770    5.96420   98.40930    8.49770    -999.25    -999.25  165.40430  165.40430   11.82600  -64.22150   -5.56780   11.82600
 3600.00000    -999.25    -999.25   89.95530   97.01010   10.30820    6.82320  112.58280   10.30820    -999.25    -999.25  167.54150  167.54150   12.17950  -62.04820   -2.76830   12.17950
 3650.00000    -999.25    -999.25   88.10490   95.62880   10.45710    7.33480  121.02420   10.45710    -999.25    -999.25  180.46210  180.46210   13.21290  -62.71440   -3.35050   13.21290
 3700.00000    -999.25    -999.25  118.85600  130.05080    7.68930    6.49090  107.09990    7.68930    -999.25    -999.25  163.16840  163.16840   11.10780  -64.41560   -5.39400   11.10780
 3750.00000    -999.25    -999.25  139.25100  153.59330    6.51070    5.57190   91.93640    6.51070    -999.25    -999.25  161.96140  161.96140    8.23940  -65.62830   -6.94680    8.23940
 3800.00000    -999.25    -999.25  136.47090  148.39220    6.73890   15.26030  251.79500    6.73890    -999.25    -999.25  159.55570  159.55570    9.10450  -65.23040   -6.88900    9.10450
 3850.00000    -999.25    -999.25  116.86870  121.90070    8.20340    5.10760   84.27540    8.20340    -999.25    -999.25  172.49690  172.49690   10.45830  -64.11410   -6.11500   10.45830
 3900.00000    -999.25    -999.25  127.07750  138.92750    7.19800    5.46930   90.24340    7.19800    -999.25    -999.25  165.76940  165.76940    9.76410  -62.97290   -5.31390    9.76410
 3950.00000    -999.25    -999.25  106.37510  113.81610    8.78610    5.53550   91.33580    8.78610    -999.25    -999.25  171.87420  171.87420   11.64520  -65.54200   -8.22530   11.64520
 4000.00000    -999.25    -999.25  158.73420  175.57100    5.69570    5.76160   95.06640    5.69570    -999.25    -999.25  158.79540  158.79540    7.48980  -65.77010   -8.79350    7.48980
 4050.00000    -999.25    -999.25  140.06220  155.14700    6.44550    5.38750   88.89370    6.44550    -999.25    -999.25  158.02070  158.02070    8.61720  -65.85920   -9.22270    8.61720
 4100.00000    -999.25    -999.25  112.27400  120.86780    8.27350    5.86870   96.83350    8.27350    -999.25    -999.25  174.71190  174.71190   10.09470  -64.63730   -8.34310   10.09470
 4150.00000    -999.25    -999.25  112.04730  119.85950    8.34310    5.65030   93.22990    8.34310    -999.25    -999.25  165.08130  165.08130   11.31570  -63.55210   -7.59800   11.31570
 4200.00000    -999.25    -999.25   77.26080   84.00470   11.90410    4.28990   70.78330   11.90410    -999.25    -999.25  187.19800  187.19800   13.98830  -64.20720   -8.59540   13.98830
 4250.00000    -999.25    -999.25  118.69120  123.41870    8.10250    5.10990   84.31340    8.10250    -999.25    -999.25  171.00620  171.00620   10.22970  -62.66500   -7.39330   10.22970
 4300.00000    -999.25    -999.25  115.97180  125.41070    7.97380    4.53330   74.79940    7.97380    -999.25    -999.25  171.10890  171.10890   10.41810  -62.29550   -7.36390   10.41810
 4350.00000    -999.25    -999.25  114.16310  119.40440    8.37490    5.44580   89.85570    8.37490    -999.25    -999.25  169.87250  169.87250   10.43210  -61.91750   -7.32820   10.43210
 4400.00000    -999.25    -999.25  103.23220  110.85000    9.02120    5.89490   97.26590    9.02120    -999.25    -999.25  177.92970  177.92970   11.85380  -60.14020   -5.89100   11.85380
 4450.00000    -999.25    -999.25  132.22170  143.80830    6.95370    6.23020  102.79830    6.95370    -999.25    -999.25  164.96710  164.96710    9.48970  -59.47000   -5.56310    9.48970
 4500.00000    -999.25    -999.25  100.79310  105.44960    9.48320    7.39810  122.06870    9.48320    -999.25    -999.25  167.94960  167.94960   13.82990  -56.75520   -3.18840   13.82990
 4550.00000    -999.25    -999.25   66.08300   70.82250   14.11980    6.22800  102.76200   14.11980    -999.25    -999.25  183.64190  183.64190   22.84860  -55.96890   -2.74210   22.84860
