~Version ---------------------------------------------------
VERS. 2.0 : CWLS log ASCII Standard -VERSION 2.0
WRAP.  NO : ONE LINE PER DEPTH STEP
~Well ------------------------------------------------------
STRT.F                    300.0 : START DEPTH
STOP.F                  11600.0 : STOP DEPTH
STEP.F                 50.00000 : STEP LENGTH
NULL.                   -999.25 : NULL VALUE
COMP.      MOBIL OIL CANADA LTD : COMPANY
WELL. MOBIL PINEDALE 6-29-54-16 : WELL
FLD .                           : FIELD
LOC .                           : LOCATION
CTRY.                    CANADA : COUNTRY
SRVC.    Schlumberger of Canada : SERVICE COMPANY
DATE.               02-Oct-1968 : LOGDATE
PROV.                   Alberta : PROVINCE
UWI .          100062905416W500 : UNIQUE WELL ID
SLAT.WGS84             53.69074 : SURFACE LATITUDE
SLON.WGS84            -116.3264 : SURFACE LONGITUDE
~Curve Information -----------------------------------------
DEPT   .F    0   1   0  0 : 1 MEASURED DEPTH
CILD   .MMHO 05 110 46 00 : INDUCTION DEEP CONDUCTIVITY
ILD    .OHMM 05 120 46 00 : INDUCTION DEEP RESISTIVITY
SN     .OHMM 05 040 16 00 : SHORT NORMAL RESISTIVITY
SPR    .MV   05 010 01 00 : SPONTANEOUS POTENTIAL FROM RESISTIVITY LOG
GRN    .GAPI 41 310 01 00 : GAMMA RAY FROM GRN LOG
SNP_LS .DEC  41 890 01 00 : SIDEWALL NEUTRON POROSITY [LIMESTONE]
CALN   .IN   41 280 60 00 : CALIPER FROM NEUTRON LOG
GRD    .GAPI 45 310 01 00 : GAMMA RAY FROM DENSITY LOG
CALS   .IN   60 280 50 00 : CALIPER FROM SONIC LOG
GRS    .GAPI 60 310 01 00 : GAMMA RAY FROM SONIC LOG
DT     .US/F 60 500 00 00 : DELTA-T (INTERVAL TRANSIT TIME)
RHOB   .G/C3 45 350 01 00 : BULK DENSITY
CALD   .IN   45 280 60 00 : CALIPER FROM DENSITY LOG
DCOR   .G/C3 45 356 01 00 : DENSITY CORRECTION
DPHI_LS.DEC  45 890 10 00 : DENSITY POROSITY LIMESTONE
~Params ----------------------------------------------------
DATE.               10/02/68 : RUN DATE
RUN .                      1 : RUN NUMBER
CLNT.                A2DTECH : CLIENT CODE
ORIG.               5" PRINT : ORIGIN OF DATA
UWI .       100062905416W500 : UNIQUE WELL ID
DICO. A2D Technologies, Inc. : DIGITIZING COMPANY
~Other -----------------------------------------------------
~ASCII -----------------------------------------------------
# ...
 9500.00000    6.25960  284.02370  125.61160 -183.54270   14.08990    0.07220   13.22180   14.49410    9.78160   13.10270   68.47510    2.40960   13.00620    0.13300    0.21450
 9550.00000    9.27760  154.98280   90.69100 -184.50190   24.20980    0.18290   11.36780   19.74070    9.24780   19.55570   48.44090    2.42700   12.23260    0.24830    0.18570
 9600.00000    4.55370  460.51350  208.83580 -169.08690   13.52180    0.01040    9.22650   10.38120    9.07560    9.24090   47.88010    2.93070    9.21440    0.01690   -0.09990
 9650.00000    6.08380  296.10230  102.42160 -167.98450   22.52580    0.24800   13.75610   18.30420    9.34000   18.32830   82.63190    2.00810   12.66490    0.20820    0.33600
 9700.00000    9.33530  142.41920   65.62470 -134.35670   31.93250    0.12300   10.66190   28.17730   10.25870   20.40950   52.88950    2.49420   11.29650    0.30270    0.14610
 9750.00000   10.91530  121.39710   98.58220 -116.36610   27.23520    0.04480    9.47110   27.27110    9.22100   28.09790   50.03380    2.71180    9.55330    0.21390    0.02130
 9800.00000   10.53370  127.98850   74.99200  -65.37000   28.12190    0.02740   10.58480   25.37300    9.86580   27.19430   52.31440    2.51960   10.20640    0.16410    0.15210
 9850.00000   51.69090   20.66290   20.84920  -25.13720   51.85740    0.10390   11.79400   54.91490   10.47880   54.66670   63.99650    2.36030   11.28730    0.21130    0.20500
 9900.00000   32.74460   33.13280   31.49180  -34.38590   41.88770    0.04230    9.66080   45.03520    9.30780   44.09180   57.47510    2.50240    8.80990    0.06260    0.12810
 9950.00000   25.81410   42.34010   23.50720  -82.26120   54.51790    0.16570    8.99790   52.73660    9.85040   53.12480   60.99800    2.50610    9.09550    0.03400    0.16040
 10000.00000   25.66190   41.40260   27.21370 -110.47440   45.91400    0.17500    8.70920   46.63020    9.30710   48.78120   58.60290    2.49230    8.77500    0.06440    0.05250
 10050.00000  142.88810    7.54360    8.68740 -102.56340   72.33300    0.49510   14.00410   72.43370   13.17670   69.15390   75.97190    1.93970   14.72480    0.16180    0.45350
 10100.00000   84.16610   13.12610   13.35000  -78.86450   65.88420    0.20750   13.79160   68.73390   12.19190   71.89970   73.95770    2.42550   14.25510    0.20780    0.18220
 10150.00000   22.10560   49.53930   47.60050 -101.29860   73.80790    0.12570    9.53560   82.27930    9.43150   76.50540   64.75510    2.66920    9.60200    0.00920    0.05080
 10200.00000   69.61050   15.81690   17.53830  -60.36230   74.74710    0.12580    9.44860   82.76730    9.55810   82.94270   69.38370    2.71290    9.49400    0.01050    0.00170
 10250.00000   76.74010   14.47530   16.71390  -48.69670   53.31130    0.34210   10.31740   49.89210    9.85300   51.02870   69.28540    2.28350   10.68040    0.25660    0.24580
 10300.00000  135.34790    8.08390   10.06460  -69.64060   76.87620    0.48360   15.01300   70.44260   10.72740   62.97020   61.18070    1.85540   14.87150    0.20090    0.49180
 10350.00000   62.00200   18.04240   18.50750  -56.47340   75.02410    0.25580   11.58660   72.94070   10.12630   74.40710   65.55080    2.46520   11.73920    0.22680    0.15640
 10400.00000   38.05180   27.82340   27.46920   30.05920   62.96530    0.07500    9.44740   61.05690    9.54490   64.71630   62.22650    2.71680    9.52210    0.01790   -0.00840
 10450.00000   97.78210   10.90580   12.50120   17.19910   90.87790    0.30730   13.22480   86.33090   10.55810   98.39610   72.23880    2.48160   13.53050    0.20330    0.14920
 10500.00000   81.15540   13.59220   15.15280    1.73570   89.47550    0.20890   12.05500   95.29060   10.10040   94.13060   71.57880    2.53890   12.14540    0.18320    0.12990
 10550.00000   95.41510   11.50590   13.73690    9.19310   95.21430    0.22650   12.21220   92.18900    9.84410   91.15340   69.08290    2.47760   12.34150    0.19230    0.16660
 10600.00000   78.57980   13.87820   16.34620   13.60890   77.52400    0.17380   10.37450   74.39960   10.29770   77.58260   70.55690    2.65500   10.53230    0.28800    0.05230
 10650.00000   74.35990   14.80830   17.01920   15.62640   83.95040    0.20350   10.48380   79.76190    9.70280   81.21000   69.23470    2.58620   10.66980    0.19330    0.05060
 10700.00000   78.12100   13.93020   15.89950    0.06310   92.10110    0.19940   10.66080   96.82030    9.82250   96.47800   72.51630    2.67100   10.86730    0.18850    0.00800
 10750.00000   63.63430   17.46280   19.95890   -0.12320   84.09600    0.13840    9.49650   83.70920    9.46840   88.62320   65.91510    2.77040    9.72440    0.12970   -0.00340
 10800.00000   80.97570   13.77880   16.37290   -3.52900   79.84790    0.12000    9.97710   78.29540    9.60040   88.78450   68.17050    2.70200    9.93490    0.11990    0.00990
 10850.00000    9.38220  149.80250   98.57950   32.79910   33.02850    0.01690    9.09370   35.33990    9.06210   34.56360   52.79680    2.73030    9.11930   -0.00330   -0.01550
 10900.00000   23.66560   46.24060   67.59470    3.33570   75.36650    0.14490    9.49320   12.51650    9.68350    9.36620   48.94460    2.37640    9.71880    0.12420    0.17250
 10950.00000    3.51860  553.88320  268.57000  -42.12350   13.30300    0.05230    9.32080   13.78760    9.67730   10.24120   48.85800    2.65180    9.73600    0.06700    0.09360
 11000.00000    3.37960  554.77870  223.26980  -51.98070   13.70870    0.03370    9.23510   11.17960    9.27440   12.15680   48.86730    2.63050    9.48630    0.16660    0.06670
 11050.00000    3.36690  552.84030  217.44390  -94.20080   17.12620    0.02920   11.18190   16.62150    9.51300   14.85970   49.35260    2.58780   11.44610    0.22080    0.05030
 11100.00000    4.97650  355.50420  135.33140  -74.42050   13.70530    0.01660   10.47090   14.34630    9.40600   13.16640   50.71050    2.62370   10.83040    0.14840    0.06630
 11150.00000   13.50360   94.82370   86.38400  -97.31980   11.22280    0.00620    9.10020   12.22600    8.63230    8.33300   50.96610    2.74290    9.01790    0.02140   -0.00480
 11200.00000    9.90040  133.23860   90.98850 -108.37640   15.09160    0.06220    8.71220   18.37120    8.89690   14.91920   48.56770    2.81890    8.66610    0.18340   -0.04140
 11250.00000   34.36850   31.34890   66.60460 -130.58770   13.74870    0.10790    8.37320   15.18210    8.48290   11.73850   51.76570    2.75080    8.35930    0.16250   -0.04160
 11300.00000    7.40350  186.69260  137.77370  -78.37290   12.55050    0.01360    9.44210   10.98820    9.45070   10.24100   47.80630    2.69210    9.60420    0.00810    0.04650
 11350.00000    3.00310  553.52060  202.59050  -42.03850   17.51760    0.06910    8.99750   18.04130    9.67100   15.85230   49.11570    2.64690    8.82200    0.07560    0.28250
 11400.00000   26.31690   40.15070   97.54450   10.73820  136.22920    0.07850    8.81450  154.12630    8.99500  158.07180   67.87350    2.76090    8.85410    0.01530   -0.00220
 11450.00000  135.73360    7.97880   17.52200  -50.38170   53.77350    0.03680    8.69440   65.84110    8.55790   50.42280   64.73670    2.60950    8.80360    0.03010    0.05450
 11500.00000  206.26500    5.29850   13.85080 -114.55340   17.97390    0.16400    7.92290   19.02210    8.59030   16.65100   75.84320    2.65950    8.36720    0.16080    0.00990
 11550.00000  199.89880    5.51460   10.93690 -142.93550   25.43200    0.11990    8.45870   24.13010    7.92730   21.36630   41.05890    2.63700    8.43140    0.10840    0.00980
 11600.00000   56.09050   19.73750   42.00330 -121.74710    -999.25    0.13070    8.31680    -999.25    -999.25    -999.25    -999.25    2.71250    8.33060    0.10270    0.04680
