~Version ---------------------------------------------------
VERS.      2.0 : CWLS log ASCII Standard -VERSION 2.0
WRAP.       NO : One line per depth step
CREA. 12/21/17 : LAS Creation Date
~Well ------------------------------------------------------
STRT.FT                        1250.0 : START DEPTH
STOP.FT                       11500.0 : STOP DEPTH
STEP.FT                      50.00000 : STEP LENGTH
NULL.                         -999.25 : NULL VALUE
COMP.    CANADIAN HOMESTEAD OILS LTD. : COMPANY
WELL. HOMESTEAD RB ANTE CK 10-2-66-24 : WELL
FLD .                                 : FIELD
LOC .                                 : LOCATION
CTRY.                          CANADA : COUNTRY
SRVC.                    Schlumberger : SERVICE COMPANY
DATE.                     02-Sep-1962 : LOGDATE
PROV.                         Alberta : PROVINCE
UWI .                100100206624W500 : UNIQUE WELL ID
SLAT.WGS84                   54.68504 : SURFACE LATITUDE
SLON.WGS84                  -117.5129 : SURFACE LONGITUDE
~Curve Information -----------------------------------------
DEPT  .FT    : Depth Curve
CALSED.IN    : CALIPER FROM GR-CALIPER-SONIC LOG
CALWS .IN    : CALIPER [CALSED]
CILDED.MMHO  : DEEP INDUCTION CONDUCTIVITY FROM IEL LOG
CONDWS.MMHO  : CONDUCTIVITY [1000/DRESWS]
DRESWS.OHMM  : DEEP RESISTIVITY [ILDED]
DT1ED .US/F  : DELTA-T (1' SPAN)  FROM GR-CALIPER-SONIC LOG
DTED  .US/F  : ACOUSTIC TRANSIT TIME SLOWNESS (3' SPAN), DELTA T FROM GR-CALIPER-SONIC LOG
DTWS  .US/F  : COMPRESSIONAL SONIC [DTED]
GRSED .GAPI  : GAMMA RAY FROM GR-CALIPER-SONIC LOG
GRWS  .GAPI  : GAMMA RAY [GRSED]
ILDED .OHMM  : DEEP INDUCTION RESISTIVITY FROM IEL LOG
SNED  .OHMM  : SHORT NORMAL FROM IEL LOG
SPRED .MV    : SPONTANEOUS POTENTIAL FROM IEL LOG
SPWS  .MV    : SPONTANEOUS POTENTIAL [BASELINED 0 MV, SPRED]
SRESWS.OHMM  : SHALLOW RESISTIVITY [SNED]
~Params ----------------------------------------------------
PD  .                     GL : PERMANENT DATUM
EPD .FT                 2929 : ELEVATION PERMANENT DATUM
LMF .                     KB : LOG MEASURED FROM
DAPD.FT                   13 : FEET ABOVE PERMANENT DATUM
EKB .FT                 2942 : KELLY BUSHING
EGL .FT                 2929 : GROUND LEVEL
DATE.               09/02/62 : RUN DATE
RUN .                      1 : RUN NUMBER
DD  .FT                11515 : DEPTH DRILLER
DL  .FT                11527 : DEPTH LOGGER
BLI .FT                11526 : BOTTOM LOG INTERVAL
TLI .FT                 1237 : TOP LOG INTERVAL
CBD .FT                 1234 : CASING BOTTOM DRILLER
CBL .FT                 1237 : CASING BOTTOM LOGGER
BS  .IN                    9 : BIT SIZE
BSD .FT                11515 : BIT SIZE AT DEPTH
DFT .           GEL OIL CHEM : DRILLING FLUID TYPE
DFD .                     10 : DRILLING FLUID DENSITY
DFV .                     87 : DRILLING FLUID VISCOSITY
DFPH.                      9 : DRILLING FLUID PH
DFL .                   12.4 : DRILLING FLUID LOSS
RMS .OHMM               2.19 : RESISTIVITY MUD SAMPLE
MST .DEGF                 75 : MUD SAMPLE TEMPERATURE
RMF .OHMM               1.39 : RESISTIVITY MUD FILTRATE SAMPLE
MFST.DEGF                 73 : MUD FILTRATE SAMPLE TEMPERATURE
RMC .OHMM               2.51 : RESISTIVITY MUD CAKE
MCST.DEGF                 76 : MUD CAKE SAMPLE TEMPERATURE
RMB .OHMM               0.85 : RESISTIVITY MUD AT BHT
TCS .HRS                   4 : TIME CIRCULATED STOPPED
LUN .                   3534 : LOGGING UNIT NUMBER
LUL .                     WC : LOGGING UNIT LOCATION
ENGI.               HATLELID : RECORDING ENGINEER
WITN.                TIBBITT : WITNESSED BY
CLNT.                A2DTECH : CLIENT CODE
ORIG.            2" 5" PRINT : ORIGIN OF DATA
UWI .       100100206624W500 : UNIQUE WELL ID
DICO. A2D Technologies, Inc. : DIGITIZING COMPANY
~Other -----------------------------------------------------
~ASCII -----------------------------------------------------
# ...
 3550.00000   11.99190   11.99190  151.66550  143.13930    6.98620    -999.25  106.73310  106.73310  107.01410  107.01410    6.98620    5.70730 -139.65120  -10.40190    5.70730
 3600.00000   11.20730   11.20730   51.29950   50.97700   19.61670    -999.25   62.23830   62.23830   66.64500   66.64500   19.61670   14.71910 -147.55620  -18.19260   14.71910
 3650.00000   12.45200   12.45200  121.78330  117.15780    8.53550    -999.25   87.31950   87.31950   99.86660   99.86660    8.53550    6.67680 -139.62950  -10.15230    6.67680
 3700.00000   12.23890   12.23890  140.85480  131.35430    7.61300    -999.25  105.98590  105.98590  107.87660  107.87660    7.61300    6.26370 -138.32620   -8.73460    6.26370
 3750.00000   12.47610   12.47610  156.05300  145.48840    6.87340    -999.25   99.26460   99.26460  102.41830  102.41830    6.87340    5.26430 -138.18770   -8.48250    5.26430
 3800.00000   12.22430   12.22430  127.45440  119.46860    8.37040   79.96420   98.30920   98.30920   84.34320   84.34320    8.37040    6.56580 -138.00080   -8.18200    6.56580
 3850.00000   11.93550   11.93550   78.57580   76.94200   12.99680   80.17000   91.55000   91.55000   83.83740   83.83740   12.99680   11.34340 -142.99080  -13.05770   11.34340
 3900.00000   12.45230   12.45230   90.16550   87.57870   11.41830   79.98710   92.77460   92.77460  103.09670  103.09670   11.41830    8.99110 -137.87440   -7.82770    8.99110
 3950.00000   11.85030   11.85030  101.20330   95.97760   10.41910    -999.25   87.72560   87.72560   96.71210   96.71210   10.41910    8.57220 -137.01470   -6.85360    8.57220
 4000.00000   11.83230   11.83230  115.91770  109.96380    9.09390    -999.25  100.35900  100.35900  100.51960  100.51960    9.09390    7.36380 -136.49230   -6.21760    7.36380
 4050.00000   11.69940   11.69940  125.90190  118.51990    8.43740    -999.25   96.52150   96.52150  100.27520  100.27520    8.43740    6.80390 -136.67590   -6.28760    6.80390
 4100.00000   11.67780   11.67780   92.67490   89.89330   11.12430    -999.25   79.58660   79.58660   92.94430   92.94430   11.12430    8.62050 -136.47320   -5.97060    8.62050
 4150.00000   10.86600   10.86600  145.04610  136.42750    7.32990    -999.25   98.78050   98.78050   99.97350   99.97350    7.32990    6.73230 -134.17360   -3.55740    6.73230
 4200.00000   11.04050   11.04050  125.42010  117.91900    8.48040    -999.25   96.86720   96.86720  107.86410  107.86410    8.48040    7.71900 -134.47320   -3.74260    7.71900
 4250.00000   11.15560   11.15560   88.73660   86.42300   11.57100    -999.25   88.62400   88.62400  105.83870  105.83870   11.57100   11.26860 -133.99960   -3.15540   11.26860
 4300.00000   11.72980   11.72980  109.08050  103.91230    9.62350    -999.25   92.55150   92.55150  100.95290  100.95290    9.62350    9.18790 -134.16760   -3.20980    9.18790
 4350.00000   11.82230   11.82230  138.75140  131.49590    7.60480    -999.25  103.42800  103.42800  102.07900  102.07900    7.60480    7.30630 -134.25010   -3.17800    7.30630
 4400.00000   11.78220   11.78220  117.40750  108.90400    9.18240    -999.25   99.31330   99.31330   99.85320   99.85320    9.18240    8.85470 -134.44640   -3.26070    8.85470
 4450.00000   10.54420   10.54420   99.13770   95.70660   10.44860    -999.25  106.59680  106.59680  127.37730  127.37730   10.44860   12.67010 -133.75510   -2.45500   12.67010
 4500.00000   11.41350   11.41350  146.92220  136.08960    7.34810    -999.25   98.66080   98.66080  102.25600  102.25600    7.34810    6.97420 -132.29380   -0.88010    6.97420
 4550.00000   10.22870   10.22870   95.88600   90.24540   11.08090    -999.25  106.12210  106.12210  154.36710  154.36710   11.08090   11.83780 -132.19760   -0.67030   11.83780
 4600.00000   11.05610   11.05610  129.41550  123.07540    8.12510    -999.25   89.62580   89.62580   90.62970   90.62970    8.12510    7.37330 -133.14470   -1.50310    7.37330
 4650.00000   10.96200   10.96200  179.37840  173.91910    5.74980   78.89780   90.98060   90.98060   93.39440   93.39440    5.74980    5.06880 -131.73780    0.01740    5.06880
 4700.00000   10.69240   10.69240  136.59360  130.26430    7.67670   79.95080   87.25350   87.25350   92.41130   92.41130    7.67670    6.81320 -132.63850   -0.76890    6.81320
 4750.00000   10.79030   10.79030  101.89110   85.06510   11.75570   75.15890   85.56340   85.56340  100.29450  100.29450   11.75570   11.14500 -151.31400  -19.33080   11.14500
 4800.00000   11.04350   11.04350  170.23750  163.86730    6.10250   79.99700   94.24080   94.24080  109.38890  109.38890    6.10250    5.50770 -130.78940    1.30740    5.50770
 4850.00000   11.71650   11.71650  183.29710  173.87370    5.75130    -999.25   92.46940   92.46940   94.60960   94.60960    5.75130    4.96580 -132.29490   -0.08370    4.96580
 4900.00000   11.31220   11.31220  127.51640  124.35950    8.04120    -999.25   85.72020   85.72020   95.44600   95.44600    8.04120    7.58830 -134.62240   -2.29760    7.58830
 4950.00000   12.49500   12.49500  188.79570  179.28860    5.57760    -999.25   86.83010   86.83010   99.97150   99.97150    5.57760    4.87170 -139.06910   -6.63000    4.87170
 5000.00000   12.23850   12.23850  158.21230  149.99030    6.66710    -999.25   90.89610   90.89610  101.19500  101.19500    6.66710    5.67080 -143.38860  -10.83590    5.67080
 5050.00000   12.35710   12.35710  340.50140  310.62650    3.21930    -999.25  114.47270  114.47270  119.29130  119.29130    3.21930    2.70060 -138.21410   -5.54780    2.70060
 5100.00000   11.39180   11.39180  192.03210  191.40220    5.22460    -999.25  100.05790  100.05790  251.40790  251.40790    5.22460    4.58430 -138.14790   -5.36720    4.58430
 5150.00000    9.68830    9.68830  382.31040  338.03200    2.95830    -999.25  120.60620  120.60620  107.40100  107.40100    2.95830    2.09920 -137.50440   -4.61010    2.09920
 5200.00000   12.25620   12.25620  215.37920  202.37590    4.94130    -999.25   91.24180   91.24180  102.08290  102.08290    4.94130    3.94390 -137.70510   -4.69650    3.94390
 5250.00000   12.81440   12.81440  228.37350  220.15760    4.54220    -999.25   96.27320   96.27320   96.36610   96.36610    4.54220    3.97980 -137.81920   -4.69700    3.97980
 5300.00000   11.97170   11.97170   96.75170   90.71120   11.02400   76.56300   79.56690   79.56690  111.89900  111.89900   11.02400   10.54970 -139.33690   -6.10110   10.54970
 5350.00000    8.57440    8.57440   72.39050   70.07950   14.26950   79.96110   90.12340   90.12340   33.70710   33.70710   14.26950   17.74570 -173.17440  -39.82420   17.74570
 5400.00000   12.14620   12.14620  134.20820  125.56190    7.96420   74.73570   87.56380   87.56380   84.23410   84.23410    7.96420    7.86220 -138.30480   -4.84100    7.86220
 5450.00000   10.89590   10.89590   85.53640   81.22950   12.31080   79.98310   74.52840   74.52840   93.55640   93.55640   12.31080   10.91190 -138.06440   -4.49750   10.91190
 5500.00000    8.14020    8.14020   49.04840   47.46920   21.06630   78.14420   80.38110   80.38110   42.05940   42.05940   21.06630   27.51410 -180.65540  -47.03570   27.51410
 5550.00000   11.34190   11.34190   97.85910   84.71990   11.80360   72.80410   78.48130   78.48130   90.80190   90.80190   11.80360   11.11230 -140.06970   -6.39720   11.11230
 5600.00000   11.51530   11.51530   56.89710   54.52180   18.34130   79.83810   79.35890   79.35890   62.16990   62.16990   18.34130   20.11560 -144.22870  -10.50300   20.11560
 5650.00000   11.49180   11.49180   56.45530   54.15090   18.46690   59.79000   73.94390   73.94390   49.16140   49.16140   18.46690   21.27060 -154.42870  -20.65020   21.27060
 5700.00000    9.78330    9.78330   60.61420   62.35390   16.03750   79.95940   87.59720   87.59720   78.26400   78.26400   16.03750   21.33660 -154.12960  -20.29800   21.33660
 5750.00000   11.28180   11.28180   81.70930   75.40740   13.26130   74.16430   78.83900   78.83900   83.04640   83.04640   13.26130   14.14340 -143.81050   -9.92610   14.14340
 5800.00000    9.15680    9.15680   55.49560   53.60460   18.65510   73.90570   77.20470   77.20470   42.49640   42.49640   18.65510   24.98280 -179.15260  -45.21540   24.98280
