~Version ---------------------------------------------------
VERS.      2.0 : CWLS log ASCII Standard -VERSION 2.0
WRAP.       NO : One line per depth step
CREA. 01/04/18 : LAS Creation Date
~Well ------------------------------------------------------
STRT.FT                            1100.0 : START DEPTH
STOP.FT                           10550.0 : STOP DEPTH
STEP.FT                          50.00000 : STEP LENGTH
NULL.                             -999.25 : NULL VALUE
COMP.                CHEVRON STANDARD LTD : COMPANY
WELL. CHEVRON GULF SHININGBANK 3-13-56-15 : WELL
FLD .                                     : FIELD
LOC .                                     : LOCATION
CTRY.                              CANADA : COUNTRY
SRVC.              Schlumberger of Canada : SERVICE COMPANY
DATE.                         25-Oct-1976 : LOGDATE
PROV.                             Alberta : PROVINCE
UWI .                    100031305615W500 : UNIQUE WELL ID
SLAT.WGS84                       53.83559 : SURFACE LATITUDE
SLON.WGS84                      -116.0977 : SURFACE LONGITUDE
~Curve Information -----------------------------------------
DEPT    .FT    : Depth Curve
CALDED  .IN    : CALIPER FROM DENSITY LOG
CALSED  .IN    : CALIPER FROM SONIC LOG [ADJ. TO RESISTIVITY LOG]
CALWS   .IN    : CALIPER [CALSED]
CONDWS  .MMHO  : CONDUCTIVITY [1000/DRESWS]
DCORED  .G/C3  : DENSITY CORRECTION FROM DENSITY LOG
DCORWS  .G/C3  : DENSITY CORRECTION [DCORED]
DENWS   .G/C3  : FORMATION BULK DENSITY [M=2.71 F=1.00] [RHOBED AND SPL. CALC DPHISSED FROM TOP TO 1142']
DPHILSED.V/V   : DENSITY POROSITY LIME [M=2.71 F=1.00] FROM DENSITY LOG [ADJ. TO RHOBED]
DPHISSED.V/V   : DENSITY POROSITY SAND [M=2.65 F=1.00] FROM DENSITY LOG [ADJ. TO RHOBED]
DPOLSWS .V/V   : DENSITY POROSITY [M=2.71 F=1.00] [CALC FROM DENWS]
DRESWS  .OHMM  : DEEP RESISTIVITY [ILDED]
DTED    .US/F  : DELTA-T FROM SONIC LOG [ADJ. TO RESISTIVITY LOG]
DTWS    .US/F  : COMPRESSIONAL SONIC [DTED]
GRDED   .GAPI  : GAMMA RAY FROM DENSITY LOG
GRSED   .GAPI  : GAMMA RAY FROM SONIC LOG [ADJ. TO GRDED]
GRWS    .GAPI  : GAMMA RAY [GRSED]
ILDED   .OHMM  : DEEP INDUCTION FROM RESISTIVITY LOG
ILMED   .OHMM  : MEDIUM INDUCTION FROM RESISTIVITY LOG
LL8ED   .OHMM  : LATEROLOG 8 FROM RESISTIVITY LOG
MRESWS  .OHMM  : MEDIUM RESISTIVITY [ILMED]
NPHILSED.V/V   : NEUTRON POROSITY LIME FROM DENSITY LOG [ADJ. TO RHOBED]
NPHISSED.V/V   : NEUTRON POROSITY SAND FROM DENSITY LOG [ADJ. TO RHOBED]
NPOLSWS .V/V   : NEUTRON POROSITY LIME [SS MATRIX(SLB) CONVERTED TO LIME, SPL. TO NPHILSED @ 2164']
RHOBED  .G/C3  : BULK DENSITY FROM DENSITY LOG
SPRED   .MV    : SPONTANEOUS POTENTIAL FROM RESISTIVITY LOG
SPWS    .MV    : SPONTANEOUS POTENTIAL [BASELINE 0 MV, SPRED]
SRESWS  .OHMM  : SHALLOW RESISTIVITY [LL8ED]
TENDED  .LBF   : TENSION FROM DENSITY LOG
TENSED  .LBF   : TENSION FROM SONIC LOG [ADJ. TO RESISTIVITY LOG]
~Params ----------------------------------------------------
EKB .FT               2889.7 : KELLY BUSHING
EGL .FT               2873.6 : GROUND LEVEL
DATE.               10/25/76 : RUN DATE
RUN .                      1 : RUN NUMBER
DD  .FT                10595 : DEPTH DRILLER
DL  .FT                10593 : DEPTH LOGGER
BLI .FT                10592 : BOTTOM LOG INTERVAL
TLI .FT                 1094 : TOP LOG INTERVAL
CBD .FT               1094.6 : CASING BOTTOM DRILLER
CBL .FT                 1094 : CASING BOTTOM LOGGER
BS  .IN                 8.75 : BIT SIZE
BSD .FT                10595 : BIT SIZE AT DEPTH
DFT .               GEL CHEM : DRILLING FLUID TYPE
DFD .                    9.5 : DRILLING FLUID DENSITY
DFV .                    124 : DRILLING FLUID VISCOSITY
DFPH.                   10.5 : DRILLING FLUID PH
DFL .                     10 : DRILLING FLUID LOSS
RMC .OHMM               2.04 : RESISTIVITY MUD CAKE
MCST.DEGF                 56 : MUD CAKE SAMPLE TEMPERATURE
RMB .OHMM               0.41 : RESISTIVITY MUD AT BHT
TCS .HRS                   5 : TIME CIRCULATED STOPPED
LUN .                   7691 : LOGGING UNIT NUMBER
LUL .                    WCT : LOGGING UNIT LOCATION
ENGI.              CROCKFORD : RECORDING ENGINEER
WITN.        WONG RICHARDSON : WITNESSED BY
CLNT.                A2DTECH : CLIENT CODE
ORIG.            2" 5" PRINT : ORIGIN OF DATA
UWI .       100031305615W500 : UNIQUE WELL ID
DICO. A2D Technologies, Inc. : DIGITIZING COMPANY
~Other -----------------------------------------------------
~ASCII -----------------------------------------------------
# ...
 7350.00000    9.61810    9.52490    9.52490   93.62530    0.00970    0.00970    2.70130    0.00280    -999.25    0.00510   10.69320   57.47960   57.47960   59.62450   57.79460   57.79460   10.69320   11.38070   13.84990   11.38070    0.05510    -999.25    0.05510    2.70130  -27.83130  -27.85050   13.84990 2019.25560 2669.94450
 7400.00000    9.55680    9.25130    9.25130   45.56890    0.00610    0.00610    2.71010   -0.00250    -999.25   -0.00000   21.94480   55.99860   55.99860   60.65660   61.89600   61.89600   21.94480   23.26670   36.91680   23.26670    0.05020    -999.25    0.05020    2.71010  -26.10850  -26.65950   36.91680 2069.98000 1275.00920
 7450.00000   10.19320    9.74860    9.74860  106.69820    0.03430    0.03430    2.71420   -0.01160    -999.25   -0.00250    9.46540   54.26700   54.26700   32.90780   34.76140   34.76140    9.46540   12.69600   29.81050   12.69600    0.09270    -999.25    0.09270    2.71420  -54.04540  -55.13170   29.81050 2409.02570 1480.44010
 7500.00000    9.92160    9.60600    9.60600   40.39820    0.02730    0.02730    2.70520   -0.00290    -999.25    0.00280   24.75360   57.92070   57.92070   38.27530   34.30390   34.30390   24.75360   28.19450   37.07500   28.19450    0.03740    -999.25    0.03740    2.70520  -21.96950  -23.58750   37.07500 1425.82970 1634.04240
 7550.00000    9.81420    9.72280    9.72280   20.50880    0.00270    0.00270    2.73230   -0.01820    -999.25   -0.01310   48.75950   55.45810   55.45810   46.39760   45.18850   45.18850   48.75950   47.42120   58.76860   47.42120    0.02710    -999.25    0.02710    2.73230  -15.40630  -17.55610   58.76860 1339.90420 1588.93580
 7600.00000    9.44890    9.18880    9.18880   18.45730    0.01210    0.01210    2.66840    0.01970    -999.25    0.02430   54.53570   53.26110   53.26110   34.12980   32.90980   32.90980   54.53570   66.91730  135.22680   66.91730    0.01060    -999.25    0.01060    2.66840  -14.73960  -17.42470  135.22680 1475.77230 1820.43610
 7650.00000    9.78340    9.70970    9.70970   41.32850    0.01160    0.01160    2.68540    0.01800    -999.25    0.01440   24.19640   59.55950   59.55950   54.85720   51.57720   51.57720   24.19640   25.37550   32.21040   25.37550    0.05610    -999.25    0.05610    2.68540   -0.66110   -3.62580   32.21040 1671.15980 1949.99150
 7700.00000    9.80770    9.72650    9.72650   46.48160    0.02740    0.02740    2.70540   -0.00020    -999.25    0.00270   21.51410   59.09330   59.09330   45.82680   44.32510   44.32510   21.51410   22.26920   27.50100   22.26920    0.04760    -999.25    0.04760    2.70540   -4.56530   -7.10080   27.50100 1640.02100 2108.06620
 7750.00000    9.51930    9.24200    9.24200   19.49210   -0.00200   -0.00200    2.66670    0.02410    -999.25    0.02530   51.30280   54.15800   54.15800   34.01090   31.64290   31.64290   51.30280   55.64390   80.82020   55.64390    0.01710    -999.25    0.01710    2.66670  -11.39370  -13.50270   80.82020 1786.98480 1760.60600
 7800.00000    9.32690    9.07630    9.07630   12.08640   -0.00270   -0.00270    2.71680   -0.00700    -999.25   -0.00400   82.73730   54.39590   54.39590   40.54650   38.09920   38.09920   82.73730   85.38040  122.93670   85.38040    0.01160    -999.25    0.01160    2.71680  -21.20460  -22.88720  122.93670  959.83720 1740.35330
 7850.00000    9.39800    9.37590    9.37590   37.50830    0.00450    0.00450    2.60040    0.06430    -999.25    0.06410   26.71500   73.61750   73.61750  190.20630  194.55910  194.55910   26.71500   30.73420   32.60800   30.73420    0.16010    -999.25    0.16010    2.60040  -23.33630  -24.58970   32.60800 1132.72810 1801.55950
 7900.00000    9.84660    9.17310    9.17310    2.15160    0.01700    0.01700    2.64930    0.03710    -999.25    0.03550  464.77070   50.05140   50.05140   22.08980   20.43130   20.43130  464.77070  320.46400  537.03420  320.46400    0.00610    -999.25    0.00610    2.64930  -45.10850  -45.93540  537.03420 1344.13020 1958.21070
 7950.00000   10.83010    9.38220    9.38220    1.14340    0.16520    0.16520    2.61970    0.05580    -999.25    0.05280  875.07340   49.93940   49.93940   14.89660   15.27700   15.27700  875.07340  964.35740  676.61250  964.35740   -0.00270    -999.25   -0.00270    2.61970  -89.58610  -89.98380  676.61250 1499.41490 2118.81630
 8000.00000    9.90750    9.33180    9.33180   18.47480    0.00720    0.00720    2.69730    0.00530    -999.25    0.00740   54.12790   50.82090   50.82090   18.17790   17.89890   17.89890   54.12790   51.24480   78.64410   51.24480    0.00330    -999.25    0.00330    2.69730  -80.79660  -80.76790   78.64410 1589.48490 2198.78110
 8050.00000   12.05700    9.50580    9.50580    5.83170    0.18050    0.18050    2.41590    0.16750    -999.25    0.17200  171.47640   51.03610   51.03610    8.84410   10.97820   10.97820  171.47640  234.22180  211.05570  234.22180   -0.00000    -999.25   -0.00000    2.41590  -90.05250  -89.59740  211.05570 1681.99530 2150.18910
 8100.00000   10.01520    9.38870    9.38870   23.23650    0.05110    0.05110    2.75390   -0.00640    -999.25   -0.02570   43.03950   49.98440   49.98440   12.90270   13.16820   13.16820   43.03950   39.92850   50.93650   39.92850    0.05210    -999.25    0.05210    2.75390  -82.07920  -81.19480   50.93650 1869.91820 2101.28780
 8150.00000   13.21160   11.08800   11.08800    1.37090    0.15900    0.15900    2.22620    0.28070    -999.25    0.28290  729.42410   52.21500   52.21500   12.25500   12.22410   12.22410  729.42410 1609.80680  620.77150 1609.80680    0.00600    -999.25    0.00600    2.22620  -93.18420  -91.87340  620.77150 1841.48540 1832.45340
 8200.00000    9.51030    9.24890    9.24890   31.38140    0.02210    0.02210    2.69930    0.00070    -999.25    0.00630   31.88660   50.72080   50.72080    9.18320    8.64780    8.64780   31.88660   37.42870  211.47230   37.42870    0.00560    -999.25    0.00560    2.69930 -118.16050 -116.42050  211.47230 1881.77280 1777.38260
 8250.00000    9.21770    8.99500    8.99500   50.81530    0.14880    0.14880    2.62290    0.05060    -999.25    0.05090   19.67910   51.42940   51.42940   11.37660   11.66440   11.66440   19.67910   33.52150  205.96210   33.52150    0.02770    -999.25    0.02770    2.62290 -145.79010 -143.62360  205.96210 1076.16190 1851.66750
 8300.00000   10.06430    9.32000    9.32000    5.61510    0.03110    0.03110    2.68640    0.01330    -999.25    0.01380  178.08980   49.33060   49.33060   10.17910   10.96750   10.96750  178.08980  184.71380  201.58870  184.71380    0.00420    -999.25    0.00420    2.68640  -98.76530  -96.17240  201.58870 1153.98200 1956.87450
 8350.00000   13.76580    9.67180    9.67180    3.93020    0.20870    0.20870    2.40590    0.17010    -999.25    0.17780  255.00090   51.57500   51.57500   15.33140   16.12850   16.12850  255.00090  122.73890  464.75430  122.73890    0.00290    -999.25    0.00290    2.40590 -101.60070  -98.57860  464.75430 1387.51310 2059.00130
 8400.00000   12.34770    9.89310    9.89310    2.25870    0.18330    0.18330    2.38580    0.18750    -999.25    0.18960  442.73020   49.54600   49.54600   19.04190   18.37330   18.37330  442.73020  220.62190  754.00280  220.62190    0.00040    -999.25    0.00040    2.38580  -99.77790  -96.32940  754.00280 1411.00000 2068.51080
 8450.00000   13.19530    9.81410    9.81410    0.97530    0.13630    0.13630    2.61300    0.10020    -999.25    0.05670 1169.48810   50.86960   50.86960   11.37000   12.95660   12.95660 1169.48810  373.83300  742.43930  373.83300   -0.00080    -999.25   -0.00080    2.61300  -92.86900  -88.99120  742.43930 1554.73720 1872.65240
 8500.00000   10.00550    9.32070    9.32070   25.56150    0.15220    0.15220    2.67930    0.01870    -999.25    0.01790   39.12140   50.57840   50.57840   11.85640   11.76550   11.76550   39.12140   43.57700  188.00920   43.57700    0.00250    -999.25    0.00250    2.67930 -128.47060 -124.16640  188.00920 1795.48530 1332.41550
 8550.00000    9.69670    9.31720    9.31720    4.88010    0.06690    0.06690    2.84140   -0.09030    -999.25   -0.07680  204.91480   49.43000   49.43000   21.33440   21.14440   21.14440  204.91480  371.36820 1490.95250  371.36820    0.01840    -999.25    0.01840    2.84140  -80.12760  -75.39700 1490.95250 1654.52270 1674.25280
