~Version ---------------------------------------------------
VERS.      2.0 : CWLS log ASCII Standard -VERSION 2.0
WRAP.       NO : One line per depth step
CREA. 09/16/14 : LAS Creation Date
~Well ------------------------------------------------------
STRT.FT                         1450.0 : START DEPTH
STOP.FT                        13550.0 : STOP DEPTH
STEP.FT                       50.00000 : STEP LENGTH
NULL.                          -999.25 : NULL VALUE
COMP. AMOCO CANADA PETROLEUM CO., LTD. : COMPANY
WELL.            AMOCO TONY 7-16-62-24 : WELL
FLD .                                  : FIELD
LOC .                                  : LOCATION
CTRY.                           CANADA : COUNTRY
SRVC.                     Schlumberger : SERVICE COMPANY
DATE.                      27-Nov-1977 : LOGDATE
PROV.                          Alberta : PROVINCE
UWI .                 100071606224W500 : UNIQUE WELL ID
SLAT.WGS84                    54.36239 : SURFACE LATITUDE
SLON.WGS84                   -117.5361 : SURFACE LONGITUDE
~Curve Information -----------------------------------------
DEPT   .FT    : DEPTH FEET
CALD   .IN    : CALIPER FROM DENSITY LOG
CALS   .IN    : CALIPER FROM SONIC LOG
DPHI_LS.V/V   : DENSITY POROSITY LIMESTONE [M=2.71,F=1.0] FROM DENSITY LOG
DPHI_SS.V/V   : DENSITY POROSITY SANDSTONE [M=2.65,F=1.0] FROM DENSITY LOG
DRHO   .G/C3  : DENSITY CORRECTION FROM DENSITY LOG
DT     .US/F  : DELTA TIME FROM SONIC LOG
GRD    .GAPI  : GAMMA RAY FROM DENSITY LOG
GRS    .GAPI  : GAMMA RAY FROM SONIC LOG
ILD    .OHMM  : DEEP INDUCTION FROM RESISTIVITY LOG
ILM    .OHMM  : MEDIUM INDUCTION FROM RESISTIVITY LOG
LL8    .OHMM  : 8 INCH LATEROLOG RESISTIVITY FROM RESISTIVITY LOG
NPHI_LS.V/V   : NEUTRON POROSITY LIMESTONE FROM DENSITY LOG
NPHI_SS.V/V   : NEUTRON POROSITY SANDSTONE FROM DENSITY LOG
RHOB   .G/C3  : BULK DENSITY FROM DENSITY LOG
SPR    .MV    : SPONTANEOUS POTENTIAL FROM RESISTIVITY LOG
~Params ----------------------------------------------------
PD  .                     GL : PERMANENT DATUM
EPD .FT                 5402 : ELEVATION PERMANENT DATUM
LMF .                     KB : LOG MEASURED FROM
DAPD.FT                   17 : FEET ABOVE PERMANENT DATUM
DATE.               11/27/77 : RUN DATE
RUN .                      2 : RUN NUMBER
DD  .FT                13685 : DEPTH DRILLER
DL  .FT                13579 : DEPTH LOGGER
BLI .FT                13573 : BOTTOM LOG INTERVAL
TLI .FT                 8448 : TOP LOG INTERVAL
CBD .FT                 8448 : CASING BOTTOM DRILLER
CBL .FT                 8448 : CASING BOTTOM LOGGER
BSD .FT                13685 : BIT SIZE AT DEPTH
DFT .                    8.6 : DRILLING FLUID TYPE
DFD .                     86 : DRILLING FLUID DENSITY
CLNT.                A2DTECH : CLIENT CODE
ORIG.          1" 2.5" PRINT : ORIGIN OF DATA
UWI .       100071606224W500 : UNIQUE WELL ID
DICO. A2D Technologies, Inc. : DIGITIZING COMPANY
~Other -----------------------------------------------------
~ASCII -----------------------------------------------------
# ...
 8350.00000   12.07200   11.08470    -999.25    0.21750    0.16920   84.90630  100.37300  105.92160    6.21430    6.42220    8.48120    -999.25    0.46390    2.26260  -33.02910
 8400.00000   13.92700   11.39130    -999.25    0.23920    0.19980   88.89900   93.47890   96.35000    3.71750    3.85800    5.37340    -999.25    0.53240    2.26480  -33.91610
 8450.00000    9.97870   11.49120    0.11700    -999.25    0.18840   87.57590  166.43770  173.75750   13.44100   46.64210  685.77160    0.32270    -999.25    2.39970  -40.39270
 8500.00000    9.23820   10.11110    0.12060    -999.25   -0.00950   65.65250    -999.25    -999.25 1308.99110 1536.01320 1565.15440    0.19330    -999.25    2.51110  -60.91590
 8550.00000    9.48880   10.42270    0.07130    -999.25   -0.00390   62.37610   88.06230   90.15820   43.28160   52.45060   50.15460    0.10100    -999.25    2.59430  -51.96880
 8600.00000    9.41110   10.39100    0.06250    -999.25   -0.00910   60.04280   97.84950  104.21270   40.68770   46.85640   50.64830    0.08030    -999.25    2.60840  -35.25810
 8650.00000    9.12590    9.94340    0.04430    -999.25   -0.00260   60.87240   87.34600   92.47600   32.42790   36.04210   38.35180    0.06380    -999.25    2.63490  -55.01050
 8700.00000    9.01840    9.81970    0.03170    -999.25    0.01990   61.67080   76.97710   79.76890   32.18510   37.41910   35.13850    0.06860    -999.25    2.66890  -57.84460
 8750.00000    9.02390    9.77450   -0.00030    -999.25    0.01190   53.19900   71.87340   60.62260   52.28780   70.73760  142.43640    0.06770    -999.25    2.71350  -62.80530
 8800.00000    9.03410    9.86270    0.00990    -999.25   -0.00270   56.34470   90.71540  100.11540   61.84120   71.99200   73.26950    0.06800    -999.25    2.71030  -49.05630
 8850.00000    9.06820    9.97260    0.02440    -999.25   -0.00260   59.27360   99.64240  126.68770   43.94070   51.42390   56.35910    0.08550    -999.25    2.65450  -40.77370
 8900.00000    8.58110    8.94070    0.09160    -999.25    0.14470   61.95280   37.37780   41.82700   50.44440   94.17750  172.75540    0.11990    -999.25    2.55170  -77.07590
 8950.00000    8.72140    9.50060    0.06050    -999.25    0.02470   54.92980   70.60130   78.11910   19.00920   28.47530  110.55750    0.09910    -999.25    2.62240  -85.62660
 9000.00000   10.81300    9.90930    0.19480    -999.25    0.23350   50.55740   23.02170   15.43680  193.43300 1771.88100  260.98150    0.06170    -999.25    2.31360 -119.18980
 9050.00000    8.95350    9.65810    0.00090    -999.25    0.10970   50.17650   41.69890   41.98230  279.96360  792.56120  268.40030    0.04150    -999.25    2.74220  -67.51370
 9100.00000    9.60110    9.81800    0.06120    -999.25    0.08210   49.40800   26.60450   45.30740  144.50620 1115.93370  195.62740    0.03770    -999.25    2.69910  -66.27900
 9150.00000    9.87670    9.56960    0.15850    -999.25    0.17450   63.69880   38.57760   51.17690    5.49450    5.92040   11.11670    0.16280    -999.25    2.41260  -77.26070
 9200.00000   12.77410   10.82580    0.32120    -999.25    0.17660   53.47860   28.98810   40.90110  109.68450  384.58970  199.36650    0.04870    -999.25    2.26750  -82.38920
 9250.00000   11.89880   10.12910    0.22240    -999.25    0.14440   51.00800   46.25280   27.54470  140.88160  199.63350  669.44930    0.08060    -999.25    2.21590  -73.23330
 9300.00000   10.40370   10.21010    0.08780    -999.25    0.24860   56.44000   51.20280   75.38870   35.98800   38.97350   53.80230    0.04580    -999.25    2.58960  -31.97750
 9350.00000    9.09700    9.76040    0.01300    -999.25    0.02950   51.95690   25.04610   31.72500   92.48460  186.25120  401.99060    0.03250    -999.25    2.70470  -90.14450
 9400.00000   11.49230   10.12770    0.13380    -999.25    0.14670   51.36770   24.20100   36.03130   47.73820   81.12040   74.49000    0.05870    -999.25    2.50630  -86.12250
 9450.00000   11.36590   10.21060    0.20190    -999.25    0.19130   54.38670   52.58240   33.02750   18.21040   19.62720   39.55000    0.12920    -999.25    2.33200  -66.60100
 9500.00000    9.52000   10.01840   -0.04410    -999.25   -0.02190   57.90490   42.46240   80.50640   59.93730   63.32220  160.76620    0.07510    -999.25    2.85670  -45.83670
 9550.00000   10.27620   10.54950   -0.03170    -999.25    0.14830   49.34980   13.33260   12.03560 1628.32460 1774.46350  846.83910    0.02440    -999.25    2.58700  -75.00420
 9600.00000    9.48610    9.75750    0.10910    -999.25    0.11160   48.29290   15.05910   14.17220   25.51430   70.46410  134.75020    0.04730    -999.25    2.55980 -111.02820
 9650.00000   10.19390   10.06830    0.06050    -999.25    0.02390   49.51310   13.72170   13.14230   77.13890   93.92530  132.99280    0.04240    -999.25    2.61100  -94.71190
 9700.00000   11.04440   10.42000    0.10020    -999.25    0.23350   58.33440   72.73600   89.10700   24.02390   27.01430   27.53450    0.12200    -999.25    2.56100  -15.25800
 9750.00000    9.67270    9.93150   -0.01320    -999.25    0.00160   57.21070   59.02610   63.64480   17.83090   22.66110   58.30990    0.11900    -999.25    2.73210  -23.39770
 9800.00000    9.82910    9.93450    0.09900    -999.25    0.02150   60.17260   80.64110   94.57720   15.56000   16.71680   20.42160    0.14210    -999.25    2.58180  -21.19190
 9850.00000   12.15220   10.64970    0.13680    -999.25    0.19780   62.48760   71.18100   73.49900   13.53710   12.85850   20.66380    0.14630    -999.25    2.50260   -5.07040
 9900.00000   10.06840   10.45480    0.04490    -999.25    0.17390   51.27700   37.23650   43.75940   24.13500   38.25050   89.69600    0.03000    -999.25    2.68040  -26.08530
 9950.00000    9.28370    9.57430    0.02020    -999.25   -0.00130   52.82000   33.82990   32.89380  133.36350  313.55250  307.38240    0.03440    -999.25    2.64970  -30.02980
 10000.00000   10.06920   10.22860    0.07140    -999.25    0.24970   61.35130   29.10330   29.93100    9.52510   11.05690    9.60820    0.08860    -999.25    2.50030   -9.83710
 10050.00000   12.37720   10.25870    0.18050    -999.25    0.21110   52.25050   18.27800   18.45060  239.80280 1452.65440  199.57980    0.01310    -999.25    2.40210  -47.72240
 10100.00000    9.08630    9.62460   -0.00970    -999.25    0.02120   54.08290   39.89920   38.12500   89.15660   99.15500  115.39990    0.02680    -999.25    2.70530  -17.01540
 10150.00000    9.34320    9.78010    0.01600    -999.25    0.00500   58.04510   62.57480   67.19150   30.52230   33.71990   40.00240    0.06220    -999.25    2.68780  -22.48340
 10200.00000    9.21290    9.61620   -0.02580    -999.25   -0.01910   55.86560   46.65480   51.80800   82.43980   90.73650  114.57050    0.03360    -999.25    2.75890  -23.11920
 10250.00000    9.01870    9.62340    0.00330    -999.25   -0.01050   55.41160   53.08280   55.62040   67.44520   77.69820   84.15060    0.05240    -999.25    2.69450  -20.42090
 10300.00000    9.31390    9.86310    0.04280    -999.25    0.01420   66.68270  105.57680  119.51360   77.11450   83.34550  124.27230    0.14340    -999.25    2.62330  -24.83840
 10350.00000   10.22980    9.99300    0.23240    -999.25    0.15180   78.81410  300.51800  299.48700   25.73890   40.15470  644.32560    0.25350    -999.25    2.44020  -40.47160
 10400.00000   11.48460   10.43300    0.17160    -999.25    0.19570   48.57370   17.66820   17.37550 1602.77510 1657.57750  140.56000    0.02110    -999.25    2.44720  -78.64440
 10450.00000   11.19110   10.15740    0.11610    -999.25    0.21560   49.52140   17.50910   17.21710 1502.43840 1601.75740 1536.64730    0.01250    -999.25    2.52320  -83.33120
 10500.00000   11.64710   10.18150    0.26660    -999.25    -999.25   48.03110   16.27490   15.53640 1552.58040 1600.11130  223.63160    0.01120    -999.25    2.32920  -93.23420
 10550.00000   11.90290   10.07950    0.19650    -999.25    0.18530   50.31720   12.66460   11.54920 1445.01160 1519.38400  808.19380    0.01610    -999.25    2.41080  -92.51580
 10600.00000   10.74280   10.17880    0.19460    -999.25    0.25030   48.27450   15.07100   14.83290 1465.74620 1497.92440  292.61780    0.00750    -999.25    2.38920  -85.28740
