~Version ---------------------------------------------------
VERS.      2.0 : CWLS log ASCII Standard -VERSION 2.0
WRAP.       NO : ONE LINE PER DEPTH STEP
CREA. 08/19/13 : LAS CREATION DATE
~Well ------------------------------------------------------
STRT.M                           400.0 : START DEPTH
STOP.M                          3350.0 : STOP DEPTH
STEP.M                        50.00000 : STEP LENGTH
NULL.                          -999.25 : NULL VALUE
COMP.                SUNCOR ENERGY INC : COMPANY
WELL. SUNCOR ET AL ROSEVEAR 3-24-54-16 : WELL
FLD .                                  : FIELD
LOC .                                  : LOCATION
CTRY.                           CANADA : COUNTRY
SRVC.                     Schlumberger : SERVICE COMPANY
DATE.                      09-Sep-2000 : LOGDATE
PROV.                          Alberta : PROVINCE
UWI .                 100032405416W500 : UNIQUE WELL ID
SLAT.WGS84                     53.6741 : SURFACE LATITUDE
SLON.WGS84                   -116.2231 : SURFACE LONGITUDE
~Curve Information -----------------------------------------
DEPT    .M      : DEPTH METERS
AHIBDED .MM     : 
AHT10ED .OHMM   : 10 INCH RESISTIVITY TWO FOOT RESOLUTION FROM AIT LOG
AHT20ED .OHMM   : 20 INCH RESISTIVITY TWO FOOT RESOLUTION FROM AIT LOG
AHT30ED .OHMM   : 30 INCH RESISTIVITY TWO FOOT RESOLUTION FROM AIT LOG
AHT60ED .OHMM   : 60 INCH RESISTIVITY TWO FOOT RESOLUTION FROM AIT LOG
AHT90ED .OHMM   : 90 INCH RESISTIVITY TWO FOOT RESOLUTION FROM AIT LOG
CAL2ED  .MM     : CALIPER 2 FROM SONIC LOG
CALWS   .MM     : CALIPER [HCALDED]
CONDWS  .MMHO   : CONDUCTIVITY [1000/DRESWS]
DCORWS  .KG/M3  : DENSITY CORRECTION [HDRAED]
DENWS   .KG/M3  : BULK DENSITY [M=2710 F=1000] [CALULATED FROM DPHZLSED]
DPHZLSED.V/V    : DENSITY POROSITY [M=2710 F=1000] FROM DENSITY LOG
DPOLSED .V/V    : DENSITY POROSITY [M=2710 F=1000] FROM DENSITY LOG
DPOLSWS .V/V    : DENSITY POROSITY [M=2710 F=1000] [CALULATED FROM DENWS]
DRESWS  .OHMM   : DEEP RESISTIVITY [AHT90ED]
DRHED   .KG/M3  : DENSITY CORRECTION FROM DENSITY LOG
DTED    .US/M   : DELTA TIME FROM SONIC LOG
DTWS    .US/M   : DELTA TIME [DTED]
GRDED   .GAPI   : GAMMA RAY FROM DENSITY LOG
GRRED   .GAPI   : GAMMA RAY FROM RESISTIVITY LOG
GRWS    .GAPI   : GAMMA RAY [GRDED, CSG < 449M]
HCALDED .MM     : HILT CALIPER FROM DENSITY LOG
HDRAED  .KG/M3  : DENSITY CORRECTION FROM DENSITY LOG
LCALDED .MM     : LDS CALIPER FROM DENSITY LOG
LCALRED .MM     : LDS CALIPER FROM RESISTIVITY LOG
MRESWS  .OHMM   : MEDIUM RESISTIVITY [AHT30ED]
NPOLSWS .V/V    : NEUTRON POROSITY LIMESTONE [NPORLSED, CSG < 449M]
NPORLSED.V/V    : NEUTRON POROSITY LIMESTONE FROM DENSITY LOG
PEFLED  .B/E    : LDS LONG PHOTOELECTRIC FACTOR
PEFWS   .B/E    : PHOTOELECTRIC FACTOR [PEFZED]
PEFZED  .B/E    : PHOTOELECTRIC FACTOR STANDARD RESOLUTION FROM DENSITY LOG
RHOMED  .KG/M3  : LDS BULK DENSITY FROM DENSITY LOG
RHOZED  .KG/M3  : BULK DENSITY STANDARD RESOLUTION FROM DENSITY LOG
RXOZED  .OHMM   : STANDARD RESOLUTION INVADED ZONE RESISTIVITY
SPRED   .MV     : SPONTANEOUS POTENTIAL FROM RESISTIVITY LOG
SPWS    .MV     : SPONTANEOUS POTENTIAL [BASELINE 0 MV] [SPRED]
SRESWS  .OHMM   : SHALLOW RESISTIVITY [AHT20ED]
TENDED  .N      : TENSION FROM DENSITY LOG
TENRED  .N      : TENSION FROM RESISTIVITY LOG
TENSED  .N      : TENSION FROM SONIC LOG
~Params ----------------------------------------------------
PD  .                         GL : PERMANENT DATUM
EPD .M                     847.2 : ELEVATION PERMANENT DATUM
LMF .                         KB : LOG MEASURED FROM
DAPD.M                       6.9 : FEET ABOVE PERMANENT DATUM
DMF .                         KB : DRILLING MEASURED FROM
EKB .M                     853.5 : KELLY BUSHING
EDF .M                     853.2 : DRILLING FLOOR
EGL .M                     847.2 : GROUND LEVEL
DATE.                   09/09/00 : RUN DATE
RUN .                          1 : RUN NUMBER
DD  .M                      3376 : DEPTH DRILLER
DL  .M                      3377 : DEPTH LOGGER
BLI .M                    3974.6 : BOTTOM LOG INTERVAL
TLI .M                      3199 : TOP LOG INTERVAL
CS  .MM                    177.8 : CASING SIZE
CBD .M                      3198 : CASING BOTTOM DRILLER
CBL .M                      3199 : CASING BOTTOM LOGGER
BS  .M                       156 : BIT SIZE
BSD .M                      3376 : BIT SIZE AT DEPTH
DFT .                   GEL CHEM : DRILLING FLUID TYPE
DFD .                       1100 : DRILLING FLUID DENSITY
DFV .                         60 : DRILLING FLUID VISCOSITY
DFPH.                         11 : DRILLING FLUID PH
DFL .                        9.5 : DRILLING FLUID LOSS
MSS .                   FLOWLINE : MUD SAMPLE SOURCE
RMS .OHMM                    0.9 : RESISTIVITY MUD SAMPLE
MST .DEGC                     17 : MUD SAMPLE TEMPERATURE
RMF .OHMM                   0.76 : RESISTIVITY MUD FILTRATE SAMPLE
MFST.DEGC                     17 : MUD FILTRATE SAMPLE TEMPERATURE
RMB .OHMM                  0.295 : RESISTIVITY MUD AT BHT
TCS .HRS                    1330 : TIME CIRCULATED STOPPED
TLAB.HRS                    2040 : TIME LOGGER AT BOTTOM
LUN .                       3052 : LOGGING UNIT NUMBER
LUL .                      NISKU : LOGGING UNIT LOCATION
ENGI.                     FRENCH : RECORDING ENGINEER
WITN.                       KEIR : WITNESSED BY
CLNT.                    A2DTECH : CLIENT CODE
ORIG. 6.5"/100M 16.5"/100M PRINT : ORIGIN OF DATA
UWI .           100032405416W500 : UNIQUE WELL ID
DICO.     A2D Technologies, Inc. : DIGITIZING COMPANY
~Other -----------------------------------------------------
~ASCII -----------------------------------------------------
# ...
 1300.00000  318.24300   18.47170    5.81290    7.57010    9.00890    8.56380    -999.25  314.95810  116.77060    4.22140 2463.58900    0.14410    0.10310    0.14410    8.56380    3.74170  272.03640  272.03640   74.48100   75.15520   74.48100  314.95810    4.22140  216.81060  216.94530    7.57010    0.23990    0.23990    3.02020    3.28640    3.28640 2529.31910 2481.19530    9.21470 -132.62440   -4.39220    5.81290 14843.99510 7526.28560 15059.85350
 1350.00000  310.52110    5.98980    9.21080    9.79540   11.33970   12.08200    -999.25  308.74010   82.76780  285.16800 2353.63600    0.20840    0.09450    0.20840   12.08200   97.54730  269.39600  269.39600  104.82650  105.53220  104.82650  308.74010  285.16800  301.86660  301.06320    9.79540    0.28130    0.28130    2.74060    2.45730    2.45730 2543.18550 2289.99830    2.00890 -107.12860   -2.97630    9.21080 15343.48930 7610.94920 15412.30860
 1400.00000  298.56180   23.89860   12.45810   13.04190   11.40550   10.75050    -999.25  303.62900   93.01890  409.30390 2356.03000    0.20700    0.04570    0.20700   10.75050   -3.11760  267.58440  267.58440  112.24850  111.48910  112.24850  303.62900  409.30390  228.92840  228.38970   13.04190    0.21990    0.21990    3.50060    2.61830    2.61830 2545.65580 2344.45390    2.46680 -114.93690  -13.21850   12.45810 15708.52440 7736.83840 15728.65620
 1450.00000  315.21670    5.63250    7.54500    8.25590    9.45170    9.98760    -999.25  327.44760  100.12420  201.54800 1874.66500    0.48850    0.16660    0.48850    9.98760   82.73430  291.15950  291.15950  114.69410  120.72490  114.69410  327.44760  201.54800  230.20480  229.78230    8.25590    0.28240    0.28240    2.84140    2.31070    2.31070 2434.69410 1792.66940    1.02800 -103.84910   -4.03820    7.54500 15539.24120 7865.26900 15494.42090
 1500.00000  303.63390    8.26350    8.47950    8.98140    9.31480    9.83660    -999.25  302.61680  101.66110  242.47140 1929.72700    0.45630    0.07710    0.45630    9.83660   53.78880  256.13550  256.13550  103.99890  102.74370  103.99890  302.61680  242.47140  228.49860  228.41240    8.98140    0.24510    0.24510    2.67420    2.24860    2.24860 2591.01200 1884.13870    1.28220 -101.88750   -2.13990    8.47950 15997.73340 7798.79440 15658.45610
 1550.00000  315.83510    7.44800   10.10030    9.18160    9.21470    9.56070    -999.25  312.36260  104.59490  375.97290 2255.48200    0.26580    0.09310    0.26580    9.56070   98.91750  268.16360  268.16360  115.00900  114.29620  115.00900  312.36260  375.97290  230.94770  230.84750    9.18160    0.23840    0.23840    2.97700    2.49950    2.49950 2526.21830 2192.53250    2.65740 -102.31790   -2.63360   10.10030 16082.47460 8093.69430 16232.52730
 1600.00000  322.93400    9.07490   23.57250    9.94570   10.26890   11.50300    -999.25  350.14610   86.93380  251.99920 2055.24100    0.38290    0.38610    0.38290   11.50300    6.61200  262.70170  262.70170  102.21050  102.57510  102.21050  350.14610  251.99920  229.26630  228.09420    9.94570    0.31450    0.31450    1.91280    2.48100    2.48100 2057.91020 2116.49490    1.33360  -92.23070    7.39030   23.57250 17370.94140 8333.56150 17226.13280
 1650.00000  271.47700   14.77200   13.69330   13.18870   10.46270   10.79270    -999.25  267.29680   92.65520  335.84790 2279.59300    0.25170    0.07160    0.25170   10.79270  -11.82860  248.67320  248.67320  114.74750  114.88720  114.74750  267.29680  335.84790  219.36430  219.60790   13.18870    0.18220    0.18220    2.87990    2.43270    2.43270 2565.36990 2202.07960    2.28760  -96.51240    3.04540   13.69330 18092.17190 8990.03810 18055.99800
 1700.00000  295.30990    5.11700    8.06400    9.85230   11.71800   12.89430    -999.25  305.84500   77.55360  245.94570 1972.64800    0.43120    0.07470    0.43120   12.89430   44.95130  262.56010  262.56010  113.43090  113.24520  113.43090  305.84500  245.94570  221.76400  223.66940    9.85230    0.26190    0.26190    2.90160    2.45200    2.45200 2559.27470 1981.36820    1.24780 -107.63440   -8.13990    8.06400 18063.70120 8824.20700 17691.18750
 1750.00000  274.82400   26.73090   10.69700   15.86700   17.72320   18.66910    -999.25  271.62560   53.56440   42.36590 2516.25700    0.11330    0.48370    0.11330   18.66910    -999.25  280.48160  280.48160  120.26880  120.25650  120.26880  271.62560   42.36590  300.22230  298.63520   15.86700    0.29250    0.29250    2.62540    3.42150    3.42150 1924.46390 2514.11060   10.20440 -104.36910   -4.93790   10.69700 16895.95310 8594.05570 17648.69530
 1800.00000  236.17120    3.40430    6.09260    7.86500    9.85210   10.04080    -999.25  232.42460   99.59370  302.12340 2264.03200    0.26080    0.62270    0.26080   10.04080   36.39650  290.08840  290.08840  103.37370  103.45960  103.37370  232.42460  302.12340  367.43400  367.93090    7.86500    0.42610    0.42610    2.17530    2.32450    2.32450 1613.85790 2220.88230    2.16480 -112.09050  -12.72250    6.09260 16511.12890 8483.48930 16921.71090
 1850.00000  233.22640   10.03100    4.63310    8.69980    7.26050    5.80450    -999.25  234.52130  172.28010   -1.31220 2521.90000    0.11000    0.43180    0.11000    5.80450   26.15870  249.57160  249.57160  116.26340  116.06670  116.26340  234.52130   -1.31220  255.73980  255.72550    8.69980    0.20510    0.20510    2.72370    3.00730    3.00730 2033.75850 2530.56490    5.05880 -127.44080  -28.13610    4.63310 17372.61520 8740.90230 17935.85350
 1900.00000  272.84990    5.84520    6.10780    6.76100    6.54210    7.11580    -999.25  285.80320  140.53230   63.37820 2553.87700    0.09130    0.50190    0.09130    7.11580   30.08310  270.87980  270.87980  113.46580  113.02340  113.46580  285.80320   63.37820  328.44890  326.72100    6.76100    0.32680    0.32680    2.54200    3.20300    3.20300 1775.81930 2546.23830    5.82660 -135.58720  -36.34580    6.10780 17619.66210 9037.83500 17804.42380
 1950.00000  236.32400    7.07460   17.59590    4.28080    5.76880    5.96960    -999.25  222.03370  167.51540   32.42560 2393.99200    0.18480    0.59190    0.18480    5.96960   30.01920  278.03470  278.03470  118.78330  118.19670  118.78330  222.03370   32.42560  331.11180  331.75980    4.28080    0.28530    0.28530    2.38790    2.79420    2.79420 1685.32030 2393.92680    7.60600 -116.79830  -17.62010   17.59590 17386.42380 8973.65620 18342.44530
 2000.00000  220.82800   30.18620   24.14250   37.80770   25.17820   20.56020    -999.25  220.19540   48.63770    1.71740 2610.64900    0.05810    0.06610    0.05810   20.56020   20.51510  229.37930  229.37930   94.68930   95.76270   94.68930  220.19540    1.71740  222.06010  225.45400   37.80770    0.18700    0.18700    3.03220    3.19760    3.19760 2617.98270 2615.81080   21.69110 -130.03580  -33.51000   24.14250 18948.60550 9353.80370 18573.83010
 2050.00000  221.55910   66.64230   14.13980   16.77050   16.54030   15.86470    -999.25  221.29410   63.03300   -4.87970 2592.01000    0.06900    0.07410    0.06900   15.86470   -2.00960  218.64100  218.64100   73.46710   74.51970   73.46710  221.29410   -4.87970  222.29490  224.04750   16.77050    0.12940    0.12940    2.77800    2.67540    2.67540 2584.13400 2596.11400   21.62880  -98.29940   -7.46530   14.13980 18138.42770 9037.05860 18484.20120
 2100.00000  219.01160  151.25420   17.45080   18.04730   16.63430   16.61820    -999.25  230.60660   60.17500   15.08530 2621.59300    0.05170    0.05550    0.05170   16.61820    4.89080  216.16740  216.16740   78.49120   79.65930   78.49120  230.60660   15.08530  219.18950  230.54840   18.04730    0.14670    0.14670    2.78050    2.80210    2.80210 2621.57670 2646.33230   22.70090  -88.73850   -3.59610   17.45080 18780.49800 9451.83980 18768.88870
 2150.00000  235.34720   31.57380   12.74810   14.39460   15.29320   15.79760    -999.25  234.98910   63.30080   32.64960 2656.30600    0.03140    0.21250    0.03140   15.79760   13.35430  228.22020  228.22020   88.96870   90.20870   88.96870  234.98910   32.64960  230.02790  230.29300   14.39460    0.20080    0.20080    2.55140    3.24230    3.24230 2356.45260 2659.75730   12.45600  -83.77790   -4.32720   12.74810 18573.88480 9104.55570 18227.83590
