~Version ---------------------------------------------------
VERS.      2.0 : CWLS log ASCII Standard -VERSION 2.0
WRAP.       NO : One line per depth step
CREA. 11/16/17 : LAS Creation Date
~Well ------------------------------------------------------
STRT.FT                          800.0 : START DEPTH
STOP.FT                        13150.0 : STOP DEPTH
STEP.FT                       50.00000 : STEP LENGTH
NULL.                          -999.25 : NULL VALUE
COMP. SOCONY MOBIL OIL OF CANADA, LTD. : COMPANY
WELL.     MOBIL CHEDDERVILLE 4-22-37-7 : WELL
FLD .                                  : FIELD
LOC .                                  : LOCATION
CTRY.                           CANADA : COUNTRY
SRVC.                     Schlumberger : SERVICE COMPANY
DATE.                      02-Jun-1964 : LOGDATE
PROV.                          Alberta : PROVINCE
UWI .                 100042203707W500 : UNIQUE WELL ID
SLAT.WGS84                    52.18951 : SURFACE LATITUDE
SLON.WGS84                   -114.9248 : SURFACE LONGITUDE
~Curve Information -----------------------------------------
DEPT  .FT    : Depth Curve
CALDED.IN    : CALIPER FROM FDL LOG [ADJ. TO RESISTIVITY LOG]
CALSED.IN    : CALIPER FROM SONIC LOG [ADJ. TO RESISTIVITY LOG]
CALWS .IN    : CALIPER [CALDED]
CILDED.MMHO  : CONDUCTIVITY FROM IEL LOG
CONDWS.MMHO  : CONDUCTIVITY [1000/DRESWS]
DRESWS.OHMM  : DEEP RESISTIVITY [1000/CILDED IF ILDED < 1, ILDED]
DT1ED .US/F  : DELTA TIME (1' SPACING) FROM SONIC LOG [ADJ. TO RESISTIVITY]
DTED  .US/F  : DELTA TIME (3' SPACING) FROM SONIC LOG [ADJ. TO RESISTIVITY]
DTWS  .US/F  : COMPRESSIONAL SONIC [DTED]
FDENED.CPS   : FORMATION DENSITY FROM FDL LOG [ADJ. TO RESISTIVITY]
GRDED .GAPI  : GAMMA RAY  FROM FDL LOG [ADJ. TO RESISTIVITY]
GRSED .GAPI  : GAMMA RAY FROM SONIC LOG [ADJ. TO RESISTIVITY]
GRWS  .GAPI  : GAMMA RAY [GRSED]
ILDED .OHMM  : INDUCTION DEEP RESISTIVITY FROM IEL LOG
SNED  .OHMM  : SHORT NORMAL RESISTIVITY FROM IEL LOG
SPRED .MV    : SPONTANEOUS POTENTIAL FROM IEL LOG
SPWS  .MV    : SPONTANEOUS POTENTIAL [BASELINE 0 MV, SPRED]
SRESWS.OHMM  : SHALLOW RESISTIVITY [SNED]
~Params ----------------------------------------------------
PD  .                     GL : PERMANENT DATUM
EPD .FT                 3420 : ELEVATION PERMANENT DATUM
LMF .                     KB : LOG MEASURED FROM
DAPD.FT                   15 : FEET ABOVE PERMANENT DATUM
EKB .FT                 3435 : KELLY BUSHING
EGL .FT                 3420 : GROUND LEVEL
DATE.               06/02/64 : RUN DATE
RUN .                      2 : RUN NUMBER
DD  .FT                13163 : DEPTH DRILLER
DL  .FT                13169 : DEPTH LOGGER
BLI .FT                13168 : BOTTOM LOG INTERVAL
TLI .FT                 9963 : TOP LOG INTERVAL
CBD .FT                 1290 : CASING BOTTOM DRILLER
CBL .FT                 1290 : CASING BOTTOM LOGGER
BS  .IN                    9 : BIT SIZE
BSD .FT                13163 : BIT SIZE AT DEPTH
DFT .              LIME BASE : DRILLING FLUID TYPE
DFD .                    9.2 : DRILLING FLUID DENSITY
DFV .                    165 : DRILLING FLUID VISCOSITY
DFPH.                     13 : DRILLING FLUID PH
DFL .                      5 : DRILLING FLUID LOSS
RMF .OHMM               0.44 : RESISTIVITY MUD FILTRATE SAMPLE
MFST.DEGF                 82 : MUD FILTRATE SAMPLE TEMPERATURE
RMC .OHMM               0.97 : RESISTIVITY MUD CAKE
MCST.DEGF                 80 : MUD CAKE SAMPLE TEMPERATURE
RMB .OHMM               0.29 : RESISTIVITY MUD AT BHT
TCS .HRS                   2 : TIME CIRCULATED STOPPED
LUN .                   1576 : LOGGING UNIT NUMBER
LUL .                     DV : LOGGING UNIT LOCATION
ENGI.               WILLIAMS : RECORDING ENGINEER
WITN.               LONGMORE : WITNESSED BY
CLNT.                A2DTECH : CLIENT CODE
ORIG.            2" 5" PRINT : ORIGIN OF DATA
UWI .       100042203707W500 : UNIQUE WELL ID
DICO. A2D Technologies, Inc. : DIGITIZING COMPANY
~Other -----------------------------------------------------
~ASCII -----------------------------------------------------
# ...
 2750.00000   12.99640   11.91120   11.91120   49.93630   46.30960   21.59380    -999.25   78.26800   78.26800 2000.00000    -999.25   47.92960   47.92960   21.59380   17.51630  -73.45620   -6.52170   17.51630
 2800.00000   14.18910   12.30690   12.30690   97.34690   89.37350   11.18900    -999.25   78.47060   78.47060 2000.00000    -999.25   71.19430   71.19430   11.18900   10.18790  -69.77470   -1.89090   10.18790
 2850.00000   14.46560   12.27210   12.27210   47.86950   44.35280   22.54650    -999.25   78.66950   78.66950 1702.33370    -999.25   59.24600   59.24600   22.54650   18.53180  -74.64940   -7.62040   18.53180
 2900.00000   14.59000   11.75720   11.75720  119.32650  110.86600    9.01990    -999.25   88.77420   88.77420 2000.00000    -999.25   81.36410   81.36410    9.01990    9.86250  -66.92990   -0.75570    9.86250
 2950.00000   14.58660   12.15280   12.15280   70.85270   66.19540   15.10680    -999.25   85.94570   85.94570 2000.00000    -999.25   62.50230   62.50230   15.10680   14.32070  -73.93410   -8.10000   14.32070
 3000.00000   14.58230   11.91740   11.91740  163.71110  125.32900    7.97900    -999.25   75.13670   75.13670 1992.72860    -999.25   80.03230   80.03230    7.97900    8.91130  -66.87020   -0.80130    8.91130
 3050.00000   14.58910   11.52030   11.52030  101.88280  105.78540    9.45310    -999.25   81.11350   81.11350 2000.00000    -999.25   78.70520   78.70520    9.45310   10.87060  -66.77380   -1.19790   10.87060
 3100.00000   14.57320   11.97700   11.97700  326.71120  280.93040    3.55960    -999.25   98.10840   98.10840 2000.00000    -999.25   95.51910   95.51910    3.55960    4.61530  -66.33270   -1.18260    4.61530
 3150.00000   14.59570   15.10680   15.10680  216.29610  198.66500    5.03360    -999.25  105.19800  105.19800 2000.00000    -999.25   71.18710   71.18710    5.03360    6.59340  -66.55570   -1.27460    6.59340
 3200.00000   14.59990   11.61600   11.61600  103.00890   95.86810   10.43100    -999.25   78.73950   78.73950 2000.00000    -999.25   81.06890   81.06890   10.43100   11.93220  -67.33740   -1.77790   11.93220
 3250.00000   14.59140   13.11200   13.11200   99.38360   83.71700   11.94500    -999.25   79.44610   79.44610 2000.00000    -999.25   62.36150   62.36150   11.94500   10.79750  -67.91440   -2.07640   10.79750
 3300.00000   14.45370   13.38750   13.38750  159.57500  153.03390    6.53450    -999.25  110.71520  110.71520 2000.74820    -999.25   85.65980   85.65980    6.53450    9.51220  -67.15600   -1.03950    9.51220
 3350.00000   13.56540   13.02410   13.02410  160.76790  140.85500    7.09950    -999.25   97.67770   97.67770 1614.91210    -999.25   83.70270   83.70270    7.09950    7.69840  -67.59080   -0.82620    7.69840
 3400.00000   12.44720   13.25320   13.25320   91.04200   87.33700   11.44990    -999.25   84.44650   84.44650 1259.36720    -999.25   62.71700   62.71700   11.44990   10.33840  -72.85830   -6.55340   10.33840
 3450.00000   13.22810   11.70920   11.70920   93.43510   85.08900   11.75240    -999.25   80.12970   80.12970  996.95530    -999.25   78.12790   78.12790   11.75240   11.42280  -68.51380   -3.00690   11.42280
 3500.00000   12.59730   11.92100   11.92100   84.40760   78.88740   12.67630    -999.25   80.18770   80.18770  607.60030    -999.25   83.28950   83.28950   12.67630   12.98620  -70.01590   -4.73070   12.98620
 3550.00000   13.94870   11.28000   11.28000   95.00600   88.87700   11.25150    -999.25   80.78600   80.78600  752.54270    -999.25   74.69380   74.69380   11.25150   10.13180  -68.56100   -3.49740   10.13180
 3600.00000   14.59020   15.32630   15.32630   84.75520   77.29590   12.93730    -999.25   82.20290   82.20290 1946.64670    -999.25   80.08650   80.08650   12.93730   11.02600  -67.96030   -3.29400   11.02600
 3650.00000   14.61120   12.71580   12.71580  109.91890  109.74180    9.11230    -999.25   88.88620   88.88620 2000.00000    -999.25   89.26170   89.26170    9.11230   10.35550  -65.79220   -1.46960   10.35550
 3700.00000   14.59930   12.16030   12.16030  229.29170  221.05310    4.52380    -999.25   94.73830   94.73830 2000.00000    -999.25   82.78080   82.78080    4.52380    7.40260  -65.22940   -1.75130    7.40260
 3750.00000   14.47770   12.31940   12.31940   96.48420   90.25920   11.07920    -999.25   77.64250   77.64250 2000.00000    -999.25   89.33180   89.33180   11.07920   10.50410  -64.40190   -1.28330   10.50410
 3800.00000   14.58890   12.07450   12.07450   67.81610   63.83210   15.66610    -999.25   76.53480   76.53480 1568.60210    -999.25   70.02900   70.02900   15.66610   15.66610  -68.22370   -5.29740   15.66610
 3850.00000   14.59150   12.26220   12.26220  200.63950  195.00780    5.12800    -999.25   99.08490   99.08490 2000.00000    -999.25   92.82220   92.82220    5.12800    6.39680  -63.57050   -0.83660    6.39680
 3900.00000   14.54210   12.07750   12.07750  114.47650  100.92450    9.90840    -999.25   83.12660   83.12660 1857.63400    -999.25   71.64240   71.64240    9.90840    8.77110  -64.03920   -1.99990    8.77110
 3950.00000   13.20290   11.97980   11.97980  106.25920  103.03650    9.70530    -999.25   82.87420   82.87420 1046.00150    -999.25   91.27360   91.27360    9.70530    8.91770  -62.92660   -2.00980    8.91770
 4000.00000   12.88740   12.98830   12.98830  158.66470  163.80550    6.10480    -999.25   89.72390   89.72390 1022.19600    -999.25   69.83020   69.83020    6.10480    8.11370  -63.21180   -2.58040    8.11370
 4050.00000   13.42120   12.15280   12.15280   89.20090   84.51870   11.83170    -999.25   75.62070   75.62070  589.82890    -999.25   69.96000   69.96000   11.83170   11.58370  -62.57160   -1.67480   11.58370
 4100.00000   14.24070   12.12170   12.12170  107.05900   95.69930   10.44940    -999.25   81.24920   81.24920  543.82270    -999.25   76.47720   76.47720   10.44940    9.69010  -62.58530   -1.42300    9.69010
 4150.00000   14.27820   12.16620   12.16620   34.45910   33.59100   29.76990    -999.25   71.38130   71.38130  406.21800    -999.25   44.50560   44.50560   29.76990   25.55930  -76.53280  -15.59690   25.55930
 4200.00000    9.72210   12.07100   12.07100   87.24760   79.31600   12.60780    -999.25   80.90750   80.90750 2000.00000    -999.25   71.08530   71.08530   12.60780   11.60600  -63.03100   -1.88180   11.60600
 4250.00000    9.92700   12.57700   12.57700  146.56250  150.89100    6.62730    -999.25  117.19600  117.19600 2000.00000    -999.25   91.57920   91.57920    6.62730    9.38840  -61.61740   -0.50180    9.38840
 4300.00000    9.93300   12.57950   12.57950  198.65670  194.61690    5.13830    -999.25  103.22470  103.22470  824.85310    -999.25   84.19490   84.19490    5.13830    6.70320  -61.14560   -1.48640    6.70320
 4350.00000    9.92220   11.99000   11.99000  141.90630  137.35700    7.28030    -999.25   82.70700   82.70700  516.38200    -999.25   79.07310   79.07310    7.28030    7.93040  -60.40220   -2.19950    7.93040
 4400.00000    9.94190   11.76090   11.76090  118.18710  111.13090    8.99840    -999.25   75.02860   75.02860  889.10550    -999.25   60.52640   60.52640    8.99840    8.79880  -60.39760   -2.14490    8.79880
 4450.00000    9.94830   11.53100   11.53100  116.65930  112.61130    8.88010    -999.25   84.54720   84.54720  454.85200    -999.25   87.30930   87.30930    8.88010    9.32020  -60.63070   -2.10290    9.32020
 4500.00000    9.94410   11.65060   11.65060  121.12910  119.87680    8.34190    -999.25   84.69050   84.69050  795.41230    -999.25   71.78800   71.78800    8.34190    9.33550  -60.48670   -1.68380    9.33550
 4550.00000    9.94260   11.92180   11.92180   90.52300   92.01410   10.86790    -999.25  110.31690  110.31690 1460.27610    -999.25   71.97520   71.97520   10.86790   12.66880  -60.33000   -1.46490   12.66880
 4600.00000    9.96770   11.77220   11.77220  138.80440  140.91250    7.09660    -999.25   87.88650   87.88650 1154.47400    -999.25   81.59030   81.59030    7.09660    8.35890  -60.22800   -1.43690    8.35890
 4650.00000    9.93680   11.87080   11.87080  146.01950  147.96180    6.75850    -999.25   88.54080   88.54080 1217.52120    -999.25   79.04570   79.04570    6.75850    7.97740  -59.59580   -0.49940    7.97740
