~Version ---------------------------------------------------
VERS.      2.0 : CWLS log ASCII Standard -VERSION 2.0
WRAP.       NO : One line per depth step
CREA. 12/18/17 : LAS Creation Date
~Well ------------------------------------------------------
STRT.FT                             1350.0 : START DEPTH
STOP.FT                            11950.0 : STOP DEPTH
STEP.FT                           50.00000 : STEP LENGTH
NULL.                              -999.25 : NULL VALUE
COMP.                 CHEVRON STANDARD LTD : COMPANY
WELL. CHEVRON AMOCO WASKAHIGAN 10-17-64-24 : WELL
FLD .                                      : FIELD
LOC .                                      : LOCATION
CTRY.                               CANADA : COUNTRY
SRVC.                         Schlumberger : SERVICE COMPANY
DATE.                          17-Sep-1977 : LOGDATE
PROV.                              Alberta : PROVINCE
UWI .                     100101706424W500 : UNIQUE WELL ID
SLAT.WGS84                        54.54045 : SURFACE LATITUDE
SLON.WGS84                       -117.5875 : SURFACE LONGITUDE
~Curve Information -----------------------------------------
DEPT    .FT    : Depth Curve
CALDED  .IN    : CALIPER FROM DENSITY LOG [ADJ. TO RESISTIVITY LOG]
CALSED  .IN    : CALIPER FROM SONIC LOG  [ADJ. TO RESISTIVITY LOG]
CALWS   .IN    : CALIPER [CALSED]
CONDWS  .MMHO  : CONDUCTIVITY [1000/DRESWS]
DCORWS  .G/C3  : DENSITY CORRECTION [DRHOED]
DENWS   .G/C3  : FORMATION BULK DENSITY [RHOBED SPL. TO CALC, FROM DPHILSED M=2.71, F=1.00 FROM 11478'-11488']
DPHILSED.V/V   : DENSITY POROSITY LIMESTONE [M=2.71, F=1.00] FROM DENSITY LOG  [ADJ. TO RESISTIVITY LOG]
DPHISSED.V/V   : DENSITY POROSITY SANDSTONE [M=2.65, F=1.00] FROM DENSITY LOG  [ADJ. TO RESISTIVITY LOG]
DPOLSWS .V/V   : DENSITY POROSITY SANDSTONE [CALC. FROM DENWS  [M=2.71, F=1.00]
DRESWS  .OHMM  : DEEP RESISTIVITY [ILDED]
DRHOED  .G/C3  : DENSITY CORRECTION FROM DENSITY LOG [ [ADJ. TO RESISTIVITY / DPHISSED & DPHILSED]
DTED    .US/F  : DELTA TIME FROM SONIC LOG  [ADJ. TO RESISTIVITY LOG]
DTWS    .US/F  : COMPRSSIONAL SONIC[ DTED]
GRDED   .GAPI  : GAMMA RAY FROM DENSITY LOG  [ADJ. TO RESISTIVITY LOG]
GRSED   .GAPI  : GAMMA RAY FROM SONIC LOG  [ADJ. TO RESISTIVITY LOG]
GRWS    .GAPI  : GAMMA RAY [GRSED SPL. TO GRDED @ 11900']
ILDED   .OHMM  : DEEP INDUCTION LOG RESISTIVITY FROM RESISTIVITY LOG
ILMED   .OHMM  : MEDIUM INDUCTION LOG RESISTIVITY FROM RESISTIVITY LOG
LL8ED   .OHMM  : LATEROLOG FROM RESISTIVITY LOG
MRESWS  .OHMM  : MEDIUM RESISTIVITY [ILMED]
NPHILSED.V/V   : NEUTRON POROSITY LIMESTONE FROM DENSITY LOG  [ADJ. TO RESISTIVITY LOG]
NPHISSED.V/V   : NEUTRON POROSITY SANDSTONE FROM DENSITY LOG  [ADJ. TO RESISTIVITY LOG]
NPOLSWS .V/V   : NEUTRON POROSITY LIMESTONE[NPHISSED MATRIX CONVERSION FOR LIMESTONE SPL. TO NPHILSED @ 9050'
RHOBED  .G/C3  : BULK DENSITY FROM DENSITY LOG [ [ADJ. TO RESISTIVITY/ DPHISSED & DPHILSED]
SPRED   .MV    : SPONTANEOUS POTENTIAL FROM RESISTIVITY LOG
SPWS    .MV    : SPONTANEOUS POTENTIAL [BASELINE 0 MV,SPRED]
SRESWS  .OHMM  : SHALLOW RESISTIVITY [LL8ED]
TENDED  .LBF   : TENSION FROM DENSITY LOG  [ADJ. TO RESISTIVITY LOG]
TENSED  .LBF   : TENSION FROM SONIC LOG  [ADJ. TO RESISTIVITY LOG]
~Params ----------------------------------------------------
PD  .                     GL : PERMANENT DATUM
EPD .FT               2874.1 : ELEVATION PERMANENT DATUM
LMF .                     KB : LOG MEASURED FROM
DAPD.FT                 18.5 : FEET ABOVE PERMANENT DATUM
EKB .FT               2892.6 : KELLY BUSHING
EGL .FT               2874.1 : GROUND LEVEL
DATE.               09/17/77 : RUN DATE
RUN .                      1 : RUN NUMBER
DD  .FT                11989 : DEPTH DRILLER
DL  .FT                11985 : DEPTH LOGGER
BLI .FT                11979 : BOTTOM LOG INTERVAL
TLI .FT                 1516 : TOP LOG INTERVAL
CBD .FT              1516.87 : CASING BOTTOM DRILLER
CBL .FT                 1516 : CASING BOTTOM LOGGER
BS  .IN                 8.75 : BIT SIZE
BSD .FT                11989 : BIT SIZE AT DEPTH
DFT .                    GEL : DRILLING FLUID TYPE
DFD .                      9 : DRILLING FLUID DENSITY
DFV .                     90 : DRILLING FLUID VISCOSITY
DFPH.                    9.5 : DRILLING FLUID PH
DFL .                    8.4 : DRILLING FLUID LOSS
MSS .               FLOWLINE : MUD SAMPLE SOURCE
RMS .OHMM               1.53 : RESISTIVITY MUD SAMPLE
MST .DEGF                 68 : MUD SAMPLE TEMPERATURE
RMF .OHMM               1.36 : RESISTIVITY MUD FILTRATE SAMPLE
MFST.DEGF                 62 : MUD FILTRATE SAMPLE TEMPERATURE
RMC .OHMM               1.37 : RESISTIVITY MUD CAKE
MCST.DEGF                 62 : MUD CAKE SAMPLE TEMPERATURE
TCS .HRS                   5 : TIME CIRCULATED STOPPED
LUN .                   7772 : LOGGING UNIT NUMBER
LUL .                    EDM : LOGGING UNIT LOCATION
ENGI.         BERNISKY TRACY : RECORDING ENGINEER
WITN.             RICHARDSON : WITNESSED BY
CLNT.                A2DTECH : CLIENT CODE
ORIG.            2" 5" PRINT : ORIGIN OF DATA
UWI .       100101706424W500 : UNIQUE WELL ID
DICO. A2D Technologies, Inc. : DIGITIZING COMPANY
~Other -----------------------------------------------------
DIL-CNFD-SONIC LOG RUN
SONIC 2' DEEP TO DIL. GAP IN GRDED FROM 6074'-6090'& 6110' -6132' & GAP IN NPHISSED FROM 6087'-6102' & 6124'-6138' DUE TO REMOVE INVALID VALUE
~ASCII -----------------------------------------------------
# ...
 10100.00000    9.26180    8.90690    8.90690   35.15790    0.01650    2.70490   -0.00100    -999.25    0.00300   28.44310    0.01650   50.90750   50.90750    9.79650    7.00620    7.00620   28.44310   30.40000  128.07530   30.40000    0.01620    -999.25    0.01620    2.70490 -196.01680 -257.05990  128.07530 3762.42240 3681.96820
 10150.00000    8.16790    8.06010    8.06010  224.69390    0.22560    2.57360    0.08620    -999.25    0.07980    4.45050    0.22560   63.76290   63.76290   14.31220   11.61930   11.61930    4.45050    6.29880   17.33640    6.29880    0.16380    -999.25    0.16380    2.57360 -182.73540 -247.26070   17.33640 3823.06010 3779.14460
 10200.00000    8.87140    8.45460    8.45460   53.15930    0.14230    2.63610    0.04120    -999.25    0.04320   18.81140    0.14230   52.77260   52.77260   24.75650   25.28290   25.28290   18.81140   20.49730   49.71860   20.49730    0.13150    -999.25    0.13150    2.63610 -102.97460 -170.98210   49.71860 3747.19820 3639.79220
 10250.00000    8.74480    8.53150    8.53150   19.35400    0.06670    2.78950   -0.05090    -999.25   -0.04650   51.66900    0.06670   48.32630   48.32630   15.67850   13.47360   13.47360   51.66900   81.08130  233.74370   81.08130    0.07080    -999.25    0.07080    2.78950  -90.70410 -162.19380  233.74370 3737.45210 3536.79880
 10300.00000    8.66050    8.30510    8.30510   35.03440    0.09200    2.78810   -0.05310    -999.25   -0.04570   28.54380    0.09200   49.95240   49.95240   15.71420    9.87740    9.87740   28.54380   53.41710  239.73610   53.41710    0.08190    -999.25    0.08190    2.78810  -83.87330 -158.82770  239.73610 3703.59910 3406.77150
 10350.00000    9.96730    9.28830    9.28830   64.95280    0.10790    2.62260    0.02640    -999.25    0.05110   15.39580    0.10790   54.02380   54.02380   46.17390   38.08700   38.08700   15.39580   16.25190   17.08300   16.25190    0.10860    -999.25    0.10860    2.62260   10.17680  -68.27720   17.08300 3569.29240 3068.07180
 10400.00000   12.32600    9.47060    9.47060    3.85000    0.22990    2.44270    0.15630    -999.25    0.15630  259.73970    0.22990   51.05690   51.05690   21.72360   18.05350   18.05350  259.73970  361.57460  758.40580  361.57460    0.02320    -999.25    0.02320    2.44270   50.27600  -31.66020  758.40580 3558.40280 3142.01420
 10450.00000    9.14930    8.69220    8.69220   10.17860    0.01860    2.74100   -0.03040    -999.25   -0.01810   98.24500    0.01860   51.34340   51.34340   30.05120   25.84650   25.84650   98.24500  108.54160  121.18740  108.54160    0.01460    -999.25    0.01460    2.74100   62.09950  -23.31890  121.18740 3598.27970 5036.95830
 10500.00000    9.45780    8.87900    8.87900    6.21630    0.01940    2.73490   -0.02340    -999.25   -0.01460  160.86850    0.01940   51.03710   51.03710   25.89740   21.28900   21.28900  160.86850  171.15650  223.37170  171.15650    0.01290    -999.25    0.01290    2.73490   54.82490  -34.07570  223.37170 3557.57170 4890.45680
 10550.00000    8.97150    8.77860    8.77860   14.43680    0.01530    2.70890   -0.00440    -999.25    0.00070   69.31680    0.01530   52.70990   52.70990   34.18100   32.85860   32.85860   69.31680   97.70270  107.92090   97.70270    0.03020    -999.25    0.03020    2.70890   85.02300   -7.34230  107.92090 3536.46690 4865.10790
 10600.00000    9.02990    8.77210    8.77210    9.79060    0.01770    2.71370   -0.00380    -999.25   -0.00220  102.13860    0.01770   51.67910   51.67910   32.53030   28.67850   28.67850  102.13860  153.43960  190.87850  153.43960    0.04600    -999.25    0.04600    2.71370   26.72370  -65.73210  190.87850 3510.59320 4841.63500
 10650.00000    9.08620    8.97830    8.97830    6.08620    0.02350    2.65830    0.04460    -999.25    0.03020  164.30590    0.02350   52.42760   52.42760   30.85170   27.28380   27.28380  164.30590  483.95810  219.70540  483.95810    0.07040    -999.25    0.07040    2.65830  -39.37000 -129.43370  219.70540 3510.07170 4634.40010
 10700.00000    8.89060    8.84910    8.84910    6.68260    0.00550    2.69280    0.00780    -999.25    0.01010  149.64170    0.00550   51.70470   51.70470   31.80940   26.17230   26.17230  149.64170  337.16840  235.01210  337.16840    0.05310    -999.25    0.05310    2.69280  -54.49120 -142.16270  235.01210 3468.51800 4538.72240
 10750.00000    8.97730    8.69730    8.69730   17.53160    0.02980    2.71060   -0.01350    -999.25   -0.00040   57.04000    0.02980   54.79930   54.79930   38.57550   30.13950   30.13950   57.04000   68.54890   71.60280   68.54890    0.06300    -999.25    0.06300    2.71060  -55.46710 -140.74650   71.60280 3476.57410 4452.95720
 10800.00000    8.99280    8.70570    8.70570   14.78300    0.00400    2.70270    0.00030    -999.25    0.00430   67.64690    0.00400   53.64820   53.64820   33.38500   30.35060   30.35060   67.64690   98.99050  100.20150   98.99050    0.03480    -999.25    0.03480    2.70270  -42.35720 -125.25640  100.20150 3452.86760 4447.74890
 10850.00000    9.04430    8.72500    8.72500   10.81310    0.03830    2.73230   -0.00560    -999.25   -0.01300   92.48000    0.03830   53.73610   53.73610   36.20290   29.49710   29.49710   92.48000  156.41880  146.65230  156.41880    0.03990    -999.25    0.03990    2.73230  -19.08950  -99.58450  146.65230 3422.91010 4306.39420
 10900.00000    9.43710    9.15740    9.15740   30.92160    0.00680    2.59920    0.06690    -999.25    0.06480   32.33990    0.00680   72.32740   72.32740   91.65810   83.26650   83.26650   32.33990   55.36630   60.81620   55.36630    0.22210    -999.25    0.22210    2.59920   30.94660  -47.15630   60.81620 3396.01120 4206.99130
 10950.00000   12.19730   10.56110   10.56110  284.87590    0.17500    2.32940    0.22500    -999.25    0.22260    3.51030    0.17500   84.45680   84.45680  104.85620   89.62180   89.62180    3.51030    3.62330    4.80370    3.62330    0.31370    -999.25    0.31370    2.32940   27.99200  -47.71870    4.80370 3395.02820 4074.76490
 11000.00000   11.18740    9.95860    9.95860  253.85870    0.24980    2.30910    0.24170    -999.25    0.23440    3.93920    0.24980   71.74140   71.74140   76.33930   76.31530   76.31530    3.93920    4.16570    5.05000    4.16570    0.23730    -999.25    0.23730    2.30910   30.64230  -42.67620    5.05000 3449.58050 4029.99660
 11050.00000    -999.25   11.83690   11.83690  300.78330    -999.25    -999.25    -999.25    -999.25    -999.25    3.32480    -999.25   79.03930   79.03930    -999.25   87.17120   87.17120    3.32480    3.44930    4.62070    3.44930    -999.25    -999.25    -999.25    -999.25   56.90840  -14.02990    4.62070    -999.25 3997.65100
 11100.00000    -999.25   11.73290   11.73290  268.32670    -999.25    -999.25    -999.25    -999.25    -999.25    3.72680    -999.25   81.65040   81.65040    -999.25   86.38600   86.38600    3.72680    3.93210    5.11640    3.93210    -999.25    -999.25    -999.25    -999.25   61.35040   -7.18380    5.11640    -999.25 3865.58960
 11150.00000    -999.25    8.86750    8.86750  163.93980    -999.25    -999.25    -999.25    -999.25    -999.25    6.09980    -999.25   68.08340   68.08340    -999.25   72.86360   72.86360    6.09980    6.68410    7.76510    6.68410    -999.25    -999.25    -999.25    -999.25   63.40470   -2.71910    7.76510    -999.25 3763.48590
 11200.00000    -999.25    8.75880    8.75880  159.55330    -999.25    -999.25    -999.25    -999.25    -999.25    6.26750    -999.25   69.11240   69.11240    -999.25   84.13340   84.13340    6.26750    6.87280    8.49710    6.87280    -999.25    -999.25    -999.25    -999.25   47.75160  -17.41980    8.49710    -999.25 3590.28340
 11250.00000    -999.25    8.73810    8.73810  143.92840    -999.25    -999.25    -999.25    -999.25    -999.25    6.94790    -999.25   67.90400   67.90400    -999.25   82.60510   82.60510    6.94790    7.67470    9.66160    7.67470    -999.25    -999.25    -999.25    -999.25   29.42850  -34.79050    9.66160    -999.25 3593.56340
 11300.00000    -999.25    8.69850    8.69850  154.53030    -999.25    -999.25    -999.25    -999.25    -999.25    6.47120    -999.25   69.72150   69.72150    -999.25   89.76490   89.76490    6.47120    6.99000    8.66880    6.99000    -999.25    -999.25    -999.25    -999.25   47.74400  -15.52740    8.66880    -999.25 3456.13030
