~Version ---------------------------------------------------
VERS.      2.0 : CWLS log ASCII Standard -VERSION 2.0
WRAP.       NO : One line per depth step
CREA. 11/10/17 : LAS Creation Date
~Well ------------------------------------------------------
STRT.FT                               1200.0 : START DEPTH
STOP.FT                              13150.0 : STOP DEPTH
STEP.FT                             50.00000 : STEP LENGTH
NULL.                                -999.25 : NULL VALUE
COMP.         VINTAGE PETROLEUM CANADA, INC. : COMPANY
WELL. GENESIS ET AL MARLBORO 14-17-55-19 #14 : WELL
FLD .                                        : FIELD
LOC .                                        : LOCATION
CTRY.                                 CANADA : COUNTRY
SRVC.                           Schlumberger : SERVICE COMPANY
DATE.                            01-Sep-1970 : LOGDATE
PROV.                                Alberta : PROVINCE
UWI .                       100141705519W500 : UNIQUE WELL ID
SLAT.WGS84                          53.75669 : SURFACE LATITUDE
SLON.WGS84                         -116.7889 : SURFACE LONGITUDE
~Curve Information -----------------------------------------
DEPT  .FT    : Depth Curve
CALSED.IN    : CALIPER FROM SONIC LOG [ADJ. TO RESISTIVITY LOG]
CALWS .IN    : CALIPER [CALSED]
CONDWS.MMHO  : CONDUCTIVITY [1000/DRESWS]
DRESWS.OHMM  : DEEP RESISTIVITY [ILDED]
DTED  .US/F  : DELTA T FROM SONIC LOG [ADJ. TO RESISTIVITY LOG]
DTWS  .US/F  : COMPRESSIONAL SONIC [DTED]
GRSED .GAPI  : GAMMA RAY FROM SONIC [ADJ. TO RESISTIVITY LOG]
GRWS  .GAPI  : GAMMA RAY [GRSED] CSG < 1306'
ILDED .OHMM  : DEEP INDUCTION FROM RESISTIVITY LOG
ILMED .OHMM  : MEDIUM INDUCTION FROM RESISTIVITY LOG
LL8ED .OHMM  : LATEROLOG 8' FROM RESISTIVITY LOG
MRESWS.OHMM  : MEDIUM RESISTIVITY [ILMED]
SPRED .MV    : SPONTANEOUS POTENTIAL FROM RESISTIVITY LOG
SPWS  .MV    : SPONTANEOUS POTENTIAL [BASELINE 0 MV, SPRED]
SRESWS.OHMM  : SHALLOW RESISTIVITY [LL8ED]
~Params ----------------------------------------------------
PD  .                     GL : PERMANENT DATUM
EPD .FT                 3735 : ELEVATION PERMANENT DATUM
LMF .                     KB : LOG MEASURED FROM
DAPD.FT                   17 : FEET ABOVE PERMANENT DATUM
EKB .FT                 3752 : KELLY BUSHING
EGL .FT                 3735 : GROUND LEVEL
DATE.               09/01/70 : RUN DATE
RUN .                      1 : RUN NUMBER
DD  .FT                13157 : DEPTH DRILLER
DL  .FT                13154 : DEPTH LOGGER
BLI .FT                13148 : BOTTOM LOG INTERVAL
TLI .FT                 1306 : TOP LOG INTERVAL
CBD .FT                 1308 : CASING BOTTOM DRILLER
CBL .FT                 1306 : CASING BOTTOM LOGGER
BS  .IN                 8.75 : BIT SIZE
BSD .FT                13157 : BIT SIZE AT DEPTH
DFT .                    FGM : DRILLING FLUID TYPE
DFD .                    9.2 : DRILLING FLUID DENSITY
DFV .                    183 : DRILLING FLUID VISCOSITY
DFPH.                     10 : DRILLING FLUID PH
DFL .                   11.2 : DRILLING FLUID LOSS
MSS .               FLOWLINE : MUD SAMPLE SOURCE
RMS .OHMM               0.93 : RESISTIVITY MUD SAMPLE
MST .DEGF                 82 : MUD SAMPLE TEMPERATURE
RMF .OHMM               0.72 : RESISTIVITY MUD FILTRATE SAMPLE
MFST.DEGF                 82 : MUD FILTRATE SAMPLE TEMPERATURE
RMC .OHMM               1.13 : RESISTIVITY MUD CAKE
MCST.DEGF                 82 : MUD CAKE SAMPLE TEMPERATURE
RMB .OHMM               0.35 : RESISTIVITY MUD AT BHT
TCS .HRS                 4.5 : TIME CIRCULATED STOPPED
LUN .                   7502 : LOGGING UNIT NUMBER
LUL .                    EDM : LOGGING UNIT LOCATION
ENGI.                  PLUME : RECORDING ENGINEER
WITN.                 LITTLE : WITNESSED BY
CLNT.                A2DTECH : CLIENT CODE
ORIG.            2" 5" PRINT : ORIGIN OF DATA
UWI .       100141705519W500 : UNIQUE WELL ID
DICO. A2D Technologies, Inc. : DIGITIZING COMPANY
~Other -----------------------------------------------------
~ASCII -----------------------------------------------------
 1200.00000    -999.25    -999.25    -999.25    -999.25    -999.25    -999.25   68.03420   68.03420    -999.25    -999.25    -999.25    -999.25    -999.25    -999.25    -999.25
 1250.00000    -999.25    -999.25    -999.25    -999.25    -999.25    -999.25   50.49670   50.49670    -999.25    -999.25    -999.25    -999.25    -999.25    -999.25    -999.25
 1300.00000    -999.25    -999.25    -999.25    -999.25    -999.25    -999.25   38.27330   38.27330    -999.25    -999.25    -999.25    -999.25    -999.25    -999.25    -999.25
 1350.00000   10.88800   10.88800  577.56730    1.73140  115.44170  115.44170   96.82820   96.82820    1.73140    1.94560    2.32790    1.94560 -131.43200   -2.16090    2.32790
 1400.00000   10.62600   10.62600  125.86340    7.94630  102.48020  102.48020   76.22290   76.22290    7.94630    8.46800    8.85040    8.46800 -134.64970   -7.71680    8.85040
 1450.00000   10.35640   10.35640   76.32480   13.10190   85.68050   85.68050   46.34470   46.34470   13.10190   13.97110   16.62620   13.97110 -137.03450  -10.10160   16.62620
 1500.00000   10.77180   10.77180  135.23750    7.39440   85.97750   85.97750   58.94160   58.94160    7.39440    8.43540    9.37700    8.43540 -126.35490   -1.67540    9.37700
 1550.00000    9.71860    9.71860  125.99680    7.94190   85.51720   85.51720   79.33500   79.33500    7.94190    9.79440   10.68710    9.79440 -125.88710   -2.45950   10.68710
 1600.00000    9.10890    9.10890   89.06070   11.22830  105.72100  105.72100  113.64560  113.64560   11.22830   12.35580   13.72970   12.35580 -124.58000   -1.88310   13.72970
 1650.00000    8.54620    8.54620   47.41640   21.17910   77.63750   77.63750   57.89650   57.89650   21.17910   24.80700   28.80650   24.80700 -130.31140   -8.34040   28.80650
 1700.00000    8.43640    8.43640  105.46520    9.48180  124.01330  124.01330   70.47620   70.47620    9.48180   11.09410   12.87170   11.09410 -125.34920   -3.40580   12.87170
 1750.00000    8.59600    8.59600  111.48770    8.96960   78.24340   78.24340   90.31660   90.31660    8.96960    9.70830   10.98550    9.70830 -130.99650   -8.89580   10.98550
 1800.00000    9.66810    9.66810   45.34690   22.07760   80.26440   80.26440   59.56620   59.56620   22.07760   24.43420   26.44740   24.43420 -145.86010  -23.60210   26.44740
 1850.00000    9.47550    9.47550   59.64950   16.76460  130.35730  130.35730   31.46800   31.46800   16.76460   23.81000   77.34470   23.81000 -128.73930   -6.32300   77.34470
 1900.00000    9.49410    9.49410  101.20880   10.05440  132.33130  132.33130   41.62370   41.62370   10.05440   15.21610   18.61980   15.21610 -124.38620   -1.89430   18.61980
 1950.00000    9.46080    9.46080   88.55750   11.29210   74.91890   74.91890   63.22890   63.22890   11.29210   12.02760   13.27760   12.02760 -126.38190   -4.25300   13.27760
 2000.00000    9.10300    9.10300  242.02530    4.13180  118.84710  118.84710   53.78980   53.78980    4.13180    5.97940   17.81360    5.97940 -126.75630   -4.92130   17.81360
 2050.00000    9.54800    9.54800  162.17090    6.17190  106.39160  106.39160   75.19260   75.19260    6.17190    6.69020    7.20470    6.69020 -125.70100   -3.74450    7.20470
 2100.00000    9.36570    9.36570  145.52860    6.87150   87.42900   87.42900   77.82960   77.82960    6.87150    7.24030    7.75400    7.24030 -126.33810   -4.25930    7.75400
 2150.00000    9.87190    9.87190  200.83150    4.97960  104.42380  104.42380   72.20000   72.20000    4.97960    5.38250    5.65410    5.38250 -126.07380   -3.87350    5.65410
 2200.00000    9.10760    9.10760  325.18210    3.07520  110.54970  110.54970   86.56640   86.56640    3.07520    3.67620    3.99490    3.67620 -124.72700   -2.40440    3.99490
 2250.00000    9.46630    9.46630  267.49410    3.73840  100.25180  100.25180   86.92210   86.92210    3.73840    3.99920    4.14890    3.99920 -124.56260   -2.11850    4.14890
 2300.00000    9.41570    9.41570   82.54250   12.11550   70.54030   70.54030   38.36560   38.36560   12.11550   14.16770   16.23190   14.16770 -125.23700   -2.95580   16.23190
 2350.00000    9.44770    9.44770   87.68160   11.40490   79.60420   79.60420   48.24920   48.24920   11.40490   12.48100   13.26180   12.48100 -128.01180   -7.68050   13.26180
 2400.00000    9.42840    9.42840  167.74930    5.96870   88.44580   88.44580   52.60340   52.60340    5.96870    6.70700    7.69290    6.70700 -122.12080   -3.72660    7.69290
 2450.00000    9.11950    9.11950   45.62230   21.91910   61.61170   61.61170   50.94020   50.94020   21.91910   24.83230   27.04640   24.83230 -126.93340   -8.83780   27.04640
 2500.00000    9.01300    9.01300  239.41200    4.17690   83.99350   83.99350   55.28190   55.28190    4.17690    5.09760    6.56370    5.09760 -125.54860   -7.53090    6.56370
 2550.00000    8.79980    8.79980   67.29590   14.90470   76.98750   76.98750   46.99490   46.99490   14.90470   16.45220   18.32900   16.45220 -134.28920  -16.34940   18.32900
 2600.00000    9.27390    9.27390  162.43520    6.15630   88.12530   88.12530   71.80940   71.80940    6.15630    7.07840    8.28610    7.07840 -125.17160   -7.31020    8.28610
 2650.00000    9.25160    9.25160  153.22580    6.52670   86.16740   86.16740   70.32260   70.32260    6.52670    6.87690    7.40280    6.87690 -125.94870   -8.16530    7.40280
 2700.00000    9.06340    9.06340  125.48310    7.96920   83.54630   83.54630   60.30800   60.30800    7.96920    8.90350   10.02510    8.90350 -130.32100  -12.61600   10.02510
 2750.00000    9.07860    9.07860  114.61580    8.72480   78.06100   78.06100   61.70290   61.70290    8.72480    9.20780    9.61700    9.20780 -130.63180  -13.00470    9.61700
 2800.00000    9.29120    9.29120  174.81180    5.72290   88.71960   88.71960   73.27000   73.27000    5.72290    6.63490    6.95350    6.63490 -125.88590   -8.33670    6.95350
 2850.00000    9.08360    9.08360  150.70910    6.63530   85.04850   85.04850   81.93560   81.93560    6.63530    6.95470    7.25210    6.95470 -125.82830   -8.35760    7.25210
 2900.00000    9.28870    9.28870  204.95460    4.88040   83.85690   83.85690   92.25550   92.25550    4.88040    5.39300    5.92660    5.39300 -123.58840   -6.19560    5.92660
 2950.00000    9.41430    9.41430  145.82570    6.85750   82.64250   82.64250   76.86030   76.86030    6.85750    7.02180    7.62210    7.02180 -124.05200   -6.73760    7.62210
 3000.00000    9.50130    9.50130   72.10480   13.86870   73.78850   73.78850   52.81600   52.81600   13.86870   15.51950   16.80680   15.51950 -126.15940   -8.92290   16.80680
 3050.00000    9.45230    9.45230  193.89050    5.15760  100.68610  100.68610   81.53000   81.53000    5.15760    5.50290    5.75210    5.50290 -121.23750   -4.07890    5.75210
 3100.00000    9.50470    9.50470  164.17400    6.09110   95.88740   95.88740   77.41440   77.41440    6.09110    6.67940    7.21950    6.67940 -119.43550   -2.35540    7.21950
 3150.00000    9.61810    9.61810  297.05410    3.36810  114.55210  114.55210   75.40440   75.40440    3.36810    3.47090    4.26680    3.47090 -119.16270   -2.16050    4.26680
 3200.00000    9.34400    9.34400   95.55750   10.46490   77.96610   77.96610   56.68630   56.68630   10.46490   11.27320   12.49420   11.27320 -126.79020   -9.86640   12.49420
 3250.00000    9.50720    9.50720  250.68310    3.98910   99.82760   99.82760   76.99080   76.99080    3.98910    4.25400    4.50780    4.25400 -119.51750   -2.67160    4.50780
 3300.00000    9.36820    9.36820  217.79830    4.59150   90.75750   90.75750   73.48960   73.48960    4.59150    4.68340    4.94640    4.68340 -120.48310   -3.71520    4.94640
 3350.00000    9.06370    9.06370  178.75340    5.59430   94.54390   94.54390   83.35520   83.35520    5.59430    5.92420    6.22350    5.92420 -120.31470   -3.62520    6.22350
 3400.00000    9.46050    9.46050  240.53330    4.15990   91.98640   91.98640   74.35500   74.35500    4.15990    4.59110    4.88860    4.59110 -120.95460   -4.34300    4.88860
 3450.00000    9.51470    9.51470  145.46510    6.87450   75.93300   75.93300   52.45080   52.45080    6.87450    7.50730    8.22930    7.50730 -122.44040   -5.90720    8.22930
