~Version ---------------------------------------------------
VERS.      2.0 : CWLS log ASCII Standard -VERSION 2.0
WRAP.       NO : One line per depth step
CREA. 08/26/13 : LAS Creation Date
~Well ------------------------------------------------------
STRT.M                          350.0 : START DEPTH
STOP.M                         2650.0 : STOP DEPTH
STEP.M                       50.00000 : STEP LENGTH
NULL.                         -999.25 : NULL VALUE
COMP.        CHEVRON CANADA RESOURCES : COMPANY
WELL. CHEVRON UNIT SNIPELK 6-35-70-18 : WELL
FLD .                                 : FIELD
LOC .                                 : LOCATION
CTRY.                          CANADA : COUNTRY
SRVC.                  Atlas Wireline : SERVICE COMPANY
DATE.                     19-Mar-1993 : LOGDATE
PROV.                         Alberta : PROVINCE
UWI .                100063507018W500 : UNIQUE WELL ID
SLAT.WGS84                   55.10361 : SURFACE LATITUDE
SLON.WGS84                  -116.6358 : SURFACE LONGITUDE
~Curve Information -----------------------------------------
DEPT    .M      : DEPTH METER
ACED    .US/M   : ACOUSTIC FROM SONIC LOG
C13DED  .MM     : CALIPER 13 FROM DENSITY LOG [ADJ. TO RESISTIVITY LOG]
C13SED  .MM     : CALIPER 13 FROM SONIC LOG
C24SED  .MM     : CALIPR 24 FROM SONIC LOG
CALWS   .MM     : CALIPER [C13SED]
CNCLSED .V/V    : NEUTRON POROSITY LIMESTONE FROM DENSITY LOG [ADJ. TO RESISTIVITY LOG]
CNCSSED .V/V    : NEUTRON POROSITY SANDSTONE FROM DENSITY LOG [ADJ. TO RESISTIVITY LOG]
CONDWS  .MMHO   : CONDUCTIVITY [1000/DRESWS]
DCORWS  .KG/M3  : DENSITY CORRECTION [ZCORED]
DENWS   .KG/M3  : FORMATION BULK DENSITY [CALC. FROM DPOLSWS, M=2710, F=1000]
DPOLSWS .V/V    : DENSITY POROSITY LIMESTONE [PORZSSED CONVERTED TO LIMESTONE MATRIX, M=2710, F=1000, SPL. TO PORZLSED @ 1362.2 M]
DRESWS  .OHMM   : DEEP RESISTIVITY [RIPDED]
DTWS    .US/M   : COMPRESSIONAL SONIC [ACED]
GRDED   .GAPI   : GAMMA RAY FROM DENSITY LOG [ADJ. TO RESISTIVITY LOG]
GRRED   .GAPI   : GAMMA RAY FROM RESISTIVITY LOG
GRWS    .GAPI   : GAMMA RAY [GRRED SPL. TO GRDED @ 2638M]
MRESWS  .OHMM   : MEDIUM RESISTIVITY [RIPMED]
NPOLSWS .V/V    : NEUTRON POROSITY LIMESTONE [CNCSSED CONVERSION FOR LIMESTONE MATRIX, SPL. TO CNCLSED @ 1362 M]
PEED    .B/E    : PHOTO ELECTRIC CROSS SECTION FROM DENSITY LOG [ADJ. TO RESISTIVITY LOG]
PEFWS   .B/E    : PHOTO ELECTRIC FACTOR [PEED]
PORZLSED.V/V    : DENSITY POROSITY LIMESTONE [M=2710, F=1000] FROM DENSITY LOG [ADJ. TO RESISTIVITY LOG]
PORZSSED.V/V    : DENSITY POROSITY SANDSTONE [M=2650, F=1000] FROM DENSITY LOG [ADJ. TO RESISTIVITY LOG]
RIPDED  .OHMM   : DEEP RESISTIVITY FROM RESISTIVITY LOG
RIPMED  .OHMM   : MEDIUM RESISTIVITY FROM RESISTIVITY LOG
RSFLED  .OHMM   : RAW SPHERICALLY FOCUSED FROM RESISTIVITY LOG
SPRED   .MV     : SPONTANEOUS POTENTIAL FROM RESISTIVITY LOG
SPWS    .MV     : SPONTANEOUS POTENTIAL [BASELINE 0 MV, SPRED]
SRESWS  .OHMM   : SHALLOW RESISTIVITY [RSFLED]
TENDED  .N      : TENSION FROM DENSITY LOG [ADJ. TO RESISTIVITY LOG]
TENRED  .N      : TENSION FROM RESISTIVITY LOG
ZCORED  .KG/M3  : DENSITY CORRECTION FROM DENSITY LOG [ADJ. TO RESISTIVITY LOG]
ZDENED  .KG/M3  : FORMATION BULK DENSITY FROM DENSITY LOG [ADJ. TO PORZLSED/PORZSSED/RESISTIVITY LOG]
~Params ----------------------------------------------------
PD  .                         GL : PERMANENT DATUM
EPD .M                     785.8 : ELEVATION PERMANENT DATUM
LMF .                         KB : LOG MEASURED FROM
DAPD.M                       6.6 : FEET ABOVE PERMANENT DATUM
DMF .                         KB : DRILLING MEASURED FROM
EKB .M                     792.4 : KELLY BUSHING
EGL .M                     785.8 : GROUND LEVEL
DATE.                   03/19/93 : RUN DATE
RUN .                          1 : RUN NUMBER
DD  .M                      2665 : DEPTH DRILLER
DL  .M                    2663.6 : DEPTH LOGGER
BLI .M                    2660.3 : BOTTOM LOG INTERVAL
TLI .M                     346.5 : TOP LOG INTERVAL
CS  .MM                    219.1 : CASING SIZE
CBD .M                     347.8 : CASING BOTTOM DRILLER
CBL .M                     346.5 : CASING BOTTOM LOGGER
BS  .MM                      200 : BIT SIZE
BSD .M                      2665 : BIT SIZE AT DEPTH
DFT .               GEL CHEMICAL : DRILLING FLUID TYPE
DFD .                       1225 : DRILLING FLUID DENSITY
DFV .                         55 : DRILLING FLUID VISCOSITY
DFPH.                          9 : DRILLING FLUID PH
DFL .                          9 : DRILLING FLUID LOSS
MSS .                   FLOWLINE : MUD SAMPLE SOURCE
RMS .OHMM                    0.7 : RESISTIVITY MUD SAMPLE
MST .DEGC                     15 : MUD SAMPLE TEMPERATURE
RMF .OHMM                  0.551 : RESISTIVITY MUD FILTRATE SAMPLE
MFST.DEGC                   14.9 : MUD FILTRATE SAMPLE TEMPERATURE
RMC .OHMM                      1 : RESISTIVITY MUD CAKE
MCST.DEGC                     15 : MUD CAKE SAMPLE TEMPERATURE
MFSS.                   MEASURED : MUD FILTRATE SAMPLE SOURCE
MCSS.                   MEASURED : MUD CAKE SAMPLE SOURCE
RMB .OHMM                   0.26 : RESISTIVITY MUD AT BHT
TCS .HRS                      12 : TIME CIRCULATED STOPPED
LUN .                    HL 6444 : LOGGING UNIT NUMBER
LUL .                 GR PRAIRIE : LOGGING UNIT LOCATION
ENGI.                       BUCK : RECORDING ENGINEER
WITN.                      CLARK : WITNESSED BY
CLNT.                    A2DTECH : CLIENT CODE
ORIG. 6.5"/100M 16.5"/100M PRINT : ORIGIN OF DATA
UWI .           100063507018W500 : UNIQUE WELL ID
DICO.     A2D Technologies, Inc. : DIGITIZING COMPANY
~Other -----------------------------------------------------
DPI-ZDL-CNL-BHC LOG RUN
RHOB FROM SMALL SCALE LOG
~ASCII -----------------------------------------------------
# ...
 1450.00000  162.38930    -999.25  230.32880  220.04020  230.32880    -999.25    -999.25   34.48590    -999.25    -999.25    -999.25   28.99740  162.38930    -999.25   23.01970   23.01970   51.07140    -999.25    -999.25    -999.25    -999.25    -999.25   28.99740   51.07140  134.08760  -87.28090  -69.67680  134.08760    -999.25 -653.49610    -999.25    -999.25
 1500.00000  187.05610    -999.25  239.99940  234.82270  239.99940    -999.25    -999.25   28.38830    -999.25    -999.25    -999.25   35.22580  187.05610    -999.25   31.61450   31.61450   34.06700    -999.25    -999.25    -999.25    -999.25    -999.25   35.22580   34.06700   39.67800  -45.71870  -14.80870   39.67800    -999.25 -623.14140    -999.25    -999.25
 1550.00000  204.59210    -999.25  268.47380  257.11040  268.47380    -999.25    -999.25  135.53260    -999.25    -999.25    -999.25    7.37830  204.59210    -999.25   27.75390   27.75390    6.56490    -999.25    -999.25    -999.25    -999.25    -999.25    7.37830    6.56490    9.60580  -69.11630  -33.81340    9.60580    -999.25 -1223.39110    -999.25    -999.25
 1600.00000  199.13690    -999.25  268.80840  260.47990  268.80840    -999.25    -999.25  149.28940    -999.25    -999.25    -999.25    6.69840  199.13690    -999.25   16.99820   16.99820   10.25640    -999.25    -999.25    -999.25    -999.25    -999.25    6.69840   10.25640   32.65070 -117.43680  -79.01780   32.65070    -999.25 -842.90730    -999.25    -999.25
 1650.00000  227.54420    -999.25  397.92810  294.18690  397.92810    -999.25    -999.25  332.33630    -999.25    -999.25    -999.25    3.00900  227.54420    -999.25   56.33850   56.33850    3.16050    -999.25    -999.25    -999.25    -999.25    -999.25    3.00900    3.16050    3.40940  -49.07310   -5.33060    3.40940    -999.25 -3459.35220    -999.25    -999.25
 1700.00000  181.82520    -999.25  230.80730  233.24940  230.80730    -999.25    -999.25   18.22510    -999.25    -999.25    -999.25   54.86950  181.82520    -999.25   19.49650   19.49650   43.94620    -999.25    -999.25    -999.25    -999.25    -999.25   54.86950   43.94620   63.01260  -73.98580  -28.75900   63.01260    -999.25 -772.62460    -999.25    -999.25
 1750.00000  202.75690    -999.25  235.66760  231.69530  235.66760    -999.25    -999.25   76.85210    -999.25    -999.25    -999.25   13.01200  202.75690    -999.25   36.06770   36.06770   13.49010    -999.25    -999.25    -999.25    -999.25    -999.25   13.01200   13.49010   15.29090  -86.80050  -40.08960   15.29090    -999.25 -1164.85510    -999.25    -999.25
 1800.00000  206.74240    -999.25  234.00940  230.19020  234.00940    -999.25    -999.25   81.52950    -999.25    -999.25    -999.25   12.26550  206.74240    -999.25   39.60790   39.60790   12.62700    -999.25    -999.25    -999.25    -999.25    -999.25   12.26550   12.62700   15.35330  -61.73540  -13.54030   15.35330    -999.25 -1230.61150    -999.25    -999.25
 1850.00000  174.30350    -999.25  225.39100  228.17310  225.39100    -999.25    -999.25   23.13930    -999.25    -999.25    -999.25   43.21650  174.30350    -999.25   20.78960   20.78960   44.49520    -999.25    -999.25    -999.25    -999.25    -999.25   43.21650   44.49520   68.23240  -72.68020  -23.73540   68.23240    -999.25 -101.49950    -999.25    -999.25
 1900.00000  167.03790    -999.25  224.69850  233.51060  224.69850    -999.25    -999.25    9.57130    -999.25    -999.25    -999.25  104.47880  167.03790    -999.25   11.44450   11.44450   94.98610    -999.25    -999.25    -999.25    -999.25    -999.25  104.47880   94.98610  125.16160 -127.55490  -79.45000  125.16160    -999.25 -505.70120    -999.25    -999.25
 1950.00000  166.20380    -999.25  222.02070  238.86400  222.02070    -999.25    -999.25    8.71280    -999.25    -999.25    -999.25  114.77390  166.20380    -999.25   10.87040   10.87040  104.94320    -999.25    -999.25    -999.25    -999.25    -999.25  114.77390  104.94320  130.67880 -136.54520  -89.28020  130.67880    -999.25 -1065.14280    -999.25    -999.25
 2000.00000  162.98180    -999.25  225.29290  256.16440  225.29290    -999.25    -999.25   11.18180    -999.25    -999.25    -999.25   89.43080  162.98180    -999.25    9.61700    9.61700   79.29100    -999.25    -999.25    -999.25    -999.25    -999.25   89.43080   79.29100  142.53960 -125.09410  -78.66900  142.53960    -999.25 -1966.34350    -999.25    -999.25
 2050.00000  164.23390    -999.25  220.47520  281.50600  220.47520    -999.25    -999.25    2.16390    -999.25    -999.25    -999.25  462.12290  164.23390    -999.25   11.93830   11.93830  187.98280    -999.25    -999.25    -999.25    -999.25    -999.25  462.12290  187.98280  351.93220 -169.87740 -124.29230  351.93220    -999.25 -1191.90490    -999.25    -999.25
 2100.00000  188.79320  231.24110  235.03790  238.32740  235.03790    0.09540    -999.25   57.12130   75.00000 2530.96300    0.10470   17.50660  188.79320    9.90060   10.11350   10.11350   29.73740    0.09540   12.23390   12.23390    0.10470    -999.25   17.50660   29.73740   44.66620 -136.83910  -92.09390   44.66620 -2443.72880 -2237.43390   75.00000 2533.80000
 2150.00000  162.11930  227.87470  224.49140  227.12020  224.49140    0.09090    -999.25   60.12510   33.30000 2790.19900   -0.04690   16.63200  162.11930   20.17530   22.54540   22.54540   18.12490    0.09090    4.19490    4.19490   -0.04690    -999.25   16.63200   18.12490   42.02660  -95.61330  -51.70810   42.02660 -1679.61790 -1105.09780   33.30000 2795.00000
 2200.00000  179.14450  222.26620  222.18870  218.49670  222.18870    0.04490    -999.25   31.71640    6.50000 2683.83700    0.01530   31.52940  179.14450   21.01290   21.72400   21.72400   32.68510    0.04490    5.67960    5.67960    0.01530    -999.25   31.52940   32.68510   41.24130  -66.95090  -23.88560   41.24130 -1433.43090 -1167.81870    6.50000 2696.30000
 2250.00000  297.96230  291.75760  423.42350  302.45710  423.42350    0.48410    -999.25  305.04550  180.80000 2264.20300    0.26070    3.27820  297.96230   74.08880   78.83240   78.83240    2.31250    0.48410    9.35640    9.35640    0.26070    -999.25    3.27820    2.31250    3.15490  -60.45720  -18.79940    3.15490   62.20910 -728.33190  180.80000 2301.90000
 2300.00000  257.81140  395.93630  421.34260  308.59130  421.34260    0.39850    -999.25  235.48800  223.30000 2297.20600    0.24140    4.24650  257.81140   61.47370   69.91050   69.91050    3.50810    0.39850   10.70760   10.70760    0.24140    -999.25    4.24650    3.50810    4.63770  -50.83280  -11.77760    4.63770 4002.59260 -1723.07530  223.30000 2284.30000
 2350.00000  290.75360  389.60850  420.20960  261.23520  420.20960    0.52470    -999.25  292.32070  222.70000 2244.02500    0.27250    3.42090  290.75360   69.08100   78.33470   78.33470    2.81530    0.52470   12.23240   12.23240    0.27250    -999.25    3.42090    2.81530    3.69390  -44.58420   -8.13150    3.69390 -2730.06830 -1621.54890  222.70000 2242.80000
 2400.00000  218.32710  230.31140  219.66400  220.47810  219.66400    0.13490    -999.25  113.20930    0.40000 2687.59900    0.01310    8.83320  218.32710   58.83660   63.53020   63.53020    9.42220    0.13490    5.99820    5.99820    0.01310    -999.25    8.83320    9.42220   12.50310  -39.85980   -4.86490   12.50310 -620.18680  -45.31640    0.40000 2687.30000
 2450.00000  228.13870  244.41380  235.07290  212.42850  235.07290    0.14590    -999.25  129.62940  135.50000 2715.64300   -0.00330    7.71430  228.13870   70.24980   73.35290   73.35290    8.32150    0.14590    6.49380    6.49380   -0.00330    -999.25    7.71430    8.32150   11.11850  -34.80440   -0.41860   11.11850 -2184.93290 -2178.97870  135.50000 2703.40000
 2500.00000  277.38370  347.96810  422.00170  320.94330  422.00170    0.47770    -999.25  282.35830  121.80000 2136.97900    0.33510    3.54160  277.38370   72.14730   76.56270   76.56270    3.21100    0.47770   14.25170   14.25170    0.33510    -999.25    3.54160    3.21100    3.59020  -34.95330   -3.55030    3.59020 -1942.67050 -1250.36000  121.80000 2162.60000
