~Version ---------------------------------------------------
VERS.      2.0 : CWLS log ASCII Standard -VERSION 2.0
WRAP.       NO : One line per depth step
CREA. 07/27/13 : LAS Creation Date
~Well ------------------------------------------------------
STRT.M                   300.0 : START DEPTH
STOP.M                  3250.0 : STOP DEPTH
STEP.M                50.00000 : STEP LENGTH
NULL.                  -999.25 : NULL VALUE
COMP.        SUNCOR ENERGY INC : COMPANY
WELL. SUNCOR CARROT 9-34-53-14 : WELL
FLD .                          : FIELD
LOC .                          : LOCATION
CTRY.                   CANADA : COUNTRY
SRVC.             Schlumberger : SERVICE COMPANY
DATE.              15-Sep-1998 : LOGDATE
PROV.                  Alberta : PROVINCE
UWI .         100093405314W500 : UNIQUE WELL ID
SLAT.WGS84            53.62161 : SURFACE LATITUDE
SLON.WGS84           -115.9717 : SURFACE LONGITUDE
~Curve Information -----------------------------------------
DEPT    .M      : DEPTH METER
AT10ED  .OHMM   : 10 INCH RESISTIVITY TWO FOOT RESOLUTION FROM RESISTIVITY LOG
AT20ED  .OHMM   : 20 INCH RESISTIVITY TWO FOOT RESOLUTION FROM RESISTIVITY LOG
AT30ED  .OHMM   : 30 INCH RESISTIVITY TWO FOOT RESOLUTION FROM RESISTIVITY LOG
AT60ED  .OHMM   : 60 INCH RESISTIVITY TWO FOOT RESOLUTION FROM RESISTIVITY LOG
AT90ED  .OHMM   : 90 INCH RESISTIVITY TWO FOOT RESOLUTION FROM RESISTIVITY LOG
CAL2ED  .MM     : CALIPER 2 FROM DENSITY LOG
CALSED  .MM     : CALIPER FROM SONIC LOG [ADJ. TO RESISTIVITY LOG]
CALWS   .MM     : CALIPER [HCALSED]
CONDWS  .MMHO   : CONDUCTIVITY [1000/DRESWS]
DCORWS  .KG/M3  : DENSITY CORRECTION [HDRAED]
DENWS   .KG/M3  : FROMATION BULK DENSITY [CALC FROM DPOSSWS, M=2650,F=1000]
DPHISSED.V/V    : DENSITY POROSITY SANDSTONE [M=2650,F=1000] FROM DENSITY LOG
DPHZSSED.V/V    : DENSITY POROSITY SANDSTONE [M=2650,F=1000] FROM DENSITY LOG
DPOSSWS .V/V    : DENSITY POROSITY SANDSTONE [DPHZSSED]
DRESWS  .OHMM   : DEEP RESISTIVITY [AT90ED]
DRHOED  .KG/M3  : DENSITY CORRECTION FROM DENSITY LOG
DTED    .US/M   : DELTA TIME FROM SONIC LOG [ADJ. TO RESISTIVITY LOG]
DTWS    .US/M   : COMPRESSIONAL SONIC [DTED]
GRED    .GAPI   : GAMMA RAY FROM CBL LOG [ADJ. TO RESISTIVITY LOG]
GRRED   .GAPI   : GAMMA RAY FROM RESISTIVITY LOG
GRSED   .GAPI   : GAMMA RAY FROM SONIC LOG [ADJ. TO RESISTIVITY LOG]
GRWS    .GAPI   : GAMMA RAY [GRED SPL. TO GRRED @ 385M AND SPL. TO GRSED @ 3248.2M]
HCALSED .MM     : HRCC CALIPER FROM SONIC LOG [ADJ. TO RESISTIVITY LOG]
HDRAED  .KG/M3  : DENSITY CORRECTION FROM DENSITY LOG
MRESWS  .OHMM   : MEDIUM RESISTIVITY [AT30ED]
NPORSSED.V/V    : NEUTRON POROSITY SANDSTONE FROM DENSITY LOG
NPOSSWS .V/V    : NEUTRON POROSITY SANDSTONE [NPORSSED]
PEFED   .B/E    : PHOTOELECTRIC FACTOR FROM DENSITY LOG
PEFWS   .B/E    : PHOTOELECTRIC FACTOR [PEFZED]
PEFZED  .B/E    : PHOTOELECTRIC FACTOR FROM DENSITY LOG
RHOBED  .KG/M3  : BULK DENSITY FROM DENSITY LOG [ADJ. TO DPHISSED]
RHOZED  .KG/M3  : BULK DENSITY HRDD STANDARD RESOLUTION FROM DENSITY LOG [DPHZSSED]
SPRED   .MV     : SPONTANEOUS POTENTIAL FROM RESISTIVITY LOG
SPWS    .MV     : SPONTANEOUS POTENTIAL [SPRED]
SRESWS  .OHMM   : SHALLOW RESISTIVITY [AT10ED]
TENRED  .N      : TENSION FROM RESISTIVITY LOG
TENSED  .N      : TENSION FROM SONIC LOG [ADJ. TO RESISTIVITY LOG]
~Params ----------------------------------------------------
PD  .                       GL : PERMANENT DATUM
EPD .M                   870.3 : ELEVATION PERMANENT DATUM
LMF .                       KB : LOG MEASURED FROM
DAPD.M                     6.3 : FEET ABOVE PERMANENT DATUM
DMF .                       KB : DRILLING MEASURED FROM
EKB .M                   876.6 : KELLY BUSHING
EDF .M                   876.3 : DRILLING FLOOR
EGL .M                   870.3 : GROUND LEVEL
DATE.                 09/15/98 : RUN DATE
RUN .                        2 : RUN NUMBER
DD  .M                    3262 : DEPTH DRILLER
DL  .M                  3262.7 : DEPTH LOGGER
BLI .M                  3260.3 : BOTTOM LOG INTERVAL
TLI .M                    2235 : TOP LOG INTERVAL
CS  .MM                  177.8 : CASING SIZE
CBD .M                    2233 : CASING BOTTOM DRILLER
CBL .M                    2235 : CASING BOTTOM LOGGER
BS  .MM                  155.6 : BIT SIZE
BSD .M                    3262 : BIT SIZE AT DEPTH
DFT .              GEL POLYMER : DRILLING FLUID TYPE
DFD .                     1155 : DRILLING FLUID DENSITY
DFV .                       77 : DRILLING FLUID VISCOSITY
DFPH.                      6.5 : DRILLING FLUID PH
DFL .                     10.5 : DRILLING FLUID LOSS
MSS .                 FLOWLINE : MUD SAMPLE SOURCE
RMS .OHMM                0.827 : RESISTIVITY MUD SAMPLE
MST .DEGC                   14 : MUD SAMPLE TEMPERATURE
RMF .OHMM                0.648 : RESISTIVITY MUD FILTRATE SAMPLE
MFST.DEGC                   13 : MUD FILTRATE SAMPLE TEMPERATURE
RMC .OHMM                 1.18 : RESISTIVITY MUD CAKE
MCST.DEGC                   10 : MUD CAKE SAMPLE TEMPERATURE
MFSS.                     MEAS : MUD FILTRATE SAMPLE SOURCE
MCSS.                     MEAS : MUD CAKE SAMPLE SOURCE
RMB .OHMM                0.225 : RESISTIVITY MUD AT BHT
TCS .HRS                   200 : TIME CIRCULATED STOPPED
TLAB.HRS                     5 : TIME LOGGER AT BOTTOM
LUN .                     2111 : LOGGING UNIT NUMBER
LUL .                NISKU F S : LOGGING UNIT LOCATION
ENGI.            HARVEY KAZEMI : RECORDING ENGINEER
WITN.                PATTERSON : WITNESSED BY
CLNT.                  A2DTECH : CLIENT CODE
ORIG. 6.5"/100M 16"/100M PRINT : ORIGIN OF DATA
UWI .         100093405314W500 : UNIQUE WELL ID
DICO.   A2D Technologies, Inc. : DIGITIZING COMPANY
~Other -----------------------------------------------------
AIT-CNT-LDT RAN IN COMBO & BHC & CBL TOOL RUN
RHOZ & RHOB FROM SMALL SCALE SECTION
POOR PEF DUE TO BARITE IN MUD
SP RELOGGED FROM BRIDGE @ 1963 M
~ASCII -----------------------------------------------------
  300.00000    -999.25    -999.25    -999.25    -999.25    -999.25    -999.25    -999.25    -999.25    -999.25    -999.25    -999.25    -999.25    -999.25    -999.25    -999.25    -999.25    -999.25    -999.25   59.67910    -999.25    -999.25   59.67910    -999.25    -999.25    -999.25    -999.25    -999.25    -999.25    -999.25    -999.25    -999.25    -999.25    -999.25    -999.25    -999.25    -999.25    -999.25
  350.00000    -999.25    -999.25    -999.25    -999.25    -999.25    -999.25    -999.25    -999.25    -999.25    -999.25    -999.25    -999.25    -999.25    -999.25    -999.25    -999.25    -999.25    -999.25   30.64590    -999.25    -999.25   30.64590    -999.25    -999.25    -999.25    -999.25    -999.25    -999.25    -999.25    -999.25    -999.25    -999.25    -999.25    -999.25    -999.25    -999.25    -999.25
  400.00000    -999.25    -999.25    -999.25    -999.25    -999.25    -999.25    -999.25    -999.25    -999.25    -999.25    -999.25    -999.25    -999.25    -999.25    -999.25    -999.25    -999.25    -999.25   35.49330   58.83280   58.02720   58.83280    -999.25    -999.25    -999.25    0.39220    0.39220    -999.25    -999.25    -999.25    -999.25    -999.25    -999.25    -999.25    -999.25    -999.25    -999.25
  450.00000    3.00300    3.22930    3.42110    3.92380    4.10760  250.18980    -999.25  517.30100  243.45120   37.28730 1984.22500    -999.25    0.40350    0.40350    4.10760    -999.25  367.66640  367.66640   65.95440   95.88050   96.67450   95.88050  517.30100   37.28730    3.42110    0.36230    0.36230    -999.25   10.00000   10.00000    -999.25 2063.92040    1.54340   -3.08460    3.00300 9999.95900 9710.20210
  500.00000    7.88930    8.30370    8.73270    9.85340   10.14860  277.93100    -999.25  269.49550   98.53580   27.49380 2331.71500    -999.25    0.19290    0.19290   10.14860    -999.25  300.96650  300.96650   43.61170   59.49200   59.60290   59.49200  269.49550   27.49380    8.73270    0.29100    0.29100    -999.25    8.22950    8.22950    -999.25 2307.86400   -4.28130   -9.87260    7.88930 9718.63960 9877.16410
  550.00000    5.47190    6.07790    6.82740    7.55830    8.45480  309.69030    -999.25  274.25350  118.27600   -1.15940 2442.76000    -999.25    0.12560    0.12560    8.45480    -999.25  293.54320  293.54320   58.45480   76.90860   76.84720   76.90860  274.25350   -1.15940    6.82740    0.28400    0.28400    -999.25    4.04580    4.04580    -999.25 2442.90750   -1.58440   -8.45350    5.47190 9976.11040 10118.53420
  600.00000    8.35290    9.02520    9.53180   10.98170   11.31170  260.52270    -999.25  258.39170   88.40400    0.18920 2432.36500    -999.25    0.13190    0.13190   11.31170    -999.25  273.79950  273.79950   45.83810   72.76040   73.15860   72.76040  258.39170    0.18920    9.53180    0.24660    0.24660    -999.25    3.68550    3.68550    -999.25 2455.90890   -2.88500  -11.03180    8.35290 10423.09860 10434.71090
  650.00000    4.84730    5.08940    5.73310    6.69750    7.06230  237.34160    -999.25  342.56400  141.59690    5.74680 2120.18500    -999.25    0.32110    0.32110    7.06230    -999.25  340.97180  340.97180   58.95770   78.26780   78.26660   78.26780  342.56400    5.74680    5.73310    0.35020    0.35020    -999.25   10.00000   10.00000    -999.25 2129.31960    3.21710   -6.20750    4.84730 10242.31930 10448.36820
  700.00000    4.30400    4.74280    5.32810    5.96870    6.57010  270.89590    -999.25  260.14000  152.20470    7.72450 2197.90000    -999.25    0.27400    0.27400    6.57010    -999.25  340.68000  340.68000   43.81830   71.55020   71.44450   71.55020  260.14000    7.72450    5.32810    0.37150    0.37150    -999.25    7.90870    7.90870    -999.25 2211.84790    4.05810   -6.64420    4.30400 11084.15920 10959.15920
  750.00000    4.37560    4.57720    4.90870    5.33330    5.46890  235.31720    -999.25  302.31630  182.85210   30.96420 2181.23500    -999.25    0.28410    0.28410    5.46890    -999.25  296.11220  296.11220   60.32080   78.66720   78.90930   78.66720  302.31630   30.96420    4.90870    0.29280    0.29280    -999.25   10.00000   10.00000    -999.25 2101.95480    4.98610   -6.99410    4.37560 11412.48140 11355.81050
  800.00000    3.28090    3.66080    3.89080    4.05660    4.16600  242.70180    -999.25  327.30290  240.03840   35.62790 2174.14000    -999.25    0.28840    0.28840    4.16600    -999.25  302.33460  302.33460   65.83610   94.20010   94.26980   94.20010  327.30290   35.62790    3.89080    0.31610    0.31610    -999.25   10.00000   10.00000    -999.25 2166.94870   10.40530   -2.72020    3.28090 11725.35450 11687.95700
  850.00000    5.09270    5.94230    6.69630    8.13640   10.03580  241.96700    -999.25  245.23890   99.64330   23.59250 2370.16000    -999.25    0.16960    0.16960   10.03580    -999.25  250.41360  250.41360   67.24610   74.61780   73.16920   74.61780  245.23890   23.59250    6.69630    0.24000    0.24000    -999.25    8.42770    8.42770    -999.25 2356.77320    6.60890   -7.22880    5.09270 11929.06840 11741.11820
  900.00000    5.24580    5.55530    5.88170    6.25270    6.35350  245.14080    -999.25  308.35510  157.39360   -8.18560 2386.16500    -999.25    0.15990    0.15990    6.35350    -999.25  286.80350  286.80350   52.45570   91.36070   91.66510   91.36070  308.35510   -8.18560    5.88170    0.26780    0.26780    -999.25   10.00000   10.00000    -999.25 2376.53270   -0.34140  -14.89130    5.24580 12537.56930 12191.38090
  950.00000    7.20970    7.53330    7.89180    8.35160    8.68390  261.76200    -999.25  265.40010  115.15560   -3.42590 2385.34000    -999.25    0.16040    0.16040    8.68390    -999.25  273.98910  273.98910   56.31940   77.75010   77.38950   77.75010  265.40010   -3.42590    7.89180    0.25270    0.25270    -999.25    8.80220    8.80220    -999.25 2364.60330    8.86600   -6.39610    7.20970 12253.94820 11932.67290
 1000.00000    3.24770    3.77680    3.98780    3.92410    4.18280  321.17720    -999.25  270.55510  239.07430    2.00170 2393.42500    -999.25    0.15550    0.15550    4.18280    -999.25  317.21540  317.21540   66.73650   95.89000   95.67770   95.89000  270.55510    2.00170    3.98780    0.35700    0.35700    -999.25    4.30720    4.30720    -999.25 2359.47310   11.63910   -4.33520    3.24770 12396.54100 12323.14550
 1050.00000   18.32410   22.15950   29.99480   41.53160   44.42020  288.46970    -999.25  259.90510   22.51230  114.57940 2576.74000    -999.25    0.04440    0.04440   44.42020    -999.25  263.97300  263.97300   27.30730   40.05800   40.32570   40.05800  259.90510  114.57940   29.99480    0.24840    0.24840    -999.25   10.00000   10.00000    -999.25 2569.13180    6.75090   -9.93550   18.32410 12933.05270 12827.07230
 1100.00000    6.63290    8.02810    8.28290    8.47880    8.77900  255.58800    -999.25  313.62110  113.90820   43.96500 2302.18000    -999.25    0.21080    0.21080    8.77900    -999.25  272.46810  272.46810   46.37770   63.95280   63.28070   63.95280  313.62110   43.96500    8.28290    0.28290    0.28290    -999.25   10.00000   10.00000    -999.25 2319.13210   12.69920   -4.69930    6.63290 12855.50680 12733.62110
 1150.00000    9.80720   10.11510   10.48470   10.76210   10.92950  261.73230    -999.25  270.05890   91.49550   83.53990 2478.56500    -999.25    0.10390    0.10390   10.92950    -999.25  261.20650  261.20650   46.25320   68.44200   69.28450   68.44200  270.05890   83.53990   10.48470    0.27840    0.27840    -999.25    8.56140    8.56140    -999.25 2457.13990   13.20910   -4.90170    9.80720 12857.48240 12818.71780
 1200.00000    5.41800    5.71520    6.05210    6.13250    6.46150  264.03320    -999.25  290.71690  154.76280    3.30830 2304.98500    -999.25    0.20910    0.20910    6.46150    -999.25  294.92130  294.92130   51.14210   74.46130   73.29380   74.46130  290.71690    3.30830    6.05210    0.34170    0.34170    -999.25   10.00000   10.00000    -999.25 2299.53830    9.28720   -9.53570    5.41800 13339.51370 13291.66990
 1250.00000    6.50090    8.69810    8.17820    8.94170    9.07680  313.28510    -999.25  248.60330  110.17100    0.61610 2482.52500    -999.25    0.10150    0.10150    9.07680    -999.25  290.77910  290.77910   43.62190   60.96720   60.84660   60.96720  248.60330    0.61610    8.17820    0.32520    0.32520    -999.25    7.05660    7.05660    -999.25 2485.00760    5.43670  -14.09830    6.50090 13382.43750 13373.54390
