~Version ---------------------------------------------------
VERS.      2.0 : CWLS log ASCII Standard -VERSION 2.0
WRAP.       NO : One line per depth step
CREA. 07/26/13 : LAS Creation Date
~Well ------------------------------------------------------
STRT.M                         300.0 : START DEPTH
STOP.M                        3650.0 : STOP DEPTH
STEP.M                      50.00000 : STEP LENGTH
NULL.                        -999.25 : NULL VALUE
COMP.        PANCONTINENTAL OIL LTD. : COMPANY
WELL. PANCON ET AL SIMONN 6-21-64-25 : WELL
FLD .                                : FIELD
LOC .                                : LOCATION
CTRY.                         CANADA : COUNTRY
SRVC.                   Schlumberger : SERVICE COMPANY
DATE.                    13-Sep-1990 : LOGDATE
PROV.                        Alberta : PROVINCE
UWI .               100062106425W500 : UNIQUE WELL ID
SLAT.WGS84                  54.55006 : SURFACE LATITUDE
SLON.WGS84                 -117.7232 : SURFACE LONGITUDE
~Curve Information -----------------------------------------
DEPT    .M      : DEPTH METER
C1ED    .MM     : CALIPER FROM DENSITY LOG [ADJ. TO RESISTIVITY LOG]
C2ED    .MM     : CALIPER FROM DENSITY LOG [ADJ. TO RESISTIVITY LOG]
CALWS   .MM     : CALIPER [HDED]
CIDPED  .MMHO   : CONDUCTIVITY FROM RESISTIVITY LOG
CONDWS  .MMHO   : CONDUCTIVITY [1000/DRESWS]
DCORWS  .KG/M3  : DENSITY CORRECTION [DRHOED]
DENWS   .KG/M3  : FORMATION BULK DENSITY [RHOBED]
DPHILSED.V/V    : DENSITY POROSITY LIMESTONE  [M=2710,F=1000]  FROM DENSITY LOG [ADJ. TO RESISTIVITY LOG]
DPHISSED.V/V    : DENSITY POROSITY SANDSTONE [M=2650,F= 1000] FROM DENSITY LOG [ADJ. TO RESISTIVITY LOG]
DPOLSWS .V/V    : DENSITY POROSITY LIMESTONE [CAL. FROM DENWS, M=2710,F=1000]
DRESWS  .OHMM   : DEEP RESISTIVITY [IDPHED]
DRHOED  .KG/M3  : DENSITY CORRECTION FROM DENSITY LOG [ADJ. TO RESISTIVITY LOG]
DTED    .US/M   : DELTA T FROM SONIC LOG
DTWS    .US/M   : COMPRESSIONAL SONIC [DTED]
GRDED   .GAPI   : GAMMA RAY FROM DENSITY LOG [ADJ. TO RESISTIVITY LOG]
GRMED   .GAPI   : GAMMA RAY FROM MICROLOG [ADJ. TO RESISTIVITY LOG]
GRSED   .GAPI   : GAMMA RAY FROM SONIC LOG
GRWS    .GAPI   : GAMMA RAY [GRSED]
HDED    .MM     : CALIPER FROM SONIC LOG
IDPHED  .OHMM   : DEEP PHASOR INDUCTION RESISTIVITY FROM RESISTIVITY LOG
IMPHED  .OHMM   : MEDIUM PHASOR INDUCTION RESISTIVITY FROM RESISTIVITY LOG
MCALED  .MM     : CALIPER FROM MICROLOG [ADJ. TO RESISTIVITY LOG]
MRESWS  .OHMM   : MEDIUM RESISTIVITY [IMPHED]
NPHILSED.V/V    : NEUTRON POROSITY LIMESTONE FROM DENSITY LOG [ADJ. TO RESISTIVITY LOG]
NPHISSED.V/V    : NEUTRON POROSITY SANDSTONE FROM DENSITY LOG [ADJ. TO RESISTIVITY LOG]
NPOLSWS .V/V    : NEUTRON POROSITY LIMESTONE [NPHISSED MATRIX CONVERSION FOR LIMESTONE, SPL TO NPHILSED @ 2400.1M]
RHOBED  .KG/M3  : BULK DENSITY FROM DENSITY LOG  [ADJ. TO RESISTIVITY LOG]
SFLUED  .OHMM   : SPHERICALLY FOCUSED RESISTIVITY FROM RESISTIVITY LOG
SPRED   .MV     : SPONTANEOUS POTENTIAL FROM RESISTIVITY LOG
SPWS    .MV     : SPONTANEOUS POTENTIAL [BASELINE 0 MV, SPRED]
SRESWS  .OHMM   : SHALLOW RESISTIVITY [SFLUED]
TENDED  .N      : TENSION FROM DENSITY LOG [ADJ. TO RESISTIVITY LOG]
TENMED  .N      : TENTION FROM MICROLOG [ADJ. TO RESISTIVITY LOG]
TENSED  .N      : TENSION FROM SONIC LOG
~Params ----------------------------------------------------
PD  .                         GL : PERMANENT DATUM
EPD .M                     842.7 : ELEVATION PERMANENT DATUM
LMF .                         KB : LOG MEASURED FROM
DAPD.M                       6.4 : FEET ABOVE PERMANENT DATUM
DMF .                         KB : DRILLING MEASURED FROM
EKB .M                     849.1 : KELLY BUSHING
EDF .M                     848.8 : DRILLING FLOOR
EGL .M                     842.7 : GROUND LEVEL
DATE.                   09/13/90 : RUN DATE
RUN .                          1 : RUN NUMBER
DD  .M                      3707 : DEPTH DRILLER
DL  .M                    3692.5 : DEPTH LOGGER
BLI .M                    3989.5 : BOTTOM LOG INTERVAL
TLI .M                     469.7 : TOP LOG INTERVAL
CS  .MM                    244.5 : CASING SIZE
CBD .M                       470 : CASING BOTTOM DRILLER
CBL .M                     469.7 : CASING BOTTOM LOGGER
BS  .MM                      222 : BIT SIZE
BSD .M                      3707 : BIT SIZE AT DEPTH
DFT .                   GEL CHEM : DRILLING FLUID TYPE
DFD .                       1115 : DRILLING FLUID DENSITY
DFV .                         68 : DRILLING FLUID VISCOSITY
DFPH.                        9.5 : DRILLING FLUID PH
DFL .                        8.2 : DRILLING FLUID LOSS
MSS .                   FLOWLINE : MUD SAMPLE SOURCE
RMS .OHMM                   2.54 : RESISTIVITY MUD SAMPLE
MST .DEGC                     14 : MUD SAMPLE TEMPERATURE
RMF .OHMM                   2.41 : RESISTIVITY MUD FILTRATE SAMPLE
MFST.DEGC                     15 : MUD FILTRATE SAMPLE TEMPERATURE
RMC .OHMM                   2.41 : RESISTIVITY MUD CAKE
MCST.DEGC                     16 : MUD CAKE SAMPLE TEMPERATURE
MFSS.                   MEASURED : MUD FILTRATE SAMPLE SOURCE
MCSS.                   MEASURED : MUD CAKE SAMPLE SOURCE
RMB .OHMM                  0.857 : RESISTIVITY MUD AT BHT
TCS .HRS                    1930 : TIME CIRCULATED STOPPED
TLAB.HRS                    1405 : TIME LOGGER AT BOTTOM
LUN .                       8416 : LOGGING UNIT NUMBER
LUL .                   EDMONTON : LOGGING UNIT LOCATION
ENGI.          CRCKFORD BAZANSKY : RECORDING ENGINEER
WITN.                     MILLER : WITNESSED BY
CLNT.                    A2DTECH : CLIENT CODE
ORIG. 6.5"/100M 16.5"/100M PRINT : ORIGIN OF DATA
UWI .           100062106425W500 : UNIQUE WELL ID
DICO.     A2D Technologies, Inc. : DIGITIZING COMPANY
~Other -----------------------------------------------------
PI-SFL & BHC RUN IN COMBO & CNFD& ML LOG RAN
RHOB FROM SMALL SCALE SECTION
~ASCII -----------------------------------------------------
# ...
 1350.00000  227.70130  319.16620  254.70580  105.31760  100.26470   41.52630 2402.10000    -999.25    0.15320    0.18010    9.97360   41.52630  279.96550  279.96550   95.22260    -999.25   94.67930   94.67930  254.70580    9.97360    9.29800    -999.25    9.29800    -999.25    0.32690    0.28310 2402.10000    9.13490  -99.89490   -4.01970    9.13490 11423.21290    -999.25 10690.13960
 1400.00000  246.04380  293.38840  252.63550  109.48900  107.75170   23.36840 2514.70000    -999.25    0.07780    0.11420    9.28060   23.36840  298.50840  298.50840  113.99030    -999.25  101.46620  101.46620  252.63550    9.28060    9.18740    -999.25    9.18740    -999.25    0.37680    0.33350 2514.70000    9.96550  -95.88790   -2.73450    9.96550 11767.48340    -999.25 10658.48730
 1450.00000  228.41730  261.92870  246.50300  105.24920   99.72970   71.05260 2521.20000    -999.25    0.07960    0.11040   10.02710   71.05260  289.09220  289.09220  100.73680    -999.25   96.45470   96.45470  246.50300   10.02710    9.92660    -999.25    9.92660    -999.25    0.35230    0.30870 2521.20000   11.28550  -93.89580   -4.09700   11.28550 12104.88380    -999.25 10780.53320
 1500.00000  222.32600  294.21250  254.90250  101.01980  103.05880  115.68420 2446.00000    -999.25    0.10540    0.15440    9.70320  115.68420  297.93600  297.93600  106.85590    -999.25  100.62230  100.62230  254.90250    9.70320    9.94900    -999.25    9.94900    -999.25    0.38320    0.34000 2446.00000   11.57500  -90.72520   -4.28100   11.57500 12379.67480    -999.25 11141.19630
 1550.00000  224.25690  292.20670  250.03970   94.60820   94.67900   45.47370 2505.40000    -999.25    0.08280    0.11960   10.56200   45.47370  252.71960  252.71960   87.96680    -999.25   82.12270   82.12270  250.03970   10.56200   10.66940    -999.25   10.66940    -999.25    0.28560    0.24160 2505.40000   10.80210  -93.66360  -10.35790   10.80210 12727.80470    -999.25 11555.58400
 1600.00000  217.99370  240.41640  228.89800   67.63550   65.76700   -3.57890 2520.50000    -999.25    0.07810    0.11080   15.20520   -3.57890  234.31980  234.31980   78.44940    -999.25   73.69350   73.69350  228.89800   15.20520   18.65410    -999.25   18.65410    -999.25    0.20930    0.16580 2520.50000   25.80030 -101.60180  -20.88950   25.80030 13068.38670    -999.25 11340.90040
 1650.00000  230.74430  278.49160  255.06650  163.82000  161.19150  120.78950 2432.10000    -999.25    0.13180    0.16250    6.20380  120.78950  279.54140  279.54140   94.17420    -999.25   98.52280   98.52280  255.06650    6.20380    6.15700    -999.25    6.15700    -999.25    0.39960    0.35670 2432.10000    6.48840  -82.14290   -4.02400    6.48840 13567.08010    -999.25 11811.80660
 1700.00000  230.39460  298.36140  268.45860  266.64030  260.05100  102.78950 2273.60000    -999.25    0.22900    0.25520    3.84540  102.78950  316.04310  316.04310  104.81280    -999.25   99.74800   99.74800  268.45860    3.84540    3.80120    -999.25    3.80120    -999.25    0.40510    0.36230 2273.60000    4.29200  -78.36240   -2.83680    4.29200 13376.14260    -999.25 12415.67680
 1750.00000  232.39680  347.52730  264.78160  136.62710  129.41800   38.89470 2511.30000    -999.25    0.08470    0.11620    7.72690   38.89470  266.05900  266.05900   89.84860    -999.25   87.35290   87.35290  264.78160    7.72690    7.61740    -999.25    7.61740    -999.25    0.32260    0.27870 2511.30000    7.70510  -77.93120   -6.00290    7.70510 13584.69630    -999.25 12226.31930
 1800.00000  271.26710  251.01200  247.70580  183.79830  184.81210   83.26320 1980.40000    -999.25    0.39750    0.42670    5.41090   83.26320  258.21260  258.21260   75.10110    -999.25   72.18460   72.18460  247.70580    5.41090    5.15960    -999.25    5.15960    -999.25    0.43230    0.39010 1980.40000    6.96260  -79.48510  -11.73980    6.96260 13521.49220    -999.25 12683.76460
 1850.00000  231.31240  252.73640  240.70240   95.30250  104.80640   -2.94740 2576.30000    -999.25    0.04370    0.07820    9.54140   -2.94740  229.52770  229.52770   66.86420    -999.25   65.47920   65.47920  240.70240    9.54140   12.43040    -999.25   12.43040    -999.25    0.24090    0.19710 2576.30000   12.44230  -93.06630  -28.29420   12.44230 14093.28420    -999.25 12837.58300
 1900.00000  237.68340  266.55520  249.75450  134.62830  136.90380    2.84210 2559.30000    -999.25    0.05620    0.08810    7.30440    2.84210  247.61180  247.61180   49.53860    -999.25   48.26910   48.26910  249.75450    7.30440    7.51580    -999.25    7.51580    -999.25    0.26220    0.21820 2559.30000    7.80400  -72.61530   -8.12380    7.80400 14183.47560    -999.25 13143.43360
 1950.00000  231.72620  254.38150  250.96990   97.11330   98.07480    0.15790 2501.20000    -999.25    0.08980    0.12210   10.19630    0.15790  240.91640  240.91640   69.13870    -999.25   67.57970   67.57970  250.96990   10.19630   11.72340    -999.25   11.72340    -999.25    0.25390    0.21000 2501.20000   13.24270 -117.58530  -49.25330   13.24270 14516.36330    -999.25 13461.28420
 2000.00000  229.58160  244.20760  236.83670   88.47960   87.37750   13.52630 2525.90000    -999.25    0.07290    0.10770   11.44460   13.52630  222.59890  222.59890   53.23670    -999.25   47.17820   47.17820  236.83670   11.44460   16.00430    -999.25   16.00430    -999.25    0.21820    0.17460 2525.90000   22.99920 -146.31810  -74.09560   22.99920 14661.98050    -999.25 13639.83300
 2050.00000  243.51370  261.59570  247.45060   53.29370   51.97050  -12.05260 2655.20000    -999.25   -0.00530    0.03200   19.24170  -12.05260  215.69610  215.69610   88.05760    -999.25   78.93890   78.93890  247.45060   19.24170   21.93240    -999.25   21.93240    -999.25    0.23790    0.19410 2655.20000   23.77990 -103.88880  -31.76930   23.77990 15230.46480    -999.25 13675.79880
 2100.00000  232.52560  254.73170  241.36010   32.58540   31.28040    1.31580 2675.10000    -999.25   -0.01560    0.02040   31.96890    1.31580  222.23900  222.23900   99.40310    -999.25   96.20670   96.20670  241.36010   31.96890   34.91980    -999.25   34.91980    -999.25    0.21050    0.16690 2675.10000   32.65160  -84.61910  -16.99870   32.65160 15494.47750    -999.25 14255.65920
 2150.00000  286.49720  244.56790  257.40330   56.01070   55.35170  155.78950 2143.70000    -999.25    0.30940    0.33120   18.06630  155.78950  297.33790  297.33790  101.72270    -999.25   97.40490   97.40490  257.40330   18.06630   16.08180    -999.25   16.08180    -999.25    0.36350    0.32000 2143.70000   28.40450  -94.50140  -31.38020   28.40450 15954.41990    -999.25 14439.87300
 2200.00000  277.99730  249.37570  244.84910   82.51250   81.67070  206.36840 2366.50000    -999.25    0.19230    0.20090   12.24430  206.36840  229.82010  229.82010   85.16440    -999.25   78.22800   78.22800  244.84910   12.24430   11.59090    -999.25   11.59090    -999.25    0.24110    0.19720 2366.50000   10.28600  -80.41370  -31.08100   10.28600 16276.39360    -999.25 14528.86820
 2250.00000  443.93730  383.75930  392.65930  339.12270  341.41350   84.68420 2033.40000    -999.25    0.41170    0.39570    2.92900   84.68420  325.00440  325.00440   55.61460    -999.25   50.72410   50.72410  392.65930    2.92900    2.37070    -999.25    2.37070    -999.25    0.58590    0.55100 2033.40000    3.04760  -36.23540   -0.97110    3.04760 15684.22950    -999.25 14681.08300
 2300.00000  232.03320  244.30870  237.78320   61.23690   58.38600    5.00000 2537.20000    -999.25    0.06590    0.10110   17.12740    5.00000  221.88980  221.88980   76.76120    -999.25   75.62680   75.62680  237.78320   17.12740   18.08410    -999.25   18.08410    -999.25    0.18900    0.14570 2537.20000   26.67070 -108.81410  -44.01760   26.67070 16211.38870    -999.25 15234.87990
 2350.00000  228.95770  232.18340  234.11270   62.77660   59.79970   -8.21050 2642.20000    -999.25    0.00530    0.03960   16.72250   -8.21050  204.47900  204.47900   80.73830    -999.25   78.55810   78.55810  234.11270   16.72250   17.41850    -999.25   17.41850    -999.25    0.14010    0.09770 2642.20000   19.68180 -112.74390  -28.68230   19.68180 16762.00200    -999.25 15411.69340
