~Version ---------------------------------------------------
VERS.      2.0 : CWLS log ASCII Standard -VERSION 2.0
WRAP.       NO : One line per depth step
CREA. 12/14/17 : LAS Creation Date
~Well ------------------------------------------------------
STRT.FT                   850.0 : START DEPTH
STOP.FT                 12200.0 : STOP DEPTH
STEP.FT                50.00000 : STEP LENGTH
NULL.                   -999.25 : NULL VALUE
COMP. ATLANTIC REFINING COMPANY : COMPANY
WELL.  HB ET AL MARL 6-16-55-18 : WELL
FLD .                           : FIELD
LOC .                           : LOCATION
CTRY.                    CANADA : COUNTRY
SRVC.              Schlumberger : SERVICE COMPANY
DATE.               23-Apr-1959 : LOGDATE
PROV.                   Alberta : PROVINCE
UWI .          100061605518W500 : UNIQUE WELL ID
SLAT.WGS84             53.75017 : SURFACE LATITUDE
SLON.WGS84            -116.6167 : SURFACE LONGITUDE
~Curve Information -----------------------------------------
DEPT   .FT      : Depth Curve
CALWS  .IN      : CALIPER [MCALED]
CILDED .MMHO    : CONDUCTIVITY FROM IE LOG
CNCLSED.V/V     : NEUTRON POROSITY LIMESTONE FROM DENSITY LOG
CONDWS .MMHO    : CONDUCTIVITY [1000/DRESWS]
DRESWS .OHMM    : DEEP RESISTIVITY [ILDED] IF ILDED<1;1000/CILDED;ELSE ILDED
DTED   .US/F    : DELTA TIME FROM SONIC LOG [ADJ TO GRNED]
DTWS   .US/F    : DELTA TIME [DTED]
GRDED  .GAPI    : GAMMA RAY FROM DENSITY LOG
GRED   .GAPI    : GAMMA RAY FROM CBL LOG [ADJ TO GRDED]
GRNED  .CU      : GAMMA RAY FROM GRN LOG LOG [ADJ TO GRDED]
GRSED  .MG/TON  : GAMMA RAY FROM SONIC LOG LOG [ADJ TO GRNED]
GRWS   .GAPI    : GAMMA RAY [SPL GRED 5480' GRDED 8374' GRNED 10882' GRDED, CONVERTED TO GAPI UNIT (8374'-10880')*2.16, (10882'-FR)*16.5]
ILDED  .OHMM    : INDUCTION LOG DEEP RESISTIVITY FROM IE LOG
LL7ED  .OHMM    : LATEROLOG 7 FROM LATEROLOG [ADJ TO ILDED]
LNED   .OHMM    : 64 INCH LONG NORMAL RESISTIVITY FROM EL
LT18ED .OHMM    : LATERAL 18' 8" FROM EL LOG
MCALED .IN      : CALIPER MICROLOG
NEUTED .CU      : NEUTRON FROM GRN LOG [ADJ TO CNCLSED]
NEUTWS .CU      : NEUTRON [NEUTED]
NPOLSWS.V/V     : NEUTRON POROSITY LIMESTONE [CNCLSED]
SN1ED  .OHMM    : 16 INCH SHORT NORMAL RESISTIVITY FROM EL
SNED   .OHMM    : 16 INCH SHORT NORMAL RESISTIVITY FROM IE
SPR1ED .MV      : SPONTANEOUS POTENTIAL FROM EL LOG
SPRED  .MV      : SPONTANEOUS POTENTIAL FROM IE LOG
SPSED  .MV      : SPONTANEOUS POTENTIAL FROM SONIC LOG [ADJ TO GRNED]
SPWS   .MV      : SPONTANEOUS POTENTIAL [BASELINE 0 MV] [SPRED]
SRESWS .OHMM    : SHALLOW RESISTIVITY [SNED]
~Params ----------------------------------------------------
LMF .                     KB : LOG MEASURED FROM
DMF .                     KB : DRILLING MEASURED FROM
EKB .FT                 3203 : KELLY BUSHING
EGL .FT                 3190 : GROUND LEVEL
DATE.               04/23/59 : RUN DATE
RUN .                      3 : RUN NUMBER
DD  .FT                12230 : DEPTH DRILLER
DL  .FT                12233 : DEPTH LOGGER
BLI .FT                12228 : BOTTOM LOG INTERVAL
TLI .FT                10500 : TOP LOG INTERVAL
BS  .IN                8.625 : BIT SIZE
BSD .FT                12230 : BIT SIZE AT DEPTH
DFT .                    GYP : DRILLING FLUID TYPE
DFD .                    9.3 : DRILLING FLUID DENSITY
DFV .                     68 : DRILLING FLUID VISCOSITY
DFPH.                   12.5 : DRILLING FLUID PH
DFL .                    6.8 : DRILLING FLUID LOSS
RMS .OHMM               0.75 : RESISTIVITY MUD SAMPLE
MST .DEGF                 54 : MUD SAMPLE TEMPERATURE
RMF .OHMM               0.35 : RESISTIVITY MUD FILTRATE SAMPLE
MFST.DEGF                 80 : MUD FILTRATE SAMPLE TEMPERATURE
RMC .OHMM               0.72 : RESISTIVITY MUD CAKE
MCST.DEGF                 80 : MUD CAKE SAMPLE TEMPERATURE
RMB .OHMM               0.75 : RESISTIVITY MUD AT BHT
TCS .HRS                 3.5 : TIME CIRCULATED STOPPED
LUN .                   1571 : LOGGING UNIT NUMBER
LUL .                    EDM : LOGGING UNIT LOCATION
ENGI.                REBYRNA : RECORDING ENGINEER
WITN.                  EVANS : WITNESSED BY
CLNT.                A2DTECH : CLIENT CODE
ORIG.            2" 5" PRINT : ORIGIN OF DATA
UWI .       100061605518W500 : UNIQUE WELL ID
DICO. A2D Technologies, Inc. : DIGITIZING COMPANY
~Other -----------------------------------------------------
IE-EL-LL/ML/CNL/GRN/CBL/SONIC LOGS RUN
~ASCII -----------------------------------------------------
# ...
 8650.00000   10.30670   14.51930    -999.25    7.57680  131.98200    -999.25    -999.25    -999.25    -999.25   16.24830    -999.25   35.09630  131.98200 2532.91040  385.47490  128.31120   10.30670 1531.54160 1531.54160    -999.25  150.90090   10.12550  -44.97520  -71.43220    -999.25  -39.13080   10.12550
 8700.00000    8.52360   82.03070    -999.25   73.06310   13.68680    -999.25    -999.25    -999.25    -999.25   17.75880    -999.25   38.35900   13.68680   24.56770   94.67810  322.69950    8.52360 2098.49850 2098.49850    -999.25   27.83780    7.07210  -62.94590  -62.13510    -999.25  -33.42290    7.07210
 8750.00000    8.50780   24.47770    -999.25   20.09050   49.77480    -999.25    -999.25    -999.25    -999.25   14.56880    -999.25   31.46860   49.77480  274.65170  110.30740   90.79730    8.50780 2241.70290 2241.70290    -999.25   78.70890   11.01880  -77.50610 -110.57480    -999.25  -85.45180   11.01880
 8800.00000    9.46280   20.28290    -999.25   11.78900   84.82520    -999.25    -999.25    -999.25    -999.25   16.96790    -999.25   36.65070   84.82510  214.45860    -999.25    -999.25    9.46280 2618.00020 2618.00020    -999.25    -999.25   16.79490    -999.25  -92.64050    -999.25  -71.08880   16.79490
 8850.00000   10.37320   12.36850    -999.25    5.08010  196.84680    -999.25    -999.25    -999.25    -999.25    9.79380    -999.25   21.15460  196.84680 5117.12790    -999.25    -999.25   10.37320 2691.42990 2691.42990    -999.25    -999.25   19.25650    -999.25 -146.44600    -999.25 -128.50140   19.25650
 8900.00000   14.31670   33.94860    -999.25   26.12070   38.28380    -999.25    -999.25    -999.25    -999.25   11.00760    -999.25   23.77640   38.28380  268.51760    -999.25    -999.25   14.31670 1982.47140 1982.47140    -999.25    -999.25   11.93470    -999.25 -159.34080    -999.25 -144.98540   11.93470
 8950.00000    9.73940   36.37320    -999.25   27.57270   36.26770    -999.25    -999.25    -999.25    -999.25    7.44530    -999.25   16.08180   36.26770  106.90230    -999.25    -999.25    9.73940 2690.93080 2690.93080    -999.25    -999.25   11.59400    -999.25 -179.05680    -999.25 -168.29060   11.59400
 9000.00000    9.02410   74.16770    -999.25   66.04800   15.14050    -999.25    -999.25    -999.25    -999.25   27.05920    -999.25   58.44790   15.14050   25.53090    -999.25    -999.25    9.02410 1939.16000 1939.16000    -999.25    -999.25    5.57600    -999.25 -150.92700    -999.25 -143.75000    5.57600
 9050.00000    8.98530   52.77970    -999.25   45.51290   21.97180    -999.25    -999.25    -999.25    -999.25   29.72400    -999.25   64.20390   21.97180   40.51300    -999.25    -999.25    8.98530 1962.99520 1962.99520    -999.25    -999.25    6.62430    -999.25 -149.47570    -999.25 -145.87000    6.62430
 9100.00000    9.55840   83.86320    -999.25   73.26760   13.64860    -999.25    -999.25    -999.25    -999.25   17.95850    -999.25   38.79040   13.64860   20.57400    -999.25    -999.25    9.55840 1946.57090 1946.57090    -999.25    -999.25    5.09010    -999.25  -91.87110    -999.25  -91.87250    5.09010
 9150.00000    9.95670   22.98330    -999.25   13.72780   72.84480    -999.25    -999.25    -999.25    -999.25    9.54520    -999.25   20.61760   72.84480  180.21930    -999.25    -999.25    9.95670 2147.26320 2147.26320    -999.25    -999.25   13.05350    -999.25  -64.24830    -999.25  -67.83890   13.05350
 9200.00000    9.34100   27.81690    -999.25   22.72170   44.01080    -999.25    -999.25    -999.25    -999.25   18.18430    -999.25   39.27810   44.01080   84.66600    -999.25    -999.25    9.34100 1830.75740 1830.75740    -999.25    -999.25    8.93660    -999.25  -56.81590    -999.25  -63.99570    8.93660
 9250.00000    8.77970   19.76950    -999.25   12.30070   81.29650    -999.25    -999.25    -999.25    -999.25   15.14530    -999.25   32.71380   81.29650  180.67210    -999.25    -999.25    8.77970 2165.27030 2165.27030    -999.25    -999.25   12.20060    -999.25  -38.62610    -999.25  -49.39510   12.20060
 9300.00000    8.70050   22.41290    -999.25   14.33130   69.77720    -999.25    -999.25    -999.25    -999.25   15.25110    -999.25   32.94250   69.77720  126.31720    -999.25    -999.25    8.70050 2228.51460 2228.51460    -999.25    -999.25   11.22350    -999.25   -2.58540    -999.25  -16.92570   11.22350
 9350.00000    9.14870   30.03760    -999.25   23.10630   43.27820    -999.25    -999.25    -999.25    -999.25   20.41920    -999.25   44.10550   43.27820   69.11980    -999.25    -999.25    9.14870 1736.81980 1736.81980    -999.25    -999.25    9.97380    -999.25  -31.60040    -999.25  -46.47680    9.97380
 9400.00000    8.86200   40.51100    -999.25   35.18230   28.42340    -999.25    -999.25    -999.25    -999.25   21.70330    -999.25   46.87910   28.42340   44.37260    -999.25    -999.25    8.86200 1790.84310 1790.84310    -999.25    -999.25    7.79280    -999.25  -46.84230    -999.25  -61.65180    7.79280
 9450.00000    8.66010   11.67990    -999.25    4.95400  201.85740    -999.25    -999.25    -999.25    -999.25   19.02250    -999.25   41.08860  201.85740  385.44380    -999.25    -999.25    8.66010 2362.56210 2362.56210    -999.25    -999.25   18.24320    -999.25  -44.47800    -999.25  -59.22070   18.24320
 9500.00000    8.72540   61.31790    -999.25   51.88930   19.27180   61.58090   61.58090    -999.25    -999.25   29.25310    -999.25   63.18670   19.27180   38.22490    -999.25    -999.25    8.72540 2185.89380 2185.89380    -999.25    -999.25    9.33010    -999.25  -75.54610    -999.25  -90.22200    9.33010
 9550.00000   11.26870   11.99360    -999.25    4.01420  249.11290   51.70590   51.70590    -999.25    -999.25    8.37950    -999.25   18.09970  249.11290 3849.68580    -999.25    -999.25   11.26870 2760.01340 2760.01340    -999.25    -999.25   66.15070    -999.25  -80.27120  -51.49590  -94.88050   66.15070
 9600.00000   13.32490   15.14080    -999.25    6.74770  148.19820   50.45610   50.45610    -999.25    -999.25    7.60310    -999.25   16.42270  148.19820 4618.55910    -999.25    -999.25   13.32490 2578.76430 2578.76430    -999.25    -999.25   30.54820    -999.25 -100.93170 -116.33480 -115.47390   30.54820
 9650.00000    -999.25   28.69000    -999.25   21.82810   45.81260   52.81870   52.81870    -999.25    -999.25    9.69270    -999.25   20.93620   45.81260 2333.58180    -999.25    -999.25    -999.25 1816.35280 1816.35280    -999.25    -999.25   29.01150    -999.25 -162.83600 -167.05530 -177.31130   29.01150
 9700.00000   16.06980   24.51420    -999.25   19.98890   50.02770   55.34970   55.34970    -999.25    -999.25    5.84410    -999.25   12.62330   50.02770  708.05900    -999.25    -999.25   16.06980 2696.88370 2696.88370    -999.25    -999.25   23.55860    -999.25 -147.35110  -33.10280 -161.75960   23.55860
 9750.00000   13.34630   20.15440    -999.25    9.97680  100.23230   55.25930   55.25930    -999.25    -999.25    7.05990    -999.25   15.24940  100.23230  371.37590    -999.25    -999.25   13.34630 2941.06200 2941.06200    -999.25    -999.25   20.05110    -999.25 -114.45590   -9.16620 -128.79760   20.05110
 9800.00000   12.31860   17.63770    -999.25    3.96920  251.94230   63.42460   63.42460    -999.25    -999.25    6.59610    -999.25   14.24760  251.94220  193.73570    -999.25    -999.25   12.31860 2620.59350 2620.59350    -999.25    -999.25   30.37140    -999.25 -125.79170  -55.67950 -140.06680   30.37150
 9850.00000   10.45520   37.05770    -999.25   30.53650   32.74770   53.83460   53.83460    -999.25    -999.25    9.67090    -999.25   20.88910   32.74770  493.09750    -999.25    -999.25   10.45520 1904.82290 1904.82290    -999.25    -999.25   33.01800    -999.25 -167.77500  -91.67240 -181.98300   33.01800
 9900.00000    8.74350   34.55440    -999.25   27.99500   35.72070   77.41670   77.41670    -999.25    -999.25    7.67430    -999.25   16.57650   35.72070  130.78400    -999.25    -999.25    8.74350 3121.57930 3121.57930    -999.25    -999.25   32.28230    -999.25 -156.41990 -108.94050 -170.56110   32.28230
