~Version ---------------------------------------------------
VERS.      2.0 : CWLS log ASCII Standard -VERSION 2.0
WRAP.       NO : One line per depth step
CREA. 11/20/17 : LAS Creation Date
~Well ------------------------------------------------------
STRT.FT                            1000.0 : START DEPTH
STOP.FT                            9500.0 : STOP DEPTH
STEP.FT                          50.00000 : STEP LENGTH
NULL.                             -999.25 : NULL VALUE
COMP.                  FRONTIER OIL & GAS : COMPANY
WELL. FRONTIER SUN L BA GOOSE 10-18-66-17 : WELL
FLD .                                     : FIELD
LOC .                                     : LOCATION
CTRY.                              CANADA : COUNTRY
SRVC.                        Schlumberger : SERVICE COMPANY
DATE.                         21-Dec-1966 : LOGDATE
PROV.                             Alberta : PROVINCE
UWI .                    100101806617W500 : UNIQUE WELL ID
SLAT.WGS84                       54.71404 : SURFACE LATITUDE
SLON.WGS84                      -116.5551 : SURFACE LONGITUDE
~Curve Information -----------------------------------------
DEPT  .FT    : Depth Curve
CALSED.IN    : CALIPER FROM SONIC LOG
CALWS .IN    : CALIPER [CALSED]
CILDED.MMHO  : DEEP INDUCTION CONDUCTIVITY FROM RESISTIVITY LOG
CONDWS.MMHO  : CONDUCTIVITY [1000/DRESWS]
DRESWS.OHMM  : DEEP RESISTIVITY [1000/CILDED,IF ILDED<2.5,ILDED]
DTED  .US/F  : DELTA TIME FROM SONIC LOG
DTWS  .US/F  : COMPRESSIONAL SONIC [DTED]
GRSED .GAPI  : GAMMA RAY FROM SONIC LOG
GRWS  .GAPI  : GAMMA RAY [GRSED]
ILDED .OHMM  : DEEP INDUCTION RESISTIVITY FROM RESISTIVITY LOG
SNED  .OHMM  : 16 INCH SHORT NORMAL FROM RESISTIVITY LOG
SPRED .MV    : SPONTANEOUS POTENTIAL FROM RESISTIVITY LOG
SPWS  .MV    : SPONTANEOUS POTENTIAL [BASELINE 0MV, SPRED]
SRESWS.OHMM  : SHALLOW RESISTIVITY [SNED]
~Params ----------------------------------------------------
PD  .                     GL : PERMANENT DATUM
EPD .FT                 2677 : ELEVATION PERMANENT DATUM
LMF .                     KB : LOG MEASURED FROM
DAPD.FT                   14 : FEET ABOVE PERMANENT DATUM
EKB .FT                 2691 : KELLY BUSHING
EGL .FT                 2677 : GROUND LEVEL
DATE.               12/21/66 : RUN DATE
RUN .                      1 : RUN NUMBER
DD  .FT                 9520 : DEPTH DRILLER
DL  .FT                 9522 : DEPTH LOGGER
BLI .FT                 9521 : BOTTOM LOG INTERVAL
TLI .FT                  978 : TOP LOG INTERVAL
CBD .FT                  978 : CASING BOTTOM DRILLER
CBL .FT                  978 : CASING BOTTOM LOGGER
BS  .IN                7.875 : BIT SIZE
BSD .FT                 9520 : BIT SIZE AT DEPTH
DFT .           GEL CHEM OIL : DRILLING FLUID TYPE
DFD .                    9.7 : DRILLING FLUID DENSITY
DFV .                    132 : DRILLING FLUID VISCOSITY
DFPH.                     10 : DRILLING FLUID PH
DFL .                    6.4 : DRILLING FLUID LOSS
RMS .OHMM               2.23 : RESISTIVITY MUD SAMPLE
MST .DEGF                 68 : MUD SAMPLE TEMPERATURE
RMF .OHMM               1.81 : RESISTIVITY MUD FILTRATE SAMPLE
MFST.DEGF                 66 : MUD FILTRATE SAMPLE TEMPERATURE
RMC .OHMM               2.37 : RESISTIVITY MUD CAKE
MCST.DEGF                 66 : MUD CAKE SAMPLE TEMPERATURE
RMB .OHMM               0.88 : RESISTIVITY MUD AT BHT
TCS .HRS                   3 : TIME CIRCULATED STOPPED
LUN .                   3705 : LOGGING UNIT NUMBER
LUL .                    WCT : LOGGING UNIT LOCATION
ENGI.              DEMETRICK : RECORDING ENGINEER
WITN.              MACLNTOSH : WITNESSED BY
CLNT.                A2DTECH : CLIENT CODE
ORIG.            2" 5" PRINT : ORIGIN OF DATA
UWI .       100101806617W500 : UNIQUE WELL ID
DICO. A2D Technologies, Inc. : DIGITIZING COMPANY
~Other -----------------------------------------------------
IEL-BCS LOG RUN
ALL IEL DATA FROM TOP TO 3790' FROM 2" SCALE LOG
~ASCII -----------------------------------------------------
# ...
 3450.00000    9.85950    9.85950  130.42460  131.25940    7.61850  100.13990  100.13990   90.45580   90.45580    7.61850    9.26710  -57.65090   -0.41720    9.26710
 3500.00000    8.68910    8.68910  124.93820  124.90010    8.00640  106.10500  106.10500  122.36500  122.36500    8.00640   10.86170  -57.98330   -1.01940   10.86170
 3550.00000    8.49490    8.49490   91.67510   94.22500   10.61290   99.91220   99.91220  113.50870  113.50870   10.61290   15.38420  -60.84950   -4.15540   15.38420
 3600.00000   10.85230   10.85230  144.80470  151.97110    6.58020   90.83750   90.83750   80.60990   80.60990    6.58020    7.54970  -61.82330   -5.39900    7.54970
 3650.00000   10.62510   10.62510  202.64180  200.17620    4.99560   93.74080   93.74080   81.92620   81.92620    4.99560    6.33910  -58.86900   -2.71450    6.33910
 3700.00000   10.22750   10.22750  110.76870  112.93310    8.85480   84.36330   84.36330   81.93370   81.93370    8.85480   10.71020  -73.47730  -17.59270   10.71020
 3750.00000   11.20740   11.20740  186.41890  175.59880    5.69480   90.49480   90.49480   81.26120   81.26120    5.69480    6.58110  -57.72050   -2.10570    6.58110
 3800.00000   10.65590   10.65590  153.02780  147.90270    6.76120   87.72920   87.72920   83.28480   83.28480    6.76120    7.62260  -59.14690   -3.55790    7.62260
 3850.00000   11.91680   11.91680  192.64570  182.84880    5.46900   94.74040   94.74040   84.46880   84.46880    5.46900    6.16960  -57.11020   -1.35540    6.16960
 3900.00000   12.45020   12.45020  210.92670  200.13210    4.99670   91.79060   91.79060   84.82890   84.82890    4.99670    5.62590  -58.59260   -2.67190    5.62590
 3950.00000   13.31060   13.31060  240.74880  211.01500    4.73900  105.16820  105.16820   84.93720   84.93720    4.73900    5.19430  -58.61210   -2.52550    5.19430
 4000.00000   11.56740   11.56740  267.86370  243.68850    4.10360  109.52280  109.52280  197.43170  197.43170    4.10360    4.65390  -58.20410   -1.95170    4.65390
 4050.00000   11.26350   11.26350  409.19350  327.78290    3.05080  114.84890  114.84890   82.76120   82.76120    3.05080    3.23000  -57.86180   -1.44350    3.23000
 4100.00000   13.25760   13.25760  246.85000  230.68050    4.33500   97.40860   97.40860   76.54080   76.54080    4.33500    4.83560  -59.16360   -2.37430    4.83560
 4150.00000   13.26990   13.26990  238.36520  220.24010    4.54050   94.89620   94.89620   81.06860   81.06860    4.54050    4.91270  -60.03210   -2.81410    4.91270
 4200.00000   11.62150   11.62150  167.74660  162.43520    6.15630   89.07940   89.07940   75.28180   75.28180    6.15630    6.65490  -61.96730   -4.32050    6.65490
 4250.00000   12.15180   12.15180   95.35750   93.93290   10.64590   78.71470   78.71470   40.72240   40.72240   10.64590   12.14110  -73.39300  -15.31740   12.14110
 4300.00000   11.19180   11.19180  137.42390  135.79210    7.36420   85.37510   85.37510   63.44350   63.44350    7.36420    8.51810  -66.51050   -8.00610    8.51810
 4350.00000    8.97290    8.97290   56.48440   56.73760   17.62500   72.86820   72.86820   42.38850   42.38850   17.62500   29.48280  -90.19830  -31.26510   29.48280
 4400.00000   10.12200   10.12200  141.14410  137.59320    7.26780   81.98430   81.98430   71.30860   71.30860    7.26780    9.36770  -76.09390  -16.73190    9.36770
 4450.00000   10.49030   10.49030  110.62270  110.57050    9.04400   78.25370   78.25370   62.92030   62.92030    9.04400   12.83910  -75.59000  -15.79930   12.83910
 4500.00000   10.80810   10.80810   66.11940   68.05310   14.69440  106.10730  106.10730   60.14270   60.14270   14.69440   15.12870  -74.94350  -14.72400   15.12870
 4550.00000   10.03480   10.03480   94.48710   94.22500   10.61290   81.43520   81.43520   66.58330   66.58330   10.61290   13.10140  -85.97870  -25.33040   13.10140
 4600.00000   10.71860   10.71860  114.31530  115.01520    8.69450   79.23040   79.23040   66.73870   66.73870    8.69450   13.12270  -78.78430  -17.70720   13.12270
 4650.00000   11.06010   11.06010   74.61210   70.02950   14.27970  121.87160  121.87160   35.86650   35.86650   14.27970   15.00610  -77.63560  -16.12970   15.00610
 4700.00000   10.63790   10.63790  165.77830  159.17740    6.28230   80.36560   80.36560   66.28460   66.28460    6.28230    9.81620  -93.98830  -32.05360    9.81620
 4750.00000   11.15570   11.15570  165.43880  155.84090    6.41680   81.24760   81.24760   60.51500   60.51500    6.41680    8.24440  -85.98090  -23.61750    8.24440
 4800.00000   11.39040   11.39040  137.36740  135.17350    7.39790   79.22030   79.22030   55.22610   55.22610    7.39790    8.19520  -79.42370  -16.63150    8.19520
 4850.00000   10.19630   10.19630  114.21180  112.57840    8.88270   74.43630   74.43630   46.00490   46.00490    8.88270   17.34500 -120.60790  -57.38690   17.34500
 4900.00000   10.76940   10.76940  152.21510  149.10680    6.70660   78.23890   78.23890   64.69870   64.69870    6.70660    8.41740  -90.06080  -26.41100    8.41740
 4950.00000   11.02440   11.02440  122.54350  121.09180    8.25820   80.48580   80.48580   65.29710   65.29710    8.25820    9.77000  -80.75470  -16.67610    9.77000
 5000.00000   11.40780   11.40780  130.05030  124.84390    8.01000   81.87780   81.87780   69.53170   69.53170    8.01000    8.96420  -78.00110  -13.49370    8.96420
 5050.00000   12.36430   12.36430  149.50220  143.63070    6.96230   83.33230   83.33230   72.56870   72.56870    6.96230    8.28770  -75.21110  -10.27500    8.28770
 5100.00000   10.69060   10.69060   61.79060   61.64580   16.22170   71.83200   71.83200   55.79280   55.79280   16.22170   20.27480  -85.73810  -20.37320   20.27480
 5150.00000   11.16620   11.16620  144.50140  141.86810    7.04880   82.76660   82.76660   51.03540   51.03540    7.04880   12.17010  -90.87620  -25.08250   12.17010
 5200.00000   14.86240   14.86240  335.55000  295.59560    3.38300  102.62210  102.62210   64.15700   64.15700    3.38300    3.76650  -66.87460   -2.36620    3.76650
 5250.00000   15.27980   15.27980  361.77570  298.61440    3.34880  105.42560  105.42560   63.06700   63.06700    3.34880    3.98850  -65.21320   -4.35720    3.98850
 5300.00000   10.25650   10.25650   56.49950   55.21140   18.11220   96.67390   96.67390   99.71210   99.71210   18.11220   27.18370  -62.31880   -4.54500   27.18370
 5350.00000   11.16940   11.16940   99.54850   92.69820   10.78770   97.55910   97.55910   81.86310   81.86310   10.78770   14.36130  -63.56750   -7.66450   14.36130
 5400.00000    8.61140    8.61140    8.34370    6.09110  164.17510   61.14730   61.14730   30.64760   30.64760  164.17510  161.30450  -73.57760  -16.81350  161.30450
 5450.00000    9.10150    9.10150    9.75220    8.37440  119.41210  100.27720  100.27720  203.66150  203.66150  119.41210   95.33830  -95.42220  -33.54940   95.33830
 5500.00000   10.19530   10.19530  211.12720  197.49970    5.06330   71.15310   71.15310   80.98540   80.98540    5.06330    8.11350 -111.13340  -50.24470    8.11350
 5550.00000    8.69270    8.69270   78.00100   76.19280   13.12460   55.83450   55.83450   20.85320   20.85320   13.12460   27.74690 -137.59800  -77.69330   27.74690
 5600.00000    8.44420    8.44420   63.40320   62.20340   16.07630   52.65260   52.65260   16.02660   16.02660   16.07630   48.26810 -163.38390 -104.46330   48.26810
 5650.00000    8.37150    8.37150  109.44560  109.39120    9.14150   48.97550   48.97550   42.29450   42.29450    9.14150   53.52390 -182.01330 -124.07670   53.52390
 5700.00000    8.71150    8.71150   15.63900   13.59330   73.56570   50.90430   50.90430   16.01710   16.01710   73.56570   79.07370 -101.85530  -44.90280   79.07370
 5750.00000    9.21350    9.21350   48.58560   49.43720   20.22770   59.16950   59.16950   67.99340   67.99340   20.22770   28.80670  -77.78010  -21.81170   28.80670
 5800.00000    8.73200    8.73200   23.78690   21.59690   46.30290   54.73060   54.73060   41.77440   41.77440   46.30290   67.11470  -90.98380  -35.99940   67.11470
 5850.00000    8.94740    8.94740   66.75250   67.72820   14.76490   54.90160   54.90160   34.51430   34.51430   14.76490   29.80460 -131.23170  -77.23140   29.80460
