~Version ---------------------------------------------------
VERS. 2.0 : CWLS log ASCII Standard -VERSION 2.0
WRAP.  NO : ONE LINE PER DEPTH STEP
~Well ------------------------------------------------------
STRT.M                             300.0 : START DEPTH
STOP.M                            1650.0 : STOP DEPTH
STEP.M                          50.00000 : STEP LENGTH
NULL.                            -999.25 : NULL VALUE
COMP. CANADIAN NATURAL RESOURCES LIMITED : COMPANY
WELL.        MLC ET AL NIPISI 10-20-80-7 : WELL
FLD .                             NIPISI : FIELD
LOC .                                    : LOCATION
CTRY.                             CANADA : COUNTRY
SRVC.                       Schlumberger : SERVICE COMPANY
DATE.                        02-Feb-1988 : LOGDATE
PROV.                            Alberta : PROVINCE
UWI .                   100102008007W500 : UNIQUE WELL ID
SLAT.WGS84                 55.9502283246 : SURFACE LATITUDE
SLON.WGS84               -115.0552814138 : SURFACE LONGITUDE
~Curve Information -----------------------------------------
DEPT   .M                                               : DEPTH METERS
CALWS  .MM                                              : CALIPER [CALYED]
CALYED .MM                                              : CALIPER Y FROM DENSITY LOG
CDLLSED.V/V                                             : COMPENSATED DENSITY POROSITY LIMESTONE FROM DENSITY LOG
CDLSSED.V/V                                             : COMPENSATED DENSITY POROSITY SANDSTONE FROM DENSITY LOG
CNSLSED.V/V                                             : COMPENSATED NEUTRON POROSITY LIMESTONE FROM DENSITY LOG
CNSSSED.V/V                                             : COMPENSATED NEUTRON POROSITY SANDSTONE FROM DENSITY LOG
CONDWS .MMHO                                            : CONDUCTIVITY [1000/DRESWS]
DCORWS .KG/M3                                           : DENSITY CORRECTION [DRHOED]
DENWS  .KG/M3 :   BULK DENSITY [CALCULATED FROM CDLLSED : M=2710, F=1000]
DPOLSWS.V/V                                             : DENSITY POROSITY LIMESTONE [CDLLSED]
DPOSSWS.V/V                                             : DENSITY POROSITY SANDSTONE [CDLSSED]
DRESWS .OHMM                                            : DEEP RESISTIVITY [RILDED]
DRHOED .KG/M3                                           : DENSITY CORRECTION FROM DENSITY LOG
GRDED  .GAPI                                            : GAMMA RAY FROM DENSITY LOG
GRWS   .GAPI                                            : GAMMA RAY [GRDED] CASED ABOVE 225.2
MRESWS .OHMM                                            : MEDIUM RESISTIVITY [RILMED]
NPOLSWS.V/V                                             : NEUTRON POROSITY LIMESTONE [CNSLSED]
NPOSSWS.V/V                                             : NEUTRON POROSITY SANDSTONE [CNSSSED]
RHOBED .KG/M3                                           : BULK DENSITY FROM DENSITY LOG [DEPTH SHIFTED TO CDLLSED]
RILDED .OHMM                                            : INDUCTION LOG DEEP RESISTIVITY
RILMED .OHMM                                            : INDUCTION LOG MEDIUM RESISTIVITY
RLLED  .OHMM                                            : LATEROLOG RESISTIVITY
SPRED  .MV                                              : SPONTANEOUS POTENTIAL FROM RESISTIVITY LOG
SPWS   .MV                                              : SPONTANEOUS POTENTIAL [BASELINE 0 MV] [SPRED]
SRESWS .OHMM                                            : SHALLOW RESISTIVITY [RLLED]
~Params ----------------------------------------------------
PD  .                         GL : PERMANENT DATUM
EPD .M                     657.4 : ELEVATION PERMANENT DATUM
LMF .                         KB : LOG MEASURED FROM
DAPD.M                       4.3 : FEET ABOVE PERMANENT DATUM
EKB .M                     661.7 : KELLY BUSHING
EGL .M                     657.4 : GROUND LEVEL
DATE.                   02/02/88 : RUN DATE
RUN .                          1 : RUN NUMBER
DD  .M                      1698 : DEPTH DRILLER
DL  .M                    1698.4 : DEPTH LOGGER
BLI .M                    1697.7 : BOTTOM LOG INTERVAL
TLI .M                     225.2 : TOP LOG INTERVAL
CS  .MM                    219.1 : CASING SIZE
CBD .M                    225.25 : CASING BOTTOM DRILLER
CBL .M                     225.2 : CASING BOTTOM LOGGER
BS  .MM                      200 : BIT SIZE
BSD .M                      1698 : BIT SIZE AT DEPTH
DFT .                   GEL CHEM : DRILLING FLUID TYPE
DFD .                       1150 : DRILLING FLUID DENSITY
DFV .                         65 : DRILLING FLUID VISCOSITY
DFPH.                       10.5 : DRILLING FLUID PH
DFL .                          9 : DRILLING FLUID LOSS
RMS .OHMM                      1 : RESISTIVITY MUD SAMPLE
MST .DEGC                   11.1 : MUD SAMPLE TEMPERATURE
RMF .OHMM                   0.85 : RESISTIVITY MUD FILTRATE SAMPLE
MFST.DEGC                    7.2 : MUD FILTRATE SAMPLE TEMPERATURE
RMC .OHMM                    1.2 : RESISTIVITY MUD CAKE
MCST.DEGC                   11.1 : MUD CAKE SAMPLE TEMPERATURE
RMB .OHMM                   0.49 : RESISTIVITY MUD AT BHT
TCS .HRS                       2 : TIME CIRCULATED STOPPED
LUN .                        325 : LOGGING UNIT NUMBER
LUL .             GRANDE PRAIRIE : LOGGING UNIT LOCATION
ENGI.                   HAGERMAN : RECORDING ENGINEER
WITN.                    BENNETT : WITNESSED BY
CLNT.                    A2DTECH : CLIENT CODE
ORIG. 6.5"/100M 16.5"/100M PRINT : ORIGIN OF DATA
UWI .           100102008007W500 : UNIQUE WELL ID
DICO.     A2D Technologies, Inc. : DIGITIZING COMPANY
~Other -----------------------------------------------------
~ASCII -----------------------------------------------------
  300.00000  315.74520  315.74520    0.40600    -999.25    0.47290    -999.25  401.05880  213.39050 2015.74000    0.40600    -999.25    2.49340  213.39050   85.17780   85.17780    2.33190    0.47290    -999.25 2020.30940    2.49340    2.33190    2.40980  -64.62130   -7.85660    2.40980
  350.00000  252.02620  252.02620    0.30630    -999.25    0.30320    -999.25  160.30260   86.18670 2186.22710    0.30630    -999.25    6.23820   86.18670   36.08170   36.08170    8.15940    0.30320    -999.25 2187.26150    6.23820    8.15940    7.87140  -74.16170  -21.05250    7.87140
  400.00000  402.40930  402.40930    0.65740    -999.25    0.39520    -999.25  300.07500   99.72900 1585.84590    0.65740    -999.25    3.33250   99.72900   58.55400   58.55400    3.35130    0.39520    -999.25 1580.72170    3.33250    3.35130    2.85360  -61.02420  -11.43700    2.85360
  450.00000  283.71240  283.71240    0.32040    -999.25    0.38720    -999.25  141.34280  159.60240 2162.11600    0.32040    -999.25    7.07500  159.60240   57.16150   57.16150    6.32570    0.38720    -999.25 2168.26200    7.07500    6.32570    5.46280  -64.28680  -16.54990    5.46280
  500.00000  227.07810  227.07810    0.17700    -999.25    0.19640    -999.25  142.57200  104.70110 2407.33010    0.17700    -999.25    7.01400  104.70110   60.01630   60.01630    7.83050    0.19640    -999.25 2370.72240    7.01400    7.83050   16.59800  -68.05890  -22.17220   16.59800
  550.00000  282.25290  282.25290    0.21510    -999.25    0.33420    -999.25  167.22410   94.78200 2342.17900    0.21510    -999.25    5.98000   94.78200   74.65140   74.65140    5.79090    0.33420    -999.25 2341.88160    5.98000    5.79090    5.89140  -61.57310  -17.53670    5.89140
  600.00000  238.50670  238.50670    0.08310    -999.25    0.09650    -999.25   59.09360   93.40070 2567.89890    0.08310    -999.25   16.92230   93.40070   24.62080   24.62080   13.81320    0.09650    -999.25 2617.97970   16.92230   13.81320   23.01290  -52.28240  -10.09620   23.01290
  650.00000  261.77190  261.77190    0.18420    -999.25    0.19950    -999.25  141.25290  125.20240 2395.01810    0.18420    -999.25    7.07950  125.20240   37.47160   37.47160    6.88050    0.19950    -999.25 2399.13180    7.07950    6.88050    6.63460  -44.65940   -4.32350    6.63460
  700.00000  224.55670  224.55670    0.06130    -999.25    0.07780    -999.25   50.28920    3.25700 2605.17700    0.06130    -999.25   19.88500    3.25700   15.89680   15.89680   18.13310    0.07780    -999.25 2608.56760   19.88500   18.13310   37.65060  -64.98060  -26.49490   37.65060
  750.00000  232.89400  232.89400    0.03930    -999.25    0.10670    -999.25   71.59320   32.14460 2642.79710    0.03930    -999.25   13.96780   32.14460   32.32630   32.32630   13.54230    0.10670    -999.25 2654.12920   13.96780   13.54230   15.54590  -42.54410   -5.97130   15.54590
  800.00000  230.30480  230.30480    0.01740    -999.25    0.02280    -999.25   14.99300   31.55950 2680.24610    0.01740    -999.25   66.69800   31.55950   17.61530   17.61530   50.36650    0.02280    -999.25 2685.19360   66.69800   50.36650   97.45450  -66.59730  -32.26110   97.45450
  850.00000  226.14090  226.14090    0.02630    -999.25    0.03000    -999.25   21.02220   55.31550 2665.02710    0.02630    -999.25   47.56880   55.31550   13.67670   13.67670   57.53190    0.03000    -999.25 2669.08740   47.56880   57.53190  126.74200  -89.75960  -57.65990  126.74200
  900.00000  237.17770  237.17770    0.11070    -999.25    0.08990    -999.25   22.95330   59.46990 2520.70310    0.11070    -999.25   43.56680   59.46990   12.53290   12.53290   47.33650    0.08990    -999.25 2533.60450   43.56680   47.33650  106.98670  -84.34790  -54.48480  106.98670
  950.00000  231.32000  231.32000    0.00540    -999.25    0.01430    -999.25   10.90100   24.51350 2700.76610    0.00540    -999.25   91.73500   24.51350   11.68430   11.68430   88.89060    0.01430    -999.25 2703.37650   91.73500   88.89060  170.28010  -62.95950  -35.33300  170.28010
 1000.00000  230.25270  230.25270    0.03610    -999.25    0.05780    -999.25   22.94860   50.36460 2648.26900    0.03610    -999.25   43.57570   50.36460   13.47660   13.47660   38.97760    0.05780    -999.25 2650.08230   43.57570   38.97760   87.34240  -60.57920  -35.18930   87.34240
 1050.00000  244.29570  244.29570    0.00320    -999.25    0.14810    -999.25   90.94550   46.77560 2704.52810    0.00320    -999.25   10.99560   46.77560   33.51860   33.51860   13.17060    0.14810    -999.25 2706.16260   10.99560   13.17060   17.19370  -44.37460  -21.22130   17.19370
 1100.00000  220.27290  220.27290   -0.03050    -999.25    0.11410    -999.25   23.25330   25.60820 2762.15500   -0.03050    -999.25   43.00460   25.60820   20.75960   20.75960   44.25910    0.11410    -999.25 2764.08740   43.00460   44.25910   74.05470  -47.13740  -26.22070   74.05470
 1150.00000  221.91120  221.91120    0.01810    -999.25    0.07540    -999.25   41.72110   13.20680 2679.04910    0.01810    -999.25   23.96870   13.20680   33.36930   33.36930   25.50210    0.07540    -999.25 2675.68530   23.96870   25.50210   27.47950  -35.77500  -17.09490   27.47950
 1200.00000  283.29640  283.29640    0.18350    -999.25    0.23120    -999.25  201.59260  117.04950 2396.21510    0.18350    -999.25    4.96050  117.04950   59.83490   59.83490    5.45670    0.23120    -999.25 2421.49050    4.96050    5.45670    5.94360  -30.80160  -15.10850    5.94360
 1250.00000  227.54530  227.54530    0.03620    -999.25    0.13710    -999.25   96.20100   24.72730 2648.09790    0.03620    -999.25   10.39490   24.72730   61.30080   61.30080   10.30090    0.13710    -999.25 2650.75810   10.39490   10.30090   11.10990  -21.25230   -8.82850   11.10990
 1300.00000  215.30720  215.30720    0.02480    -999.25    0.14030    -999.25   69.78220   13.18500 2667.59200    0.02480    -999.25   14.33030   13.18500   43.06080   43.06080   14.73220    0.14030    -999.25 2681.38350   14.33030   14.73220   15.74830  -13.91450   -4.76010   15.74830
 1350.00000  220.53020  220.53020    0.01510    -999.25    0.16130    -999.25  109.34820   22.63280 2684.17900    0.01510    -999.25    9.14510   22.63280   50.84140   50.84140    9.38810    0.16130    -999.25 2688.55000    9.14510    9.38810   10.18290   -6.88510   -1.00000   10.18290
 1400.00000  317.76600  317.76600    0.27150    -999.25    0.33420    -999.25  328.86080  228.19950 2245.73510    0.27150    -999.25    3.04080  228.19950   80.92140   80.92140    2.97590    0.33420    -999.25 2266.76680    3.04080    2.97590    3.10410  -22.73590  -20.11890    3.10410
 1450.00000  239.29320  239.29320    0.19320    -999.25    0.30530    -999.25  287.83610  249.28820 2379.62790    0.19320    -999.25    3.47420  249.28820   78.16180   78.16180    3.57310    0.30530    -999.25 2418.13960    3.47420    3.57310    4.42520   -7.70430   -8.35440    4.42520
 1500.00000  214.82870  214.82870    0.08060    -999.25    0.24160    -999.25  213.94490  131.74710 2572.17410    0.08060    -999.25    4.67410  131.74710   72.21330   72.21330    5.03130    0.24160    -999.25 2554.69730    4.67410    5.03130    5.13020   -8.52860  -12.44580    5.13020
 1550.00000  209.03880  209.03880    0.01690    -999.25    0.14120    -999.25  107.35030   20.55550 2681.10110    0.01690    -999.25    9.31530   20.55550   45.54610   45.54610    9.93200    0.14120    -999.25 2685.65450    9.31530    9.93200   12.80730    6.81830   -0.36590   12.80730
 1600.00000  200.84970  200.84970   -0.00820    -999.25    0.10830    -999.25   78.16900   36.11650 2724.02200   -0.00820    -999.25   12.79280   36.11650   41.30480   41.30480   15.08850    0.10830    -999.25 2720.33760   12.79280   15.08850   25.09450    5.83720   -3.75720   25.09450
 1650.00000  201.05200  201.05200   -0.03720   -0.07430    0.04150    0.07910   44.34710   53.37970 2773.61210   -0.03720   -0.07430   22.54940   53.37970   22.85230   22.85230   27.45620    0.04150    0.07910 2777.28830   22.54940   27.45620   63.33360  -27.00820  -38.98980   63.33360
