~Version ---------------------------------------------------
VERS.      2.0 : CWLS log ASCII Standard -VERSION 2.0
WRAP.       NO : One line per depth step
CREA. 12/15/17 : LAS Creation Date
~Well ------------------------------------------------------
STRT.FT                         950.0 : START DEPTH
STOP.FT                        9250.0 : STOP DEPTH
STEP.FT                      50.00000 : STEP LENGTH
NULL.                         -999.25 : NULL VALUE
COMP.   TEXACO CANADA ENTERPRISES LTD : COMPANY
WELL. TEXCAN ET AL MAHASKA 7-10-58-13 : WELL
FLD .                                 : FIELD
LOC .                                 : LOCATION
CTRY.                          CANADA : COUNTRY
SRVC.                         Unknown : SERVICE COMPANY
DATE.                     11-Jan-1974 : LOGDATE
PROV.                         Alberta : PROVINCE
UWI .                100071005813W500 : UNIQUE WELL ID
SLAT.WGS84                   53.99612 : SURFACE LATITUDE
SLON.WGS84                  -115.8404 : SURFACE LONGITUDE
~Curve Information -----------------------------------------
DEPT    .FT    : Depth Curve
CALDED  .IN    : CALIPER FROM DENSITY LOG
CALSED  .IN    : CALIPER FROM SONIC LOG
CALWS   .IN    : CALIPER [CALSED]
CONDWS  .MMHO  : CONDUCTIVITY [1000/DRESWS]
DCORED  .G/C3  : DENSITY CORRECTION FROM DENSITY LOG [ADJ TO RESISTIVITY LOG]
DCORWS  .G/C3  : DENSITY CORRECTION [DCORED]
DENWS   .G/C3  : FORMATION BULK DENSITY [RHOBED]
DPHILSED.V/V   : DENSITY POROSITY LIMESTONE [M=2.71, F=1.00] FROM DENSITY LOG [ADJ TO RESISTIVITY LOG]
DPHISSED.V/V   : DENSITY POROSITY SANDSTONE [M=2.65, F=1.00] FROM DENSITY LOG [ADJ TO RESISTIVITY LOG]
DPOLSWS .V/V   : DENSITY POROSITY LIMESTONE [CALC FROM DENWS,M=2.71, F=1.00]
DRESWS  .OHMM  : DEEP RESISTIVITY [ILDED]
DTED    .US/F  : INTERVAL TRANSIT TIMEM=2.65, F=1.00 FROM SONIC LOG [ADJ TO RESISTIVITY LOG]
DTWS    .US/F  : COMPRESSIONAL SONIC [DTED]
GRDED   .GAPI  : GAMMA RAY FROM DENSITY LOG
GRSED   .GAPI  : GAMMA RAY FROM SONIC LOG
GRWS    .GAPI  : GAMMA RAY [GRSED]
ILDED   .OHMM  : INDUCTION LOG DEEP FROM RESISTIVITY LOG
ILMED   .OHMM  : INDUCTION LOG MEDIUM FROM RESISTIVITY LOG
LL8ED   .OHMM  : LATEROLOG-8 FROM RESISTIVITY LOG
MRESWS  .OHMM  : MEDIUM RESISTIVITY [ILMED]
NPHILSED.V/V   : NEUTRON POROSITY LIMESTONE FROM DENSITY LOG [ADJ TO RESISTIVITY LOG]
NPHISSED.V/V   : NEUTRON POROSITY SANDSTONE FROM DENSITY LOG [ADJ TO RESISTIVITY LOG]
NPOLSWS .V/V   : NEUTRON POROSITY LIMESTONE [NPHISSED MATRIX CONVERTED TO LIMESTONE (SLB-CNL) & SPL @ 5728' TO NPHILSED]
RHOBED  .G/C3  : BULK DENSITY FROM DENSITY LOG [ADJ TO RESISTIVITY LOG]
SPRED   .MV    : SPONTANEOUS POTENTIAL FROM RESISTIVITY LOG
SPWS    .MV    : SPONTANEOUS POTENTIAL [BASELINE 0MV, SPRED]
SRESWS  .OHMM  : SHALLOW RESISTIVITY [LL8ED]
~Params ----------------------------------------------------
PD  .                     GL : PERMANENT DATUM
EPD .FT               2427.8 : ELEVATION PERMANENT DATUM
LMF .                     KB : LOG MEASURED FROM
DAPD.FT                 18.2 : FEET ABOVE PERMANENT DATUM
DMF .                     KB : DRILLING MEASURED FROM
EKB .FT                 2446 : KELLY BUSHING
EGL .FT               2427.8 : GROUND LEVEL
DATE.               01/11/74 : RUN DATE
RUN .                      1 : RUN NUMBER
DD  .FT                 9279 : DEPTH DRILLER
DL  .FT                 9280 : DEPTH LOGGER
BLI .FT                 9274 : BOTTOM LOG INTERVAL
TLI .FT                  960 : TOP LOG INTERVAL
CBD .FT                  960 : CASING BOTTOM DRILLER
CBL .FT                  960 : CASING BOTTOM LOGGER
BS  .IN                 8.75 : BIT SIZE
BSD .FT                 9279 : BIT SIZE AT DEPTH
DFT .               GEL CHEM : DRILLING FLUID TYPE
DFD .                    9.2 : DRILLING FLUID DENSITY
DFV .                    130 : DRILLING FLUID VISCOSITY
DFPH.                      9 : DRILLING FLUID PH
DFL .                     11 : DRILLING FLUID LOSS
MSS .               FLOWLINE : MUD SAMPLE SOURCE
RMS .OHMM               2.59 : RESISTIVITY MUD SAMPLE
MST .DEGF                 50 : MUD SAMPLE TEMPERATURE
RMF .OHMM               1.92 : RESISTIVITY MUD FILTRATE SAMPLE
MFST.DEGF                 50 : MUD FILTRATE SAMPLE TEMPERATURE
TCS .HRS                   5 : TIME CIRCULATED STOPPED
LUN .                   7636 : LOGGING UNIT NUMBER
LUL .                    EDM : LOGGING UNIT LOCATION
ENGI.                  BOYKO : RECORDING ENGINEER
WITN.         PRIER CHAUDHRY : WITNESSED BY
CLNT.                A2DTECH : CLIENT CODE
ORIG.            2" 5" PRINT : ORIGIN OF DATA
UWI .       100071005813W500 : UNIQUE WELL ID
DICO. A2D Technologies, Inc. : DIGITIZING COMPANY
~Other -----------------------------------------------------
DIL-FDC-CNL-GR-SLC-GR TOOL RUN
RHOB & DRHO VERIFIED FROM SMALL SCALE LOG
~ASCII -----------------------------------------------------
# ...
 7450.00000   10.82400    9.24160    9.24160   17.19910    0.01220    0.01220    2.66650    0.01990    -999.25    0.02540   58.14260   49.63030   49.63030    -999.25   22.20500   22.20500   58.14260   62.02510   78.71570   62.02510    0.08090    -999.25    0.08090    2.66650 -143.99770 -126.53250   78.71570
 7500.00000    9.28070    9.19370    9.19370   25.24060    0.02710    0.02710    2.79250   -0.05240    -999.25   -0.04820   39.61870   50.22910   50.22910    -999.25   26.14250   26.14250   39.61870   42.17600   47.60920   42.17600    0.09870    -999.25    0.09870    2.79250 -112.00690  -94.94150   47.60920
 7550.00000    9.56200    9.21980    9.21980   14.09740    0.00360    0.00360    2.68590    0.01060    -999.25    0.01410   70.93530   53.27120   53.27120    -999.25   34.48500   34.48500   70.93530   73.28860  106.53960   73.28860    0.04540    -999.25    0.04540    2.68590  -58.33090  -41.66520  106.53960
 7600.00000    9.61880    9.33980    9.33980   35.25880    0.02360    0.02360    2.72060   -0.00570    -999.25   -0.00620   28.36170   56.26090   56.26090    -999.25   38.41710   38.41710   28.36170   32.01120   43.26130   32.01120    0.07980    -999.25    0.07980    2.72060  -61.72570  -45.45980   43.26130
 7650.00000    9.64560    9.32050    9.32050   73.61330    0.00720    0.00720    2.68860    0.01040    -999.25    0.01250   13.58450   61.32810   61.32810    -999.25   52.94590   52.94590   13.58450   14.72700   19.33790   14.72700    0.12830    -999.25    0.12830    2.68860  -59.34530  -43.47910   19.33790
 7700.00000   10.51510   10.18180   10.18180   90.71530    0.01450    0.01450    2.65490    0.02790    -999.25    0.03220   11.02350   72.30980   72.30980    -999.25   68.17580   68.17580   11.02350   10.33980   12.09740   10.33980    0.17840    -999.25    0.17840    2.65490  -57.50760  -42.04120   12.09740
 7750.00000   11.28370    9.96230    9.96230   38.42370    0.17500    0.17500    2.55060    0.08210    -999.25    0.09320   26.02560   61.42580   61.42580   15.84410   54.36820   54.36820   26.02560   24.27300   24.08460   24.27300    0.20190    -999.25    0.20190    2.55060  -73.85020  -58.78360   24.08460
 7800.00000    -999.25   13.53620   13.53620  235.72670    0.15080    0.15080    2.08340    0.35890    -999.25    0.36640    4.24220   81.80300   81.80300   26.40660   82.97800   82.97800    4.24220    4.02590    5.69010    4.02590    0.47950    -999.25    0.47950    2.08340  -64.62130  -49.95440    5.69010
 7850.00000   14.42080   11.56690   11.56690  191.84650    0.23350    0.23350    2.27020    0.25980    -999.25    0.25720    5.21250   74.62140   74.62140   24.48280   78.57890   78.57890    5.21250    6.13580    7.60680    6.13580    0.35160    -999.25    0.35160    2.27020  -53.20320  -38.93610    7.60680
 7900.00000    9.43380    9.18790    9.18790   37.92450    0.10150    0.10150    2.68270    0.01330    -999.25    0.01600   26.36820   55.17360   55.17360   11.19350   42.23060   42.23060   26.36820   29.61920   49.32790   29.61920    0.11720    -999.25    0.11720    2.68270  -58.99310  -45.12570   49.32790
 7950.00000   10.89210   10.13280   10.13280  139.73310    0.17520    0.17520    2.26490    0.26470    -999.25    0.26030    7.15650   69.20080   69.20080   19.12760   63.13480   63.13480    7.15650    8.35390   14.53120    8.35390    0.27050    -999.25    0.27050    2.26490  -62.76010  -49.29250   14.53120
 8000.00000   14.47890   12.05900   12.05900  225.78970    0.18540    0.18540    2.17770    0.30720    -999.25    0.31130    4.42890   78.40920   78.40920   21.95970   76.36400   76.36400    4.42890    4.77840    6.37670    4.77840    0.40740    -999.25    0.40740    2.17770  -61.59570  -48.52780    6.37670
 8050.00000    9.57570    9.26450    9.26450   81.07210    0.02120    0.02120    2.68830    0.01040    -999.25    0.01270   12.33470   63.60430   63.60430   21.23100   74.64790   74.64790   12.33470   13.80120   19.16140   13.80120    0.17170    -999.25    0.17170    2.68830  -56.47920  -43.81110   19.16140
 8100.00000   11.50810    9.97030    9.97030  148.13060    0.23780    0.23780    2.56030    0.09180    -999.25    0.08750    6.75080   70.93270   70.93270   22.41280   90.61460   90.61460    6.75080    7.62450   10.73610    7.62450    0.26580    -999.25    0.26580    2.56030  -62.83350  -50.56510   10.73610
 8150.00000    9.65100    9.41740    9.41740  108.63310    0.00400    0.00400    2.67950    0.01400    -999.25    0.01780    9.20530   67.10630   67.10630   21.71210   77.62870   77.62870    9.20530   10.53160   16.03460   10.53160    0.19270    -999.25    0.19270    2.67950  -60.33560  -48.46700   16.03460
 8200.00000    9.91770    9.55200    9.55200  129.15390    0.13330    0.13330    2.70500   -0.00020    -999.25    0.00290    7.74270   67.12690   67.12690   20.16030   65.91940   65.91940    7.74270    9.38180   14.90910    9.38180    0.19370    -999.25    0.19370    2.70500  -64.18210  -52.71330   14.90910
 8250.00000    9.82850    9.54630    9.54630   67.26310   -0.00980   -0.00980    2.66860    0.02080    -999.25    0.02420   14.86700   61.90110   61.90110   15.95600   58.85940   58.85940   14.86700   16.78630   23.69780   16.78630    0.15420    -999.25    0.15420    2.66860  -62.74940  -51.68030   23.69780
 8300.00000   11.58880   10.28570   10.28570  153.02220    0.14260    0.14260    2.57320    0.07560    -999.25    0.08000    6.53500   73.61750   73.61750   27.82370  100.76320  100.76320    6.53500    7.42870   10.94400    7.42870    0.25290    -999.25    0.25290    2.57320  -65.57070  -54.90140   10.94400
 8350.00000    9.85920    9.64570    9.64570  112.64430    0.03270    0.03270    2.66740    0.01990    -999.25    0.02490    8.87750   68.81440   68.81440   26.79130   86.59970   86.59970    8.87750   10.00250   15.87440   10.00250    0.20230    -999.25    0.20230    2.66740  -62.97420  -52.70460   15.87440
 8400.00000   10.35180    9.82460    9.82460  141.49880    0.16640    0.16640    2.65230    0.03770    -999.25    0.03370    7.06720   70.57470   70.57470   25.88920   83.48980   83.48980    7.06720    8.00020   11.97350    8.00020    0.23180    -999.25    0.23180    2.65230  -66.56420  -56.69440   11.97350
 8450.00000    9.65310    9.46370    9.46370   94.98660    0.01870    0.01870    2.70690   -0.00900    -999.25    0.00180   10.52780   65.64800   65.64800   20.24440   74.22680   74.22680   10.52780   11.37160   17.57110   11.37160    0.18820    -999.25    0.18820    2.70690  -65.74200  -56.27190   17.57110
 8500.00000   10.00630    9.75520    9.75520  136.03220    0.13340    0.13340    2.65910    0.02380    -999.25    0.02980    7.35120   72.41660   72.41660   28.64440   90.09590   90.09590    7.35120    8.43280   13.03240    8.43280    0.25050    -999.25    0.25050    2.65910  -66.21640  -57.14610   13.03240
 8550.00000    9.35530    9.32030    9.32030  105.13260    0.02340    0.02340    2.70730    0.00300    -999.25    0.00160    9.51180   66.26440   66.26440   22.55980   66.13710   66.13710    9.51180   10.84880   17.01410   10.84880    0.18640    -999.25    0.18640    2.70730  -58.69290  -50.02240   17.01410
 8600.00000    9.20770    9.30870    9.30870  103.03440   -0.00900   -0.00900    2.64970    0.03400    -999.25    0.03530    9.70550   69.32030   69.32030   28.31030   77.34920   77.34920    9.70550   11.26790   17.49180   11.26790    0.19360    -999.25    0.19360    2.64970  -56.32430  -48.05350   17.49180
 8650.00000    9.27560    9.19160    9.19160   16.90750    0.01400    0.01400    2.69970   -0.00040    -999.25    0.00600   59.14540   53.25070   53.25070   11.68010   30.13120   30.13120   59.14540   64.37180   80.56470   64.37180    0.05960    -999.25    0.05960    2.69970  -42.12320  -34.25220   80.56470
 8700.00000    9.99560   10.10010   10.10010  115.09860    0.14310    0.14310    2.25780    0.26870    -999.25    0.26440    8.68820   88.77490   88.77490   37.23230  106.04180  106.04180    8.68820    9.88710   23.41590    9.88710    0.39300    -999.25    0.39300    2.25780  -58.73610  -51.26480   23.41590
