~Version ---------------------------------------------------
VERS.      2.0 : CWLS log ASCII Standard -VERSION 2.0
WRAP.       NO : One line per depth step
CREA. 11/16/17 : LAS Creation Date
~Well ------------------------------------------------------
STRT.FT                         1050.0 : START DEPTH
STOP.FT                        10100.0 : STOP DEPTH
STEP.FT                       50.00000 : STEP LENGTH
NULL.                          -999.25 : NULL VALUE
COMP.             PETROFINA CANADA LTD : COMPANY
WELL.        FINA ET AL WIND 7-7-61-16 : WELL
FLD .                                  : FIELD
LOC .                                  : LOCATION
CTRY.                           CANADA : COUNTRY
SRVC. Schlumberger Well Surveying Corp : SERVICE COMPANY
DATE.                      23-Jan-1978 : LOGDATE
PROV.                          Alberta : PROVINCE
UWI .                 100070706116W500 : UNIQUE WELL ID
SLAT.WGS84                    54.25864 : SURFACE LATITUDE
SLON.WGS84                    -116.383 : SURFACE LONGITUDE
~Curve Information -----------------------------------------
DEPT    .FT    : Depth Curve
CALDED  .IN    : CALIPER FROM DENSITY LOG [ADJ.TO RESISTIVITY LOG]
CALSED  .IN    : CALIPER FROM SONIC LOG [ADJ.TO RESISTIVITY LOG]
CALWS   .IN    : CALIPER [CALSED]
CONDWS  .MMHO  : CONDUCTIVITY [1000/DRESWS]
DCORWS  .G/C3  : DENSITY CORRECTION [DRHOED]
DENWS   .G/C3  : FORMATION BULK DENSITY [RHOBED]
DPHILSED.V/V   : DENSITY POROSITY LIMESTONE [M=2.71, F=1.00] FROM DENSITY LOG [ADJ.TO RESISTIVITY LOG]
DPHISSED.V/V   : DENSITY POROSITY SANDSTONE [M=2.65, F=1.00] FROM DENSITY LOG [ADJ.TO RESISTIVITY LOG]
DPOLSWS .V/V   : DENSITY POROSITY LIMESTONE [CALC FROM DENWS, M=2.71, F=1.00]
DRESWS  .OHMM  : DEEP RESISTIVITY [ILDED]
DRHOED  .G/C3  : DENSITY CORRECTION FROM DENSITY LOG [ADJ.TO RESISTIVITY LOG]
DTED    .US/F  : DELTA TIME FROM SONIC LOG [ADJ.TO RESISTIVITY LOG]
DTWS    .US/F  : COMPRESSIONAL SONIC [DTED]
GRDED   .GAPI  : GAMMA RAY FROM DENSITY LOG [ADJ.TO RESISTIVITY LOG]
GRDRED  .GAPI  : GAMMA RAY [FROM REPEAT SECTION] FROM DENSITY LOG [ADJ.TO RESISTIVITY LOG]
GRSED   .GAPI  : GAMMA RAY FROM SONIC LOG [ADJ.TO RESISTIVITY LOG]
GRSRED  .GAPI  : GAMMA RAY [FROM REPEAT SECTION] FROM SONIC LOG [ADJ.TO RESISTIVITY LOG]
GRWS    .GAPI  : GAMMA RAY [GRSED SPL.TO GRSRED @ 10087.5']
ILDED   .OHMM  : DEEP INDUCTION FROM RESISTIVITY LOG
ILMED   .OHMM  : MEDIUM INDUCTION FROM RESISTIVITY LOG
LL8ED   .OHMM  : LATEROLOG 8 FROM RESISTIVITY LOG
MRESWS  .OHMM  : MEDIUM RESISTIVITY [ILMED]
NPHILSED.V/V   : NEUTRON POROSITY LIMESTONE FROM DENSITY LOG [ADJ.TO RESISTIVITY LOG]
NPHISSED.V/V   : NEUTRON POROSITY SANDSTONE FROM DENSITY LOG [ADJ.TO RESISTIVITY LOG]
NPOLSWS .V/V   : NEUTRON POROSITY LIMESTONE [NPHISSED MATRIX (SLB) CONVERSION FOR LIMESTONE, SPL.TO NPHILSED @ 6298']
RHOBED  .G/C3  : BULK DENSITY FROM DENSITY LOG [ADJ.TO RESISTIVITY LOG]
SPRED   .MV    : SPONTANEOUS POTENTIAL FROM RESISTIVITY LOG
SPWS    .MV    : SPONTANEOUS POTENTIAL [BASELINE 0 MV, SPRED]
SRESWS  .OHMM  : SHALLOW RESISTIVITY [LL8ED]
~Params ----------------------------------------------------
PD  .                     GL : PERMANENT DATUM
EPD .FT               2840.2 : ELEVATION PERMANENT DATUM
LMF .                     KB : LOG MEASURED FROM
DAPD.FT                 13.8 : FEET ABOVE PERMANENT DATUM
EKB .FT                 2854 : KELLY BUSHING
EGL .FT               2840.2 : GROUND LEVEL
DATE.               01/23/78 : RUN DATE
RUN .                      1 : RUN NUMBER
DD  .FT                10130 : DEPTH DRILLER
DL  .FT                10136 : DEPTH LOGGER
BLI .FT                10130 : BOTTOM LOG INTERVAL
TLI .FT                 1041 : TOP LOG INTERVAL
CBD .FT                 1041 : CASING BOTTOM DRILLER
CBL .FT                 1041 : CASING BOTTOM LOGGER
BS  .IN                7.875 : BIT SIZE
BSD .FT                10130 : BIT SIZE AT DEPTH
DFT .               GEL CHEM : DRILLING FLUID TYPE
DFD .                    9.1 : DRILLING FLUID DENSITY
DFV .                     88 : DRILLING FLUID VISCOSITY
DFPH.                    9.6 : DRILLING FLUID PH
DFL .                      6 : DRILLING FLUID LOSS
MSS .               FLOWLINE : MUD SAMPLE SOURCE
RMF .OHMM                2.1 : RESISTIVITY MUD FILTRATE SAMPLE
MFST.DEGF                 61 : MUD FILTRATE SAMPLE TEMPERATURE
RMB .OHMM               0.67 : RESISTIVITY MUD AT BHT
TCS .HRS                 2.5 : TIME CIRCULATED STOPPED
LUN .                   7730 : LOGGING UNIT NUMBER
LUL .                    EDM : LOGGING UNIT LOCATION
ENGI.               CAMPBELL : RECORDING ENGINEER
WITN.                  SMITH : WITNESSED BY
CLNT.                A2DTECH : CLIENT CODE
ORIG.            2" 5" PRINT : ORIGIN OF DATA
UWI .       100070706116W500 : UNIQUE WELL ID
DICO. A2D Technologies, Inc. : DIGITIZING COMPANY
~Other -----------------------------------------------------
~ASCII -----------------------------------------------------
# ...
 3550.00000   11.79800   10.08110   10.08110  137.46270    0.13070    2.52730    -999.25    0.07290    0.10680    7.27470    0.13070   91.04810   91.04810  122.44910    -999.25  125.38120    -999.25  125.38120    7.27470    6.76650    7.94920    6.76650    -999.25    0.39520    0.35220    2.52730  -86.96740   -2.31360    7.94920
 3600.00000   10.82440    9.67690    9.67690  152.66570    0.03040    2.47960    -999.25    0.09440    0.13470    6.55030    0.03040   98.94570   98.94570  163.49670    -999.25  175.41080    -999.25  175.41080    6.55030    6.37940    8.20360    6.37940    -999.25    0.43690    0.39490    2.47960  -84.71990   -2.08000    8.20360
 3650.00000    9.78630    9.58600    9.58600   98.67670    0.06850    2.57800    -999.25    0.03830    0.07720   10.13410    0.06850   86.77910   86.77910  122.80450    -999.25  126.15350    -999.25  126.15350   10.13410    9.28480   12.57850    9.28480    -999.25    0.31080    0.26690    2.57800  -86.12320   -3.43490   12.57850
 3700.00000    9.80120    9.75960    9.75960  116.47190    0.08580    2.56390    -999.25    0.05020    0.08540    8.58640    0.08580   89.01780   89.01780  118.68570    -999.25  115.73050    -999.25  115.73050    8.58640    8.11770   10.29310    8.11770    -999.25    0.37810    0.33480    2.56390  -85.57540   -2.21330   10.29310
 3750.00000   10.18550   10.65910   10.65910  119.52000    0.01750    2.52010    -999.25    0.07210    0.11110    8.36680    0.01750   85.87840   85.87840  111.69150    -999.25  114.66070    -999.25  114.66070    8.36680    7.91250    9.12060    7.91250    -999.25    0.32950    0.28570    2.52010  -86.95510   -2.57560    9.12060
 3800.00000   10.43670   10.65390   10.65390  154.89950    0.09100    2.54430    -999.25    0.05970    0.09690    6.45580    0.09100   91.92690   91.92690  119.98750    -999.25  130.42660    -999.25  130.42660    6.45580    6.03750    7.38050    6.03750    -999.25    0.36920    0.32580    2.54430  -85.87750   -1.47390    7.38050
 3850.00000    9.56650    9.43310    9.43310  124.47550    0.09880    2.54320    -999.25    0.05820    0.09750    8.03430    0.09880   84.08460   84.08460  110.33000    -999.25  122.61990    -999.25  122.61990    8.03430    7.80150    8.36800    7.80150    -999.25    0.34920    0.30560    2.54320  -86.24510   -2.56250    8.36800
 3900.00000    9.59800    9.27850    9.27850  113.04290    0.06210    2.55930    -999.25    0.04650    0.08810    8.84620    0.06210   82.41590   82.41590  106.63400    -999.25  102.07650    -999.25  102.07650    8.84620    8.58480    9.41580    8.58480    -999.25    0.28840    0.24440    2.55930  -85.47460   -2.33550    9.41580
 3950.00000   10.09330   10.03530   10.03530  152.74060    0.06860    2.54490    -999.25    0.06250    0.09650    6.54710    0.06860   88.18790   88.18790  118.95730    -999.25  128.63490    -999.25  128.63490    6.54710    6.24060    7.08040    6.24060    -999.25    0.36410    0.32070    2.54490  -85.03670   -2.21440    7.08040
 4000.00000   10.22340   10.86100   10.86100  169.90330    0.06810    2.49440    -999.25    0.09540    0.12610    5.88570    0.06810   92.83710   92.83710  124.38950    -999.25  128.33390    -999.25  128.33390    5.88570    5.43910    6.47150    5.43910    -999.25    0.39370    0.35070    2.49440  -84.76440   -2.25570    6.47150
 4050.00000    9.52260    9.52440    9.52440  161.39180    0.12650    2.50150    -999.25    0.09590    0.12190    6.19610    0.12650   89.64070   89.64070  115.11100    -999.25  127.78820    -999.25  127.78820    6.19610    6.00240    6.74750    6.00240    -999.25    0.38780    0.34470    2.50150  -84.25040   -2.05690    6.74750
 4100.00000    9.90380    9.89080    9.89080  126.19780    0.05360    2.49280    -999.25    0.09320    0.12700    7.92410    0.05360   83.50650   83.50650  123.76640    -999.25  120.43680    -999.25  120.43680    7.92410    7.65860    8.57240    7.65860    -999.25    0.33140    0.28750    2.49280  -84.33810   -2.46140    8.57240
 4150.00000   11.03530    9.64110    9.64110  151.77960    0.09190    2.51810    -999.25    0.06540    0.11220    6.58850    0.09190   87.47370   87.47370  115.59100    -999.25  121.27330    -999.25  121.27330    6.58850    6.28140    7.49130    6.28140    -999.25    0.36740    0.32400    2.51810  -84.22940   -2.78020    7.49130
 4200.00000   10.69330    9.73590    9.73590  109.80160    0.07230    2.44020    -999.25    0.11990    0.15780    9.10740    0.07230   82.48030   82.48030  115.77890    -999.25  131.98400    -999.25  131.98400    9.10740    8.46610    9.58670    8.46610    -999.25    0.30930    0.26530    2.44020  -83.33030   -2.62300    9.58670
 4250.00000   11.28620    9.79600    9.79600  124.22360    0.20650    2.43590    -999.25    0.12150    0.16030    8.05000    0.20650   85.13350   85.13350  123.49250    -999.25  123.68230    -999.25  123.68230    8.05000    7.91400    8.36870    7.91400    -999.25    0.32850    0.28470    2.43590  -82.22730   -2.15860    8.36870
 4300.00000   11.21900    9.93610    9.93610  107.18110    0.07150    2.50410    -999.25    0.08720    0.12040    9.33000    0.07150   82.55070   82.55070  114.63220    -999.25  122.55400    -999.25  122.55400    9.33000    8.66420    9.73620    8.66420    -999.25    0.31480    0.27090    2.50410  -82.74060   -2.98710    9.73620
 4350.00000   10.69530    9.74520    9.74520  124.17370    0.07800    2.49680    -999.25    0.09210    0.12470    8.05340    0.07800   86.12460   86.12460  121.19230    -999.25  134.65640    -999.25  134.65640    8.05340    7.72790    8.60760    7.72790    -999.25    0.32290    0.27910    2.49680  -81.99720   -2.91590    8.60760
 4400.00000   10.67340    9.58580    9.58580  144.15040    0.09680    2.51390    -999.25    0.07730    0.11470    6.93720    0.09680   88.83750   88.83750  129.55580    -999.25  133.63680    -999.25  133.63680    6.93720    6.76170    8.55450    6.76170    -999.25    0.34990    0.30630    2.51390  -80.31220   -2.37580    8.55450
 4450.00000   10.38110    9.51500    9.51500  143.34000    0.09680    2.46130    -999.25    0.11270    0.14540    6.97690    0.09680   91.23210   91.23210  134.87750    -999.25  142.06310    -999.25  142.06310    6.97690    6.79270    8.63270    6.79270    -999.25    0.36090    0.31740    2.46130  -79.86980   -2.98040    8.63270
 4500.00000    8.94390    8.83880    8.83880   47.15910    0.05800    2.59180    -999.25    0.02760    0.06910   21.20480    0.05800   58.82750   58.82750   52.90990    -999.25   59.59050    -999.25   59.59050   21.20480   29.41910  121.18780   29.41910    -999.25    0.16370    0.12090    2.59180  -79.32130   -3.27730  121.18780
 4550.00000    9.77510    9.36930    9.36930  126.61430    0.23430    2.48650    -999.25    0.09480    0.13070    7.89800    0.23430   91.03870   91.03870  135.81470    -999.25  154.45670    -999.25  154.45670    7.89800    7.35970    9.64830    7.35970    -999.25    0.38690    0.34380    2.48650  -78.74330   -1.92040    9.64830
 4600.00000    8.84310    8.81520    8.81520  101.37340    0.11280    2.54050    -999.25    0.06250    0.09910    9.86480    0.11280   92.13730   92.13730  141.25590    -999.25  148.11610    -999.25  148.11610    9.86480    9.61320   13.36460    9.61320    -999.25    0.40150    0.35870    2.54050  -78.27030   -2.13760   13.36460
 4650.00000    8.81480    8.86290    8.86290  101.01620    0.02760    2.53080    -999.25    0.05450    0.10480    9.89940    0.02760   92.56260   92.56260  150.57330    -999.25  156.65700    -999.25  156.65700    9.89940    9.28480   13.91780    9.28480    -999.25    0.42530    0.38300    2.53080  -77.81620   -1.99720   13.91780
 4700.00000   10.05330    9.42570    9.42570  139.45730    0.22940    2.37590    -999.25    0.16190    0.19540    7.17090    0.22940   93.91980   93.91980  123.47460    -999.25  139.54040    -999.25  139.54040    7.17090    6.93530    9.63920    6.93530    -999.25    0.39970    0.35680    2.37590  -77.75600   -2.47120    9.63920
 4750.00000   10.04870   10.01950   10.01950  192.83060    0.17540    2.39640    -999.25    0.15370    0.18340    5.18590    0.17540   92.12960   92.12960  121.47060    -999.25  131.73690    -999.25  131.73690    5.18590    4.84640    5.86380    4.84640    -999.25    0.40630    0.36350    2.39640  -77.98970   -3.29880    5.86380
