~Version ---------------------------------------------------
VERS. 2.0 : CWLS log ASCII Standard -VERSION 2.0
WRAP.  NO : ONE LINE PER DEPTH STEP
~Well ------------------------------------------------------
STRT.M                      450.0 : START DEPTH
STOP.M                     3300.0 : STOP DEPTH
STEP.M                   50.00000 : STEP LENGTH
NULL.                     -999.25 : NULL VALUE
COMP.   GULF CANADA RESOURCES INC : COMPANY
WELL. GULF AEC STURLS 14-20-68-25 : WELL
FLD .                             : FIELD
LOC .                             : LOCATION
CTRY.                      CANADA : COUNTRY
SRVC.                     Unknown : SERVICE COMPANY
DATE.                 26-Sep-1985 : LOGDATE
PROV.                     Alberta : PROVINCE
UWI .            100142006825W500 : UNIQUE WELL ID
SLAT.WGS84               54.90528 : SURFACE LATITUDE
SLON.WGS84              -117.7801 : SURFACE LONGITUDE
~Curve Information -----------------------------------------
DEPT   .M                 : 
GRD    .GAPI 45 310 01 00 : GAMMA RAY FROM DENSITY LOG
DRHO   .K/M3 45 356 01 00 : BULK DENSITY CORRECTION
C2     .MM   45 280 60 00 : CALIPER 2
CALD   .MM   45 280 60 00 : CALIPER FROM DENSITY LOG
NPHI_SS.DEC  42 890 03 00 : NEUTRON POROSITY SANDSTONE
DPHI_SS.DEC  45 890 12 00 : DENSITY POROSITY SANDSTONE
DPHI_LS.DEC  45 890 10 00 : DENSITY POROSITY LIMESTONE
NPHI_LS.DEC  42 890 01 00 : NEUTRON POROSITY LIMESTONE
TEND   .KG   45 635 00 00 : TENSION FROM DENSITY LOG
RHOB   .K/M3 45 350 01 00 : BULK DENSITY
GRR    .GAPI 07 310 01 00 : GAMMA RAY FROM RESISTIVITY LOG
ILD    .OHMM 07 120 46 00 : INDUCTION DEEP RESISTIVITY
ILM    .OHMM 07 120 44 00 : INDUCTION MEDIUM RESISTIVITY
TENR   .KG   07 635 00 00 : TENSION FROM RESISTIVITY LOG
SFLU   .OHMM 07 220 01 00 : SHALLOW FOCUSED RESISTIVITY (UNAVERAGED)
SPR    .MV   07 010 01 00 : SPONTANEOUS POTENTIAL FROM RESISTIVITY LOG
GRS    .GAPI 60 310 01 00 : GAMMA RAY FROM SONIC LOG
DT     .US/M 60 500 00 00 : DELTA-T (INTERVAL TRANSIT TIME)
CALS   .MM   60 280 50 00 : CALIPER FROM SONIC LOG
TENS   .KG   60 635 00 00 : TENSION FROM SONIC LOG
~Params ----------------------------------------------------
PD  .                         GL : PERMANENT DATUM
EPD .M                     681.5 : ELEVATION PERMANENT DATUM
LMF .                         KB : LOG MEASURED FROM
DAPD.M                       6.8 : FEET ABOVE PERMANENT DATUM
DMF .                         KB : DRILLING MEASURED FROM
EKB .M                     688.3 : KELLY BUSHING
EDF .M                     687.9 : DRILLING FLOOR
EGL .M                     681.5 : GROUND LEVEL
DATE.                   09/26/85 : RUN DATE
RUN .                          1 : RUN NUMBER
DD  .M                      3321 : DEPTH DRILLER
DL  .M                      3322 : DEPTH LOGGER
BLI .M                      3320 : BOTTOM LOG INTERVAL
TLI .M                       454 : TOP LOG INTERVAL
CS  .MM                    244.5 : CASING SIZE
CBD .M                       455 : CASING BOTTOM DRILLER
CBL .M                       454 : CASING BOTTOM LOGGER
BS  .MM                      222 : BIT SIZE
BSD .M                      3321 : BIT SIZE AT DEPTH
DFT .                   GEL CHEM : DRILLING FLUID TYPE
DFV .                         66 : DRILLING FLUID VISCOSITY
DFPH.                       10.5 : DRILLING FLUID PH
DFL .                         10 : DRILLING FLUID LOSS
MSS .                   FLOWLINE : MUD SAMPLE SOURCE
RMS .OHMM                   1.35 : RESISTIVITY MUD SAMPLE
MST .DEGC                     21 : MUD SAMPLE TEMPERATURE
RMF .OHMM                   1.01 : RESISTIVITY MUD FILTRATE SAMPLE
MFST.DEGC                     23 : MUD FILTRATE SAMPLE TEMPERATURE
RMC .OHMM                  0.376 : RESISTIVITY MUD CAKE
MCST.DEGC                     98 : MUD CAKE SAMPLE TEMPERATURE
MFSS.                       MEAS : MUD FILTRATE SAMPLE SOURCE
RMB .OHMM                  0.481 : RESISTIVITY MUD AT BHT
TCS .HRS                     100 : TIME CIRCULATED STOPPED
TLAB.HRS                     730 : TIME LOGGER AT BOTTOM
LUN .                       8204 : LOGGING UNIT NUMBER
LUL .                         GP : LOGGING UNIT LOCATION
ENGI.                       BELL : RECORDING ENGINEER
WITN.                     WAGNER : WITNESSED BY
CLNT.                    A2DTECH : CLIENT CODE
ORIG. 6.5"/100M 16.5"/100M PRINT : ORIGIN OF DATA
UWI .           100142006825W500 : UNIQUE WELL ID
DICO.     A2D Technologies, Inc. : DIGITIZING COMPANY
~Other -----------------------------------------------------
~ASCII -----------------------------------------------------
# ...
 2200.00000   49.62790  -14.66290  273.41700  246.49610    -999.25    -999.25    0.02330    0.10450 1747.27200 2664.64620   50.36830   11.23710   10.76080 1555.23970   13.45680  -38.90210   49.17060  199.49900  247.66060 1569.30920
 2250.00000   18.44780   -3.63060  254.25650  227.31770    -999.25    -999.25    0.03150    0.03930 1805.52390 2656.20560   25.16450    7.43680   13.17850 1614.17980   59.29440   44.43240   24.92300  169.63940  242.29630 1605.95680
 2300.00000   14.17150   48.71700  252.43250  253.41290    -999.25    -999.25    0.00690    0.00210 1828.03560 2696.58790   12.20270  233.04100  185.25950 1640.96910  189.50270  -21.75660   12.12340  168.32580  244.55600 1641.75700
 2350.00000   51.47390   -8.38790  262.45290  248.43360    -999.25    -999.25    0.02190    0.15760 1852.52480 2670.07370   47.51850    4.37790    4.81510 1652.05790    6.38420   45.44740   47.54070  204.86220  247.29640 1652.55520
 2400.00000   27.25650   46.87030  250.99170  251.76860    -999.25    -999.25    0.04500    0.02740 1881.02600 2632.57790   28.81480   26.78110   27.68370 1678.36560   44.37190   83.02360   28.86130  188.63470  239.75470 1682.40860
 2450.00000   58.49410  -12.17180  239.66860  242.27320    -999.25    -999.25    0.02150    0.07650 1926.99710 2670.70850   56.51980   22.46380   23.29830 1736.31370   27.44470  115.31820   57.28430  199.81730  245.17820 1746.30920
 2500.00000   38.85960   -6.92910  238.75890  227.17900    -999.25    -999.25    0.00910    0.03780 1928.37340 2692.57280   35.57870   76.63380   79.19070 1753.69060   98.10810   73.18310   34.95470  185.04530  230.50340 1740.39100
 2550.00000   43.19150   -1.47860  251.17280  222.44510    -999.25    -999.25    0.00770    0.01920 1994.30050 2694.16600   20.49180  355.62550  305.47340 1787.83700 1284.72790   41.20270   20.25660  168.19860  237.31730 1791.25840
 2600.00000    9.94600   -9.94630  293.70850  218.00690    -999.25    -999.25    0.01670    0.00320 1972.20150 2676.98660   10.35940    -999.25 1762.37870 1808.52030 1397.41430 -101.55540   10.33080  164.36240  237.07550 1820.00870
 2650.00000    8.93560  -12.92540  249.70620  215.64950    -999.25    -999.25    0.02130    0.00220 2026.75890 2669.19650    6.24670 1835.85960  764.10820 1853.37330  705.41930  -75.91550    6.32560  160.00530  229.15280 1841.02310
 2700.00000   13.39570   -0.95050  347.21020  217.96520    -999.25    -999.25   -0.00740    0.00490 2044.05630 2719.31200   10.45400 1815.61960  382.66880 1865.49130 2012.13810 -126.03730   10.43720  162.49070  237.36660 1865.52700
 2750.00000   12.30480   -6.37620  355.90910  217.84780    -999.25    -999.25    0.01380    0.00690 2070.75560 2685.62130   13.32010 1923.33840 1794.96400 1906.24410 1982.26550  -59.41710   13.33050  164.14070  236.26280 1901.52440
 2800.00000   12.53050    2.87230  244.90720  216.01630    -999.25    -999.25   -0.01030    0.08140 2115.14820 2722.77590   12.78390   28.84750   39.93430 1929.46680  129.50930  -50.70080   12.81520  161.06700  221.86390 1926.83300
 2850.00000   17.16100   -5.46430  341.13470  220.18720    -999.25    -999.25   -0.00350    0.00700 2131.18210 2715.39670   17.62100 2027.49650  690.89150 1944.34670 1974.72000 -182.93570   17.70970  163.08910  238.24740 1945.28850
 2900.00000   26.42430  -16.77200  250.35240  223.80330    -999.25    -999.25    0.02260    0.01060 2180.88480 2668.23680   27.14500 1976.95670  304.78590 1968.34270 1008.60360  -86.27530   27.28290   49.81220  228.43820 1959.74280
 2950.00000   27.07500  -11.05640  256.22940  227.50170    -999.25    -999.25    0.02500    0.01590 2184.07280 2665.55440   26.30430  324.79230  266.95470 2009.07780  414.80060    1.54520   26.11680  174.10350  237.84620 2013.80870
 3000.00000   64.45330  -17.56730  272.62450  251.56770    -999.25    -999.25    0.04380    0.16440 2239.20000 2633.67990   60.55620    7.62170    8.44440 2032.31420   12.09940  101.58120   60.63600  221.80890  248.53040 2038.96690
 3050.00000   60.68130   -8.58650  264.67720  250.88920    -999.25    -999.25    0.06740    0.14210 2245.29640 2590.19700   60.60750    6.62430    7.04990 2058.85030    8.04740   81.21740   60.42570  218.07810  252.70960 2066.52660
 3100.00000   79.68520  141.02920  312.99880  266.25780    -999.25    -999.25    0.08000    0.22320 2315.12300 2584.15010   84.28600    3.94950    4.22580 2080.44430    4.94430   91.93770   84.43370  253.06240  278.15100 2087.10890
 3150.00000  152.41260  -11.65670  239.90380  222.26340    -999.25    -999.25    0.16810    0.19270 2321.13280 2424.13700  156.34160   76.39460   82.68200 2112.67870  168.86700   98.15490  157.75220  235.28670  224.38680 2116.63920
 3200.00000   17.01460  -12.96120  237.86480  228.79900    -999.25    -999.25    0.01620    0.00630 2344.77320 2678.50710   20.03370  155.49970  153.13510 2147.12600  240.84610   79.89730   20.13070  166.10510  229.46590 2179.54830
 3250.00000   46.99840  -24.21260  246.76390  220.48610    -999.25    -999.25    0.01580    0.04350 2390.87300 2677.84770   38.66590   56.60930   59.94690 2176.15260   83.63220   95.84660   41.51160  176.23910  225.95260 2195.54960
 3300.00000   17.18040  -25.07440  243.79960  222.92480    -999.25    -999.25    0.10340    0.06060 2361.32810 2523.26860   15.60580    3.20620    3.35390 2204.79470    5.55310   35.17700   15.68080  203.74500  222.45960 2216.85690
