~Version ---------------------------------------------------
VERS.      2.0 : CWLS log ASCII Standard -VERSION 2.0
WRAP.       NO : One line per depth step
CREA. 12/29/17 : LAS Creation Date
~Well ------------------------------------------------------
STRT.FT                           500.0 : START DEPTH
STOP.FT                         10300.0 : STOP DEPTH
STEP.FT                        50.00000 : STEP LENGTH
NULL.                           -999.25 : NULL VALUE
COMP.             TIDEWATER OIL COMPANY : COMPANY
WELL. TIDEWATER GOOSE RIVER 10-26-66-19 : WELL
FLD .                                WC : FIELD
LOC .                                   : LOCATION
CTRY.                            CANADA : COUNTRY
SRVC.            Schlumberger of Canada : SERVICE COMPANY
DATE.                       04-May-1959 : LOGDATE
PROV.                           Alberta : PROVINCE
UWI .                  100102606619W500 : UNIQUE WELL ID
SLAT.WGS84                     54.74347 : SURFACE LATITUDE
SLON.WGS84                    -116.7568 : SURFACE LONGITUDE
~Curve Information -----------------------------------------
DEPT  .FT         : Depth Curve
CALWS .IN         : CALIPER [MCALED]
CILDED.MMHO       : CONDUCTIVITY FROM RESISTIVITY LOG
CONDWS.MMHO       : CONDUCTIVITY [1000/DRESWS]
DRESWS.OHMM       : DEEP RESISTIVITY [1000/CILDED IF ILDED < 4, ILDED]
GRNED .UgRa-Eq/T  : GAMMA RAY NEUTRON FROM GRN LOG
GRWS  .GAPI       : GAMMA RAY [GRNED * 16.5 TO CONVERTED TO GAPI]
ILDED .OHMM       : INDUCTION DEEP FROM RESISTIVITY LOG
LLED  .OHMM       : LATEROLOG FROM RESISTIVITY LOG
MCALED.IN         : CALIPER FROM MICROLOG
NEUTED.CPS        : NEUTRON FROM GRN LOG
NEUTWS.CPS        : NEUTRON [NEUTED]
SNED  .OHMM       : SHORT NORMAL FROM RESISTIVITY LOG
SPRED .MV         : SPONTANEOUS POTENTIAL FROM RESISTIVITY LOG
SPWS  .MV         : SPONTANEOUS POTENTIAL [BASELINE 0 MV, SPRED]
SRESWS.OHMM       : SHALLOW RESISTIVITY [SNED]
~Params ----------------------------------------------------
LMF .                     KB : LOG MEASURED FROM
DMF .                     KB : DRILLING MEASURED FROM
EKB .FT                 2543 : KELLY BUSHING
DATE.               05/04/59 : RUN DATE
RUN .                      1 : RUN NUMBER
DD  .FT                10334 : DEPTH DRILLER
DL  .FT                10328 : DEPTH LOGGER
BLI .FT                10323 : BOTTOM LOG INTERVAL
TLI .FT                 1012 : TOP LOG INTERVAL
CBD .FT                 1012 : CASING BOTTOM DRILLER
CBL .FT                 1012 : CASING BOTTOM LOGGER
BS  .IN                 8.75 : BIT SIZE
BSD .FT                10334 : BIT SIZE AT DEPTH
DFT .                    GEL : DRILLING FLUID TYPE
DFD .                   10.6 : DRILLING FLUID DENSITY
DFV .                     95 : DRILLING FLUID VISCOSITY
DFPH.                     10 : DRILLING FLUID PH
DFL .                      6 : DRILLING FLUID LOSS
RMS .OHMM                2.1 : RESISTIVITY MUD SAMPLE
MST .DEGF                 67 : MUD SAMPLE TEMPERATURE
RMF .OHMM                1.9 : RESISTIVITY MUD FILTRATE SAMPLE
MFST.DEGF                 60 : MUD FILTRATE SAMPLE TEMPERATURE
RMC .OHMM                3.0 : RESISTIVITY MUD CAKE
MCST.DEGF                 65 : MUD CAKE SAMPLE TEMPERATURE
RMB .OHMM               0.73 : RESISTIVITY MUD AT BHT
TCS .HRS                   4 : TIME CIRCULATED STOPPED
LUN .                   2781 : LOGGING UNIT NUMBER
LUL .                    SKW : LOGGING UNIT LOCATION
ENGI.                SPENCER : RECORDING ENGINEER
WITN.                 RENNIE : WITNESSED BY
CLNT.                A2DTECH : CLIENT CODE
ORIG.            2" 5" PRINT : ORIGIN OF DATA
UWI .       100102606619W500 : UNIQUE WELL ID
DICO. A2D Technologies, Inc. : DIGITIZING COMPANY
~Other -----------------------------------------------------
IEL-GRN-ML-LL LOG RAN
~ASCII -----------------------------------------------------
# ...
 2800.00000    -999.25  203.46030  204.29430    4.89490    4.36970   71.66310    4.89490    7.15060    -999.25  135.82240  135.82240    6.38900 -143.95130   -6.75960    6.38900
 2850.00000    -999.25  211.41730  211.99920    4.71700    3.86020   63.30730    4.71700    6.50620    -999.25  131.72960  131.72960    6.44930 -143.03420   -6.23460    6.44930
 2900.00000    -999.25  183.70200  182.22570    5.48770    3.80490   62.40040    5.48770    7.05030    -999.25  140.38180  140.38180    7.33460 -142.24880   -5.83870    7.33460
 2950.00000    -999.25  222.16790  223.30400    4.47820    4.22350   69.26540    4.47820    6.17000    -999.25  128.50980  128.50980    6.66940 -141.71480   -5.69680    6.66940
 3000.00000    -999.25  136.14490  137.14600    7.29150    4.36570   71.59750    7.29150    8.80560    -999.25  154.36090  154.36090    8.92480 -141.38210   -5.75360    8.92480
 3050.00000    -999.25  175.09410  176.34510    5.67070    3.65660   59.96820    5.67070    8.13940    -999.25  155.84070  155.84070    7.47900 -141.02440   -5.78550    7.47900
 3100.00000    -999.25  162.35440  163.70100    6.10870    4.92110   80.70600    6.10870    7.58290    -999.25  152.33620  152.33620    7.88750 -140.85520   -6.00830    7.88750
 3150.00000    -999.25  214.35240  207.72310    4.81410    3.91820   64.25850    4.81410    6.55360    -999.25  127.85380  127.85380    6.75720 -139.50370   -5.04630    6.75720
 3200.00000    -999.25  192.24610  186.22320    5.36990    4.52670   74.23790    5.36990    6.87370    -999.25  143.55760  143.55760    7.43220 -139.45640   -5.39110    7.43220
 3250.00000    -999.25  204.65950  198.78340    5.03060    4.75060   77.90980    5.03060    6.32990    -999.25  134.70770  134.70770    7.10180 -137.56030   -3.88460    7.10180
 3300.00000    -999.25  167.10400  162.76040    6.14400    4.91500   80.60600    6.14400    8.43140    -999.25  144.67520  144.67520    8.53770 -137.12800   -3.84180    8.53770
 3350.00000    -999.25  168.79170  168.04750    5.95070    4.79340   78.61180    5.95070    7.42270    -999.25  143.53070  143.53070    8.35150 -136.71430   -3.82020    8.35150
 3400.00000    -999.25  179.61460  174.32540    5.73640    5.57670   91.45790    5.73640    7.37200    -999.25  145.93120  145.93120    8.32190 -136.71930   -4.21470    8.32190
 3450.00000    -999.25  102.67530  108.62720    9.20580    6.08020   99.71530    9.20580   13.89210    -999.25  142.28880  142.28880   12.73070 -135.45740   -3.34490   12.73070
 3500.00000    -999.25  211.51950  210.72150    4.74560    4.01870   65.90670    4.74560    6.98660    -999.25  142.88090  142.88090    6.73100 -138.73260   -7.02320    6.73100
 3550.00000    -999.25  222.60860  214.31170    4.66610    4.20920   69.03090    4.66610    6.05110    -999.25  158.55630  158.55630    6.26580 -135.96090   -4.66680    6.26580
 3600.00000    -999.25  124.78850  128.00980    7.81190    4.37360   71.72700    7.81190    9.66290    -999.25  176.99670  176.99670    9.19010 -135.87070   -4.99450    9.19010
 3650.00000    -999.25  213.13840  209.37590    4.77610    4.44220   72.85210    4.77610    5.37880    -999.25  148.68870  148.68870    6.43730 -134.02670   -3.56590    6.43730
 3700.00000    -999.25  159.02300  149.30940    6.69750    4.25040   69.70660    6.69750    8.09910    -999.25  148.57180  148.57180    8.49540 -135.79400   -5.75120    8.49540
 3750.00000    -999.25  310.40500  310.40500    3.22160    3.97690   65.22120    3.01210    4.43520    -999.25  145.48210  145.48210    5.15900 -132.94960   -3.32210    5.15900
 3800.00000    -999.25  306.30690  306.30690    3.26470    4.39570   72.08950    3.05040    4.37860    -999.25  147.28680  147.28680    5.16310 -132.46410   -3.25180    5.16310
 3850.00000    -999.25  215.85100  217.13640    4.60540    4.41440   72.39620    4.60540    6.69630    -999.25  154.97580  154.97580    6.40120 -132.22410   -3.42990    6.40120
 3900.00000    -999.25  266.44200  266.44200    3.75320    4.98820   81.80650    3.55760    5.30250    -999.25  126.23220  126.23220    5.60440 -131.82610   -3.44710    5.60440
 3950.00000    -999.25  332.59680  332.59680    3.00660    5.27470   86.50510    2.81000    4.65540    -999.25  146.97890  146.97890    4.60040 -128.71090   -0.74990    4.60040
 4000.00000    -999.25  465.74840  465.74840    2.14710    4.90250   80.40100    2.04820    3.76310    -999.25  137.35050  137.35050    3.90910 -128.92650   -1.38080    3.90910
 4050.00000    -999.25  258.34380  258.34380    3.87080    4.50540   73.88860    3.89220    5.08670    -999.25  154.34780  154.34780    5.50750 -129.15100   -2.04300    5.50750
 4100.00000   13.84520  173.09010  165.65620    6.03660    4.91160   80.55020    6.03660    5.94720   13.84520  153.11430  153.11430    8.00480 -128.99690   -2.33740    8.00480
 4150.00000   10.57010  121.47940  125.12510    7.99200    5.70390   93.54400    7.99200   10.29620   10.57010  164.21530  164.21530   10.05640 -133.65970   -7.44580   10.05640
 4200.00000    9.10710   82.62610   82.97450   12.05190    2.40180   39.38950   12.05190   12.04860    9.10710  198.48360  198.48360   14.94810 -141.62830  -15.86300   14.94810
 4250.00000   11.79390  390.15580  390.15580    2.56310    3.85450   63.21380    2.50670    4.40160   11.79390  151.03790  151.03790    4.29540 -126.91890   -1.59920    4.29540
 4300.00000    8.71490   54.47910   53.83840   18.57410    2.69310   44.16680   18.57410   19.00700    8.71490  217.76480  217.76480   23.87770 -167.14300  -42.25890   23.87770
 4350.00000    9.46960   92.01290   96.11690   10.40400    2.17050   35.59620   10.40400   12.88590    9.46960  188.55200  188.55200   12.75960 -155.56370  -31.11400   12.75960
 4400.00000    9.90500  167.72940  169.24770    5.90850    3.02420   49.59690    5.90850    8.53220    9.90500  182.80880  182.80880    8.50940 -126.83040   -2.81230    8.50940
 4450.00000   10.70850  157.32990  155.33740    6.43760    3.73110   61.19000    6.43760    8.04710   10.70850  181.58250  181.58250    8.97210 -128.57350   -4.98970    8.97210
 4500.00000   10.80870  162.31690  155.02430    6.45060    2.18850   35.89140    6.45060    7.22420   10.80870  223.93080  223.93080    9.15480 -127.15040   -3.99820    9.15480
 4550.00000   10.93430  111.19010  109.36490    9.14370    4.49780   73.76390    9.14370    9.64120   10.93430  141.96420  141.96420   13.87990 -132.79510  -10.07450   13.87990
 4600.00000   12.69550  157.70300  165.43970    6.04450    3.32150   54.47260    6.04450    7.04940   12.69550  163.24850  163.24850    8.43350 -125.75940   -3.47320    8.43350
 4650.00000    9.49280  168.85490  177.42140    5.63630    4.04300   66.30520    5.63630    8.45400    9.49280  158.15360  158.15360    7.37670 -126.35980   -4.50510    7.37670
 4700.00000    9.45330  181.74860  179.94350    5.55730    4.14770   68.02230    5.55730    7.52290    9.45330  185.22890  185.22890    9.40020 -137.34560  -15.92520    9.40020
 4750.00000    9.52570  206.81580  197.83180    5.05480    3.41950   56.07980    5.05480    7.58440    9.52570  203.05270  203.05270    7.49470 -129.84910   -8.86030    7.49470
 4800.00000    9.43680  177.76980  181.66620    5.50460    3.18950   52.30780    5.50460    6.01420    9.43680  202.89660  202.89660   10.06620 -138.23900  -17.53980   10.06620
 4850.00000    8.62580  138.30200  142.93680    6.99610    3.46410   56.81120    6.99610   16.96460    8.62580  208.51910  208.51910   11.55270 -167.54110  -46.84190   11.55270
 4900.00000    9.22380  161.11730  167.59120    5.96690    3.35190   54.97120    5.96690    8.05480    9.22380  190.76550  190.76550    9.00790 -133.75160  -13.05240    9.00790
 4950.00000    9.42710  117.77850  119.66020    8.35700    4.12490   67.64840    8.35700    9.33930    9.42710  197.33580  197.33580   10.60330 -122.00540   -1.30620   10.60330
 5000.00000   15.56790  308.49610  308.49610    3.24150    3.54280   58.10190    3.09970    4.01650   15.56790  156.71440  156.71440    5.55230 -121.14910   -1.04860    5.55230
 5050.00000    9.23020   69.74980   67.21290   14.87810    3.04260   49.89860   14.87810   18.81700    9.23020  213.92060  213.92060   22.50840 -145.19560  -25.73600   22.50840
