~Version ---------------------------------------------------
VERS.      2.0 : CWLS log ASCII Standard -VERSION 2.0
WRAP.       NO : One line per depth step
CREA. 09/26/17 : LAS Creation Date
~Well ------------------------------------------------------
STRT.FT                             300.0 : START DEPTH
STOP.FT                           13500.0 : STOP DEPTH
STEP.FT                          50.00000 : STEP LENGTH
NULL.                             -999.25 : NULL VALUE
COMP.          TEXACO EXPLORATION COMPANY : COMPANY
WELL. TEXACO H.B. DISMAL CREEK 6-28-47-14 : WELL
FLD .                                     : FIELD
LOC .                                     : LOCATION
CTRY.                              CANADA : COUNTRY
SRVC.              Schlumberger of Canada : SERVICE COMPANY
DATE.                         09-May-1961 : LOGDATE
PROV.                             Alberta : PROVINCE
UWI .                    100062804714W500 : UNIQUE WELL ID
SLAT.WGS84                       53.08145 : SURFACE LATITUDE
SLON.WGS84                      -115.9911 : SURFACE LONGITUDE
~Curve Information -----------------------------------------
DEPT  .FT         : Depth Curve
CALWS .IN         : CALIPER [MCALED]
CILDED.MMHO       : CONDUCTIVITY FROM IEL LOG
CLLDED.MMHO       : CONDUCTIVITY FROM DLL LOG
CONDWS.MMHO       : CONDUCTIVITY [1000/DRESWS]
DRESWS.OHMM       : DEEP RESISTIVITY [1000/CILDED IF ILDED<1, ILDED &  SPL. TO 1000/CLLED IF LLED<1, LLED @ 11615']
DTED  .US/F       : DELTA-T FROM SONIC LOG [ADJ. TO RESISTIVITY LOG]
DTWS  .US/F       : COMPRESSIONAL SONIC [DTED]
GRED  .GAPI       : GAMMA RAY (CASING & COLLARS) FROM SBL LOG [ADJ. TO RESISTIVITY LOG]
GRNED .UgRa-Eq/T  : GAMMA RAY (CASING & COLLARS) FROM GRN LOG [ADJ. TO RESISTIVITY LOG]
GRSED .UgRa-Eq/T  : GAMMA RAY FROM SONIC LOG [ADJ. TO RESISTIVITY LOG]
GRWS  .GAPI       : GAMMA RAY [GRED SPL. TO GRSED*16.5 @ 1002' & GRNED*16.5 @ 11622']
ILDED .OHMM       : DEEP INDUCTION RESISTIVITY FROM IEL LOG
LLED  .OHMM       : FOCUSED LATEROLOG RESISTIVITY FROM DLL LOG
MCALED.IN         : MICROCALIPER FROM MICROLOG [ADJ. TO RESISTIVITY LOG]
NEUTED.SCPS       : NEUTRON (CASING & COLLARS) FROM GRN LOG [ADJ. TO RESISTIVITY LOG]
NEUTWS.SCPS       : NEUTRON [NEUTED]
SNED  .OHMM       : SHORT NORMAL RESISTIVITY FROM IEL LOG
SPRED .MV         : SPONTANEOUS POTENTIAL FROM IEL LOG
SPWS  .MV         : SPONTANEOUS POTENTIAL [BASELINE 0 MV, SPRED]
SRESWS.OHMM       : SHALLOW RESISTIVITY [SNED]
~Params ----------------------------------------------------
LMF .                     KB : LOG MEASURED FROM
DMF .                     KB : DRILLING MEASURED FROM
EKB .FT                 3712 : KELLY BUSHING
EGL .FT                 3696 : GROUND LEVEL
DATE.               05/09/61 : RUN DATE
RUN .                      1 : RUN NUMBER
DD  .FT                13533 : DEPTH DRILLER
DL  .FT                11643 : DEPTH LOGGER
BLI .FT                11638 : BOTTOM LOG INTERVAL
TLI .FT                10032 : TOP LOG INTERVAL
CBD .FT                10039 : CASING BOTTOM DRILLER
CBL .FT                10032 : CASING BOTTOM LOGGER
BS  .IN                8.375 : BIT SIZE
BSD .FT                13533 : BIT SIZE AT DEPTH
DFT .              LIME BASE : DRILLING FLUID TYPE
DFD .                   10.1 : DRILLING FLUID DENSITY
DFV .                     85 : DRILLING FLUID VISCOSITY
DFPH.                   13.5 : DRILLING FLUID PH
DFL .                    4.2 : DRILLING FLUID LOSS
RMS .OHMM               0.35 : RESISTIVITY MUD SAMPLE
MST .DEGF                 75 : MUD SAMPLE TEMPERATURE
RMF .OHMM               0.24 : RESISTIVITY MUD FILTRATE SAMPLE
MFST.DEGF                 66 : MUD FILTRATE SAMPLE TEMPERATURE
RMC .OHMM               0.84 : RESISTIVITY MUD CAKE
MCST.DEGF                 56 : MUD CAKE SAMPLE TEMPERATURE
RMB .OHMM               0.13 : RESISTIVITY MUD AT BHT
TCS .HRS                   3 : TIME CIRCULATED STOPPED
LUN .                   2765 : LOGGING UNIT NUMBER
LUL .                    SKW : LOGGING UNIT LOCATION
ENGI.                PRATHER : RECORDING ENGINEER
WITN.                 RAKACH : WITNESSED BY
CLNT.                A2DTECH : CLIENT CODE
ORIG.        2" 5" 10" PRINT : ORIGIN OF DATA
UWI .       100062804714W500 : UNIQUE WELL ID
DICO. A2D Technologies, Inc. : DIGITIZING COMPANY
~Other -----------------------------------------------------
GRN-IEL-LL-ML-BCS LOG RAN
UNABLE TO RECORD SP DUE TO SEVERE DRIFTING CONDITION
LL GIVEN OVER A COMPRESSED SCALE COULD BE VERIFIED FROM 1000/CLLED
TOOL MOMENTARILY STUCK IN HOLE ON FIRST RUN @ 1800' & 2717'.
CNL-LDT IS TVD LOG, NO DATA AVAILABLE
~ASCII -----------------------------------------------------
# ...
 7300.00000   15.51710  143.50760    -999.25  139.69410    7.15850   78.91540   78.91540    -999.25    -999.25    4.99170   82.36390    7.15850    -999.25   15.51710    -999.25    -999.25    8.28530  -40.38350   -4.00350    8.28530
 7350.00000   15.43400  111.69780    -999.25  111.51130    8.96770   78.14330   78.14330    -999.25    -999.25    4.80540   79.28910    8.96770    -999.25   15.43400    -999.25    -999.25    9.37940  -40.83790   -4.31300    9.37940
 7400.00000   15.22220  121.90050    -999.25  116.00660    8.62020   78.38370   78.38370    -999.25    -999.25    4.54690   75.02380    8.62020    -999.25   15.22220    -999.25    -999.25    9.10790  -41.00670   -4.33780    9.10790
 7450.00000   15.35220  128.39400    -999.25  119.74040    8.35140   76.36650   76.36650    -999.25    -999.25    4.71590   77.81230    8.35140    -999.25   15.35220    -999.25    -999.25    8.96690  -40.85550   -4.04170    8.96690
 7500.00000   15.41830  135.52380    -999.25  129.74210    7.70760   84.20620   84.20620    -999.25    -999.25    5.02290   82.87870    7.70760    -999.25   15.41830    -999.25    -999.25    8.47510  -39.60780   -2.65000    8.47510
 7550.00000   15.50000  163.88470    -999.25  161.59270    6.18840   84.38770   84.38770    -999.25    -999.25    4.77000   78.70580    6.18840    -999.25   15.50000    -999.25    -999.25    7.51370  -37.63820   -0.53650    7.51370
 7600.00000   14.60580  146.12120    -999.25  141.78970    7.05270   80.55790   80.55790    -999.25    -999.25    4.90980   81.01170    7.05270    -999.25   14.60580    -999.25    -999.25    8.36950  -39.96930   -2.72270    8.36950
 7650.00000   15.72570  117.14390    -999.25  112.29020    8.90550   76.13810   76.13810    -999.25    -999.25    4.46090   73.60480    8.90550    -999.25   15.72570    -999.25    -999.25    9.15530  -40.60290   -3.56340    9.15530
 7700.00000   15.55710  124.81700    -999.25  121.38720    8.23810   78.67930   78.67930    -999.25    -999.25    4.57940   75.56010    8.23810    -999.25   15.55710    -999.25    -999.25    8.63030  -39.31200   -2.58680    8.63030
 7750.00000   15.30680  105.11020    -999.25  103.02060    9.70680   78.40740   78.40740    -999.25    -999.25    5.38990   88.93250    9.70680    -999.25   15.30680    -999.25    -999.25   10.02490  -41.07200   -4.65900   10.02490
 7800.00000   15.24850  101.31210    -999.25  100.21850    9.97820   76.23910   76.23910    -999.25    -999.25    4.71770   77.84200    9.97820    -999.25   15.24850    -999.25    -999.25    9.89520  -40.61730   -4.51660    9.89520
 7850.00000   15.56060  105.29420    -999.25  101.86000    9.81740   78.32620   78.32620    -999.25    -999.25    4.77130   78.72650    9.81740    -999.25   15.56060    -999.25    -999.25    9.61940  -42.69680   -6.91030    9.61940
 7900.00000   15.72610  117.43730    -999.25  120.14030    8.32360   80.64320   80.64320    -999.25    -999.25    5.11330   84.36950    8.32360    -999.25   15.72610    -999.25    -999.25    8.77910  -45.99070  -10.51650    8.77910
 7950.00000   15.62670   94.66240    -999.25   94.22850   10.61250   78.41350   78.41350    -999.25    -999.25    4.71100   77.73150   10.61250    -999.25   15.62670    -999.25    -999.25    9.83150  -48.97090  -13.81090    9.83150
 8000.00000   15.76170  115.31710    -999.25  111.36110    8.97980   83.20880   83.20880    -999.25    -999.25    4.68420   77.28850    8.97980    -999.25   15.76170    -999.25    -999.25    8.78540  -48.93530  -14.08750    8.78540
 8050.00000   15.76390  143.13820    -999.25  132.05850    7.57240   89.29450   89.29450    -999.25    -999.25    4.92080   81.19400    7.57240    -999.25   15.76390    -999.25    -999.25    7.40740  -46.69880  -12.16330    7.40740
 8100.00000   15.50040   89.17690    -999.25   85.75740   11.66080   89.25470   89.25470    -999.25    -999.25    5.07130   83.67650   11.66080    -999.25   15.50040    -999.25    -999.25   11.15560  -46.25610  -12.03480   11.15560
 8150.00000   15.57800   89.11020    -999.25   90.66270   11.02990   86.05350   86.05350    -999.25    -999.25    5.30890   87.59690   11.02990    -999.25   15.57800    -999.25    -999.25    9.96920  -43.27860   -9.36960    9.96920
 8200.00000   15.45540   94.35020    -999.25   95.17460   10.50700   86.60350   86.60350    -999.25    -999.25    5.23920   86.44600   10.50700    -999.25   15.45540    -999.25    -999.25   10.72420  -41.18340   -7.58860   10.72420
 8250.00000   15.53870   87.24340    -999.25   86.49470   11.56140   89.97530   89.97530    -999.25    -999.25    4.61260   76.10790   11.56140    -999.25   15.53870    -999.25    -999.25   11.45880  -40.79910   -7.51660   11.45880
 8300.00000   15.72110   81.52920    -999.25   80.82050   12.37310   89.42400   89.42400    -999.25    -999.25    5.23010   86.29580   12.37310    -999.25   15.72110    -999.25    -999.25   12.91760  -39.92560   -6.95530   12.91760
 8350.00000   14.31270   70.34830    -999.25   69.97310   14.29120   85.44770   85.44770    -999.25    -999.25    5.26600   86.88900   14.29120    -999.25   14.31270    -999.25    -999.25   14.94510  -39.41630   -6.76030   14.94510
 8400.00000   14.91250  106.04080    -999.25  106.90390    9.35420   85.34340   85.34340    -999.25    -999.25    4.88000   80.52000    9.35420    -999.25   14.91250    -999.25    -999.25   11.11390  -39.94950   -7.60570   11.11390
 8450.00000   15.66940  140.41760    -999.25  134.42850    7.43890   87.30330   87.30330    -999.25    -999.25    5.34100   88.12650    7.43890    -999.25   15.66940    -999.25    -999.25    8.85030  -39.68580   -7.65630    8.85030
 8500.00000   15.74440  136.79840    -999.25  132.78630    7.53090   93.37150   93.37150    -999.25    -999.25    5.80650   95.80730    7.53090    -999.25   15.74440    -999.25    -999.25    8.67460  -40.06220   -8.34490    8.67460
 8550.00000   15.53320  121.26910    -999.25  115.12510    8.68620   79.70890   79.70890    -999.25    -999.25    5.05790   83.45450    8.68620    -999.25   15.53320    -999.25    -999.25    9.08930  -39.82610   -8.42100    9.08930
 8600.00000   15.58050  142.60620    -999.25  141.01190    7.09160   81.78310   81.78310    -999.25    -999.25    4.48410   73.98770    7.09160    -999.25   15.58050    -999.25    -999.25    7.51560  -40.80220   -9.71140    7.51560
 8650.00000   15.92720  183.39340    -999.25  175.35860    5.70260   86.73280   86.73280    -999.25    -999.25    4.59570   75.82900    5.70260    -999.25   15.92720    -999.25    -999.25    6.99170  -40.76260   -9.98400    6.99170
 8700.00000   15.94510  143.51290    -999.25  143.03080    6.99150   85.52930   85.52930    -999.25    -999.25    4.97480   82.08420    6.99150    -999.25   15.94510    -999.25    -999.25    7.27750  -41.64580  -11.18150    7.27750
 8750.00000   15.10520  106.11430    -999.25  102.13250    9.79120   88.94530   88.94530    -999.25    -999.25    7.49850  123.72530    9.79120    -999.25   15.10520    -999.25    -999.25    8.29320  -43.54220  -13.39010    8.29320
 8800.00000   15.98560  218.57240    -999.25  213.86260    4.67590   86.75510   86.75510    -999.25    -999.25    4.64510   76.64410    4.67590    -999.25   15.98560    -999.25    -999.25    5.67730  -40.64970  -10.80980    5.67730
 8850.00000   12.44780   59.51900    -999.25   55.52750   18.00910   69.68620   69.68620    -999.25    -999.25    4.02370   66.39100   18.00910    -999.25   12.44780    -999.25    -999.25   13.85720  -39.69010   -9.96830   13.85720
 8900.00000   15.04140  115.98180    -999.25  111.72060    8.95090   76.72290   76.72290    -999.25    -999.25    4.68000   77.22000    8.95090    -999.25   15.04140    -999.25    -999.25    7.87170  -36.00720   -5.87040    7.87170
 8950.00000   12.57540   98.59570    -999.25   92.57370   10.80220   67.11570   67.11570    -999.25    -999.25    3.83950   63.35090   10.80220    -999.25   12.57540    -999.25    -999.25   10.84350  -45.07300  -14.51840   10.84350
 9000.00000   12.59100   80.42620    -999.25   79.48870   12.58040   67.44280   67.44280    -999.25    -999.25    3.52570   58.17410   12.58040    -999.25   12.59100    -999.25    -999.25   11.06660  -49.74470  -18.77500   11.06660
