~Version ---------------------------------------------------
VERS.      2.0 : CWLS log ASCII Standard -VERSION 2.0
WRAP.       NO : One line per depth step
CREA. 08/10/13 : LAS Creation Date
~Well ------------------------------------------------------
STRT.M                           450.0 : START DEPTH
STOP.M                          3450.0 : STOP DEPTH
STEP.M                        50.00000 : STEP LENGTH
NULL.                          -999.25 : NULL VALUE
COMP. AMOCO CANADA PETROLEUM CO., LTD. : COMPANY
WELL.    ULSTER ANTE CREEKK 5-22-66-25 : WELL
FLD .                       ANTE CREEK : FIELD
LOC .                                  : LOCATION
CTRY.                           CANADA : COUNTRY
SRVC.                          Unknown : SERVICE COMPANY
DATE.                      24-Sep-1983 : LOGDATE
PROV.                          Alberta : PROVINCE
UWI .                 100052206625W500 : UNIQUE WELL ID
SLAT.WGS84                    54.72352 : SURFACE LATITUDE
SLON.WGS84                   -117.7013 : SURFACE LONGITUDE
~Curve Information -----------------------------------------
DEPT   .M     : DEPTH METER
AC     .US/M  : ACOUSTIC FROM SONIC LOG
C13    .MM    : CALIPER 13PAD ELECTRODE FROM DENSITY LOG
C24    .MM    : CALIPER 24 FROM DENSITY LOG
CALS   .MM    : CALIPER FROM SONIC LOG
CNC_LS .DEC   : COMPENSATED NEUTRON POROSITY LIMESTONE FROM DENSITY LOG
CNC_SS .DEC   : COMPENSATED NEUTRON POROSITY SANDSTONE FROM DENSITY LOG
CORR   .G/C3  : DENSITY CORRECTION FROM DENSITY LOG
DEN    .G/C3  : COMPENSATED BULK DENSITY FROM DENSITY LOG
GRD    .GAPI  : GAMMA RAY FROM DENSITY LOG
GRR    .GAPI  : GAMMA RAY FROM RESISTIVITY LOG
PORD_LS.DEC   : DENSITY POROSITY LIMESTONE [M=2710, F=1000] FROM DENSITY LOG
PORD_SS.DEC   : DENSITY POROSITY SANDSTONE [M=2650, F=1000] FROM DENSITY LOG
RFOC   .OHMM  : SHALLOW FOCUSED RESISTIVITY FROM RESISTIVITY LOG
RILD   .OHMM  : DEEP INDUCTION  RESISTIVITY FROM RESISTIVITY LOG
RILM   .OHMM  : MEDIUM INDUCTION RESISTIVITY FROM RESISTIVITY LOG
SPR    .MV    : SPONTANEOUS POTENTIAL FROM RESISTIVITY LOG
TEND   .KG    : TENSION FROM DENSITY LOG
TENR   .KG    : TENSION FROM RESISTIVITY LOG
~Params ----------------------------------------------------
PD  .                         GL : PERMANENT DATUM
EPD .M                    762.45 : ELEVATION PERMANENT DATUM
LMF .                         KB : LOG MEASURED FROM
DAPD.M                      7.45 : FEET ABOVE PERMANENT DATUM
DMF .                         KB : DRILLING MEASURED FROM
EKB .M                     769.9 : KELLY BUSHING
EGL .M                    762.45 : GROUND LEVEL
DATE.                   09/24/83 : RUN DATE
RUN .                          1 : RUN NUMBER
DD  .M                      3460 : DEPTH DRILLER
DL  .M                    3457.8 : DEPTH LOGGER
BLI .M                    3457.3 : BOTTOM LOG INTERVAL
TLI .M                     448.7 : TOP LOG INTERVAL
CS  .MM                      244 : CASING SIZE
CBD .M                       448 : CASING BOTTOM DRILLER
CBL .M                     448.7 : CASING BOTTOM LOGGER
BS  .MM                      219 : BIT SIZE
BSD .M                      3460 : BIT SIZE AT DEPTH
DFT .                   GEL CHEM : DRILLING FLUID TYPE
DFD .                       1100 : DRILLING FLUID DENSITY
DFV .                         55 : DRILLING FLUID VISCOSITY
DFPH.                       10.5 : DRILLING FLUID PH
DFL .                         10 : DRILLING FLUID LOSS
MSS .                       CIRC : MUD SAMPLE SOURCE
RMS .OHMM                    2.7 : RESISTIVITY MUD SAMPLE
MST .DEGC                     19 : MUD SAMPLE TEMPERATURE
RMF .OHMM                    1.8 : RESISTIVITY MUD FILTRATE SAMPLE
MFST.DEGC                     19 : MUD FILTRATE SAMPLE TEMPERATURE
RMC .OHMM                    1.7 : RESISTIVITY MUD CAKE
MCST.DEGC                     19 : MUD CAKE SAMPLE TEMPERATURE
MFSS.                       MEAS : MUD FILTRATE SAMPLE SOURCE
MCSS.                       MEAS : MUD CAKE SAMPLE SOURCE
RMB .OHMM                   0.83 : RESISTIVITY MUD AT BHT
TCS .HRS                      29 : TIME CIRCULATED STOPPED
LUN .                       6217 : LOGGING UNIT NUMBER
LUL .                         GP : LOGGING UNIT LOCATION
ENGI.             HODSON BROTHEN : RECORDING ENGINEER
WITN.                    TUSTIAN : WITNESSED BY
CLNT.                    A2DTECH : CLIENT CODE
ORIG. 6.5"/100M 16.5"/100M PRINT : ORIGIN OF DATA
UWI .           100052206625W500 : UNIQUE WELL ID
DICO.     A2D Technologies, Inc. : DIGITIZING COMPANY
~Other -----------------------------------------------------
~ASCII -----------------------------------------------------
  450.00000  332.89600  269.58670  240.86390  287.29500    -999.25    0.52220   -0.50920    2.39000   40.40490   50.61530    -999.25    0.44650    4.83770   14.30560    -999.25  -46.05390   -8.89480  -24.59730
  500.00000  373.51950  277.80200  297.98330  285.70200    -999.25    0.53850    0.24250    2.24490   79.01980   65.87550    -999.25    0.28700    4.60700    4.73740    4.83170  -35.19160  -23.59850  -28.54450
  550.00000  317.76640  282.42890  293.78980  296.19710    -999.25    0.37820    0.11060    2.39330   59.91820   50.34890    -999.25    0.15570    9.48070   10.61890   11.54040  -34.02530  -14.41180  -22.75390
  600.00000  479.92370  255.01930  291.41080  324.09790    -999.25    0.35470    0.06550    2.44290   54.10950   54.44090    -999.25    0.12400    4.22610    3.38280    3.38290  -35.37000  -21.14820  -30.92590
  650.00000  334.23910  249.97000  208.12270  229.13180    -999.25    0.37190    0.15430    2.34980   45.57160   41.09630    -999.25    0.18590   14.28870   18.85780   19.33630  -40.90670  -19.71770  -15.99110
  700.00000  333.93010  321.71620  388.13170  355.02510    -999.25    0.51500    0.05160    2.20390   55.14920   57.68290    -999.25    0.24550    5.25430    4.74720    4.93920  -34.89820    1.15010  -29.14300
  750.00000  395.46080  307.70500  302.20540  316.85530    -999.25    0.47440    0.10540    2.14070   64.11790   62.19350    -999.25    0.30630    4.87680    4.16240    3.89210  -31.56650  -19.86050  -48.23350
  800.00000  320.54280  252.80840  240.65900  256.99200    -999.25    0.42990    0.11440    2.31470   65.09900   56.53330    -999.25    0.20390    7.37350    7.07460    7.33630  -34.11230  -47.05480  -47.54280
  850.00000  277.82950  279.44830  238.89790  278.82410    -999.25    0.46600    0.18200    2.27860   92.85350   83.27920    -999.25    0.22870    8.14130    8.68680    8.36270  -34.45280  -15.03960  -26.51360
  900.00000  308.20640  280.68920  341.29210  297.37100    -999.25    0.44470    0.13740    2.37340  114.83750  110.21800    -999.25    0.16820   11.01780    9.84550   10.53090  -34.66740  -22.61100  -32.71760
  950.00000  247.05420  279.45670  248.08280  289.20290    -999.25    0.48280    0.11040    2.16270   99.41630   98.18670    -999.25    0.27620    7.31710    8.32240    7.51150  -36.73890  -13.19750  -28.49980
 1000.00000  303.88470  284.91540  246.53330  283.62840    -999.25    0.38390    0.15530    2.29030  106.81390   97.42930    -999.25    0.22150    6.92730    7.50360    6.29570  -37.68690  -26.63300  -29.05340
 1050.00000  278.49920  284.37920  316.63890  295.01310    -999.25    0.51920    0.26250    2.15270   93.73830   86.06170    -999.25    0.28940   10.66970   14.93790   14.60940  -38.93990  -29.37590  -30.01530
 1100.00000  287.31040  263.60590  275.10830  289.71590    -999.25    0.42970    0.15630    2.35360  105.73500   99.74680    -999.25    0.18120    9.16680   10.54900    9.91630  -38.98270  -33.60200  -24.93590
 1150.00000  309.12440  261.25920  312.79640  278.29350    -999.25    0.43900    0.29180    2.38180  115.39110  102.99890    -999.25    0.16510    9.05750    9.39380    9.20580  -40.88130  -24.22620  -25.86180
 1200.00000  301.57320  249.09110  265.21310  264.94400    -999.25    0.34640    0.22950    2.51960   95.58220   93.43540    -999.25    0.09220   12.29840   13.10500   12.77750  -38.33610  -18.88920  -28.53890
 1250.00000  324.62880  266.61130  314.27530  281.20190    -999.25    0.45400    0.26840    2.40190  121.55630  113.81330    -999.25    0.15320    8.97250    8.04790    8.26390  -35.25490  -21.81980  -33.02460
 1300.00000  285.72520  297.18960  244.65070  272.30870    -999.25    0.40970    0.32240    2.13810  111.81200  108.19020    -999.25    0.32850    6.70980    7.00770    6.97650  -37.46220   -4.98700  -27.63350
 1350.00000  283.74810  279.77040  280.74270  286.32950    -999.25    0.35560    0.16540    2.49220  109.33030  103.48650    -999.25    0.10610    6.58480    6.81610    6.98190  -39.80750  -16.84200  -23.06530
 1400.00000  271.94060  248.90180  315.52680  261.01040    -999.25    0.34850    0.22140    2.55750  106.32200   99.27260    -999.25    0.05970    8.67880    8.97450    9.40120  -41.44640  -11.50430  -12.80960
 1450.00000  341.61070  283.72740  328.11570  322.90960    -999.25    0.43900    0.16970    2.26290  103.48380   92.64430    -999.25    0.23620    3.76420    3.20000    3.00650  -39.79810  -11.98120  -26.08950
 1500.00000  249.57580  268.57310  273.84010  271.62240    -999.25    0.21790    0.10120    2.58150   88.68490   83.85480    -999.25    0.04850   13.31220   14.20180   14.69790  -40.90960  -28.84160  -17.40610
 1550.00000  251.15700  268.44390  257.03190  265.63580    -999.25    0.29100    0.05580    2.55690   83.14220   76.95700    -999.25    0.03930    7.78480    6.52970    6.68840  -48.84460    3.11590  -26.17070
 1600.00000  237.41670  246.40470  202.54910  225.77440    -999.25    0.22030    0.17350    2.51580   57.77130   52.00880    -999.25    0.08580   21.98750   15.47780   20.75240  -67.22060   -7.59140  -11.30580
 1650.00000  256.36580  282.07170  253.53400  286.68700    -999.25    0.26240    0.03930    2.54850   76.83400   68.93000    -999.25    0.06190    7.41480    6.80520    7.08460  -39.83320   -5.37580  -18.95930
 1700.00000  225.47820  305.53280  282.54240  297.62360    -999.25    0.22240    0.07600    2.53450   63.69030   55.61150    -999.25    0.07200   17.10560   15.96110   16.85760  -47.70850  -12.50110  -34.04710
 1750.00000  256.84730  297.28440  250.27910  283.31050    -999.25    0.28770    0.15250    2.47810   64.55860   55.90430    -999.25    0.11080   11.97660    8.30320   10.21430  -74.21930   -9.03290  -25.54330
 1800.00000  240.14230  307.71440  243.24840  297.58030    -999.25    0.30030    0.04050    2.56090   87.30230   77.60180    -999.25    0.05610   13.98360   13.36840   13.92170  -42.38910  -14.48220  -19.46690
 1850.00000  236.14940  310.73410  290.87840  316.79250    -999.25    0.26540    0.12500    2.38670   86.43910   93.42590    -999.25    0.16290   14.24600   14.57140   16.40970  -52.38580   -9.40420  -46.52370
 1900.00000  227.06610  274.71680  238.15260  275.92420    -999.25    0.21990    0.23520    2.52310   52.83780   56.91770    -999.25    0.07400   26.64050   13.41470   22.05860  -79.92160  -14.30920  -22.98470
 1950.00000  256.79390  240.50040  200.50230  229.80890    -999.25    0.26910    0.18790    2.39720   29.96650   31.55180    -999.25    0.15490   14.48090    3.93450    6.92420 -126.88780  -20.48180  -32.58130
 2000.00000  282.92550  266.28990  224.71030  254.75310    0.31970    -999.25    0.05790    2.43940  200.88920  185.56860    0.15370    -999.25 1935.13120    -999.25 1981.14260  -64.20130  -29.30750  -55.50520
 2050.00000  216.88120  300.29870  264.74950  286.98900    0.16320    -999.25    0.05860    2.63810   92.69500   87.82990    0.04390    -999.25   23.38140   21.66070   22.49560  -54.52190  -11.09030  -26.47400
 2100.00000  194.12360  284.46390  250.70980  254.71850    0.08340    -999.25    0.03410    2.65770   77.75640   72.95450    0.03290    -999.25   40.30400   39.09210   39.56850  -59.19800  -14.46310  -34.67960
 2150.00000  210.25010  315.48750  281.50940  274.48110    0.16640    -999.25    0.05440    2.66120   97.92220   96.50510    0.02760    -999.25   28.88840   30.50050   30.03310  -41.72490  -10.13250  -24.27830
 2200.00000  183.80890  253.28430  236.75580  252.85840    0.17190    -999.25    0.03300    2.69430   62.82280   60.03640    0.00860    -999.25   21.60970   23.13940   23.68390  -86.68930  -25.89360  -41.33150
 2250.00000  157.21350  268.65140  236.16360  241.32320    0.02830    -999.25    0.01110    2.83540   22.18970   13.91030   -0.07610    -999.25 1989.97410  950.29160 2015.39820 -101.10300  -12.19540  -21.87290
 2300.00000  170.83750  246.48270  228.31630  235.80690    0.07520    -999.25    0.17080    2.74900   18.26490   14.95390   -0.02400    -999.25 2009.22840   11.90990   28.07580 -171.94940   -9.53590  -14.87730
 2350.00000  188.73810  269.54290  240.24140  248.15750    0.12500    -999.25    0.01330    2.69200   51.35080   46.77650    0.01340    -999.25   19.13810   21.93700   16.90610  -72.58260  -24.71660  -45.78660
