~Version ---------------------------------------------------
VERS. 2.0 : CWLS log ASCII Standard -VERSION 2.0
WRAP.  NO : ONE LINE PER DEPTH STEP
~Well ------------------------------------------------------
STRT.M                      450.0 : START DEPTH
STOP.M                     3300.0 : STOP DEPTH
STEP.M                   50.00000 : STEP LENGTH
NULL.                     -999.25 : NULL VALUE
COMP.   GULF CANADA RESOURCES INC : COMPANY
WELL. GULF AEC STURLS 14-20-68-25 : WELL
FLD .                             : FIELD
LOC .                             : LOCATION
CTRY.                      CANADA : COUNTRY
SRVC.                     Unknown : SERVICE COMPANY
DATE.                 26-Sep-1985 : LOGDATE
PROV.                     Alberta : PROVINCE
UWI .            100142006825W500 : UNIQUE WELL ID
SLAT.WGS84               54.90528 : SURFACE LATITUDE
SLON.WGS84              -117.7801 : SURFACE LONGITUDE
~Curve Information -----------------------------------------
DEPT   .M                 : 
GRD    .GAPI 45 310 01 00 : GAMMA RAY FROM DENSITY LOG
DRHO   .K/M3 45 356 01 00 : BULK DENSITY CORRECTION
C2     .MM   45 280 60 00 : CALIPER 2
CALD   .MM   45 280 60 00 : CALIPER FROM DENSITY LOG
NPHI_SS.DEC  42 890 03 00 : NEUTRON POROSITY SANDSTONE
DPHI_SS.DEC  45 890 12 00 : DENSITY POROSITY SANDSTONE
DPHI_LS.DEC  45 890 10 00 : DENSITY POROSITY LIMESTONE
NPHI_LS.DEC  42 890 01 00 : NEUTRON POROSITY LIMESTONE
TEND   .KG   45 635 00 00 : TENSION FROM DENSITY LOG
RHOB   .K/M3 45 350 01 00 : BULK DENSITY
GRR    .GAPI 07 310 01 00 : GAMMA RAY FROM RESISTIVITY LOG
ILD    .OHMM 07 120 46 00 : INDUCTION DEEP RESISTIVITY
ILM    .OHMM 07 120 44 00 : INDUCTION MEDIUM RESISTIVITY
TENR   .KG   07 635 00 00 : TENSION FROM RESISTIVITY LOG
SFLU   .OHMM 07 220 01 00 : SHALLOW FOCUSED RESISTIVITY (UNAVERAGED)
SPR    .MV   07 010 01 00 : SPONTANEOUS POTENTIAL FROM RESISTIVITY LOG
GRS    .GAPI 60 310 01 00 : GAMMA RAY FROM SONIC LOG
DT     .US/M 60 500 00 00 : DELTA-T (INTERVAL TRANSIT TIME)
CALS   .MM   60 280 50 00 : CALIPER FROM SONIC LOG
TENS   .KG   60 635 00 00 : TENSION FROM SONIC LOG
~Params ----------------------------------------------------
PD  .                         GL : PERMANENT DATUM
EPD .M                     681.5 : ELEVATION PERMANENT DATUM
LMF .                         KB : LOG MEASURED FROM
DAPD.M                       6.8 : FEET ABOVE PERMANENT DATUM
DMF .                         KB : DRILLING MEASURED FROM
EKB .M                     688.3 : KELLY BUSHING
EDF .M                     687.9 : DRILLING FLOOR
EGL .M                     681.5 : GROUND LEVEL
DATE.                   09/26/85 : RUN DATE
RUN .                          1 : RUN NUMBER
DD  .M                      3321 : DEPTH DRILLER
DL  .M                      3322 : DEPTH LOGGER
BLI .M                      3320 : BOTTOM LOG INTERVAL
TLI .M                       454 : TOP LOG INTERVAL
CS  .MM                    244.5 : CASING SIZE
CBD .M                       455 : CASING BOTTOM DRILLER
CBL .M                       454 : CASING BOTTOM LOGGER
BS  .MM                      222 : BIT SIZE
BSD .M                      3321 : BIT SIZE AT DEPTH
DFT .                   GEL CHEM : DRILLING FLUID TYPE
DFV .                         66 : DRILLING FLUID VISCOSITY
DFPH.                       10.5 : DRILLING FLUID PH
DFL .                         10 : DRILLING FLUID LOSS
MSS .                   FLOWLINE : MUD SAMPLE SOURCE
RMS .OHMM                   1.35 : RESISTIVITY MUD SAMPLE
MST .DEGC                     21 : MUD SAMPLE TEMPERATURE
RMF .OHMM                   1.01 : RESISTIVITY MUD FILTRATE SAMPLE
MFST.DEGC                     23 : MUD FILTRATE SAMPLE TEMPERATURE
RMC .OHMM                  0.376 : RESISTIVITY MUD CAKE
MCST.DEGC                     98 : MUD CAKE SAMPLE TEMPERATURE
MFSS.                       MEAS : MUD FILTRATE SAMPLE SOURCE
RMB .OHMM                  0.481 : RESISTIVITY MUD AT BHT
TCS .HRS                     100 : TIME CIRCULATED STOPPED
TLAB.HRS                     730 : TIME LOGGER AT BOTTOM
LUN .                       8204 : LOGGING UNIT NUMBER
LUL .                         GP : LOGGING UNIT LOCATION
ENGI.                       BELL : RECORDING ENGINEER
WITN.                     WAGNER : WITNESSED BY
CLNT.                    A2DTECH : CLIENT CODE
ORIG. 6.5"/100M 16.5"/100M PRINT : ORIGIN OF DATA
UWI .           100142006825W500 : UNIQUE WELL ID
DICO.     A2D Technologies, Inc. : DIGITIZING COMPANY
~Other -----------------------------------------------------
~ASCII -----------------------------------------------------
  450.00000   30.20430    -999.25    -999.25    -999.25    0.51500    -999.25    -999.25    -999.25    -999.25    -999.25   36.87480    -999.25    -999.25    -999.25    -999.25    -999.25   35.68060    -999.25    -999.25    -999.25
  500.00000   58.23570  144.19890  238.55450  271.35230    0.41100    0.30260    -999.25    -999.25  711.42430 2147.63130   59.79710    4.74470    4.21470  572.95810    3.90480  -92.00420   59.67630  366.93200  248.19710  567.06240
  550.00000   47.94870   18.41570  246.00500  246.24250    0.32320    0.16250    -999.25    -999.25  777.95750 2382.05640   46.66530    7.58380    6.92910  628.99240    6.74880  -90.67580   48.49530  314.38140  225.83080  618.67030
  600.00000   66.11480  216.41420  241.93310  287.19770    0.38370    0.27020    -999.25    -999.25  779.37760 2239.48610   64.11360    6.26200    5.60320  652.93490    5.15000  -93.31540   64.55330  328.12280  247.43810  652.08470
  650.00000   96.63310   82.65990  342.44910  245.13570    0.45200    0.23820    -999.25    -999.25  820.92030 2257.22120   97.76660    9.60110    8.20260  687.06410    8.82590  -99.56370   98.69030  343.85710  244.65900  689.18480
  700.00000   71.92510   39.42100  393.98800  292.15160    0.55130    0.54440    -999.25    -999.25  838.25220 1894.34130   77.41440    7.43260    5.50080  721.50680    6.22050 -104.92300   79.29200  335.50950  336.24460  717.51240
  750.00000  101.02610   38.25480  193.38120  184.28070    0.56090    0.38430    -999.25    -999.25  899.20830 2029.08780   93.78050    7.19500    5.82080  739.63340    6.48080 -102.61790   93.74780  334.37650  180.55710  753.92690
  800.00000   95.84660   99.39720  250.80640  254.73790    0.38790    0.23870    -999.25    -999.25  917.32900 2255.61210   87.61600   13.19530   11.31230  763.89810   11.88320 -103.26260   85.43640  287.84590  226.95630  778.17970
  850.00000   98.76060   40.36550  183.64700  307.81310    0.34160    0.12550    -999.25    -999.25  910.31150 2442.58720   99.05370    9.71280    8.59060  807.69400    8.83110 -101.43020   98.35290  307.66590  234.44970  800.53030
  900.00000  100.88270   39.00230  249.71570  296.24930    0.41610    0.12420    -999.25    -999.25  932.49200 2437.76490  100.75940    8.17970    7.69810  810.81690    8.40990 -100.28760  103.03020  330.95160  257.62880  799.08360
  950.00000   95.72870   22.73810  240.77850  237.66450    0.38190    0.09450    -999.25    -999.25  995.84080 2491.89970   94.37880    9.76540    9.09480  822.55990   10.30000 -100.22000   93.16730  316.64620  249.51540  809.25940
 1000.00000  100.99520  119.41140  245.96030  234.73540    0.35530    0.17390    -999.25    -999.25 1027.45120 2361.01440  107.52400   10.56970   10.11800  862.73760   10.76570  -95.40710  111.41390  305.91580  228.01030  859.80270
 1050.00000   86.84370   28.44500  243.35980  225.07230    0.29800    0.12210    -999.25    -999.25 1054.15220 2450.92550   92.70100    8.41900    8.24930  898.60910    7.68720  -97.35710   94.23480  284.40830  228.27160  880.97160
 1100.00000   90.96450  182.47010  241.45760  224.85270    0.32120    0.13480    -999.25    -999.25 1128.27230 2442.87870   79.95940    8.30790    7.98490  941.66050    8.86680  -93.92360   77.99330  276.41360  228.37200  919.68440
 1150.00000   99.73110  114.88920  285.46190  222.71860    0.34890    0.10290    -999.25    -999.25 1143.08740 2480.67800   90.81930    7.92520    7.80550  973.41830    8.31660  -93.01770   93.59960  284.65630  237.94570  945.39090
 1200.00000   96.51390  113.72740  286.93020  213.71350    0.50060    0.24010    -999.25    -999.25 1144.51590 2253.86990   85.50920    4.49760    4.15030  958.44550    4.21190  -90.48260   84.23610  340.80400  242.15270  973.83040
 1250.00000   95.58370   75.57680  288.20240  226.94990    0.34140    0.10340    -999.25    -999.25 1176.43820 2476.42550  105.85060    5.67070    5.47270 1024.70430    5.94330  -90.33450  106.98430  300.61090  238.60880 1005.45590
 1300.00000   90.95320  133.03160  263.04490  241.74910    0.45990    0.24170    -999.25    -999.25 1245.82860 2248.04030   78.13950    4.11550    3.86850 1035.09590    4.24210  -91.03200   77.36180  312.54440  241.37050 1062.30820
 1350.00000   62.66110   -6.87870  251.24630  225.87960    0.27220    0.11880    -999.25    -999.25 1254.08760 2452.06590   69.56350    8.60100    9.35690 1077.65720    8.25260  -96.22330   71.03790  261.56910  231.83080 1044.01940
 1400.00000   64.92540   38.26620  246.76690  278.27460    0.50880    0.40760    -999.25    -999.25 1265.76750 1973.11830   53.71640   11.60630   15.63590 1102.36800   29.19430  -94.40330   57.45910  383.64220  267.42950 1102.89150
 1450.00000   17.29610   24.62850  301.98160  272.56090    0.65660    0.84500    -999.25    -999.25 1285.31880 1249.36350   47.28810   12.55660   14.11190 1118.37570   16.45030 -122.57980   48.67090  329.92430  239.98160 1111.63320
 1500.00000   69.45180   19.85110  271.35780  246.38390    0.31600    0.05620    -999.25    -999.25 1331.10950 2558.86280   80.73290   10.98870   11.37340 1122.18680   12.12980  -89.80820   80.25480  252.57320  248.42250 1135.66430
 1550.00000   69.84150   10.29410  254.66020  232.71940    0.26590    0.09940    -999.25    -999.25 1351.44090 2484.98560   57.49310   11.02280   12.10420 1157.68190   16.19390 -106.76560   56.52080  241.80050  237.24870 1158.24190
 1600.00000   51.44200   62.77990  225.90810  213.56880    0.25950    0.11920    -999.25    -999.25 1385.37900 2448.19560   67.41200    9.75090   11.35510 1207.89490   14.45640 -120.80920   65.40610  238.01460  230.78690 1202.81960
 1650.00000   83.22030    8.54060  278.13300  236.91530    0.35420    0.21060    -999.25    -999.25 1407.44780 2293.87700   83.84810   16.32680   17.81530 1214.15610   18.70300  -93.30880   77.52070  306.45490  249.44230 1215.39720
 1700.00000   92.45450   -6.89270  249.03720  229.34420    0.26200    0.00100    0.03660    0.21940 1469.90810 2647.77830   95.91930   15.18240   15.40810 1232.17520   18.56860  -73.61210   92.47590  240.61680  232.93960 1267.44850
 1750.00000   98.99900   81.77730  241.56760  271.80690    -999.25    -999.25    0.22050    0.38760 1466.54330 2336.50930   86.67680    5.03840    4.33250 1304.17860    3.77020  -88.81130   87.93340  372.49100  229.57900 1294.20720
 1800.00000   78.08590    0.92590  245.26100  264.94830    -999.25    -999.25    0.11900    0.15810 1480.89140 2496.95410   76.95420    4.60510    5.86710 1329.24450   12.10090 -110.85250   79.43010  243.20140  260.73910 1320.47800
 1850.00000   67.33440    3.06340  246.47990  249.50010    -999.25    -999.25    0.07730    0.11890 1556.10060 2575.91020   74.29220   12.62000   13.12420 1348.40040   16.64000 -105.80320   71.20130  218.05520  253.39140 1347.68920
 1900.00000   62.64090   -1.20670  262.73580  238.96570    -999.25    -999.25    0.00350    0.07670 1602.43580 2701.01070   63.37680   26.22400   28.79910 1380.26820   43.60820 -103.12640   62.52770  187.05380  245.34680 1385.90200
 1950.00000  100.92470   -2.54070  265.55900  246.71370    -999.25    -999.25    0.02600    0.11930 1610.36320 2660.96950   97.62880   21.97050   22.67540 1428.72220   32.27510  -75.67820  101.51080  215.35110  246.60330 1433.41240
 2000.00000   41.97860    9.24320  247.48710  238.18390    -999.25    -999.25   -0.06260    0.08910 1629.08460 2813.21220   41.97400   27.27990   29.38380 1459.11660   28.39690  -86.99600   39.95410  175.67900  247.94380 1453.79850
 2050.00000   31.53930   -4.37960  234.78450  227.52600    -999.25    -999.25   -0.05300    0.03610 1665.74180 2796.29810   29.29810  226.59970  269.11940 1464.77870  713.39000 -134.04020   27.80850  159.05500  233.26130 1466.81010
 2100.00000   20.12560   61.87170  231.15620  232.50670    -999.25    -999.25    0.04390    0.10130 1674.15360 2621.53490   21.59780   10.69160   12.62290 1510.48690   24.39300 -147.57440   20.83020  181.12780  227.05840 1508.47950
 2150.00000   25.57500   -1.92060  258.16620  234.55640    -999.25    -999.25    0.03380    0.12640 1690.73330 2645.60230   27.36470    6.37450    7.86060 1533.94790   10.68510 -117.11260   25.79610  190.90880  243.48640 1564.37280
