~Version ---------------------------------------------------
VERS.      2.0 : CWLS log ASCII Standard -VERSION 2.0
WRAP.       NO : One line per depth step
CREA. 09/28/17 : LAS Creation Date
~Well ------------------------------------------------------
STRT.FT                        750.0 : START DEPTH
STOP.FT                       7150.0 : STOP DEPTH
STEP.FT                     50.00000 : STEP LENGTH
NULL.                        -999.25 : NULL VALUE
COMP.     ALTANA EXPLORATION COMPANY : COMPANY
WELL. ALTANA ET AL KIRKPAT 2-4-30-21 : WELL
FLD .                                : FIELD
LOC .                                : LOCATION
CTRY.                         CANADA : COUNTRY
SRVC.                     Lane Wells : SERVICE COMPANY
DATE.                    31-Mar-1964 : LOGDATE
PROV.                        Alberta : PROVINCE
UWI .               100020403021W400 : UNIQUE WELL ID
SLAT.WGS84                  51.53364 : SURFACE LATITUDE
SLON.WGS84                 -112.8956 : SURFACE LONGITUDE
~Curve Information -----------------------------------------
DEPT  .FT    : Depth Curve
ACED  .US/F  : ACOUSTIC 3'  SPACING  FROM SONIC LOG
CALSED.IN    : CALIPER FROM SONIC LOG
CALWS .IN    : CALIPAR [CALSED]
CILDED.MMHO  : INDUCTION DEEP CONDUCTIVITY FROM RESISTIVITY LOG
CONDWS.MMHO  : CONDUCTIVITY [1000/DRESWS]
DRESWS.OHMM  : DEEP RESISTIVITY [1000/CILDED IF ILDED < 5, ILDED]
DTWS  .US/F  : COMPRESSIONAL SONIC [ACED]
GRSED .GAPI  : GAMMA RAY FROM SONIC LOG
GRWS  .GAPI  : GAMMA RAY [GRSED]
ILDED .OHMM  : INDUCTION DEEP FROM RESISTIVITY LOG
SNED  .OHMM  : SHORT NORMAL FROM RESISTIVITY LOG
SPRED .MV    : SPONTANEOUS POTENTIAL FROM RESISTIVITY LOG
SPWS  .MV    : SPONTANEOUS POTENTIAL [BASELNE 0 MV, SPRED]
SRESWS.OHMM  : SHALLOW RESISTIVITY [SNED]
~Params ----------------------------------------------------
LMF .                         KB : LOG MEASURED FROM
DAPD.FT                       12 : FEET ABOVE PERMANENT DATUM
DMF .                         KB : DRILLING MEASURED FROM
EKB .FT                     2303 : KELLY BUSHING
EGL .FT                     2291 : GROUND LEVEL
DATE.                   03/31/64 : RUN DATE
RUN .                          1 : RUN NUMBER
DD  .FT                     7160 : DEPTH DRILLER
DL  .FT                     7162 : DEPTH LOGGER
BLI .FT                     7158 : BOTTOM LOG INTERVAL
TLI .FT                      729 : TOP LOG INTERVAL
CS  .IN                    10.75 : CASING SIZE
CBD .FT                      729 : CASING BOTTOM DRILLER
CBL .FT                      729 : CASING BOTTOM LOGGER
BS  .IN                    7.875 : BIT SIZE
BSD .FT                     7160 : BIT SIZE AT DEPTH
DFT . MUD FERRO LIGNO SULPHONATE : DRILLING FLUID TYPE
DFD .                        9.6 : DRILLING FLUID DENSITY
DFV .                        128 : DRILLING FLUID VISCOSITY
DFPH.                        9.2 : DRILLING FLUID PH
DFL .                        4.9 : DRILLING FLUID LOSS
MSS .                       CIRC : MUD SAMPLE SOURCE
RMS .OHMM                    1.0 : RESISTIVITY MUD SAMPLE
MST .DEGF                     64 : MUD SAMPLE TEMPERATURE
RMF .OHMM                   0.04 : RESISTIVITY MUD FILTRATE SAMPLE
MFST.DEGF                     60 : MUD FILTRATE SAMPLE TEMPERATURE
RMC .OHMM                   0.01 : RESISTIVITY MUD CAKE
MCST.DEGF                     64 : MUD CAKE SAMPLE TEMPERATURE
MFSS.                       MEAS : MUD FILTRATE SAMPLE SOURCE
MCSS.                       MEAS : MUD CAKE SAMPLE SOURCE
RMB .OHMM                    0.5 : RESISTIVITY MUD AT BHT
TCS .HRS                       5 : TIME CIRCULATED STOPPED
LUN .                       8039 : LOGGING UNIT NUMBER
LUL .                        W C : LOGGING UNIT LOCATION
ENGI.                  MCFADZEAN : RECORDING ENGINEER
WITN.                   SERAFINI : WITNESSED BY
CLNT.                    A2DTECH : CLIENT CODE
ORIG.                2" 5" PRINT : ORIGIN OF DATA
UWI .           100020403021W400 : UNIQUE WELL ID
DICO.     A2D Technologies, Inc. : DIGITIZING COMPANY
~Other -----------------------------------------------------
~ASCII -----------------------------------------------------
# ...
 3200.00000   97.52750   13.17210   13.17210  128.79370  120.67090    8.28700   97.52750  120.21280  120.21280    8.28700   10.86450  -28.30100   -3.50510   10.86450
 3250.00000   99.54220   14.69720   14.69720  133.54640  122.12250    8.18850   99.54220  124.78360  124.78360    8.18850    9.48650  -29.18920   -4.39330    9.48650
 3300.00000  108.53150   14.01620   14.01620  106.56290  104.97140    9.52640  108.53150  132.63410  132.63410    9.52640   10.93650  -27.71560   -2.91970   10.93650
 3350.00000  107.65010   12.33810   12.33810  255.64800  255.64800    3.91160  107.65010  149.45730  149.45730    4.78450    6.30490  -25.85350   -1.05760    6.30490
 3400.00000   88.72830   10.66730   10.66730  110.67100  101.55480    9.84690   88.72830  144.54170  144.54170    9.84690   11.42300  -26.95500   -2.15910   11.42300
 3450.00000   95.27890   14.06890   14.06890  265.14900  265.14900    3.77150   95.27890   99.16770   99.16770    4.84190    5.15670  -28.81220   -4.01630    5.15670
 3500.00000  104.04510   14.47240   14.47240  358.77760  358.77760    2.78720  104.04510   97.89260   97.89260    3.84220    4.35210  -27.15970   -2.36380    4.35210
 3550.00000   82.94390   11.32510   11.32510   80.92520   77.75080   12.86160   82.94390   76.28140   76.28140   12.86160   13.52080  -32.93360   -8.11270   13.52080
 3600.00000   77.94830   10.65230   10.65230  110.77170  102.94420    9.71400   77.94830   82.50330   82.50330    9.71400   11.96120  -29.03350   -3.93920   11.96120
 3650.00000   82.09240   11.27340   11.27340  136.44490  120.36160    8.30830   82.09240   86.36540   86.36540    8.30830   10.94990  -26.25010   -0.88420   10.94990
 3700.00000   89.60100   15.21640   15.21640  229.59840  194.65100    5.13740   89.60100   82.58100   82.58100    5.13740    5.63180  -28.80600   -3.16670    5.63180
 3750.00000  107.47870   13.58280   13.58280  343.46950  343.46950    2.91150  107.47870   96.25070   96.25070    4.09520    4.97450  -28.91440   -3.00350    4.97450
 3800.00000  100.52500   12.03010   12.03010  161.61850  137.34940    7.28070  100.52500   83.35520   83.35520    7.28070    6.83210  -30.15740   -3.97480    6.83210
 3850.00000   81.37290   11.65110   11.65110  104.30930   98.03060   10.20090   81.37290   61.06280   61.06280   10.20090   11.88810  -39.39610  -12.94010   11.88810
 3900.00000   80.29150   11.07510   11.07510   99.02490   90.76140   11.01790   80.29150  103.18000  103.18000   11.01790    9.85600  -31.14420   -4.41650    9.85600
 3950.00000   64.58990   13.30270   13.30270   76.34720   75.68530   13.21260   64.58990   64.21140   64.21140   13.21260   11.22160  -35.58760   -8.58650   11.22160
 4000.00000   78.90400   11.33320   11.33320   97.10260   90.07060   11.10240   78.90400   73.12480   73.12480   11.10240   10.66630  -35.78780   -8.51520   10.66630
 4050.00000  120.67660   11.56580   11.56580   59.58690   62.86150   15.90800  120.67660   54.15290   54.15290   15.90800   16.46780  -32.92850   -5.38420   16.46780
 4100.00000   82.42260   11.04200   11.04200   37.62340   42.37070   23.60120   82.42260   61.27840   61.27840   23.60120   18.33990  -35.39380   -7.57610   18.33990
 4150.00000   98.09720   11.22410   11.22410  297.75420  297.75420    3.35850   98.09720   63.77310   63.77310    4.50150    5.93880  -35.89310   -7.80380    5.93880
 4200.00000   97.69490   14.37060   14.37060  306.30020  306.30020    3.26480   97.69490   87.01490   87.01490    4.31090    4.64590  -33.45540   -5.09260    4.64590
 4250.00000   79.32630   12.19680   12.19680   89.65320   82.08230   12.18290   79.32630   48.56390   48.56390   12.18290   13.02100  -45.21750  -16.58310   13.02100
 4300.00000   65.84870   10.09610   10.09610   30.07260   35.80780   27.92690   65.84870   60.33690   60.33690   27.92690   35.57500  -32.52490   -3.61890   35.57500
 4350.00000   59.12500    9.78800    9.78800   40.28800   44.85150   22.29580   59.12500   40.81120   40.81120   22.29580   29.05070  -31.55580   -2.37640   29.05070
 4400.00000   83.71790   15.86530   15.86530  160.89370  140.35280    7.12490   83.71790   85.05680   85.05680    7.12490    7.83100  -32.72920   -3.67290    7.83100
 4450.00000  109.37080   10.44620   10.44620  108.12480   97.92590   10.21180  109.37080   86.24200   86.24200   10.21180   11.59930  -32.59980   -3.99760   11.59930
 4500.00000   56.75670    9.32780    9.32780    8.36530   17.24970   57.97210   56.75670   36.32490   36.32490   57.97210   72.34950  -36.84340   -8.69240   72.34950
 4550.00000   58.89730    9.19330    9.19330    9.88900   17.75270   56.32960   58.89730   42.52420   42.52420   56.32960   75.47240  -34.60610   -6.90620   75.47240
 4600.00000   74.66050   10.94190   10.94190   79.40180   77.77260   12.85800   74.66050   78.19850   78.19850   12.85800   14.67900  -31.07600   -3.83020   14.67900
 4650.00000   74.63670   11.56480   11.56480   80.55830   79.18910   12.62800   74.63670   79.19540   79.19540   12.62800   14.48540  -31.47000   -4.67530   14.48540
 4700.00000   91.74470   10.47160   10.47160   85.82480   81.92220   12.20670   91.74470  159.09450  159.09450   12.20670   14.81950  -32.22920   -5.88870   14.81950
 4750.00000   54.84930    9.68250    9.68250   14.91670   22.23600   44.97210   54.84930   24.99450   24.99450   44.97210   68.24320  -48.58270  -22.69330   68.24320
 4800.00000   55.40090   10.42070   10.42070   15.17980   22.31440   44.81420   55.40090   31.35390   31.35390   44.81420   63.79270  -28.08080   -2.64260   63.79270
 4850.00000   53.84760   10.98130   10.98130   21.26040   27.70030   36.10070   53.84760   22.83010   22.83010   36.10070   58.50210  -26.66710   -1.68300   58.50210
 4900.00000   53.16560   11.20070   11.20070    7.40890   13.27150   75.34960   53.16560   21.40440   21.40440   75.34960   57.12890  -29.12250   -4.58960   57.12890
 4950.00000   54.41840   10.22630   10.22630   13.28000   20.95400   47.72350   54.41840   17.16690   17.16690   47.72350   68.17380  -26.15550   -2.07670   68.17380
 5000.00000   53.28650    9.86600    9.86600    9.72710   15.83200   63.16320   53.28650   22.00840   22.00840   63.16320   84.57590  -26.46920   -2.74690   84.57590
 5050.00000   58.77680   10.00940   10.00940    9.42310   16.16080   61.87810   58.77680   15.44230   15.44230   61.87810   99.61780  -28.73170   -4.43280   99.61780
 5100.00000   57.92610    9.72460    9.72460    9.72200   15.71720   63.62440   57.92610   21.84530   21.84530   63.62440   89.34240  -34.50470   -9.62530   89.34240
 5150.00000   55.08350    9.43500    9.43500    6.93870   12.57580   79.51780   55.08350   18.03740   18.03740   79.51780  119.62930  -31.28810   -5.83210  119.62930
 5200.00000   56.53670    9.60820    9.60820    7.11160   11.84100   84.45240   56.53670   18.75890   18.75890   84.45240  122.84860  -33.03490   -7.20970  122.84860
 5250.00000   65.19060    9.29010    9.29010    4.44930    7.52800  132.83740   65.19060   16.60010   16.60010  132.83740  120.82870  -81.55550  -56.22350  120.82870
 5300.00000   54.47470    9.10060    9.10060    5.01600    9.51330  105.11630   54.47470   18.99100   18.99100  105.11630  102.86560  -84.76470  -59.92590  102.86560
 5350.00000   64.53660    9.14150    9.14150   25.57000   30.05250   33.27510   64.53660   28.19180   28.19180   33.27510   42.98370  -56.86290  -32.52050   42.98370
 5400.00000   73.86170    9.14830    9.14830   35.37450   39.96360   25.02280   73.86170   68.37680   68.37680   25.02280   27.89320  -42.86570  -19.01650   27.89320
 5450.00000   53.26770    7.78000    7.78000    8.86210   13.82200   72.34840   53.26770   14.52520   14.52520   72.34840  112.41600  -78.09170  -54.73910  112.41600
 5500.00000   65.12750    7.80930    7.80930   16.61440   23.91600   41.81300   65.12750   18.01470   18.01470   41.81300   60.01040  -86.55080  -63.69140   60.01040
 5550.00000   61.78200    7.76060    7.76060   24.26730   29.90000   33.44480   61.78200   14.72370   14.72370   33.44480   62.53110  -84.13830  -61.77220   62.53110
 5600.00000   62.14780    7.84940    7.84940   26.23690   31.39380   31.85340   62.14780   13.97980   13.97980   31.85340   58.90050  -86.18550  -64.31570   58.90050
