~Version ---------------------------------------------------
VERS.      2.0 : CWLS log ASCII Standard -VERSION 2.0
WRAP.       NO : One line per depth step
CREA. 12/21/17 : LAS Creation Date
~Well ------------------------------------------------------
STRT.FT                                  900.0 : START DEPTH
STOP.FT                                 9200.0 : STOP DEPTH
STEP.FT                               50.00000 : STEP LENGTH
NULL.                                  -999.25 : NULL VALUE
COMP. THE BRITISH AMERICAN OIL COMPANY LIMITED : COMPANY
WELL.           B.A. VIRGINIA HILLS 2-24-66-17 : WELL
FLD .                                          : FIELD
LOC .                                          : LOCATION
CTRY.                                   CANADA : COUNTRY
SRVC.                             Schlumberger : SERVICE COMPANY
DATE.                              01-Mar-1963 : LOGDATE
PROV.                                  Alberta : PROVINCE
UWI .                         100022406617W500 : UNIQUE WELL ID
SLAT.WGS84                            54.72181 : SURFACE LATITUDE
SLON.WGS84                           -116.4291 : SURFACE LONGITUDE
~Curve Information -----------------------------------------
DEPT  .FT    : Depth Curve
CALSED.IN    : CALIPER FROM SONIC LOG
CALWS .IN    : CALIPER [CALSED]
CILDED.MMHO  : INDUCTION DEEP CONDUCTIVITY FROM IEL
CONDWS.MMHO  : CONDUCTIVITY [1000/DRESWS]
DRESWS.OHMM  : DEEP RESISTIVITY [ILDED, IF ILDED<2;1000/CILDED]
DTED  .US/F  : DELTA TIME (INTERVAL TRANSIT TIME)  FROM SONIC LOG
DTWS  .US/F  : COMPRESSIONAL SONIC [DTED]
GRSED .GAPI  : GAMMA RAY FROM SONIC LOG
GRWS  .GAPI  : GAMMA RAY [GRSED]
ILDED .OHMM  : INDUCTION DEEP RESISTIVITY FROM IEL
SNED  .OHMM  : SHORT NORMAL RESISTIVITY FROM IEL
SPRED .MV    : SPONTANEOUS POTENTIAL FROM IEL
SPWS  .MV    : SPONTANEOUS POTENTIAL [BASELINE 0 MV] [SPRED]
SRESWS.OHMM  : SHALLOW RESISTIVITY [SNED]
~Params ----------------------------------------------------
LMF .                     KB : LOG MEASURED FROM
EKB .FT                 2637 : KELLY BUSHING
DATE.             03/01/1963 : RUN DATE
RUN .                      2 : RUN NUMBER
DD  .FT                 9210 : DEPTH DRILLER
DL  .FT                 9214 : DEPTH LOGGER
BLI .FT                 9213 : BOTTOM LOG INTERVAL
TLI .FT                 8940 : TOP LOG INTERVAL
CBD .FT                  973 : CASING BOTTOM DRILLER
CBL .FT                  973 : CASING BOTTOM LOGGER
BS  .IN                    9 : BIT SIZE
BSD .FT                 9214 : BIT SIZE AT DEPTH
DFT .           GEL OIL CHEM : DRILLING FLUID TYPE
DFD .                    9.5 : DRILLING FLUID DENSITY
DFV .                     90 : DRILLING FLUID VISCOSITY
DFPH.                    9.5 : DRILLING FLUID PH
DFL .                    7.9 : DRILLING FLUID LOSS
RMS .OHMM               1.86 : RESISTIVITY MUD SAMPLE
MST .DEGF                 71 : MUD SAMPLE TEMPERATURE
RMF .OHMM               1.34 : RESISTIVITY MUD FILTRATE SAMPLE
MFST.DEGF                 66 : MUD FILTRATE SAMPLE TEMPERATURE
RMC .OHMM               2.16 : RESISTIVITY MUD CAKE
MCST.DEGF                 65 : MUD CAKE SAMPLE TEMPERATURE
RMB .OHMM               0.74 : RESISTIVITY MUD AT BHT
LUN .                3534 WC : LOGGING UNIT NUMBER
ENGI.               HATLELID : RECORDING ENGINEER
WITN.              MCDERMOTT : WITNESSED BY
CLNT.                A2DTECH : CLIENT CODE
ORIG.           2", 5" PRINT : ORIGIN OF DATA
UWI .       100022406617W500 : UNIQUE WELL ID
DICO. A2D Technologies, Inc. : DIGITIZING COMPANY
~Other -----------------------------------------------------
SP AFFECTED BY TELLURIC CURRENTS OVER BOTTOM SECTION OF HOLE
~ASCII -----------------------------------------------------
# ...
 5800.00000    9.60070    9.60070   24.02770   22.38320   44.67640   50.53150   50.53150   17.49690   17.49690   44.67640   89.51960 -194.00990  -95.82330   89.51960
 5850.00000   12.58870   12.58870  418.63160  418.63160    2.38870   68.18810   68.18810   52.28200   52.28200    1.72810    2.30480 -142.91100  -42.66190    2.30480
 5900.00000   10.38500   10.38500  168.34700  202.88910    4.92880   63.10520   63.10520   65.08380   65.08380    4.92880   11.41090 -122.38210  -20.07050   11.41090
 5950.00000   10.01060   10.01060   82.83510   80.13270   12.47930   56.79560   56.79560   57.55520   57.55520   12.47930   17.83010 -120.77450  -16.40040   17.83010
 6000.00000    9.74000    9.74000   18.02870   14.48750   69.02520   49.92090   49.92090   23.35040   23.35040   69.02520   96.27420 -117.02910  -10.59250   96.27420
 6050.00000    9.23560    9.23560   18.61100   14.98180   66.74770   50.23330   50.23330   26.01480   26.01480   66.74770   76.04980 -131.61810  -23.11900   76.04980
 6100.00000    9.06350    9.06350   24.76710   20.86080   47.93690   51.20540   51.20540   25.12760   25.12760   47.93690   62.03220 -154.51570  -43.95400   62.03220
 6150.00000    8.79290    8.79290   30.23690   27.99950   35.71490   53.72910   53.72910   38.22160   38.22160   35.71490   46.39140 -144.97590  -32.35170   46.39140
 6200.00000    8.85360    8.85360   29.75200   27.24550   36.70330   52.58750   52.58750   33.48900   33.48900   36.70330   44.81450 -151.57320  -36.88650   44.81450
 6250.00000    8.70150    8.70150   22.00950   18.93900   52.80100   53.10930   53.10930   29.21100   29.21100   52.80100   67.28770 -159.58120  -42.83200   67.28770
 6300.00000    8.78580    8.78580   24.32610   23.26870   42.97610   52.06210   52.06210   31.68610   31.68610   42.97610   55.77560 -146.86760  -28.05590   55.77560
 6350.00000    8.80060    8.80060   21.08160   18.16330   55.05600   52.28740   52.28740   36.22950   36.22950   55.05600   72.97340 -140.59720  -19.72300   72.97340
 6400.00000    9.40240    9.40240   39.56590   39.44940   25.34890   62.33590   62.33590   63.79490   63.79490   25.34890   34.18160 -134.47110  -11.53440   34.18160
 6450.00000    9.80850    9.80850   83.40510   82.68970   12.09340   58.29850   58.29850   73.75160   73.75160   12.09340   16.44700 -160.37610  -42.13540   16.44700
 6500.00000    9.71880    9.71880   15.75250   12.14950   82.30800   50.06670   50.06670   27.47730   27.47730   82.30800   91.90600 -191.37680  -81.47140   91.90600
 6550.00000   10.10920   10.10920   19.25630   16.17480   61.82450   49.33320   49.33320   20.29750   20.29750   61.82450   70.42480 -279.94210 -178.37190   70.42480
 6600.00000    9.81500    9.81500   13.42560    9.79000  102.14460   48.74500   48.74500   17.68880   17.68880  102.14460  116.51830 -260.45860 -167.22370  116.51830
 6650.00000    9.55380    9.55380   22.32030   19.00160   52.62720   48.10630   48.10630   18.73650   18.73650   52.62720   88.27620 -296.57500 -211.67540   88.27620
 6700.00000    9.02030    9.02030   12.66600    9.33870  107.08150   48.35720   48.35720   16.42490   16.42490  107.08150  112.63760 -255.37260 -178.80820  112.63760
 6750.00000    9.48560    9.48560   10.87530    7.43140  134.56390   48.87220   48.87220   20.23570   20.23570  134.56390  111.19110 -270.45650 -202.22740  111.19110
 6800.00000    8.83300    8.83300   46.03340   44.80550   22.31870   52.02430   52.02430   18.15040   18.15040   22.31870   76.66240 -299.53970 -239.64580   76.66240
 6850.00000    9.33640    9.33640   23.28280   20.65310   48.41880   50.09160   50.09160   17.31500   17.31500   48.41880   77.12110 -247.04050 -195.48190   77.12110
 6900.00000    9.54350    9.54350   25.29750   23.20460   43.09490   50.27030   50.27030   16.43220   16.43220   43.09490   72.52760 -219.19100 -175.96770   72.52760
 6950.00000    9.58600    9.58600   13.37100   10.81330   92.47870   50.05320   50.05320   18.26790   18.26790   92.47870   98.42040 -182.45710 -147.56900   98.42040
 7000.00000    9.68500    9.68500   10.34610    6.59060  151.73030   49.58520   49.58520   17.45170   17.45170  151.73030  155.07100 -169.55560 -143.00280  155.07100
 7050.00000    9.63410    9.63410    7.23090    4.56950  218.84060   47.83980   47.83980   21.48640   21.48640  218.84060  200.16100 -173.78810 -155.57050  200.16100
 7100.00000    9.05650    9.05650   36.49220   37.22730   26.86200   54.15730   54.15730   20.19420   20.19420   26.86200   90.88910 -213.10300 -203.22070   90.88910
 7150.00000    9.53440    9.53440   23.73570   19.81760   50.46020   49.44740   49.44740   17.56030   17.56030   50.46020   89.14370 -204.67580 -203.12870   89.14370
 7200.00000    9.09180    9.09180   47.33730   44.01060   22.72180   50.58270   50.58270   18.56670   18.56670   22.72180   83.34020 -187.91880 -194.70700   83.34020
 7250.00000    9.42410    9.42410   21.92450   19.50760   51.26220   48.64380   48.64380   18.61950   18.61950   51.26220  104.36990 -137.20210 -152.32560  104.36990
 7300.00000    9.20090    9.20090   15.04250   12.66500   78.95790   51.54400   51.54400   33.40880   33.40880   78.95790  122.33730 -144.71900 -168.17770  122.33730
 7350.00000    9.16670    9.16670    9.80770    6.47940  154.33630   44.91190   44.91190   20.41990   20.41990  154.33630  136.91230 -114.18800 -145.98200  136.91230
 7400.00000    9.14980    9.14980   92.47390   80.48810   12.42420   52.14130   52.14130   41.27570   41.27570   12.42420   19.04590  -71.09600 -111.22520   19.04590
 7450.00000    9.04100    9.04100   15.17050   11.98190   83.45950   49.59580   49.59580   34.95990   34.95990   83.45950   92.29300   -1.68710  -50.15160   92.29300
 7500.00000   11.09160   11.09160   82.57700   84.17650   11.87980   65.63100   65.63100   70.93180   70.93180   11.87980   17.54700   28.85860  -27.94120   17.54700
 7550.00000    9.69260    9.69260   17.31160   14.35750   69.65000   52.36140   52.36140   16.67210   16.67210   69.65000   99.54420  -35.81460 -100.94960   99.54420
 7600.00000    9.29790    9.29790   24.63630   23.98220   41.69760   51.70730   51.70730   21.57500   21.57500   41.69760   57.88670   46.40310  -27.06720   57.88670
 7650.00000   10.10390   10.10390   55.31770   54.04820   18.50200   59.25800   59.25800   49.20730   49.20730   18.50200   21.88260   75.99210   -3.38060   21.88260
 7700.00000    9.96540    9.96540  104.01280  111.08030    9.00250   63.93240   63.93240   57.13880   57.13880    9.00250   13.73190   66.96300   -5.53960   13.73190
 7750.00000   10.09780   10.09780  132.98650  137.66900    7.26380   66.30260   66.30260   70.89820   70.89820    7.26380   10.56970   40.83140  -24.80110   10.56970
 7800.00000   14.79680   14.79680  253.71890  282.58970    3.53870   79.54420   79.54420   65.41820   65.41820    3.53870    3.80810  -21.54250  -80.30490    3.80810
 7850.00000   15.00000   15.00000  214.38030  229.71080    4.35330   75.08490   75.08490   65.11180   65.11180    4.35330    4.75400  -59.87710 -111.76940    4.75400
 7900.00000   15.00000   15.00000  220.71110  241.61590    4.13880   76.95590   76.95590   71.41700   71.41700    4.13880    4.79190 -114.34380 -159.36600    4.79190
 7950.00000   15.00000   15.00000  251.71340  277.03900    3.60960   80.72490   80.72490   64.30280   64.30280    3.60960    3.88080 -129.04050 -167.19270    3.88080
 8000.00000   15.00000   15.00000  250.74310  278.45070    3.59130   78.28570   78.28570   57.04160   57.04160    3.59130    3.82890 -132.77370 -164.05580    3.82890
 8050.00000   14.08010   14.08010  190.67020  200.10010    4.99750   73.28680   73.28680   61.50650   61.50650    4.99750    5.96550 -133.78920 -158.20120    5.96550
 8100.00000   10.02010   10.02010  130.09130  133.06190    7.51530   78.42290   78.42290   92.01470   92.01470    7.51530   11.63080 -135.89810 -153.44000   11.63080
 8150.00000    9.51220    9.51220   94.16270   88.57400   11.29000   59.20970   59.20970   53.94730   53.94730   11.29000   15.79080 -120.00970 -130.68150   15.79080
 8200.00000   10.49340   10.49340  142.66800  144.83730    6.90430   70.92160   70.92160   79.00930   79.00930    6.90430   10.21560 -124.16290 -127.96460   10.21560
