~Version ---------------------------------------------------
VERS.      2.0 : CWLS log ASCII Standard -VERSION 2.0
WRAP.       NO : One line per depth step
CREA. 11/14/17 : LAS Creation Date
~Well ------------------------------------------------------
STRT.FT                       1050.0 : START DEPTH
STOP.FT                      10150.0 : STOP DEPTH
STEP.FT                     50.00000 : STEP LENGTH
NULL.                        -999.25 : NULL VALUE
COMP.           CHEVRON STANDARD LTD : COMPANY
WELL. CHEVRON GULF FOXCK 12-35-61-18 : WELL
FLD .                      FOX CREEK : FIELD
LOC .                                : LOCATION
CTRY.                         CANADA : COUNTRY
SRVC.                   Schlumberger : SERVICE COMPANY
DATE.                    30-Mar-1976 : LOGDATE
PROV.                        Alberta : PROVINCE
UWI .               100123506118W500 : UNIQUE WELL ID
SLAT.WGS84                  54.32239 : SURFACE LATITUDE
SLON.WGS84                 -116.5968 : SURFACE LONGITUDE
~Curve Information -----------------------------------------
DEPT    .FT    : Depth Curve
CALDED  .IN    : CALIPER FROM DENSITY LOG [ADJ. TO SONIC LOG]
CALSED  .IN    : CALIPER FROM SONIC LOG
CALWS   .IN    : CALIPER [CALSED]
CONDWS  .OHMM  : CONDUCTIVITY [1000/DRESWS]
DCORED  .G/C3  : DENSITY CORRECTION FROM DENSITY LOG [ADJ. TO SONIC LOG]
DCORWS  .G/C3  : DENSITY CORRECTION [DCORED]
DENWS   .G/C3  : FORMATION BULK DENSITY [RHOBED]
DPHILSED.V/V   : DENSITY POROSITY LIME FROM DENSITY LOG [ADJ. TO RHOBED]
DPHISSED.V/V   : DENSITY POROSITY SAND FROM DENSITY LOG [ADJ. TO RHOBED]
DPOWS   .V/V   : DENSITY POROSITY LIME [CALC. FROM DENWS M=2710, F=1000]
DRESWS  .OHMM  : DEEP RESISTIVITY [ILDED]
DTED    .US/F  : DELTA-T FROM SONIC LOG
DTWS    .US/F  : COMPRESSIONAL SONIC [DTED]
GRDED   .GAPI  : GAMMA RAY FROM DENSITY LOG [ADJ. TO SONIC LOG]
GRSED   .GAPI  : GAMMA RAY FROM SONIC LOG
GRWS    .GAPI  : GAMMA RAY [GRSED]
ILDED   .OHMM  : DEEP INDUCTION FROM RESISTIVITY LOG
ILMED   .OHMM  : MEDIUM INDUCTION FROM RESISTIVITY LOG
LL8ED   .OHMM  : LATEROLOG 8 FROM RESISTIVITY LOG
MRESWS  .OHMM  : MEDIUM RESISTIVITY [ILMED]
NPHILSED.V/V   : NEUTRON POROSITY LIME FROM DENSITY LOG [ADJ. TO RHOBED]
NPHISSED.V/V   : NEUTRON POROSITY SAND FROM DENSITY LOG [ADJ. TO RHOBED]
NPOWS   .V/V   : NEUTRON POROSITY LIME [SS MATRIX CONVERTED FOR LS, SPL. TO NPHISSED @ 6719']
RHOBED  .G/C3  : BULK DENSITY FROM DENSITY LOG [ADJ. TO SONIC LOG]
SPRED   .MV    : SPONTANEOUS POTENTIAL FROM RESISTIVITY LOG
SPWS    .MV    : SPONTANEOUS POTENTIAL [BASELINE 0 MV, SPRED]
SRESWS  .OHMM  : SHALLOW RESISTIVITY [LL8ED]
TENDED  .LBF   : TENSION FROM DENSITY LOG [ADJ. TO GRSED]
TENSED  .LBF   : TENSION FROM SONIC LOG
~Params ----------------------------------------------------
PD  .                     GL : PERMANENT DATUM
EPD .FT               2712.6 : ELEVATION PERMANENT DATUM
LMF .                     KB : LOG MEASURED FROM
DAPD.FT                 16.4 : FEET ABOVE PERMANENT DATUM
DMF .                     KB : DRILLING MEASURED FROM
EKB .FT                 2729 : KELLY BUSHING
EDF .FT               2712.6 : DRILLING FLOOR
DATE.               03/30/76 : RUN DATE
RUN .                      1 : RUN NUMBER
DD  .FT                10180 : DEPTH DRILLER
DL  .FT                10178 : DEPTH LOGGER
BLI .FT                10176 : BOTTOM LOG INTERVAL
TLI .FT                 1117 : TOP LOG INTERVAL
CBD .FT                 1117 : CASING BOTTOM DRILLER
CBL .FT              1116.91 : CASING BOTTOM LOGGER
BS  .IN                 8.75 : BIT SIZE
BSD .FT                10180 : BIT SIZE AT DEPTH
DFT .               GEL CHEM : DRILLING FLUID TYPE
DFD .                    9.6 : DRILLING FLUID DENSITY
DFV .                    110 : DRILLING FLUID VISCOSITY
DFPH.                   10.5 : DRILLING FLUID PH
DFL .                      9 : DRILLING FLUID LOSS
RMF .OHMM               1.22 : RESISTIVITY MUD FILTRATE SAMPLE
MFST.DEGF                 68 : MUD FILTRATE SAMPLE TEMPERATURE
TCS .HRS                   3 : TIME CIRCULATED STOPPED
LUN .                   7691 : LOGGING UNIT NUMBER
LUL .                    WCT : LOGGING UNIT LOCATION
ENGI.                 KOVACS : RECORDING ENGINEER
WITN.            WONG MCLEOD : WITNESSED BY
CLNT.                A2DTECH : CLIENT CODE
ORIG.            2" 5" PRINT : ORIGIN OF DATA
UWI .       100123506118W500 : UNIQUE WELL ID
DICO. A2D Technologies, Inc. : DIGITIZING COMPANY
~Other -----------------------------------------------------
~ASCII -----------------------------------------------------
 1050.00000    -999.25    -999.25    -999.25    -999.25    -999.25    -999.25    -999.25    -999.25    -999.25    -999.25    -999.25    -999.25    -999.25    -999.25   47.17850   47.17850    -999.25    -999.25    -999.25    -999.25    -999.25    -999.25    -999.25    -999.25    -999.25    -999.25    -999.25    -999.25    -999.25
 1100.00000    -999.25    -999.25    -999.25    -999.25    -999.25    -999.25    -999.25    -999.25    -999.25    -999.25    -999.25    -999.25    -999.25    -999.25   35.12370   35.12370    -999.25    -999.25    -999.25    -999.25    -999.25    -999.25    -999.25    -999.25    -999.25    -999.25    -999.25    -999.25    -999.25
 1150.00000    -999.25    9.45260    9.45260  232.75760    -999.25    -999.25    -999.25    -999.25    -999.25    -999.25    4.29640  114.72390  114.72390    -999.25   77.98440   77.98440    4.29640    4.05150    4.12230    4.05150    -999.25    -999.25    -999.25    -999.25 -115.59250   -4.40060    4.12230    -999.25  878.17610
 1200.00000    -999.25    9.94020    9.94020  205.18710    -999.25    -999.25    -999.25    -999.25    -999.25    -999.25    4.87360  109.42800  109.42800    -999.25   82.07930   82.07930    4.87360    5.38920    4.58800    5.38920    -999.25    -999.25    -999.25    -999.25 -115.96450   -4.56410    4.58800    -999.25 1519.38860
 1250.00000    -999.25   10.97980   10.97980  281.83300    -999.25    -999.25    -999.25    -999.25    -999.25    -999.25    3.54820  116.66880  116.66880    -999.25   78.34470   78.34470    3.54820    3.89470    3.66300    3.89470    -999.25    -999.25    -999.25    -999.25 -115.38270   -3.77470    3.66300    -999.25  542.76180
 1300.00000    -999.25    9.47690    9.47690  190.60850    -999.25    -999.25    -999.25    -999.25    -999.25    -999.25    5.24900  108.36080  108.36080    -999.25   72.77920   72.77920    5.24900    5.47560    5.97480    5.47560    -999.25    -999.25    -999.25    -999.25 -115.69600   -3.88150    5.97480    -999.25 1540.62490
 1350.00000    -999.25   10.36790   10.36790  317.96500    -999.25    -999.25    -999.25    -999.25    -999.25    -999.25    3.14500  111.15520  111.15520    -999.25   92.52630   92.52630    3.14500    3.03720    3.56280    3.03720    -999.25    -999.25    -999.25    -999.25 -114.56520   -2.54220    3.56280    -999.25 2505.39900
 1400.00000    -999.25    9.90160    9.90160  209.87240    -999.25    -999.25    -999.25    -999.25    -999.25    -999.25    4.77800  101.75240  101.75240    -999.25   87.47910   87.47910    4.77800    4.28750    4.89080    4.28750    -999.25    -999.25    -999.25    -999.25 -115.24580   -3.49940    4.89080    -999.25 4098.17310
 1450.00000    -999.25   10.98650   10.98650  214.92900    -999.25    -999.25    -999.25    -999.25    -999.25    -999.25    4.65270  103.09160  103.09160    -999.25   79.10070   79.10070    4.65270    4.50920    4.41750    4.50920    -999.25    -999.25    -999.25    -999.25 -114.16890   -2.81710    4.41750    -999.25 4087.92170
 1500.00000    -999.25    9.71330    9.71330  124.88600    -999.25    -999.25    -999.25    -999.25    -999.25    -999.25    8.00730   93.67840   93.67840    -999.25   61.24790   61.24790    8.00730    7.84790    6.79190    7.84790    -999.25    -999.25    -999.25    -999.25 -115.19800   -4.23880    6.79190    -999.25 10095.05730
 1550.00000    -999.25   10.33470   10.33470  308.57910    -999.25    -999.25    -999.25    -999.25    -999.25    -999.25    3.24240  121.18700  121.18700    -999.25   85.62760   85.62760    3.24240    3.15350    3.25980    3.15350    -999.25    -999.25    -999.25    -999.25 -113.77000   -3.20140    3.25980    -999.25 10209.24430
 1600.00000    -999.25   10.18500   10.18500  192.76740    -999.25    -999.25    -999.25    -999.25    -999.25    -999.25    5.18760   97.68340   97.68340    -999.25   89.65240   89.65240    5.18760    5.35080    5.74030    5.35080    -999.25    -999.25    -999.25    -999.25 -114.41850   -4.24440    5.74030    -999.25 2455.50210
 1650.00000    -999.25    9.67740    9.67740  200.61620    -999.25    -999.25    -999.25    -999.25    -999.25    -999.25    4.98500  101.42510  101.42510    -999.25   84.65110   84.65110    4.98500    5.40960    5.70380    5.40960    -999.25    -999.25    -999.25    -999.25 -113.30980   -3.52640    5.70380    -999.25 1709.24820
 1700.00000    -999.25    9.42910    9.42910  193.79090    -999.25    -999.25    -999.25    -999.25    -999.25    -999.25    5.16020  104.44110  104.44110    -999.25   77.93990   77.93990    5.16020    5.49650    4.84830    5.49650    -999.25    -999.25    -999.25    -999.25 -113.48230   -4.09340    4.84830    -999.25  293.07610
 1750.00000    -999.25   10.89390   10.89390  368.63640    -999.25    -999.25    -999.25    -999.25    -999.25    -999.25    2.71270  112.89220  112.89220    -999.25   82.26480   82.26480    2.71270    2.88120    2.77220    2.88120    -999.25    -999.25    -999.25    -999.25 -111.10680   -2.11050    2.77220    -999.25   25.83250
 1800.00000    -999.25   10.11530   10.11530   72.72260    -999.25    -999.25    -999.25    -999.25    -999.25    -999.25   13.75120  103.88570  103.88570    -999.25   58.96360   58.96360   13.75120   13.52120   12.22850   13.52120    -999.25    -999.25    -999.25    -999.25 -116.85720   -8.25150   12.22850    -999.25  439.24100
 1850.00000    -999.25   10.71020   10.71020  286.62330    -999.25    -999.25    -999.25    -999.25    -999.25    -999.25    3.48890  109.83430  109.83430    -999.25   95.43050   95.43050    3.48890    3.28670    3.47940    3.28670    -999.25    -999.25    -999.25    -999.25 -111.06590   -2.85480    3.47940    -999.25  202.39460
 1900.00000    -999.25   11.57270   11.57270  241.07720    -999.25    -999.25    -999.25    -999.25    -999.25    -999.25    4.14810  105.42860  105.42860    -999.25   84.00330   84.00330    4.14810    3.83900    4.18800    3.83900    -999.25    -999.25    -999.25    -999.25 -111.09060   -3.27010    4.18800    -999.25  295.85030
 1950.00000    -999.25   10.65650   10.65650  265.12540    -999.25    -999.25    -999.25    -999.25    -999.25    -999.25    3.77180  104.06780  104.06780    -999.25   89.20940   89.20940    3.77180    3.48740    5.00280    3.48740    -999.25    -999.25    -999.25    -999.25 -110.25650   -2.83050    5.00280    -999.25 3192.49810
 2000.00000    -999.25   10.95920   10.95920  319.41740    -999.25    -999.25    -999.25    -999.25    -999.25    -999.25    3.13070  106.35850  106.35850    -999.25  100.89820  100.89820    3.13070    3.28250    2.98600    3.28250    -999.25    -999.25    -999.25    -999.25 -109.40670   -2.37330    2.98600    -999.25 3821.11280
 2050.00000    -999.25    9.54270    9.54270   82.50060    -999.25    -999.25    -999.25    -999.25    -999.25    -999.25   12.16170   91.53130   91.53130    -999.25   87.05340   87.05340   12.16170   10.28140    9.92250   10.28140    -999.25    -999.25    -999.25    -999.25 -111.39140   -4.74860    9.92250    -999.25 4870.20480
 2100.00000    -999.25    9.91240    9.91240  268.50680    -999.25    -999.25    -999.25    -999.25    -999.25    -999.25    3.72430  103.78380  103.78380    -999.25   82.35900   82.35900    3.72430    3.67160    3.56550    3.67160    -999.25    -999.25    -999.25    -999.25 -111.05310   -4.80490    3.56550    -999.25 5168.49200
 2150.00000    -999.25    8.99430    8.99430  142.45310    -999.25    -999.25    -999.25    -999.25    -999.25    -999.25    7.02090   94.64520   94.64520    -999.25   68.32900   68.32900    7.02090    7.30680    6.47070    7.30680    -999.25    -999.25    -999.25    -999.25 -110.92500   -5.06740    6.47070    -999.25 6148.76130
 2200.00000    -999.25    8.46160    8.46160  330.56760    -999.25    -999.25    -999.25    -999.25    -999.25    -999.25    3.02510   98.92440   98.92440    -999.25   70.77500   70.77500    3.02510    3.92370    4.19470    3.92370    -999.25    -999.25    -999.25    -999.25 -112.86690   -7.40390    4.19470    -999.25 1615.72060
 2250.00000    -999.25    9.74870    9.74870  214.43580    -999.25    -999.25    -999.25    -999.25    -999.25    -999.25    4.66340   94.63410   94.63410    -999.25   63.58180   63.58180    4.66340    5.06520    4.80140    5.06520    -999.25    -999.25    -999.25    -999.25 -109.34470   -4.27420    4.80140    -999.25 1818.95350
