~Version ---------------------------------------------------
VERS.      2.0 : CWLS log ASCII Standard -VERSION 2.0
WRAP.       NO : One line per depth step
CREA. 12/14/17 : LAS Creation Date
~Well ------------------------------------------------------
STRT.FT                       1400.0 : START DEPTH
STOP.FT                       9950.0 : STOP DEPTH
STEP.FT                     50.00000 : STEP LENGTH
NULL.                        -999.25 : NULL VALUE
COMP.         PHILLIPS PETROLEUM CO. : COMPANY
WELL.            PHILLIPS KAYBOB B-1 : WELL
FLD .                                : FIELD
LOC .                                : LOCATION
CTRY.                         CANADA : COUNTRY
SRVC. HALLIBURTON OIL WELL CEMENT CO : SERVICE COMPANY
DATE.                    14-Sep-1957 : LOGDATE
PROV.                        Alberta : PROVINCE
UWI .               100050506418W500 : UNIQUE WELL ID
SLAT.WGS84                  54.50709 : SURFACE LATITUDE
SLON.WGS84                 -116.6935 : SURFACE LONGITUDE
~Curve Information -----------------------------------------
DEPT  .FT    : Depth Curve
CALMED.IN    : CALIPER FROM MICROLOG
CALWS .IN    : CALIPER [CALMED]
CONDWS.MMHO  : CONDUCTIVITY [1000/DRESWS]
DRESWS.OHMM  : DEEP RESISTIVITY [LAT9ED]
GRED  .GAPI  : GAMMA RAY FROM CEMENT LOG, DEPTH ADJUSTED WITH [LAT9ED]
GRNED .CPS   : GAMMA RAY FROM NEUTRON LOG, DEPTH ADJUSTED WITH [LAT9ED]
GRWS  .CPS   : GAMMA RAY [GRNED], SPLICED WITH [GRED] FROM TOP-1492'
LAT9ED.OHMM  : LATERAL 9'
LT16ED.OHMM  : LATERAL 16'
NEUTED.CPS   : NEUTRON FROM NEUTRON LOG, DEPTH ADJUSTED WITH [LAT9ED]
NEUTWS.CPS   : NEUTRON [NEUTED]
SNED  .OHMM  : 16 INCH SHORT NORMAL RESISTIVITY FROM IEL
SPRED .MV    : SPONTANEOUS POTENTIAL FROM RESISTIVITY LOG
SPWS  .MV    : SPONTANEOUS POTENTIAL [BASELINE 0 MV] [SPRED]
SRESWS.OHMM  : SHALLOW RESISTIVITY [SNED]
~Params ----------------------------------------------------
PD  .                              GL : PERMANENT DATUM
EPD .FT                          2600 : ELEVATION PERMANENT DATUM
LMF .                              KB : LOG MEASURED FROM
DMF .                              KB : DRILLING MEASURED FROM
EKB .FT                          2600 : KELLY BUSHING
DATE.                        09/14/57 : RUN DATE
RUN .                               1 : RUN NUMBER
DD  .FT                          9955 : DEPTH DRILLER
DL  .FT                          9949 : DEPTH LOGGER
CS  .IN                        13.375 : CASING SIZE
CBD .FT                          1512 : CASING BOTTOM DRILLER
CBL .FT                          1510 : CASING BOTTOM LOGGER
BS  .IN                             9 : BIT SIZE
BSD .FT                          9955 : BIT SIZE AT DEPTH
DFT . OIL EMULSION GEL CAUSTIC MILBAR : DRILLING FLUID TYPE
DFD .                            11.2 : DRILLING FLUID DENSITY
DFV .                              64 : DRILLING FLUID VISCOSITY
DFPH.                               9 : DRILLING FLUID PH
DFL .                             4.8 : DRILLING FLUID LOSS
RMS .OHMM                         1.7 : RESISTIVITY MUD SAMPLE
MST .DEGF                          70 : MUD SAMPLE TEMPERATURE
RMB .OHMM                        0.64 : RESISTIVITY MUD AT BHT
MRT .DEGF                         192 : MAXIMUM RECORDED TEMPERATURE
LUN .                             447 : LOGGING UNIT NUMBER
ENGI.                         EDWARDS : RECORDING ENGINEER
WITN.                    MOTE HANKINS : WITNESSED BY
CLNT.                         A2DTECH : CLIENT CODE
ORIG.                     2" 5" PRINT : ORIGIN OF DATA
UWI .                100050506418W500 : UNIQUE WELL ID
DICO.          A2D Technologies, Inc. : DIGITIZING COMPANY
~Other -----------------------------------------------------
~ASCII -----------------------------------------------------
# ...
 6000.00000    9.52440    9.52440    2.62270  381.28170   30.69750   54.13960   54.13960  381.28170  730.81120  452.75960  452.75960  229.53640  -65.76370  -55.37670  229.53640
 6050.00000    9.73910    9.73910   50.96450   19.62150   49.71890   80.21160   80.21160   19.62150   11.33010  363.81010  363.81010   18.93120  -70.59640  -60.72130   18.93120
 6100.00000    9.70510    9.70510   45.79720   21.83670    -999.25   70.52530   70.52530   21.83670   13.13150  409.68960  409.68960   20.93740  -70.41090  -61.05020   20.93740
 6150.00000    9.61030    9.61030   69.31500   14.42690    -999.25  104.34320  104.34320   14.42690   10.90400  361.42440  361.42440   14.60880  -72.10800  -63.25670   14.60880
 6200.00000   10.03500   10.03500    7.51470  133.09360    -999.25   33.37830   33.37830  133.09360   63.35330  459.35530  459.35530   61.07090  -72.81950  -64.48270   61.07090
 6250.00000    9.49030    9.49030    5.31330  188.20700    -999.25   29.62270   29.62270  188.20700   72.56460  461.53860  461.53860   84.42860  -81.11360  -73.28610   84.42860
 6300.00000    9.49650    9.49650    1.98940  502.67590    -999.25   30.69930   30.69930  502.67590  399.86070  611.60270  611.60270  185.20380  -75.57330  -68.25770  185.20380
 6350.00000   10.25180   10.25180    5.13330  195.12250    -999.25   63.03830   63.03830  195.12250  126.96960  569.64470  569.64470   88.69960  -71.89260  -65.09140   88.69960
 6400.00000    9.48560    9.48560   32.20940   31.04680    -999.25   52.09780   52.09780   31.04680   48.09420  388.75230  388.75230   30.28440  -71.31760  -65.02580   30.28440
 6450.00000    9.50420    9.50420   25.99870   38.55750    -999.25   38.60860   38.60860   38.55750   14.94500  499.16580  499.16580   37.62110  -69.29760  -63.52030   37.62110
 6500.00000    9.87510    9.87510    9.14870  109.30570    -999.25   50.79330   50.79330  109.30570   44.94740  469.60330  469.60330   77.55870  -68.87860  -63.61060   77.55870
 6550.00000    9.50160    9.50160    3.16150  316.30360    -999.25   25.41900   25.41900  316.30360  316.49540  545.38710  545.38710  134.86430  -83.58740  -78.83130  134.86430
 6600.00000    9.16260    9.16260    2.79030  358.39430    -999.25   22.93290   22.93290  358.39430  174.77260  534.42310  534.42310  131.40170  -77.88730  -73.64570  131.40170
 6650.00000    9.55220    9.55220    3.54780  281.86870    -999.25   23.35590   23.35590  281.86870  342.84300  596.31060  596.31060  123.64240  -73.65750  -69.92530  123.64240
 6700.00000    9.82010    9.82010   29.48660   34.78430    -999.25   55.39650   55.39650   34.78430   52.65140  407.62020  407.62020   24.73290  -53.59420  -50.37640   24.73290
 6750.00000    9.91230    9.91230  187.39580    5.33630    -999.25   68.51160   68.51160    5.33630    3.73450  342.10170  342.10170    9.10510  -38.52050  -35.81210    9.10510
 6800.00000    9.93170    9.93170   86.98530   11.49620    -999.25   57.47120   57.47120   11.49620    9.15770  365.00720  365.00720   12.15000  -36.98060  -34.78410   12.15000
 6850.00000   10.13660   10.13660   13.92820   71.90090    -999.25   97.05190   97.05190   71.90090   32.82460  356.13850  356.13850   53.29370  -33.62490  -31.94280   53.29370
 6900.00000   10.03420   10.03420   25.41520   39.34650    -999.25   67.36020   67.36020   39.34650   19.92580  416.51840  416.51840   32.77810  -42.27940  -41.10670   32.77810
 6950.00000   10.05540   10.05540    3.63790  274.97000    -999.25   29.07820   29.07820  274.97000  357.94260  590.35330  590.35330  127.43630  -36.57150  -35.91320  127.43630
 7000.00000    9.62660    9.62660    7.51490  133.06920    -999.25   37.58080   37.58080  133.06920   71.94710  549.09730  549.09730   64.03470  -16.53460  -16.38570   64.03470
 7050.00000    9.46300    9.46300   14.82330   67.46120    -999.25   54.97090   54.97090   67.46120   49.11960  442.03960  442.03960   42.64610  -22.52820  -22.89120   42.64610
 7100.00000    9.50000    9.50000   11.21440   89.21900    -999.25   41.29520   41.29520   89.21900   52.07390  476.21620  476.21620   48.97710  -18.18750  -19.06500   48.97710
 7150.00000    9.60390    9.60390    3.27490  305.35560    -999.25   32.85530   32.85530  305.35560  281.66500  501.40090  501.40090  128.95270   -8.10140   -9.10140  128.95270
 7200.00000    9.48330    9.48330    4.58650  218.17250    -999.25   53.61210   53.61210  218.17250  316.89560  516.52490  516.52490  147.06340  -13.23270  -14.13010  147.06340
 7250.00000    9.42280    9.42280    7.42210  134.73190    -999.25   63.88090   63.88090  134.73190  109.94920  448.57750  448.57750   68.93280   -3.72420   -4.52000   68.93280
 7300.00000    9.44010    9.44010    1.72660  579.18290    -999.25   36.20470   36.20470  579.18290  350.48610  552.98070  552.98070  157.36290  -15.16560  -15.85920  157.36290
 7350.00000    9.27730    9.27730    1.82170  548.93520    -999.25   33.37150   33.37150  548.93520  633.92440  557.75200  557.75200  262.60500   -1.24160   -1.83260  262.60500
 7400.00000    9.32650    9.32650    2.43720  410.31220    -999.25   28.00500   28.00500  410.31220  748.46300  658.27450  658.27450  205.86000  -19.57030  -20.05970  205.86000
 7450.00000    9.35210    9.35210    1.86650  535.80880    -999.25   28.25380   28.25380  535.80880 1091.18200  596.87680  596.87680  199.47320   -0.44430   -0.83110  199.47320
 7500.00000    9.75620    9.75620    2.46230  406.11700    -999.25   26.68590   26.68590  406.11700  651.70990  620.51270  620.51270  200.76390   -4.15970   -4.44490  200.76390
 7550.00000   10.20610   10.20610    2.56750  389.48890    -999.25   25.00660   25.00660  389.48890  623.74820  577.43850  577.43850  162.94230  -56.13150  -56.31460  162.94230
 7600.00000   10.03500   10.03500    2.17150  460.60350    -999.25   26.42610   26.42610  460.60350  826.55290  635.79960  635.79960  198.27390  -86.77570  -86.85620  198.27390
 7650.00000   10.69500   10.69500    3.93290  254.26790    -999.25   20.97810   20.97810  254.26790  405.33370  598.43320  598.43320  177.46770  -68.52830  -68.50720  177.46770
 7700.00000    9.92650    9.92650    2.98960  334.49580    -999.25   24.35160   24.35160  334.49580  427.75270  606.37730  606.37730  131.10580  -86.00370  -85.88000  131.10580
 7750.00000   10.02700   10.02700    3.52280  283.86740    -999.25   23.73100   23.73100  283.86740  403.21630  626.08380  626.08380  158.66520  -92.96460  -92.73930  158.66520
 7800.00000   10.19920   10.19920    2.96190  337.61920    -999.25   26.76270   26.76270  337.61920  609.41560  649.70360  649.70360  158.87350  -82.55500  -82.22760  158.87350
 7850.00000   10.20390   10.20390    2.25110  444.25880    -999.25   27.97020   27.97020  444.25880  787.07830  587.61840  587.61840  235.82670  -66.72510  -66.29500  235.82670
 7900.00000   10.16030   10.16030    1.69110  591.32150    -999.25   27.09570   27.09570  591.32150 1424.19010  600.79970  600.79970  218.89950  -81.81080  -81.27920  218.89950
 7950.00000    9.63740    9.63740    3.08430  324.22670    -999.25   22.32000   22.32000  324.22670  574.02840  609.36830  609.36830  134.57550  -82.11180  -81.47760  134.57550
 8000.00000    9.38800    9.38800    3.11480  321.04500    -999.25   24.21000   24.21000  321.04500  406.47430  616.73940  616.73940  141.48680  -77.88270  -77.14680  141.48680
 8050.00000   10.29570   10.29570    7.05380  141.76840    -999.25   35.93750   35.93750  141.76840  196.63080  521.65260  521.65260   81.03660  -97.67990  -96.84190   81.03660
 8100.00000    9.68400    9.68400    4.53590  220.66600    -999.25   23.50370   23.50370  220.66600  308.21790  533.40640  533.40640   95.99340  -90.68270  -89.74220   95.99340
 8150.00000    9.94010    9.94010    2.94750  339.27560    -999.25   33.54320   33.54320  339.27560  357.47230  494.89640  494.89640  144.57370  -83.75150  -82.70930  144.57370
 8200.00000    9.69780    9.69780   22.13820   45.17130    -999.25   42.25120   42.25120   45.17130   56.29230  459.03900  459.03900   28.59570  -95.98360  -94.83870   28.59570
 8250.00000    9.45570    9.45570    4.55060  219.74990    -999.25   31.65910   31.65910  219.74990  227.42980  488.46300  488.46300  104.78760  -95.36550  -94.11910  104.78760
