~Version ---------------------------------------------------
VERS.      2.0 : CWLS log ASCII Standard -VERSION 2.0
WRAP.       NO : One line per depth step
CREA. 10/27/17 : LAS Creation Date
~Well ------------------------------------------------------
STRT.FT                              1150.0 : START DEPTH
STOP.FT                             12400.0 : STOP DEPTH
STEP.FT                            50.00000 : STEP LENGTH
NULL.                               -999.25 : NULL VALUE
COMP. HUDSONS BAY OIL & GAS COMPANY LIMITED : COMPANY
WELL.        HB SHELL SIMONETTE 13-23-63-25 : WELL
FLD .                                       : FIELD
LOC .                                       : LOCATION
CTRY.                                CANADA : COUNTRY
SRVC.                          Schlumberger : SERVICE COMPANY
DATE.                           12-Mar-1973 : LOGDATE
PROV.                               Alberta : PROVINCE
UWI .                      100132306325W500 : UNIQUE WELL ID
SLAT.WGS84                            54.47 : SURFACE LATITUDE
SLON.WGS84                        -117.6781 : SURFACE LONGITUDE
~Curve Information -----------------------------------------
DEPT   .FT    : Depth Curve
ASNED  .OHMM  : AMPLIFIED SHORT NORMAL RESISTIVITY FROM IEL LOG [ADJ. TO DIL LOG]
CALSED .IN    : CALIPER FROM SONIC LOG
CALWS  .IN    : CALIPER [CALSED]
CILD1ED.MMHO  : CONDUCTIVITY FROM IEL LOG [ADJ. TO DIL LOG]
CILDED .MMHO  : CONDUCTIVITY FROM DIL LOG
CONDWS .MMHO  : CONDUCTIVITY [1000/DRESWS]
DRESWS .OHMM  : DEEP RESISTIVITY [SPLICED ILDED/ILD1ED AT 1737/3618] [FROM TOP TO 1737 IF ILDED<5;1000/CILDED;ELSE ILDED/ILD1ED<1;1000/CILD1ED;ELSED ILD1ED]
DTED   .US/F  : DELTA TIME FROM SONIC LOG [DEPTH ADJ TO RESISTIVITY LOG]
DTWS   .US/F  : COMPRESSIONAL SONIC [DTED]
GRNED  .GAPI  : GAMMA RAY FROM GRN LOG
GRSED  .GAPI  : GAMMA RAY FROM SONIC LOG
GRWS   .GAPI  : GAMMA RAY [GRSED SPL.  TO GRNED @ 11962']
ILD1ED .OHMM  : DEEP INDUCTION RESISTIVITY  FROM IEL LOG [ADJ. TO DIL LOG]
ILDED  .OHMM  : DEEP  INDUCTION RESISTIVITY FROM DIL LOG
ILMED  .OHMM  : MEDIUM INDUCTION RESISTIVITY FROM DIL LOG
LL8ED  .OHMM  : LATEROLOG 8 FROM DIL LOG
MRESWS .OHMM  : MEDIUM RESISTIVITY [ILMED]
NEUTED .NAPI  : NEUTRON FROM GRN LOG [DEPTH ADJ TO RESISTIVITY LOG]
NEUTWS .NAPI  : NEUTRON [NEUTED]
SPED   .MV    : SPONTANEOUS POTENTIAL [SPRED SPL. TO SPR1ED @ 11990']
SPR1ED .MV    : SPONTANEOUS POTENTIAL FROM IEL LOG [ADJ. TO DIL LOG]
SPRED  .MV    : SPONTANEOUS POTENTIAL FROM DIL LOG
SPWS   .MV    : SPONTANEOUS POTENIAL [BASELINE 0 MV, SPRED]
SRESWS .OHMM  : SHALLOW RESISTIVITY [LL8ED SPL. TO ASNED @ 11946']
~Params ----------------------------------------------------
PD  .                     GL : PERMANENT DATUM
EPD .FT                 2976 : ELEVATION PERMANENT DATUM
LMF .                     KB : LOG MEASURED FROM
DAPD.FT                   21 : FEET ABOVE PERMANENT DATUM
EKB .FT                 2997 : KELLY BUSHING
EGL .FT                 2976 : GROUND LEVEL
DATE.             03/12/1973 : RUN DATE
RUN .                      1 : RUN NUMBER
DD  .FT                12400 : DEPTH DRILLER
DL  .FT                11435 : DEPTH LOGGER
BLI .FT                12434 : BOTTOM LOG INTERVAL
TLI .FT                11300 : TOP LOG INTERVAL
CS  .IN               13.375 : CASING SIZE
BS  .IN                 8.75 : BIT SIZE
BSD .FT                12434 : BIT SIZE AT DEPTH
DFT .              FRESH GEL : DRILLING FLUID TYPE
DFD .                    9.3 : DRILLING FLUID DENSITY
DFV .                    400 : DRILLING FLUID VISCOSITY
DFPH.                   10.5 : DRILLING FLUID PH
DFL .                    8.4 : DRILLING FLUID LOSS
RMB .OHMM                1.1 : RESISTIVITY MUD AT BHT
LUN .               7670 EDM : LOGGING UNIT NUMBER
ENGI.                 CALVIN : RECORDING ENGINEER
WITN.                FOGARTY : WITNESSED BY
CLNT.                A2DTECH : CLIENT CODE
ORIG.            2" 5' PRINT : ORIGIN OF DATA
UWI .       100132306325W500 : UNIQUE WELL ID
DICO. A2D Technologies, Inc. : DIGITIZING COMPANY
~Other -----------------------------------------------------
DIL-IEL-GRN-BCS LOG RUN
SUFFIX OF THE CURVES ARE NOT REMOVED DUE TO DIFFERENT TOOL. BUT THEY HAVE SAME MNEMONICS
~ASCII -----------------------------------------------------
# ...
 6950.00000    -999.25    9.11590    9.11590    -999.25    -999.25  143.98230    6.94530   74.41300   74.41300    -999.25   59.96300   59.96300    -999.25    6.94530    7.49580    8.61820    7.49580    -999.25    -999.25  -93.49250    -999.25 -104.49250  -12.75120    8.61820
 7000.00000    -999.25    8.95420    8.95420    -999.25    -999.25   36.67760   27.26460   66.97210   66.97210    -999.25   40.75970   40.75970    -999.25   27.26460   30.45820   38.09940   30.45820    -999.25    -999.25 -111.87500    -999.25 -122.87500  -28.85070   38.09940
 7050.00000    -999.25    8.90110    8.90110    -999.25    -999.25  103.55830    9.65640   70.92440   70.92440    -999.25   53.95950   53.95950    -999.25    9.65640   12.88010   22.99860   12.88010    -999.25    -999.25 -126.54290    -999.25 -137.54280  -41.24700   22.99860
 7100.00000    -999.25    9.35230    9.35230    -999.25    -999.25  105.89520    9.44330   72.94050   72.94050    -999.25   55.31440   55.31440    -999.25    9.44330   10.05050   14.37440   10.05050    -999.25    -999.25 -112.94870    -999.25 -123.94870  -25.35840   14.37440
 7150.00000    -999.25    9.14880    9.14880    -999.25    -999.25   63.29390   15.79930   69.47380   69.47380    -999.25   85.90900   85.90900    -999.25   15.79930   18.16900   25.59910   18.16900    -999.25    -999.25  -85.54840    -999.25  -96.54840   -1.26430   25.59910
 7200.00000    -999.25    9.32400    9.32400    -999.25    -999.25   86.68370   11.53620   70.30610   70.30610    -999.25   81.92770   81.92770    -999.25   11.53620   11.92630   14.91680   11.92630    -999.25    -999.25  -84.17490    -999.25  -95.17490   -4.96200   14.91680
 7250.00000    -999.25    9.45440    9.45440    -999.25    -999.25   81.88730   12.21190   74.94700   74.94700    -999.25   98.57510   98.57510    -999.25   12.21190   13.32080   19.25820   13.32080    -999.25    -999.25  -78.04960    -999.25  -89.04960   -3.38540   19.25820
 7300.00000    -999.25    8.92070    8.92070    -999.25    -999.25   30.72990   32.54160   63.89750   63.89750    -999.25   70.89040   70.89040    -999.25   32.54160   37.17970   55.24610   37.17970    -999.25    -999.25  -92.52380    -999.25 -103.52380  -17.70640   55.24610
 7350.00000    -999.25    9.23980    9.23980    -999.25    -999.25   51.07250   19.58000   73.11930   73.11930    -999.25   86.54200   86.54200    -999.25   19.58000   16.64790   76.14430   16.64790    -999.25    -999.25  -91.46750    -999.25 -102.46750  -16.49520   76.14430
 7400.00000    -999.25    8.98620    8.98620    -999.25    -999.25   34.98890   28.58050   64.31340   64.31340    -999.25   86.50800   86.50800    -999.25   28.58050   35.67400   97.77410   35.67400    -999.25    -999.25  -85.19740    -999.25  -96.19740  -10.07100   97.77410
 7450.00000    -999.25    8.60420    8.60420    -999.25    -999.25   47.04950   21.25420   70.87360   70.87360    -999.25   33.62360   33.62360    -999.25   21.25420   26.36080   51.86050   26.36080    -999.25    -999.25 -122.78630    -999.25 -133.78630  -47.50590   51.86050
 7500.00000    -999.25    9.12330    9.12330    -999.25    -999.25   54.66690   18.29260   79.07110   79.07110    -999.25  109.00200  109.00200    -999.25   18.29260   20.20030   22.77960   20.20030    -999.25    -999.25  -82.83760    -999.25  -93.83760   -7.40310   22.77960
 7550.00000    -999.25    8.65020    8.65020    -999.25    -999.25   76.37090   13.09400   71.16330   71.16330    -999.25   29.08750   29.08750    -999.25   13.09400   18.12680   44.55530   18.12680    -999.25    -999.25 -127.06270    -999.25 -138.06270  -51.47500   44.55530
 7600.00000    -999.25    9.15490    9.15490    -999.25    -999.25   43.61650   22.92710   64.15230   64.15230    -999.25   68.85560   68.85560    -999.25   22.92710   26.86430   43.60770   26.86430    -999.25    -999.25  -82.28040    -999.25  -93.28040   -6.53780   43.60770
 7650.00000    -999.25    9.70270    9.70270    -999.25    -999.25   85.90620   11.64060   70.58250   70.58250    -999.25   95.95050   95.95050    -999.25   11.64060   13.51980   16.09830   13.51980    -999.25    -999.25  -80.20230    -999.25  -91.20230   -4.51150   16.09830
 7700.00000    -999.25    9.47170    9.47170    -999.25    -999.25   72.95760   13.70660   73.05930   73.05930    -999.25   89.48260   89.48260    -999.25   13.70660   15.71620   18.55700   15.71620    -999.25    -999.25  -87.20620    -999.25  -98.20620  -12.83180   18.55700
 7750.00000    -999.25   10.24180   10.24180    -999.25    -999.25  139.90320    7.14780   77.93820   77.93820    -999.25   95.66440   95.66440    -999.25    7.14780    7.98870   10.73360    7.98870    -999.25    -999.25  -86.07960    -999.25  -97.07960  -13.02170   10.73360
 7800.00000    -999.25   10.38550   10.38550    -999.25    -999.25  214.60150    4.65980   88.15390   88.15390    -999.25   99.93030   99.93030    -999.25    4.65980    4.85350    6.89260    4.85350    -999.25    -999.25  -76.10710    -999.25  -87.10710   -4.35910    6.89260
 7850.00000    -999.25    9.79570    9.79570    -999.25    -999.25  236.88260    4.22150   97.84510   97.84510    -999.25   97.28750   97.28750    -999.25    4.22150    4.76070    6.97900    4.76070    -999.25    -999.25  -75.25550    -999.25  -86.25550   -4.83040    6.97900
 7900.00000    -999.25    9.01000    9.01000    -999.25    -999.25    3.78330  264.32140   78.11070   78.11070    -999.25  120.39640  120.39640    -999.25  264.32140  854.29850 1491.10310  854.29850    -999.25    -999.25  -98.95810    -999.25 -109.95810  -29.84950 1491.10310
 7950.00000    -999.25    8.91710    8.91710    -999.25    -999.25   72.78290   13.73950   63.02100   63.02100    -999.25   81.95360   81.95360    -999.25   13.73950   16.60520   38.08230   16.60520    -999.25    -999.25  -87.63930    -999.25  -98.63930  -19.84710   38.08230
 8000.00000    -999.25    8.94750    8.94750    -999.25    -999.25   23.72560   42.14860   66.03790   66.03790    -999.25   85.33110   85.33110    -999.25   42.14860   49.80480   81.69300   49.80480    -999.25    -999.25  -88.64080    -999.25  -99.64080  -22.16500   81.69300
 8050.00000    -999.25    8.96200    8.96200    -999.25    -999.25   27.83650   35.92410   62.45940   62.45940    -999.25   97.69880   97.69880    -999.25   35.92410   45.79380   86.18560   45.79380    -999.25    -999.25  -92.71000    -999.25 -103.71000  -27.54410   86.18560
 8100.00000    -999.25    8.84080    8.84080    -999.25    -999.25   76.93960   12.99720   61.29200   61.29200    -999.25   80.92950   80.92950    -999.25   12.99720   16.02870   26.68570   16.02870    -999.25    -999.25 -115.29250    -999.25 -126.29250  -51.44960   26.68570
 8150.00000    -999.25    8.75400    8.75400    -999.25    -999.25   25.93880   38.55230   60.15310   60.15310    -999.25   94.33830   94.33830    -999.25   38.55230   47.27370   70.32230   47.27370    -999.25    -999.25  -83.45160    -999.25  -94.45160  -20.92510   70.32230
 8200.00000    -999.25    8.88180    8.88180    -999.25    -999.25   15.98960   62.54060   58.96490   58.96490    -999.25   79.71590   79.71590    -999.25   62.54060   79.48330  141.98740   79.48330    -999.25    -999.25  -80.32440    -999.25  -91.32440  -19.11440  141.98740
 8250.00000    -999.25    8.78330    8.78330    -999.25    -999.25   20.00190   49.99530   58.49990   58.49990    -999.25   89.26970   89.26970    -999.25   49.99530   70.44120  163.51450   70.44120    -999.25    -999.25  -62.93740    -999.25  -73.93740   -3.00430  163.51450
 8300.00000    -999.25    8.86120    8.86120    -999.25    -999.25   21.81050   45.84950   61.01420   61.01420    -999.25   99.31640   99.31640    -999.25   45.84950   56.82660   84.61620   56.82660    -999.25    -999.25  -69.49680    -999.25  -80.49680   -9.56370   84.61620
 8350.00000    -999.25    8.84290    8.84290    -999.25    -999.25   20.19480   49.51780   62.08050   62.08050    -999.25  115.55330  115.55330    -999.25   49.51780   63.45920  143.27650   63.45920    -999.25    -999.25  -67.85350    -999.25  -78.85350   -7.97490  143.27650
