~Version ---------------------------------------------------
VERS.      2.0 : CWLS log ASCII Standard -VERSION 2.0
WRAP.       NO : One line per depth step
CREA. 10/26/17 : LAS Creation Date
~Well ------------------------------------------------------
STRT.FT                          1100.0 : START DEPTH
STOP.FT                         10150.0 : STOP DEPTH
STEP.FT                        50.00000 : STEP LENGTH
NULL.                           -999.25 : NULL VALUE
COMP.              CHEVRON STANDARD LTD : COMPANY
WELL. CHEVRON GULF FOX CREEK 7-14-62-18 : WELL
FLD .                         FOX CREEK : FIELD
LOC .                                   : LOCATION
CTRY.                            CANADA : COUNTRY
SRVC.                      Schlumberger : SERVICE COMPANY
DATE.                       09-Dec-1976 : LOGDATE
PROV.                           Alberta : PROVINCE
UWI .                  100071406218W500 : UNIQUE WELL ID
SLAT.WGS84                     54.36034 : SURFACE LATITUDE
SLON.WGS84                    -116.5836 : SURFACE LONGITUDE
~Curve Information -----------------------------------------
DEPT    .FT    : Depth Curve
CALDED  .IN    : CALIPER FROM DENSITY LOG [ADJ. TO RESISTIVITY LOG]
CALSED  .IN    : CALIPER FROM SONIC LOG [ADJ. TO RESISTIVITY LOG]
CALWS   .IN    : CALIPER [CALSED]
CONDWS  .MMHO  : CONDUCTIVITY [1000/DRESWS]
DCORWS  .G/C3  : DENSITY CORRECTION [DRHOED]
DENWS   .G/C3  : FORMATION BULK DENSITY [CALC. FROM DPOLSWS M=2.71, F=1.00]
DPHILSED.V/V   : DENSITY POROSITY LIMESTONE [M=2.71, F=1.00] FROM DENSITY LOG [ADJ. TO RESISTIVITY LOG]
DPHISSED.V/V   : DENSITY POROSITY SANDSTONE [M=2.65, F=1.00] FROM DENSITY LOG [ADJ. TO RESISTIVITY LOG]
DPOLSWS .V/V   : DENSITY POROSITY LIMESTONE [DPHISSED CONVERTED TO LIMESTONE MATRIX, M=2.71, F=1.00, SPL. TO DPHILSED @ 9636']
DRESWS  .OHMM  : DEEP RESISTIVITY [ILDED]
DRHOED  .G/C3  : DENSITY CORRECTION FROM DENSITY LOG [ADJ. TO RESISTIVITY LOG/DPHISSED/DPHILSED]
DTED    .US/F  : DELTA TIME FROM SONIC LOG [ADJ. TO RESISTIVITY LOG]
DTWS    .US/F  : COMPRESSIONAL SONIC [DTED]
GRDED   .GAPI  : GAMMA RAY FROM DENSITY LOG [ADJ. TO RESISTIVITY LOG]
GRSED   .GAPI  : GAMMA RAY FROM SONIC LOG [ADJ. TO RESISTIVITY LOG]
GRWS    .GAPI  : GAMMA RAY [GRSED]
ILDED   .OHMM  : DEEP INDUCTION FROM RESISTIVITY LOG
ILMED   .OHMM  : MEDIUM INDUCTION FROM RESISTIVITY LOG
LL8ED   .OHMM  : 8 INCH LATEROLOG FROM RESISTIVITY LOG
MRESWS  .OHMM  : MEDIUM RESISTIVITY [ILMED]
NPHILSED.V/V   : NEUTRON POROSITY LIMESTONE FROM DENSITY LOG [ADJ. TO RESISTIVITY LOG]
NPHISSED.V/V   : NEUTRON POROSITY SANDSTONE FROM DENSITY LOG [ADJ. TO RESISTIVITY LOG]
NPOLSWS .V/V   : NEUTRON POROSITY LIMESTONE [NPHISSED MATRIX CONVERSION FOR LIMESTONE FROM SCHLUMBERGER (CNL), SPL. TO NPHILSED @ 9636']
RHOBED  .G/C3  : BULK DENSITY FROM DENSITY LOG [ADJ. TO RESISTIVITY LOG/DPHISSED/DPHILSED]
SPRED   .MV    : SPONTANEOUS POTENTIAL FROM RESISTIVITY LOG
SPWS    .MV    : SPONTANEOUS POTENTIAL [BASELINE 0 MV, SPRED]
SRESWS  .OHMM  : SHALLOW RESISTIVITY [LL8ED]
TENDED  .LBF   : TENSION FROM DENSITY LOG [ADJ. TO RESISTIVITY LOG]
TENSED  .LBF   : TENSION FROM SONIC LOG [ADJ. TO RESISTIVITY LOG]
~Params ----------------------------------------------------
PD  .                     GL : PERMANENT DATUM
EPD .FT               2939.3 : ELEVATION PERMANENT DATUM
LMF .                     KB : LOG MEASURED FROM
DAPD.FT                 14.7 : FEET ABOVE PERMANENT DATUM
EKB .FT                 2954 : KELLY BUSHING
EDF .FT                 2939 : DRILLING FLOOR
DATE.               12/09/76 : RUN DATE
RUN .                      1 : RUN NUMBER
DD  .FT                10196 : DEPTH DRILLER
DL  .FT                10201 : DEPTH LOGGER
BLI .FT                10195 : BOTTOM LOG INTERVAL
TLI .FT                 1133 : TOP LOG INTERVAL
CBD .FT                 1131 : CASING BOTTOM DRILLER
CBL .FT                 1133 : CASING BOTTOM LOGGER
BS  .IN                 8.75 : BIT SIZE
BSD .FT                10196 : BIT SIZE AT DEPTH
DFT .               GEL CHEM : DRILLING FLUID TYPE
DFD .                    8.9 : DRILLING FLUID DENSITY
DFV .                     84 : DRILLING FLUID VISCOSITY
DFPH.                   10.5 : DRILLING FLUID PH
DFL .                      9 : DRILLING FLUID LOSS
MSS .               FLOWLINE : MUD SAMPLE SOURCE
RMS .OHMM               2.18 : RESISTIVITY MUD SAMPLE
MST .DEGF                 95 : MUD SAMPLE TEMPERATURE
RMF .OHMM               2.63 : RESISTIVITY MUD FILTRATE SAMPLE
MFST.DEGF                 66 : MUD FILTRATE SAMPLE TEMPERATURE
RMC .OHMM               2.34 : RESISTIVITY MUD CAKE
MCST.DEGF                 56 : MUD CAKE SAMPLE TEMPERATURE
TCS .HRS                 6.5 : TIME CIRCULATED STOPPED
LUN .                   7691 : LOGGING UNIT NUMBER
LUL .                    WCT : LOGGING UNIT LOCATION
ENGI.                  LEGEE : RECORDING ENGINEER
WITN.             RICHARDSON : WITNESSED BY
CLNT.                A2DTECH : CLIENT CODE
ORIG.            2" 5" PRINT : ORIGIN OF DATA
UWI .       100071406218W500 : UNIQUE WELL ID
DICO. A2D Technologies, Inc. : DIGITIZING COMPANY
~Other -----------------------------------------------------
~ASCII -----------------------------------------------------
# ...
 4850.00000    -999.25   10.17370   10.17370  188.12910    -999.25    -999.25    -999.25    -999.25    -999.25    5.31550    -999.25   87.98830   87.98830    -999.25  133.96280  133.96280    5.31550    5.56940    7.44150    5.56940    -999.25    -999.25    -999.25    -999.25   11.40400   -4.77740    7.44150    -999.25 2001.37700
 4900.00000    -999.25   10.05570   10.05570  158.89570    -999.25    -999.25    -999.25    -999.25    -999.25    6.29350    -999.25   85.63950   85.63950    -999.25  135.85440  135.85440    6.29350    6.72510    8.30610    6.72510    -999.25    -999.25    -999.25    -999.25   10.24350   -6.39390    8.30610    -999.25 2115.02910
 4950.00000    -999.25   11.80510   11.80510  206.51770    -999.25    -999.25    -999.25    -999.25    -999.25    4.84220    -999.25   98.03320   98.03320    -999.25  135.49190  135.49190    4.84220    5.04020    5.90010    5.04020    -999.25    -999.25    -999.25    -999.25   11.86610   -5.23040    5.90010    -999.25 2063.85080
 5000.00000    -999.25   10.12860   10.12860  129.93090    -999.25    -999.25    -999.25    -999.25    -999.25    7.69640    -999.25   80.85180   80.85180    -999.25  123.06830  123.06830    7.69640    8.15910    8.72440    8.15910    -999.25    -999.25    -999.25    -999.25   10.99490   -6.55770    8.72440    -999.25 1847.89930
 5050.00000    -999.25    9.79510    9.79510  188.73850    -999.25    -999.25    -999.25    -999.25    -999.25    5.29860    -999.25   89.33720   89.33720    -999.25  131.32460  131.32460    5.29860    5.55480    6.81890    5.55480    -999.25    -999.25    -999.25    -999.25   12.13650   -5.87210    6.81890    -999.25 1811.07370
 5100.00000    -999.25    9.35820    9.35820  293.43580    -999.25    -999.25    -999.25    -999.25    -999.25    3.40790    -999.25   97.53570   97.53570    -999.25  136.97990  136.97990    3.40790    3.55040    4.79250    3.55040    -999.25    -999.25    -999.25    -999.25   11.91830   -6.54940    4.79250    -999.25 1836.28880
 5150.00000    -999.25   10.71810   10.71810  252.46870    -999.25    -999.25    -999.25    -999.25    -999.25    3.96140    -999.25   95.75730   95.75730    -999.25  164.34540  164.34540    3.96140    4.16320    5.66230    4.16320    -999.25    -999.25    -999.25    -999.25   14.08540   -4.83840    5.66230    -999.25 1858.67090
 5200.00000    -999.25   10.66780   10.66780  346.20050    -999.25    -999.25    -999.25    -999.25    -999.25    2.88850    -999.25   95.59310   95.59310    -999.25  122.55380  122.55380    2.88850    3.06770    3.77310    3.06770    -999.25    -999.25    -999.25    -999.25   14.11970   -5.26310    3.77310    -999.25 2032.99650
 5250.00000    -999.25   10.86530   10.86530  315.15920    -999.25    -999.25    -999.25    -999.25    -999.25    3.17300    -999.25   99.07560   99.07560    -999.25  127.53150  127.53150    3.17300    3.36880    3.96590    3.36880    -999.25    -999.25    -999.25    -999.25   14.86070   -5.07030    3.96590    -999.25 1569.26050
 5300.00000   10.81950   10.08810   10.08810  273.35900    0.07980    2.45890    -999.25    0.11580    0.14680    3.65830    0.07980   92.60130   92.60130  106.55380  130.61890  130.61890    3.65830    3.80360    4.80260    3.80360    -999.25    0.32330    0.27940    2.46790   16.34200   -4.68210    4.80260 1766.52480 1777.56100
 5350.00000   10.95790    9.41060    9.41060  128.14270    0.20690    2.31600    -999.25    0.20250    0.23040    7.80380    0.20690   86.57990   86.57990   97.11310  127.42900  127.42900    7.80380    8.24770    9.59790    8.24770    -999.25    0.27480    0.23080    2.32580   17.55260   -4.57180    9.59790 1573.87340 1603.47930
 5400.00000   10.59000    9.56740    9.56740  114.47460    0.23960    2.38950    -999.25    0.15790    0.18740    8.73560    0.23960   71.20020   71.20020   74.81060   95.20250   95.20250    8.73560    9.32230   12.21790    9.32230    -999.25    0.18150    0.13840    2.40430   16.91850   -6.29760   12.21790 1474.24160 1609.92260
 5450.00000   10.91540   10.08480   10.08480  139.49140    0.05760    2.41240    -999.25    0.14400    0.17400    7.16890    0.05760   67.77400   67.77400   67.39030   85.45280   85.45280    7.16890    7.86700   17.04780    7.86700    -999.25    0.27300    0.22900    2.40690   19.81770   -4.51980   17.04780 1590.57660 1602.71990
 5500.00000   11.11900   10.02850   10.02850   99.72080    0.09050    2.49470    -999.25    0.09410    0.12590   10.02800    0.09050   75.71650   75.71650   84.41780  108.27760  108.27760   10.02800   10.49880   18.17090   10.49880    -999.25    0.27210    0.22810    2.48380   18.21300   -7.74850   18.17090 1477.47110 1468.22160
 5550.00000    -999.25   10.24930   10.24930   75.61620    -999.25    -999.25    -999.25    -999.25    -999.25   13.22830    -999.25   69.68220   69.68220    -999.25   66.15860   66.15860   13.22830   14.35320   20.97780   14.35320    -999.25    -999.25    -999.25    -999.25    6.22350  -21.36200   20.97780    -999.25 1419.73500
 5600.00000    -999.25   11.25600   11.25600  132.76860    -999.25    -999.25    -999.25    -999.25    -999.25    7.53190    -999.25   88.90340   88.90340    -999.25  115.92620  115.92620    7.53190    7.41360    9.91290    7.41360    -999.25    -999.25    -999.25    -999.25   23.82510   -5.39490    9.91290    -999.25 2093.37770
 5650.00000    -999.25    9.60530    9.60530   92.47570    -999.25    -999.25    -999.25    -999.25    -999.25   10.81530    -999.25   68.63990   68.63990    -999.25   68.08250   68.08250   10.81530   12.87310   19.72510   12.87310    -999.25    -999.25    -999.25    -999.25    1.81180  -29.03210   19.72510    -999.25 2036.74460
 5700.00000    -999.25    9.80670    9.80670   96.02460    -999.25    -999.25    -999.25    -999.25    -999.25   10.41400    -999.25   70.80630   70.80630    -999.25   76.30540   76.30540   10.41400   11.08330   13.80440   11.08330    -999.25    -999.25    -999.25    -999.25   26.12510   -6.35350   13.80440    -999.25 1894.92860
 5750.00000    -999.25    9.71970    9.71970   57.12520    -999.25    -999.25    -999.25    -999.25    -999.25   17.50540    -999.25   80.78770   80.78770    -999.25  111.18000  111.18000   17.50540   18.48030   32.82320   18.48030    -999.25    -999.25    -999.25    -999.25   22.54750  -10.05710   32.82320    -999.25 1877.94700
 5800.00000    -999.25    9.40300    9.40300   76.83110    -999.25    -999.25    -999.25    -999.25    -999.25   13.01610    -999.25   69.50970   69.50970    -999.25   93.55660   93.55660   13.01610   14.16780   16.63970   14.16780    -999.25    -999.25    -999.25    -999.25   14.80450  -17.67270   16.63970    -999.25 1877.06420
 5850.00000    -999.25    9.46290    9.46290   45.33730    -999.25    -999.25    -999.25    -999.25    -999.25   22.05690    -999.25   65.91700   65.91700    -999.25   63.51450   63.51450   22.05690   30.33240   48.54690   30.33240    -999.25    -999.25    -999.25    -999.25  -20.88570  -53.23470   48.54690    -999.25 1819.95640
 5900.00000    -999.25    9.61870    9.61870   80.36090    -999.25    -999.25    -999.25    -999.25    -999.25   12.44400    -999.25   69.37780   69.37780    -999.25   66.55720   66.55720   12.44400   15.84940   25.22910   15.84940    -999.25    -999.25    -999.25    -999.25  -24.90250  -57.12400   25.22910    -999.25 1925.41800
 5950.00000    -999.25    9.85780    9.85780  177.82520    -999.25    -999.25    -999.25    -999.25    -999.25    5.62350    -999.25   76.00740   76.00740    -999.25   89.48130   89.48130    5.62350    6.36890    9.64890    6.36890    -999.25    -999.25    -999.25    -999.25  -23.81160  -55.90490    9.64890    -999.25 1665.25800
 6000.00000    -999.25    9.56730    9.56730  102.93040    -999.25    -999.25    -999.25    -999.25    -999.25    9.71530    -999.25   70.73080   70.73080    -999.25  103.69120  103.69120    9.71530   10.98550   13.61950   10.98550    -999.25    -999.25    -999.25    -999.25   -4.10570  -36.07160   13.61950    -999.25 1766.32780
 6050.00000    -999.25    9.86170    9.86170   95.56390    -999.25    -999.25    -999.25    -999.25    -999.25   10.46470    -999.25   73.52160   73.52160    -999.25  113.21630  113.21630   10.46470   11.73940   15.59270   11.73940    -999.25    -999.25    -999.25    -999.25    4.58790  -27.25060   15.59270    -999.25 1681.96950
