~Version ---------------------------------------------------
VERS.      2.0 : CWLS log ASCII Standard -VERSION 2.0
WRAP.       NO : One line per depth step
CREA. 12/17/14 : LAS Creation Date
~Well ------------------------------------------------------
STRT.FT                               900.0 : START DEPTH
STOP.FT                              8350.0 : STOP DEPTH
STEP.FT                            50.00000 : STEP LENGTH
NULL.                               -999.25 : NULL VALUE
COMP.                      HOME OIL COMPANY : COMPANY
WELL. HOME FPC ET AL MORSE RIVER 10-30-65-9 : WELL
FLD .                                       : FIELD
LOC .                                       : LOCATION
CTRY.                                CANADA : COUNTRY
SRVC.                Schlumberger of Canada : SERVICE COMPANY
DATE.                           16-Feb-1961 : LOGDATE
PROV.                               Alberta : PROVINCE
UWI .                      100103006509W500 : UNIQUE WELL ID
SLAT.WGS84                         54.65619 : SURFACE LATITUDE
SLON.WGS84                         -115.345 : SURFACE LONGITUDE
~Curve Information -----------------------------------------
DEPT.FT            : Depth Curve
CILD.MMHO          : INDUCTION DEEP CONDUCTIVITY
DT  .US/F          : DELTA-T (INTERVAL TRANSIT TIME)
GRS .UG_RA-EQ/TON  : GAMMA RAY FROM SONIC LOG
ILD .OHMM          : INDUCTION DEEP RESISTIVITY
MCAL.IN            : MLT (MICROLOG) CALIPER
SN  .OHMM          : SHORT NORMAL RESISTIVITY
SPR .MV            : SPONTANEOUS POTENTIAL FROM RESISTIVITY LOG
~Params ----------------------------------------------------
LMF .                     KB : LOG MEASURED FROM
DMF .                     KB : DRILLING MEASURED FROM
EKB .FT                 3357 : KELLY BUSHING
EGL .FT               3344.1 : GROUND LEVEL
DATE.               02/16/61 : RUN DATE
RUN .                      1 : RUN NUMBER
DD  .FT                 8361 : DEPTH DRILLER
DL  .FT                 8351 : DEPTH LOGGER
BLI .FT                 8350 : BOTTOM LOG INTERVAL
TLI .FT                  857 : TOP LOG INTERVAL
CBD .FT                  857 : CASING BOTTOM DRILLER
CBL .FT                  857 : CASING BOTTOM LOGGER
BS  .IN                 8.75 : BIT SIZE
BSD .FT                 8361 : BIT SIZE AT DEPTH
DFT .                    GEL : DRILLING FLUID TYPE
DFD .                    9.9 : DRILLING FLUID DENSITY
DFV .                    135 : DRILLING FLUID VISCOSITY
DFPH.                     10 : DRILLING FLUID PH
DFL .                      7 : DRILLING FLUID LOSS
RMS .OHMM               2.45 : RESISTIVITY MUD SAMPLE
MST .DEGF                 71 : MUD SAMPLE TEMPERATURE
TCS .HRS                   4 : TIME CIRCULATED STOPPED
LUN .                   1571 : LOGGING UNIT NUMBER
LUL .                     SH : LOGGING UNIT LOCATION
ENGI.               WILLIAMS : RECORDING ENGINEER
WITN.                  BEARD : WITNESSED BY
CLNT.                A2DTECH : CLIENT CODE
ORIG.            2" 5" PRINT : ORIGIN OF DATA
UWI .       100103006509W500 : UNIQUE WELL ID
DICO. A2D Technologies, Inc. : DIGITIZING COMPANY
~Other -----------------------------------------------------
~ASCII -----------------------------------------------------
# ...
 5400.00000  178.68410    -999.25    -999.25    5.44690   11.62510    7.52030  -96.58380
 5450.00000  164.70170    -999.25    -999.25    6.14140   10.55750    8.32270  -95.09530
 5500.00000   80.55290    -999.25    -999.25   13.43950   10.13030   17.30170 -111.21960
 5550.00000  114.46840    -999.25    -999.25    8.86460   10.83290   11.43690  -94.91700
 5600.00000   27.99470    -999.25    -999.25   69.13860   10.95110   81.40450 -100.69890
 5650.00000   22.68290    -999.25    -999.25  101.92970   10.42770   92.53970 -135.24560
 5700.00000   16.52420    -999.25    -999.25  158.63650   10.35590  164.94450 -170.42590
 5750.00000   21.44370    -999.25    -999.25   97.31460   10.29640  150.44820 -199.96270
 5800.00000   39.11330    -999.25    -999.25   33.59850    9.17460  100.57070 -174.08700
 5850.00000  199.55170    -999.25    -999.25    5.03700    7.94380   98.81060 -245.12910
 5900.00000  141.11850    -999.25    -999.25    7.18730    7.91140  113.17910 -243.61810
 5950.00000  132.10250    -999.25    -999.25    7.65850    7.89570  111.24930 -238.27310
 6000.00000  143.74870    -999.25    -999.25    7.20910    7.98880  109.71150 -267.96100
 6050.00000   17.23770    -999.25    -999.25  137.72190    9.23980  161.14150 -196.50740
 6100.00000   19.34960    -999.25    -999.25  120.96620    9.20840  131.71610 -176.46790
 6150.00000   25.86130    -999.25    -999.25   80.18960    8.82760  186.09680 -225.67470
 6200.00000   66.40840    -999.25    -999.25   16.71850    8.05530  168.89360 -262.34500
 6250.00000   78.39620    -999.25    -999.25   14.09040    7.78040  138.84340 -256.82560
 6300.00000   69.09220    -999.25    -999.25   16.18300    8.50360  123.64970 -239.37740
 6350.00000   25.09670    -999.25    -999.25   80.61600    9.26930  119.02260 -125.19990
 6400.00000  262.06530    -999.25    -999.25    3.76420    9.54250    4.37170 -111.20820
 6450.00000   46.03760    -999.25    -999.25   28.51040    8.40470  142.60690 -196.82570
 6500.00000   26.68950    -999.25    -999.25   70.76950    8.45810  186.50860 -199.15570
 6550.00000   56.22370    -999.25    -999.25   20.36940    9.03310   26.39480 -116.20390
 6600.00000   48.48810    -999.25    -999.25   25.68040    8.98910   32.30980  -81.24740
 6650.00000   78.38360    -999.25    -999.25   13.89820   10.22580   18.60120  -74.40680
 6700.00000  224.08230    -999.25    -999.25    4.45860   13.30660    6.10310  -79.50450
 6750.00000  221.66970    -999.25    -999.25    4.68160   12.18140    6.41730  -74.67120
 6800.00000  274.27410    -999.25    -999.25    3.81020   13.74020    4.79010  -85.36820
 6850.00000   42.06730    -999.25    -999.25   29.01820    8.72530   35.84880  -72.80070
 6900.00000   73.95290    -999.25    -999.25   14.58230    8.72540   20.36100  -68.70250
 6950.00000  135.32420    -999.25    -999.25    7.34000   10.20340   10.39520  -72.24070
 7000.00000  170.06300    -999.25    -999.25    5.73130   12.35400    7.11970  -98.67940
 7050.00000  337.98040    -999.25    -999.25    2.99900   14.62320    3.79640  -89.63930
 7100.00000  239.83710    -999.25    -999.25    4.20000   14.39230    5.38030  -88.68080
 7150.00000  229.80070    -999.25    -999.25    4.41470   14.53470    5.60410  -99.84620
 7200.00000  284.45830    -999.25    -999.25    3.46600   14.64650    4.43650  -98.44380
 7250.00000  369.55270    -999.25    -999.25    3.00670   14.63210    3.81330  -85.45610
 7300.00000  151.65980    -999.25    -999.25    6.70850   10.99970   10.97000  -75.06780
 7350.00000  166.75090    -999.25    -999.25    6.03630   10.79890    9.04350  -88.62250
 7400.00000  139.12310    -999.25    -999.25    6.98880    9.66590   11.94090  -82.21700
 7450.00000  269.51400    -999.25    -999.25    3.64390   11.84550    5.80170  -95.25350
 7500.00000  225.61460    -999.25    -999.25    4.13890   13.63050    6.47940  -93.10440
 7550.00000  186.46600    -999.25    -999.25    5.18650   11.33300    8.28010  -75.07960
 7600.00000   31.82260    -999.25    -999.25   40.96480    9.26010   45.08220  -44.59230
 7650.00000   63.17670    -999.25    -999.25   17.27270    9.25010   23.00410  -64.87730
 7700.00000   86.58580    -999.25    -999.25   11.88320    8.98350   18.44470  -77.23660
 7750.00000  220.04440    -999.25    -999.25    4.29350   12.23100    7.68650  -79.18130
 7800.00000  264.06480   83.30020    6.28310    3.59740   13.32360    5.50520  -76.33020
 7850.00000   76.94060   63.58090    3.86630   13.62710    9.08190   22.83940  -69.02340
 7900.00000  135.46720   74.70840    4.28260    7.19080   10.04290   11.94780  -75.46850
 7950.00000   42.88140   55.88110    2.61460   26.87470    9.04960   36.04080  -79.64210
 8000.00000   26.99510   54.93870    2.38400   48.07430    8.88920   73.94300  -81.59060
 8050.00000  100.26610   62.95800    3.78830   10.08540    8.71270   18.51410  -76.95030
 8100.00000   52.69020   62.85720    3.59580   19.58330    8.81470   32.67400  -74.24990
 8150.00000   11.26070   52.99720    2.36190  203.62930    8.63300  187.41180  -82.06510
 8200.00000   34.06410   57.70030    3.71820   35.24950    8.67970   68.94540  -70.97770
 8250.00000    8.69640   49.07240    1.09600  337.70830    8.81550  245.24440 -192.66600
 8300.00000    5.45730   48.33420    1.18130  500.12520    8.80180  266.14560 -181.65530
 8350.00000   13.73710    -999.25    -999.25  172.40520    -999.25   96.44800  -86.58690
