~Version ---------------------------------------------------
VERS.      2.0 : CWLS log ASCII Standard -VERSION 2.0
WRAP.       NO : One line per depth step
CREA. 11/16/17 : LAS Creation Date
~Well ------------------------------------------------------
STRT.FT                        300.0 : START DEPTH
STOP.FT                      11100.0 : STOP DEPTH
STEP.FT                     50.00000 : STEP LENGTH
NULL.                        -999.25 : NULL VALUE
COMP.         PACIFIC PETROLEUMS LTD : COMPANY
WELL. PACIFIC ET AL TONY 10-18-63-21 : WELL
FLD .                     TONY TOWER : FIELD
LOC .                                : LOCATION
CTRY.                         CANADA : COUNTRY
SRVC.                   Schlumberger : SERVICE COMPANY
DATE.                    24-Sep-1975 : LOGDATE
PROV.                        Alberta : PROVINCE
UWI .               100101806321W500 : UNIQUE WELL ID
SLAT.WGS84                  54.45338 : SURFACE LATITUDE
SLON.WGS84                 -117.1585 : SURFACE LONGITUDE
~Curve Information -----------------------------------------
DEPT    .FT    : Depth Curve
CALDED  .IN    : CALIPER FROM DENSITY LOG
CALWS   .IN    : CALIPER [CALDED]
CONDWS  .MMHO  : CONDUCTIVITY [1000/DRESWS]
DCORED  .G/C3  : DENSITY CORRECTION FROM DENSITY LOG [ADJ. TO DPHILSED/DPHILSED]
DCORWS  .G/C3  : DENSITY CORRECTION [DCORED]
DENWS   .G/C3  : FORMATION BULK DENSITY [CALC. FROM DPOLSWS,M=2710,F=1000]
DPHILSED.V/V   : DENSITY POROSITY LIMESTONE [M=2.71,F=1.0] FROM DENSITY LOG
DPHISSED.V/V   : DENSITY POROSITY SANDSTONE [M=2.65,F=1.0] FROM DENSITY LOG
DPOLSWS .V/V   : DENSITY POROSITY LIMESTONE [DPHISSED CONVERTED TO LIMESTONE (M=2.71,F=1.00), SPL. TO DPHILSED @ 6860']
DRESWS  .OHMM  : DEEP RESISTIVITY [ILDED]
GRDED   .GAPI  : GAMMA RAY FROM DENSITY LOG
GRWS    .GAPI  : GAMMA RAY [GRDED]
ILDED   .OHMM  : DEEP INDUCTION FROM RESISTIVITY LOG
ILMED   .OHMM  : MEDIUM INDUCTION FROM RESISTIVITY LOG
LL8ED   .OHMM  : LATEROLOG FROM RESISTIVITY LOG
MRESWS  .OHMM  : MEDIUM RESISTIVITY [ILMED]
NPHILSED.V/V   : NEUTRON POROSITY LIMESTONE FROM DENSITY LOG
NPHISSED.V/V   : NEUTRON POROSITY SANDSTONE FROM DENSITY LOG
NPOLSWS .V/V   : NEUTRON POROSITY LIMESTONE [NPHISSED MATRIX CONVERSION FOR LIMESTONE SPL. TO NPHILSED @6860']
RHOBED  .G/C3  : BULK DENSITY FROM DENSITY LOG [ADJ. TO DPHILSED/DPHILSED]
SPRED   .MV    : SPONTANEOUS POTENTIAL FROM RESISTIVITY LOG
SPWS    .MV    : SPONTANEOUS POTENTIAL [BASELINE 0 MV,SPRED]
SRESWS  .OHMM  : SHALLOW RESISTIVITY [LL8ED]
~Params ----------------------------------------------------
PD  .                     GL : PERMANENT DATUM
EPD .FT                 2714 : ELEVATION PERMANENT DATUM
LMF .                     KB : LOG MEASURED FROM
DAPD.FT                 13.7 : FEET ABOVE PERMANENT DATUM
EKB .FT               2727.7 : KELLY BUSHING
EGL .FT                 2714 : GROUND LEVEL
DATE.               09/24/75 : RUN DATE
RUN .                      1 : RUN NUMBER
DD  .FT                11125 : DEPTH DRILLER
DL  .FT                11121 : DEPTH LOGGER
BLI .FT                11115 : BOTTOM LOG INTERVAL
TLI .FT                 1125 : TOP LOG INTERVAL
CBD .FT                 1125 : CASING BOTTOM DRILLER
CBL .FT                 1125 : CASING BOTTOM LOGGER
BS  .IN                 8.75 : BIT SIZE
BSD .FT                11125 : BIT SIZE AT DEPTH
DFT .               GEL CHEM : DRILLING FLUID TYPE
DFD .                    9.3 : DRILLING FLUID DENSITY
DFV .                    147 : DRILLING FLUID VISCOSITY
DFPH.                    9.5 : DRILLING FLUID PH
DFL .                    9.2 : DRILLING FLUID LOSS
MSS .               FLOWLINE : MUD SAMPLE SOURCE
RMS .OHMM               1.62 : RESISTIVITY MUD SAMPLE
MST .DEGF                 72 : MUD SAMPLE TEMPERATURE
RMF .OHMM               1.26 : RESISTIVITY MUD FILTRATE SAMPLE
MFST.DEGF                 68 : MUD FILTRATE SAMPLE TEMPERATURE
RMB .OHMM               0.41 : RESISTIVITY MUD AT BHT
TCS .HRS                 3.5 : TIME CIRCULATED STOPPED
LUN .                   7691 : LOGGING UNIT NUMBER
LUL .                    EDM : LOGGING UNIT LOCATION
ENGI.              CROCKFORD : RECORDING ENGINEER
WITN.                   ROSS : WITNESSED BY
CLNT.                A2DTECH : CLIENT CODE
ORIG.            2" 5" PRINT : ORIGIN OF DATA
UWI .       100101806321W500 : UNIQUE WELL ID
DICO. A2D Technologies, Inc. : DIGITIZING COMPANY
~Other -----------------------------------------------------
~ASCII -----------------------------------------------------
# ...
 6500.00000    9.88610    9.88610   42.06000    0.00990    0.00990    2.60500    -999.25    0.02730    0.06140   23.77870   96.31470   96.31470   23.77870   22.23910   39.25190   22.23910    -999.25    0.21410    0.17050    2.60320  -43.37300  -16.98840   39.25190
 6550.00000   10.06740   10.06740   42.77010    0.01470    0.01470    2.66940    -999.25   -0.01180    0.02370   23.39100  104.53250  104.53250   23.39100   21.20250   32.83050   21.20250    -999.25    0.15640    0.11380    2.67240  -32.89450   -6.93310   32.83050
 6600.00000   10.40360   10.40360   43.82450    0.07020    0.07020    2.40480    -999.25    0.14860    0.17850   22.81830   90.99880   90.99880   22.81830   21.59200   45.30940   21.59200    -999.25    0.24900    0.20510    2.37690  -33.84240   -9.68640   45.30940
 6650.00000    9.86200    9.86200   32.87440    0.00280    0.00280    2.65590    -999.25   -0.00360    0.03160   30.41920   70.93840   70.93840   30.41920   38.33170   51.21610   38.33170    -999.25    0.13910    0.09670    2.65380  -38.62370  -17.32890   51.21610
 6700.00000    9.15800    9.15800   20.47930    0.15870    0.15870    2.48100    -999.25    0.10240    0.13390   48.82990   32.35640   32.35640   48.82990   44.38870   56.67050   44.38870    -999.25    0.15440    0.11170    2.48130  -70.47760  -52.06290   56.67050
 6750.00000    9.85580    9.85580   44.55270    0.04920    0.04920    2.58690    -999.25    0.03830    0.07200   22.44540   76.33210   76.33210   22.44540   20.31760   29.00120   20.31760    -999.25    0.21940    0.17570    2.58790  -37.91180  -22.35830   29.00120
 6800.00000    9.92460    9.92460  111.11480    0.01990    0.01990    2.58890    -999.25    0.03700    0.07080    9.01030   57.60240   57.60240    9.01030    9.16010   25.25590    9.16010    -999.25    0.16690    0.12400    2.60010  -31.25840  -18.56610   25.25590
 6850.00000    9.82730    9.82730    7.09750    0.00240    0.00240    2.45650    -999.25    0.11730    0.14830  140.89470  163.59240  163.59240  140.89470  129.93730  410.72120  129.93730    -999.25    0.24050    0.19670    2.46880  -25.30460  -14.37930  410.72120
 6900.00000    9.73330    9.73330   10.63920    0.02660    0.02660    2.48730    0.13030    -999.25    0.13030   96.04680  235.81550  235.81550   96.04680   77.24800  388.00130   77.24800    0.13640    -999.25    0.13640    2.49620  -25.03010  -14.95210  388.00130
 6950.00000    9.81780    9.81780   80.23040    0.03880    0.03880    2.68730    0.01330    -999.25    0.01330   12.46410   66.29910   66.29910   12.46410   11.33650   18.52450   11.33650    0.05540    -999.25    0.05540    2.67910  -50.84980  -41.62460   18.52450
 7000.00000    9.90780    9.90780   66.45940    0.00590    0.00590    2.70930    0.00040    -999.25    0.00040   15.04720  100.53610  100.53610   15.04720   14.35730   22.42850   14.35730    0.06560    -999.25    0.06560    2.70190  -14.95340   -6.57550   22.42850
 7050.00000    9.73780    9.73780   33.93050    0.02850    0.02850    2.69970    0.00610    -999.25    0.00610   29.47200   89.24290   89.24290   29.47200   27.05750   34.32660   27.05750    0.04400    -999.25    0.04400    2.70430  -26.87850  -19.34790   34.32660
 7100.00000    9.70700    9.70700   24.06770    0.02860    0.02860    2.69410    0.00930    -999.25    0.00930   41.54940   70.14300   70.14300   41.54940   38.22720   46.96070   38.22720    0.04330    -999.25    0.04330    2.68520  -28.16920  -21.49140   46.96070
 7150.00000    9.77580    9.77580   84.44630    0.03630    0.03630    2.65550    0.03190    -999.25    0.03190   11.85030   85.70820   85.70820   11.85030   10.75290   21.68080   10.75290    0.05100    -999.25    0.05100    2.64580  -40.59190  -34.76140   21.68080
 7200.00000    9.76000    9.76000   27.89580    0.05660    0.05660    2.73700   -0.01580    -999.25   -0.01580   35.84770   74.32100   74.32100   35.84770   32.72000   42.64780   32.72000    0.04120    -999.25    0.04120    2.72320  -20.41080  -16.23000   42.64780
 7250.00000    9.28790    9.28790   13.95880    0.14590    0.14590    2.75730   -0.02770    -999.25   -0.02770   72.50030   22.35900   22.35900   72.50030   74.28290  346.91740   74.28290    0.07160    -999.25    0.07160    2.74000 -110.92690 -108.61130  346.91740
 7300.00000    9.59570    9.59570   13.74130    0.12260    0.12260    2.72640   -0.00960    -999.25   -0.00960   72.77370   24.64030   24.64030   72.77370   92.11660  369.60640   92.11660    0.03720    -999.25    0.03720    2.72120  -74.24090  -73.79040  369.60640
 7350.00000    9.65500    9.65500   21.70380    0.10250    0.10250    2.78230   -0.04230    -999.25   -0.04230   46.07490   28.61990   28.61990   46.07490   68.11390  217.64900   68.11390    0.04310    -999.25    0.04310    2.79960 -101.12340 -102.55030  217.64900
 7400.00000   13.35520   13.35520   23.30400    0.25150    0.25150    2.36440    0.20210    -999.25    0.20210   42.91240   31.64080   31.64080   42.91240   49.39630  138.69420   49.39630    0.02540    -999.25    0.02540    2.36670  -82.39380  -85.68590  138.69420
 7450.00000    9.36430    9.36430   33.78530    0.21050    0.21050    2.69670    0.00780    -999.25    0.00780   29.59870   17.92260   17.92260   29.59870   48.67790  117.67210   48.67790    0.06620    -999.25    0.06620    2.70800  -91.70850  -96.87800  117.67210
 7500.00000   10.02550   10.02550    9.44070    0.02120    0.02120    2.68900    0.01230    -999.25    0.01230  105.94760   25.52030   25.52030  105.94760   89.22980  243.03870   89.22980    0.00390    -999.25    0.00390    2.68550  -42.70470  -49.73940  243.03870
 7550.00000   11.26040   11.26040   10.76000    0.19840    0.19840    2.60320    0.06250    -999.25    0.06250   92.96900   33.85650   33.85650   92.96900   70.23290  261.09520   70.23290    0.03220    -999.25    0.03220    2.56570  -11.17850  -19.89620  261.09520
 7600.00000   10.82710   10.82710   40.19370    0.10850    0.10850    2.42050    0.16930    -999.25    0.16930   24.87950   22.07920   22.07920   24.87950   23.04120   65.27680   23.04120    0.08620    -999.25    0.08620    2.43880  -70.46560  -78.91730   65.27680
 7650.00000   10.34370   10.34370  269.77160    0.25320    0.25320    2.46210    0.14490    -999.25    0.14490    3.70760   32.76210   32.76210    3.70760    3.57150   13.65440    3.57150    0.14890    -999.25    0.14890    2.45770  -78.76630  -86.95370   13.65440
 7700.00000   10.07950   10.07950   12.77880    0.08230    0.08230    2.71270   -0.00160    -999.25   -0.00160   78.25450   43.85130   43.85130   78.25450   73.71200  202.60590   73.71200    0.02070    -999.25    0.02070    2.67740  -29.71350  -37.63500  202.60590
 7750.00000   11.74930   11.74930   19.60950    0.23060    0.23060    2.54010    0.09940    -999.25    0.09940   51.02300   36.70870   36.70870   51.02300   53.10200   85.87930   53.10200    0.03400    -999.25    0.03400    2.49320  -41.82490  -49.48210   85.87930
 7800.00000   10.05970   10.05970   20.84510    0.13020    0.13020    2.76040   -0.02950    -999.25   -0.02950   48.30450   12.78830   12.78830   48.30450   52.61910  314.46190   52.61910    0.00110    -999.25    0.00110    2.75210 -100.86200 -108.25490  314.46190
 7850.00000   10.46080   10.46080   11.58390   -0.00140   -0.00140    2.69440    0.00910    -999.25    0.00910   86.32700   12.34000   12.34000   86.32700   78.79260  240.34310   78.79260    0.00110    -999.25    0.00110    2.69410 -101.04070 -108.16760  240.34310
 7900.00000   10.59930   10.59930   69.92430    0.11660    0.11660    2.78600   -0.04450    -999.25   -0.04450   14.30220   58.92720   58.92720   14.30220   13.09080   48.07570   13.09080    0.03360    -999.25    0.03360    2.79920  -40.86750  -47.73020   48.07570
 7950.00000    9.80820    9.80820  185.32590    0.02550    0.02550    2.72900   -0.01110    -999.25   -0.01110    5.39590   57.87890   57.87890    5.39590    4.84780    6.89990    4.84780    0.10310    -999.25    0.10310    2.71060  -33.71880  -42.91560    6.89990
 8000.00000    9.91190    9.91190   73.49570    0.01290    0.01290    2.71640   -0.00370    -999.25   -0.00370   13.60780   61.34870   61.34870   13.60780   13.95710   22.52420   13.95710    0.04210    -999.25    0.04210    2.68810   -5.66570  -17.63830   22.52420
