~Version ---------------------------------------------------
VERS.      2.0 : CWLS log ASCII Standard -VERSION 2.0
WRAP.       NO : One line per depth step
CREA. 08/29/14 : LAS Creation Date
~Well ------------------------------------------------------
STRT.FT                             850.0 : START DEPTH
STOP.FT                            9900.0 : STOP DEPTH
STEP.FT                          50.00000 : STEP LENGTH
NULL.                             -999.25 : NULL VALUE
COMP.         BLUEMOUNT RESOURCES LIMITED : COMPANY
WELL. BLUEMOUNT ET AL GOODWIN 11-31-58-13 : WELL
FLD .                                     : FIELD
LOC .                                     : LOCATION
CTRY.                              CANADA : COUNTRY
SRVC.              Schlumberger of Canada : SERVICE COMPANY
DATE.                         07-Apr-1973 : LOGDATE
PROV.                             Alberta : PROVINCE
UWI .                    100113105813W500 : UNIQUE WELL ID
SLAT.WGS84                       54.06009 : SURFACE LATITUDE
SLON.WGS84                      -115.9256 : SURFACE LONGITUDE
~Curve Information -----------------------------------------
DEPT   .FT                : Depth Curve
CALD   .IN   45 280 60 00 : CALIPER FROM DENSITY LOG
CALS   .IN   60 280 50 00 : CALIPER FROM SONIC LOG
CILD   .MMHO 07 110 46 00 : INDUCTION DEEP CONDUCTIVITY
DPHI_LS.DEC  45 890 10 00 : DENSITY POROSITY LIMESTONE
DRHO   .G/C3 45 356 01 00 : BULK DENSITY CORRECTION
DT     .US/F 60 500 00 00 : DELTA-T (INTERVAL TRANSIT TIME)
GRD    .GAPI 45 310 01 00 : GAMMA RAY FROM DENSITY LOG
GRS    .GAPI 60 310 01 00 : GAMMA RAY FROM SONIC LOG
ILD    .OHMM 07 120 46 00 : INDUCTION DEEP RESISTIVITY
ILM    .OHMM 07 120 44 00 : INDUCTION MEDIUM RESISTIVITY
LL8    .OHMM 07 220 08 00 : LATEROLOG 8
NPHI_LS.DEC  42 890 01 00 : NEUTRON POROSITY LIMESTONE
RHOB   .G/C3 45 350 01 00 : BULK DENSITY
SPR    .MV   07 010 01 00 : SPONTANEOUS POTENTIAL FROM RESISTIVITY LOG
~Params ----------------------------------------------------
PD  .                     GL : PERMANENT DATUM
EPD .FT                 3069 : ELEVATION PERMANENT DATUM
LMF .                     KB : LOG MEASURED FROM
DAPD.FT                   17 : FEET ABOVE PERMANENT DATUM
EKB .FT                 3087 : KELLY BUSHING
EGL .FT                 3069 : GROUND LEVEL
DATE.               04/07/73 : RUN DATE
RUN .                      1 : RUN NUMBER
DD  .FT                 9938 : DEPTH DRILLER
DL  .FT                 9940 : DEPTH LOGGER
BLI .FT                 9935 : BOTTOM LOG INTERVAL
TLI .FT                 1025 : TOP LOG INTERVAL
CBD .FT                 1025 : CASING BOTTOM DRILLER
CBL .FT                 1030 : CASING BOTTOM LOGGER
BS  .IN                 8.75 : BIT SIZE
BSD .FT                 9938 : BIT SIZE AT DEPTH
DFT .               GEL CHEM : DRILLING FLUID TYPE
DFD .                    9.5 : DRILLING FLUID DENSITY
DFV .                     92 : DRILLING FLUID VISCOSITY
DFPH.                      9 : DRILLING FLUID PH
DFL .                     10 : DRILLING FLUID LOSS
MSS .             CALCULATED : MUD SAMPLE SOURCE
TCS .HRS                   5 : TIME CIRCULATED STOPPED
LUN .                   7667 : LOGGING UNIT NUMBER
LUL .                    EDM : LOGGING UNIT LOCATION
ENGI.                  LEWIS : RECORDING ENGINEER
WITN.              TUDDENHAM : WITNESSED BY
CLNT.                A2DTECH : CLIENT CODE
ORIG.            2" 5" PRINT : ORIGIN OF DATA
UWI .       100113105813W500 : UNIQUE WELL ID
DICO. A2D Technologies, Inc. : DIGITIZING COMPANY
~Other -----------------------------------------------------
~ASCII -----------------------------------------------------
# ...
 5750.00000   10.82230   10.81200    -999.25    0.04350    0.08590   81.40570   75.63670   78.23080    8.72630    9.40560    9.79320    0.21210    2.63960  -97.37000
 5800.00000   10.85290   10.71860    -999.25    0.01800    0.09650   84.89730   50.28070   56.15630   11.55860   12.33470   13.66360    0.21440    2.69200  -89.42180
 5850.00000   11.62970   12.36870    -999.25    0.21050    0.16890   95.44170   82.08840   84.11780   10.95670   13.40560   18.01720    0.40920    2.44350  -90.52160
 5900.00000   11.47970   10.87230    -999.25    0.15650    0.04330   84.57500   74.38420   80.25800   10.18540   11.18830   13.76210    0.44980    2.38580  -92.47030
 5950.00000   13.13330   10.90110    -999.25    0.34240    0.14360   81.00460   72.89630   83.89800   12.07280    8.76680   17.27940    0.41180    2.04330  -81.37090
 6000.00000   10.80930   10.46270    -999.25    0.01890    0.05170   87.99800   85.13130   88.73330   10.41410   11.49180   13.45500    0.22030    2.69740  -95.34270
 6050.00000   11.27400   10.90260    -999.25    0.00350    0.08390   85.17430   74.41740   68.23480    8.41490    8.89830    9.77310    0.19230    2.70650  -85.96300
 6100.00000   10.62070    9.78400    -999.25    0.03630    0.15580   75.76270   71.46150   67.64430   14.83030   11.29360    9.86770    0.25180    2.66440  -81.06860
 6150.00000   10.98020   10.35670    -999.25    0.01970    0.10700   90.13160   84.47670   93.62810    8.35160    9.26280   13.14570    0.18880    2.72300  -67.18370
 6200.00000   10.53880    9.90780    -999.25   -0.03610    0.21110   80.42550   74.38060   66.74630   23.55970   32.03890   36.88200    0.17810    2.76120  -45.82210
 6250.00000    9.52430    9.05280    -999.25    0.09070    0.13400   87.84210   42.77790   43.30020    7.11000   11.49840   20.15880    0.16750    2.59270 -107.63450
 6300.00000   10.29210    9.87280    -999.25    0.17740    0.21940   91.13990   72.72870   89.30210    2.33390    2.06950    3.03060    0.23100    2.31150  -73.76480
 6350.00000   12.79480   10.51730    -999.25    0.12720    0.30580   95.67990   91.66770   98.24190    4.75550    4.93400    6.66090    0.31180    2.45950  -73.55610
 6400.00000    9.26910    8.88310    -999.25    0.01890    0.10480   75.80030   27.99410   32.81350    4.86050    7.33990   16.27910    0.06960    2.67400 -143.50720
 6450.00000    9.20600    9.06040    -999.25   -0.01340    0.10500   70.30180   27.10410   31.21530  637.43090 1940.78300 1556.95740    0.05040    2.71380  -81.21830
 6500.00000    9.36960    9.12240    -999.25   -0.02550    0.09610   69.72030   71.67950   71.98820  380.69230 1707.39550  366.39690    0.05590    2.74860  -53.94210
 6550.00000    9.54600    9.24950    -999.25    0.04550    0.06300   56.12610  208.83790  211.82120  705.48430 1981.05360 1529.66820    0.19590    2.62890 -102.40910
 6600.00000    9.78270    9.41630    -999.25   -0.09110    0.10320   51.43450   78.19320   75.85710   15.48130   18.12560   20.33460    0.09640    2.85030 -116.89910
 6650.00000    9.39880    9.14860    -999.25   -0.06220    0.14780   48.98800   12.71370   13.92850    9.30440   19.68660   89.46620    0.08670    2.78320 -156.24700
 6700.00000    9.21810    8.96270    -999.25    0.01250    0.18050   51.60010   26.35260   31.42200    8.84050   17.44930   92.24520    0.14020    2.67720 -124.12350
 6750.00000   10.34610    9.94430    -999.25   -0.03770    0.04370   52.90720   60.25380   67.38750    5.82770    7.21610   10.10580    0.13540    2.76430  -81.60530
 6800.00000    9.89110    9.68430    -999.25   -0.05640    0.07940   52.74940   71.18090   70.48590   15.08680   21.54730   26.97840    0.08080    2.80980  -93.84900
 6850.00000   10.25480   10.09030    -999.25   -0.08080    0.08050   54.57520   59.11500   59.17480   12.10290   15.47340   19.67810    -999.25    2.82360  -63.63860
 6900.00000   10.06060    9.74810    -999.25   -0.04120    0.06320   51.30550   21.55580   22.45010  117.19890  911.55290  137.85910    0.03320    2.76720  -85.04260
 6950.00000    9.64340    9.54590    -999.25   -0.05600    0.10600   50.53850   21.24520   23.22540  125.60950 1521.47080  250.49360    0.01470    2.83910  -75.62760
 7000.00000    9.48340    9.29760    -999.25   -0.09360    0.08540   51.29410   30.45510   31.99580   77.29690  387.89580  107.06680    0.02890    2.85240  -80.27000
 7050.00000    9.66150    9.29700    -999.25   -0.08370    0.07610   51.25110   22.83780   24.41000   70.45020  213.44180   87.43970    0.02520    2.83590  -78.92700
 7100.00000    9.65750    9.36160    -999.25   -0.05810    0.08620   51.60000   20.48250   22.77760   48.09420   90.94240   72.77000    0.02410    2.81500  -85.07950
 7150.00000    9.62250    9.34920    -999.25   -0.06560    0.06780   51.63850   25.07740   33.72190   55.02170  108.60710   80.60180    0.02900    2.77910  -59.21360
 7200.00000    9.96600   10.06100    -999.25   -0.04460    0.11370   52.21690   45.17740   45.24230  111.52920  599.74910  128.25520    0.04010    2.84240  -45.41670
 7250.00000   10.42970   10.28950    -999.25    0.01070    0.04460   59.94810  154.53420  174.94220   47.33450   55.01580   50.09880    0.18670    2.67780  -45.76470
 7300.00000   10.19330   10.02080    -999.25   -0.06250    0.10930   50.64740   12.57290   14.71990 1306.21580 1719.36660 1833.17370    0.01210    2.79840  -70.99060
 7350.00000   11.41600   10.21700    -999.25   -0.05650    0.08020   49.39990   13.72010   16.12950  686.82810 1802.58450  333.49450    0.00330    2.78960  -83.42060
 7400.00000   10.06370    9.43110    -999.25   -0.06980    0.07600   49.78550   16.47930   18.24940  563.78950 1710.96010  382.70320    0.00490    2.83390  -54.17220
 7450.00000   11.89150    9.70360    -999.25   -0.05520    0.24550   49.95170   11.51460   14.67610 1286.39420 2017.63440  710.59490    0.00450    2.79210  -79.95600
 7500.00000    9.92960    9.41390    -999.25   -0.04850    0.05030   49.51060   11.08990   13.99220  301.69670 1580.01620  204.92130    0.00590    2.78620 -109.03930
 7550.00000   10.38210    9.40150    -999.25   -0.08200    0.19540   49.85890   10.16460   12.61990 1789.32070 1909.45650 1648.48000    0.00170    2.79050  -67.48330
 7600.00000    9.68340    9.24900    -999.25   -0.03710    0.05740   49.79950    6.82470    9.39630   51.80860  134.71930  236.10640    0.00230    2.77180 -131.07160
 7650.00000   10.12790    9.41380    -999.25   -0.08660    0.09570   50.06480    9.09500   14.13550   34.09430   82.48130  132.25280    0.04300    2.84840 -131.61360
 7700.00000   10.30530    9.37610    -999.25   -0.04100    0.08730   49.71840    8.11980   14.13350   88.29010 1063.21220  195.76200    0.00330    2.79620 -119.48690
 7750.00000   10.99940    9.57340    -999.25   -0.03000    0.19690   50.29320   11.66390   15.83340 1236.12390 1844.88700  754.60450    0.00090    2.81300 -102.34550
 7800.00000   10.01970    9.21600    -999.25   -0.05940    0.05850   49.86630    9.22780   11.11040   58.96150  194.29020  167.34920    0.00350    2.78180 -124.88500
 7850.00000   10.34860    9.42820    -999.25   -0.09430    0.12280   49.18300   11.56380   15.33870 1677.59480 2136.04250 1571.24710    0.00270    2.80270 -131.06860
 7900.00000   10.05300    9.46340    -999.25   -0.03510    0.04700   50.81690    8.50370   13.31830   31.18040   63.21190  152.60870    0.01540    2.75790 -176.11810
 7950.00000    9.38130    9.08550    -999.25   -0.06250    0.13880   52.12150   20.23530   23.52920    5.57060    8.57860   20.30050    0.14250    2.73220 -133.79660
 8000.00000   10.40100    9.61530    -999.25    0.00670    0.04610   54.97180   84.52280   86.05820    8.58500    9.41430   14.66710    0.10210    2.69720  -58.39570
 8050.00000    9.37200    9.09260    -999.25   -0.04020    0.15660   50.55120   18.78960   24.12080   11.02350   20.87130   37.20620    0.12020    2.74040 -178.47900
 8100.00000    9.84920    9.14070    -999.25   -0.10040    0.19030   49.61520   19.29190   19.93540  177.46980 1765.92240  289.14700    0.04480    2.86780 -122.32510
 8150.00000    9.30810    9.00350    -999.25   -0.09840    0.08270   50.23840   24.68830   28.12230   65.11530  125.99210   70.00600    0.08180    2.86840 -141.35270
