~Version ---------------------------------------------------
VERS.      2.0 : CWLS log ASCII Standard -VERSION 2.0
WRAP.       NO : One line per depth step
CREA. 01/05/18 : LAS Creation Date
~Well ------------------------------------------------------
STRT.FT                              1700.0 : START DEPTH
STOP.FT                             14300.0 : STOP DEPTH
STEP.FT                            50.00000 : STEP LENGTH
NULL.                               -999.25 : NULL VALUE
COMP. CANADA CITIES SERVICE PETROLEUM CORP. : COMPANY
WELL.                 CS BRAZ R 11-22-43-13 : WELL
FLD .                                    WC : FIELD
LOC .                                       : LOCATION
CTRY.                                CANADA : COUNTRY
SRVC.                Schlumberger of Canada : SERVICE COMPANY
DATE.                           10-Oct-1970 : LOGDATE
PROV.                               Alberta : PROVINCE
UWI .                      100112204313W500 : UNIQUE WELL ID
SLAT.WGS84                         52.72078 : SURFACE LATITUDE
SLON.WGS84                        -115.8058 : SURFACE LONGITUDE
~Curve Information -----------------------------------------
DEPT    .FT       : Depth Curve
CALDED  .IN       : CALIPER FROM DENSITY LOG [ADJ. TO RESISTIVITY LOG]
CALNED  .IN       : CALIPER FROM SNP LOG [ADJ. TO RESISTIVITY LOG]
CALSED  .IN       : CALIPER FROM SONIC LOG
CALWS   .IN       : CALIPER [CALSED SPL. TO CALDED @ 10242']
CILDED  .MMHO     : CONDUCTIVITY FROM IEL LOG
CONDWS  .MMHO     : CONDUCTIVITY [1000/DRESWS]
DCORWS  .G/C3     : DENSITY CORRECTION [DRHOED]
DENWS   .G/C3     : FORMATION BULK DENSITY [RHOBED]
DPHIDMED.V/V      : DENSITY POROSITY DOLOMITE [M=2.87 F=1.00] FROM DENSITY LOG [ADJ. TO RESISTIVITY LOG]
DPHILSED.V/V      : DENSITY POROSITY LIMESTONE [M=2.71 F=1.00] FROM DENSITY LOG [ADJ. TO RESISTIVITY LOG]
DPHISSED.V/V      : DENSITY POROSITY SANDSTONE [M=2.65 F=1.00] FROM DENSITY LOG [ADJ. TO RESISTIVITY LOG]
DPOLSWS .V/V      : DENSITY POROSITY LIMESTONE [CALC. FROM DENWS, M=2.71 F=1.00]
DRESWS  .OHMM     : DEEP RESISTIVITY [1000/CILDED, IF ILDED< 2.5, ILDED SPL. TO ILDED @ 11263']
DRHOED  .G/C3     : DENSITY CORRECTIONFROM DENSITY LOG [ADJ. TO RESISTIVITY LOG]
DTED    .US/F     : DELTA TIME FROM SONIC LOG
DTWS    .US/F     : COMPRESSIONAL SONIC [DTED]
GRDED   .CU       : GAMMA RAY (GRD SPL @ 10670'-11252' TO GRD_1) FROM DENSITY LOG [ADJ. TO RESISTIVITY LOG]
GRN1ED  .GAPI     : GAMMA RAY FROM SNP LOG [ADJ. TO RESISTIVITY LOG]
GRNED   .Unknown  : GAMMA RAY FROM GRN LOG
GRSED   .GAPI     : GAMMA RAY (GRS SPL @10670'-10750' TO GRS_1) FROM SONIC LOG
GRWS    .GAPI     : GAMMA RAY [GRSED SPL @ 14288' TO GRDED]
ILDED   .OHMM     : DEEP INDUCTION LOG FROM DIL LOG
ILMED   .OHMM     : MEDIUM INDUCTION LOG FROM DIL LOG
LL8ED   .OHMM     : LATEROLOG 8 RESISTIVITY FROM DIL LOG
MRESWS  .OHMM     : MEDIUM RESISTIVITY [ILMED]
NEUTED  .NAPI     : NEUTRON FROM GRN LOG [ADJ. TO RESISTIVITY LOG]
NEUTWS  .NAPI     : NEUTRON [NEUTED]
NPOLSWS .V/V      : NEUTRON POROSITY LIMESTONE [SNPLSED]
RHOBED  .G/C3     : BULK DENSITYFROM DENSITY LOG [ADJ. TO RESISTIVITY LOG]
SNED    .OHMM     : SHORT NORMAL FROM IEL LOG
SNPLSED .V/V      : SIDEWALL NEUTRON POROSITY LIMESTONE FROM SNP LOG [ADJ. TO RESISTIVITY LOG]
SPHILSED.V/V      : SONIC POROSITY LIMESTONE [DTM=47.6, DTF=189] FROM SNP LOG
SPOLSWS .V/V      : SONIC POROSITY LIMESTONE [SPHILSED]
SPRED   .MV       : SPONTANEOUS POTENTIAL FROM IEL LOG <11250'> FROM DIL LOG
SPWS    .MV       : SPONTANEOUS POTENTIAL [BASELINE 0 MV, SPRED]
SRESWS  .OHMM     : SHALLOW RESISTIVITY [SNED SPL. TO LL8ED @ 12244']
~Params ----------------------------------------------------
PD  .                     GL : PERMANENT DATUM
EPD .FT                 3657 : ELEVATION PERMANENT DATUM
LMF .                     KB : LOG MEASURED FROM
DAPD.FT                 14.5 : FEET ABOVE PERMANENT DATUM
EKB .FT               3671.5 : KELLY BUSHING
EGL .FT                 3657 : GROUND LEVEL
DATE.               10/10/70 : RUN DATE
RUN .                      1 : RUN NUMBER
DD  .FT                14316 : DEPTH DRILLER
DL  .FT                14316 : DEPTH LOGGER
BLI .FT                14312 : BOTTOM LOG INTERVAL
TLI .FT                11258 : TOP LOG INTERVAL
CBD .FT                11258 : CASING BOTTOM DRILLER
CBL .FT                11258 : CASING BOTTOM LOGGER
BS  .IN                    6 : BIT SIZE
BSD .FT                14316 : BIT SIZE AT DEPTH
DFT .               GEL CHEM : DRILLING FLUID TYPE
DFD .                    9.2 : DRILLING FLUID DENSITY
DFV .                     51 : DRILLING FLUID VISCOSITY
DFPH.                   10.5 : DRILLING FLUID PH
DFL .                    8.8 : DRILLING FLUID LOSS
MSS .               FLOWLINE : MUD SAMPLE SOURCE
RMS .OHMM               1.22 : RESISTIVITY MUD SAMPLE
MST .DEGF                 98 : MUD SAMPLE TEMPERATURE
RMF .OHMM               1.23 : RESISTIVITY MUD FILTRATE SAMPLE
MFST.DEGF                 79 : MUD FILTRATE SAMPLE TEMPERATURE
RMB .OHMM                0.3 : RESISTIVITY MUD AT BHT
TCS .HRS                 3.5 : TIME CIRCULATED STOPPED
LUN .                   7004 : LOGGING UNIT NUMBER
LUL .                     RD : LOGGING UNIT LOCATION
ENGI.                  PERRY : RECORDING ENGINEER
WITN.       SHIER MENEGHETTI : WITNESSED BY
CLNT.                A2DTECH : CLIENT CODE
ORIG.            2" 5" PRINT : ORIGIN OF DATA
UWI .       100112204313W500 : UNIQUE WELL ID
DICO. A2D Technologies, Inc. : DIGITIZING COMPANY
~Other -----------------------------------------------------
~ASCII -----------------------------------------------------
# ...
 10700.00000    8.99760    -999.25    9.18720    9.18720   20.70260   20.20520    0.01660    2.67780    0.09960    -999.25    -999.25    0.01880   49.49640    0.01660   59.29340   59.29340   52.42500    -999.25   74.92430   89.31180   89.31180   49.49640    -999.25    -999.25    -999.25  512.01830  512.01830    -999.25    2.67780   69.96940    -999.25    -999.25    -999.25  -95.27820  -26.90570   69.96940
 10750.00000    9.06340    -999.25    8.74240    8.74240    4.74820    5.14100    0.00920    2.63170    0.12240    -999.25    -999.25    0.04580  194.51430    0.00920   54.21180   54.21180   20.66420    -999.25   59.75510   67.76610   67.76610  194.51430    -999.25    -999.25    -999.25  613.36430  613.36430    -999.25    2.63170  209.01570    -999.25    -999.25    -999.25 -102.11320  -34.41080  209.01570
 10800.00000    8.86210    -999.25    8.54360    8.54360    3.06900    2.70100    0.04940    2.75400    0.06020    -999.25    -999.25   -0.02570  370.22680    0.04940   48.16490   48.16490    7.33120    -999.25   48.73880   17.17280   17.17280  370.22680    -999.25    -999.25    -999.25  696.22370  696.22370    -999.25    2.75400  108.19080    -999.25    -999.25    -999.25 -159.10580  -92.07680  108.19080
 10850.00000    8.25000    -999.25    8.47150    8.47150   48.93970   50.64320    0.15420    2.57450    0.16750    -999.25    -999.25    0.07920   19.74600    0.15420   56.54070   56.54070   10.95200    -999.25   49.10990   16.41110   16.41110   19.74600    -999.25    -999.25    -999.25  690.11640  690.11640    -999.25    2.57450   50.26860    -999.25    -999.25    -999.25 -189.91850 -123.56290   50.26860
 10900.00000   10.95670    -999.25    9.32040    9.32040    7.62310    8.19990    0.17600    2.46250    0.21660    -999.25    -999.25    0.14470  121.95290    0.17600   53.01960   53.01960   21.97740    -999.25   21.95250   32.70900   32.70900  121.95290    -999.25    -999.25    -999.25  887.70790  887.70790    -999.25    2.46250   85.17340    -999.25    -999.25    -999.25 -140.27080  -74.58860   85.17340
 10950.00000    9.50090    -999.25    8.96110    8.96110   13.41460   15.56310    0.20570    2.53260    0.16250    -999.25    -999.25    0.10380   64.65390    0.20570   51.11640   51.11640   46.56560    -999.25   96.67330   87.80300   87.80300   64.65390    -999.25    -999.25    -999.25  357.79940  357.79940    -999.25    2.53260   77.81180    -999.25    -999.25    -999.25  -99.68340  -34.67800   77.81180
 11000.00000    9.00760    -999.25    8.89110    8.89110   13.91440   15.74980    0.02280    2.84060    0.00240    -999.25    -999.25   -0.07640   63.49290    0.02280   50.75370   50.75370   47.80430    -999.25  139.37010   75.58820   75.58820   63.49290    -999.25    -999.25    -999.25   66.01710   66.01710    -999.25    2.84060   76.21860    -999.25    -999.25    -999.25  -85.72120  -21.38590   76.21860
 11050.00000    9.15680    -999.25    8.98390    8.98390    9.11430   10.06330    0.05910    2.83360    0.02170    -999.25    -999.25   -0.07230   99.37050    0.05910   50.51080   50.51080   12.68340    -999.25   80.19240   20.34750   20.34750   99.37050    -999.25    -999.25    -999.25  466.97100  466.97100    -999.25    2.83360   75.57120    -999.25    -999.25    -999.25 -102.83140  -39.16950   75.57120
 11100.00000    9.12000    -999.25    8.64100    8.64100    8.83400    8.82600    0.02840    2.92730   -0.03470    -999.25    -999.25   -0.12710  113.30110    0.02840   50.49580   50.49580   15.27500    -999.25    -999.25   29.51260   29.51260  113.30110    -999.25    -999.25    -999.25    -999.25    -999.25    -999.25    2.92730  112.21830    -999.25    -999.25    -999.25  -71.07270  -10.28250  112.21830
 11150.00000    8.86440    -999.25    8.76190    8.76190   36.30860   39.86330    0.12620    2.75750    0.05350    -999.25    -999.25   -0.02780   25.08570    0.12620   53.64610   53.64610   20.44090    -999.25    -999.25   40.44440   40.44440   25.08570    -999.25    -999.25    -999.25    -999.25    -999.25    -999.25    2.75750   29.44340    -999.25    -999.25    -999.25 -137.44910  -83.99370   29.44340
 11200.00000   13.72820    -999.25    9.67280    9.67280    8.82570    8.72280    0.22080    2.30240    0.30100    -999.25    -999.25    0.23830  114.92920    0.22080   50.37490   50.37490   14.29420    -999.25    -999.25   15.50330   15.50330  114.92920    -999.25    -999.25    -999.25    -999.25    -999.25    -999.25    2.30240   87.39510    -999.25    -999.25    -999.25 -152.24320 -106.15940   87.39510
 11250.00000   13.88590    -999.25    9.53830   13.88590    8.59660    -999.25    0.18410    2.19590    0.35700    -999.25    -999.25    0.30060    -999.25    0.18410   50.97980   50.97980    -999.25   13.36030    -999.25   10.60290   10.60290    -999.25    -999.25    -999.25    -999.25    -999.25    -999.25    0.22150    2.19590  102.83000    0.22150    0.03390    0.03390 -128.32220  -89.53650  102.83000
 11300.00000    8.11850    8.44980    6.50500    8.11850    -999.25   17.17960    -999.25    2.38260    -999.25    0.19090    -999.25    0.19150   58.20850    -999.25   53.78480   53.78480    -999.25  115.59990    -999.25   61.73160   61.73160   58.20850   84.90530   75.18360   84.90530    -999.25    -999.25    0.08620    2.38260    -999.25    0.08620    0.04570    0.04570  -90.26610  -58.81520   75.18360
 11350.00000    8.46940    8.44860    6.37270    8.46940    -999.25   18.34050    -999.25    2.68530    -999.25    0.00530    -999.25    0.01440   54.52420    -999.25   55.65620   55.65620    -999.25  116.43410    -999.25   59.76440   59.76440   54.52420   55.45070   70.90320   55.45070    -999.25    -999.25    0.06450    2.68530    -999.25    0.06450    0.05850    0.05850  -57.85250  -33.73640   70.90320
 11400.00000    7.50850    7.62130    6.37900    7.50850    -999.25    3.20580    -999.25    2.77920    -999.25   -0.04360    -999.25   -0.04050  311.93600    -999.25   50.24080   50.24080    -999.25   73.98800    -999.25   21.15580   21.15580  311.93600  268.59170 1166.30030  268.59170    -999.25    -999.25    0.03000    2.77920    -999.25    0.03000    0.02100    0.02100  -88.98050  -72.19920 1166.30030
 11450.00000    7.21450    7.20450    6.34680    7.21450    -999.25    1.88820    -999.25    2.87070    -999.25   -0.10070    -999.25   -0.09400  529.78580    -999.25   53.95110   53.95110    -999.25  118.81590    -999.25   63.03770   63.03770  529.78580 1483.11740  413.31280 1483.11740    -999.25    -999.25    0.05260    2.87070    -999.25    0.05260    0.04730    0.04730  -47.41920  -38.00940  413.31280
 11500.00000    7.50270    7.24480    6.35460    7.50270    -999.25    2.09270    -999.25    2.61290    -999.25    0.04570    -999.25    0.05680  477.84050    -999.25   49.65160   49.65160    -999.25   62.25500    -999.25   17.30930   17.30930  477.84050  168.17730  660.21000  168.17730    -999.25    -999.25    0.04450    2.61290    -999.25    0.04450    0.01690    0.01690  -53.03410  -50.92250  660.21000
 11550.00000    7.10370    7.14660    6.34880    7.10370    -999.25    0.69390    0.14110    2.85940    -999.25   -0.09690    -999.25   -0.08740 1441.07120    0.14110   50.88080   50.88080    -999.25   49.26580    -999.25    5.18210    5.18210 1441.07120 1593.24180 1666.24940 1593.24180    -999.25    -999.25    0.01760    2.85940    -999.25    0.01760    0.02470    0.02470  -68.90790  -74.13110 1666.24940
 11600.00000    7.19840    7.14020    6.32730    7.19840    -999.25   59.47180    -999.25    2.78240    -999.25   -0.04760    -999.25   -0.04230   16.81470    -999.25   55.98760   55.98760    -999.25   61.08860    -999.25   21.27140   21.27140   16.81470   15.77940   21.47840   15.77940    -999.25    -999.25    0.05190    2.78240    -999.25    0.05190    0.06250    0.06250  -24.22190  -36.77990   21.47840
 11650.00000    7.26150    7.56710    6.22590    7.26150    -999.25    7.41720    0.20220    2.84030    -999.25   -0.08010    -999.25   -0.07620  134.82140    0.20220   53.06020   53.06020    -999.25   62.98560    -999.25   22.77950   22.77950  134.82140   99.98210  320.01270   99.98210    -999.25    -999.25    0.02700    2.84030    -999.25    0.02700    0.02800    0.02800  -28.10350  -47.99640  320.01270
