~Version ---------------------------------------------------
VERS.      2.0 : CWLS log ASCII Standard -VERSION 2.0
WRAP.       NO : One line per depth step
CREA. 08/31/17 : LAS Creation Date
~Well ------------------------------------------------------
STRT.FT                          1500.0 : START DEPTH
STOP.FT                         11900.0 : STOP DEPTH
STEP.FT                        50.00000 : STEP LENGTH
NULL.                           -999.25 : NULL VALUE
COMP.  AMOCO CANADA PETROLEUM CO., LTD. : COMPANY
WELL. AMOCO HB FINA FIR S-I  7-26-59-20 : WELL
FLD .                                   : FIELD
LOC .                                   : LOCATION
CTRY.                            CANADA : COUNTRY
SRVC.            Schlumberger of Canada : SERVICE COMPANY
DATE.                       07-Jan-1978 : LOGDATE
PROV.                           Alberta : PROVINCE
UWI .                  100072605920W500 : UNIQUE WELL ID
SLAT.WGS84                     54.12779 : SURFACE LATITUDE
SLON.WGS84                    -116.8825 : SURFACE LONGITUDE
~Curve Information -----------------------------------------
DEPT    .FT    : Depth Curve
CALDED  .IN    : CALIPER FROM CNFD LOG
CALSED  .IN    : CALIPER FROM BCS LOG [ADJ. TO GRDED]
CALWS   .IN    : CALIPER [CALSED]
CONDWS  .MMHO  : CONDUCTIVITY [1000/DRESWS]
DCORED  .G/C3  : DENSITY CORRECTION FROM CNFD LOG
DCORWS  .G/C3  : DENSITY CORRECTION [DCORED]
DENWS   .G/C3  : FORMATION BULK DENSITY [RHOBED]
DPHILSED.V/V   : DENSITY POROSITY LIMESTONE [M=2.71, F=1.0] FROM CNFD LOG [ADJ. TO RHOBED]
DPHISSED.V/V   : DENSITY POROSITY SANDSTONE [M=2.65, F=1.0] FROM CNFD LOG [ADJ. TO RHOBED]
DPOLSWS .V/V   : DENSITY POROSITY LIMESTONE [CALCULATED FROM DENWS, M=2.71, F=1.0]
DRESWS  .OHMM  : DEEP RESISTIVITY [ILDED]
DTED    .US/F  : ACOUSTIC TRANSIT TIME SLOWNESS, DELTA T FROM BCS LOG [ADJ. TO GRDED]
DTWS    .US/F  : COMPRESSIONAL SONIC [DTED]
GRDED   .GAPI  : GAMMA RAY FROM CNFD LOG
GRSED   .GAPI  : GAMMA RAY FROM BCS LOG [ADJ. TO GRDED]
GRWS    .GAPI  : GAMMA RAY [GRSED]
ILDED   .OHMM  : DEEP INDUCTION FROM DILL LOG
ILMED   .OHMM  : MEDIUM INDUCTION FROM DILL LOG
LL8ED   .OHMM  : LATEROLOG RESISTIVITY FROM DILL LOG
MRESWS  .OHMM  : MEDIUM RESISTIVITY [ILMED]
NPHILSED.V/V   : NEUTRON POROSITY LIMESTONE FROM CNFD LOG [ADJ. TO RHOBED]
NPHISSED.V/V   : NEUTRON POROSITY SANDSTONE FROM CNFD LOG [ADJ. TO RHOBED]
NPOLSWS .V/V   : NEUTRON POROSITY LIMESTONE [NPHISSED CONVERTED TO LIMESTONE MATRIX, SPL. TO NPHILSED @ 2468.27M]
RHOBED  .G/C3  : HRDD HIGH RESOLUTION FORMATION DENSITY FROM CNFD LOG
SPRED   .MV    : SPONTANEOUS POTENTIAL FROM DILL LOG
SRESWS  .OHMM  : SHALLOW RESISTIVITY [LL8ED]
~Params ----------------------------------------------------
PD  .                     GL : PERMANENT DATUM
EPD .FT              3289.04 : ELEVATION PERMANENT DATUM
LMF .                     KB : LOG MEASURED FROM
DAPD.FT                 21.2 : FEET ABOVE PERMANENT DATUM
EKB .FT              3310.24 : KELLY BUSHING
EGL .FT              3289.04 : GROUND LEVEL
DATE.               01/07/78 : RUN DATE
RUN .                      1 : RUN NUMBER
DD  .FT                11910 : DEPTH DRILLER
DL  .FT                11919 : DEPTH LOGGER
BLI .FT                11913 : BOTTOM LOG INTERVAL
TLI .FT                 1534 : TOP LOG INTERVAL
CBD .FT                 1534 : CASING BOTTOM DRILLER
CBL .FT                 1534 : CASING BOTTOM LOGGER
BS  .IN                 8.75 : BIT SIZE
BSD .FT                11910 : BIT SIZE AT DEPTH
DFT .                    GEL : DRILLING FLUID TYPE
DFD .                    9.5 : DRILLING FLUID DENSITY
DFV .                    105 : DRILLING FLUID VISCOSITY
DFPH.                    9.5 : DRILLING FLUID PH
DFL .                    9.0 : DRILLING FLUID LOSS
MSS .               FLOWLINE : MUD SAMPLE SOURCE
RMS .OHMM               1.78 : RESISTIVITY MUD SAMPLE
MST .DEGF                 85 : MUD SAMPLE TEMPERATURE
RMF .OHMM               1.74 : RESISTIVITY MUD FILTRATE SAMPLE
MFST.DEGF                 54 : MUD FILTRATE SAMPLE TEMPERATURE
TCS .HRS                   5 : TIME CIRCULATED STOPPED
LUN .                   7730 : LOGGING UNIT NUMBER
LUL .                    EDM : LOGGING UNIT LOCATION
ENGI.   ACKERMAN STEENBERGEN : RECORDING ENGINEER
CLNT.                A2DTECH : CLIENT CODE
ORIG.            2" 5" PRINT : ORIGIN OF DATA
UWI .       100072605920W500 : UNIQUE WELL ID
DICO. A2D Technologies, Inc. : DIGITIZING COMPANY
~Other -----------------------------------------------------
~ASCII -----------------------------------------------------
 1500.00000    -999.25    -999.25    -999.25    -999.25    -999.25    -999.25    -999.25    -999.25    -999.25    -999.25    -999.25    -999.25    -999.25   49.37030   47.78530   47.78530    -999.25    -999.25    -999.25    -999.25    -999.25    0.70130    0.65960    -999.25    -999.25    -999.25
 1550.00000   12.02400   10.85510   10.85510  213.40720    0.18410    0.18410    2.24490    -999.25    0.25110    0.27200    4.69100  104.45030  104.45030   82.22590  113.54520  113.54520    4.35410    4.35410    5.22980    4.35410    -999.25    0.46690    0.42520    2.24490 -126.30050    5.22980
 1600.00000   10.31290   10.92510   10.92510   52.91170    0.06550    0.06550    2.46430    -999.25    0.12690    0.14370   18.89940   81.14120   81.14120   52.64220   76.63510   76.63510   16.38610   16.38610   13.64640   16.38610    -999.25    0.30020    0.25620    2.46430 -128.45390   13.64640
 1650.00000   12.15750   11.10990   11.10990  160.76860    0.19870    0.19870    1.94180    -999.25    0.42650    0.44930    6.22010   95.73380   95.73380   74.42880   99.22470   99.22470    5.96140    5.96140    5.53850    5.96140    -999.25    0.37930    0.33610    1.94180 -123.99710    5.53850
 1700.00000   10.47320   12.14810   12.14810  327.37510    0.06580    0.06580    2.22460    -999.25    0.25110    0.28390    3.05460  113.98560  113.98560  100.30340  143.88010  143.88010    2.91210    2.91210    3.18450    2.91210    -999.25    0.51980    0.47810    2.22460 -122.14770    3.18450
 1750.00000   10.81840   11.56220   11.56220  197.30480    0.08220    0.08220    2.38220    -999.25    0.16010    0.19170    5.06830   94.52620   94.52620   73.23680  110.12760  110.12760    4.60060    4.60060    6.59860    4.60060    -999.25    0.44990    0.40820    2.38220 -122.60730    6.59860
 1800.00000   10.93170   11.31150   11.31150  208.63880    0.03290    0.03290    2.31920    -999.25    0.19440    0.22850    4.79350  118.59890  118.59890   83.07450  111.87120  111.87120    4.43040    4.43040    5.44130    4.43040    -999.25    0.43490    0.39280    2.31920 -123.51330    5.44130
 1850.00000   11.28340   12.56260   12.56260  214.91970    0.06570    0.06570    1.97490    -999.25    0.41640    0.42990    4.65290  120.87600  120.87600   65.94570   90.76600   90.76600    4.11600    4.11600    7.95470    4.11600    -999.25    0.59150    0.54980    1.97490 -120.91830    7.95470
 1900.00000   12.00370   12.19140   12.19140   83.60020    0.09350    0.09350    2.20870    -999.25    0.26690    0.29320   11.96180   89.48100   89.48100   58.37570   74.46630   74.46630   10.50450   10.50450    9.86070   10.50450    -999.25    0.39330    0.35030    2.20870 -125.48810    9.86070
 1950.00000   11.42040   12.11180   12.11180  143.57910    0.15170    0.15170    2.27630    -999.25    0.22870    0.25360    6.96480   90.24900   90.24900   80.12580  110.64910  110.64910    6.64620    6.64620    6.44320    6.64620    -999.25    0.45980    0.41810    2.27630 -119.86410    6.44320
 2000.00000   12.57140   13.74140   13.74140   84.37110    0.06530    0.06530    2.21470    -999.25    0.27470    0.28960   11.85240   88.22080   88.22080   49.82030   77.68350   77.68350   10.38110   10.38110    9.35490   10.38110    -999.25    0.41990    0.37740    2.21470 -125.66900    9.35490
 2050.00000   12.38320   12.10240   12.10240  107.17570    0.07450    0.07450    2.27550    -999.25    0.23070    0.25410    9.33050   85.67810   85.67810   62.49620   89.03260   89.03260    8.14560    8.14560    7.53130    8.14560    -999.25    0.40840    0.36570    2.27550 -122.25740    7.53130
 2100.00000   11.25840   11.16260   11.16260  103.63770    0.06250    0.06250    2.33840    -999.25    0.19050    0.21730    9.64900   89.00010   89.00010   53.73760   72.49900   72.49900    8.76790    8.76790    8.13470    8.76790    -999.25    0.36010    0.31660    2.33840 -121.52410    8.13470
 2150.00000    9.90260   10.33200   10.33200   94.77060    0.03000    0.03000    2.45690    -999.25    0.13670    0.14800   10.55180   80.11070   80.11070   63.49250   83.49300   83.49300    9.50340    9.50340    8.28840    9.50340    -999.25    0.26210    0.21820    2.45690 -122.65300    8.28840
 2200.00000   12.13440   11.23780   11.23780  129.81110    0.15380    0.15380    2.31700    -999.25    0.22410    0.22980    7.70350   92.58140   92.58140   71.97430  102.56170  102.56170    7.38020    7.38020    7.06740    7.38020    -999.25    0.34860    0.30490    2.31700 -124.24410    7.06740
 2250.00000   12.92830   10.52440   10.52440  260.28110    0.08640    0.08640    2.21100    -999.25    0.25560    0.29180    3.84200  104.35430  104.35430   86.97330  108.46410  108.46410    4.04990    4.04990    4.83120    4.04990    -999.25    0.38790    0.34480    2.21100 -120.64870    4.83120
 2300.00000   12.48250   10.16880   10.16880  294.59030    0.01100    0.01100    1.90250    -999.25    0.48810    0.47220    3.39540  112.92910  112.92910   80.92980  100.17110  100.17110    2.98350    2.98350    3.74950    2.98350    -999.25    0.50630    0.46470    1.90250 -120.19720    3.74950
 2350.00000   10.39110   10.05290   10.05290   47.14850    0.04760    0.04760    2.47570    -999.25    0.11180    0.13700   21.20960   83.19160   83.19160   53.76550   66.99270   66.99270   20.39230   20.39230   18.19190   20.39230    -999.25    0.23310    0.18930    2.47570 -131.20790   18.19190
 2400.00000   12.56540   10.76590   10.76590  186.78710    0.12450    0.12450    2.28060    -999.25    0.22360    0.25110    5.36440  113.24540  113.24540   89.24060  116.08810  116.08810    4.91010    4.91010    6.58280    4.91010    -999.25    0.42380    0.38140    2.28060 -120.87320    6.58280
 2450.00000   13.64030   10.42710   10.42710  212.95170    0.06400    0.06400    2.29500    -999.25    0.22300    0.24270    4.69590  118.20990  118.20990   79.47270  110.67370  110.67370    4.24940    4.24940    5.23930    4.24940    -999.25    0.37680    0.33350    2.29500 -119.20690    5.23930
 2500.00000   13.19220   11.03700   11.03700   99.90410    0.11700    0.11700    2.43350    -999.25    0.13320    0.16170   10.00960   84.78530   84.78530   68.21490   91.43540   91.43540    9.49500    9.49500    8.62650    9.49500    -999.25    0.28660    0.24260    2.43350 -119.67160    8.62650
 2550.00000   13.57250   10.26320   10.26320  305.25500    0.07940    0.07940    2.30820    -999.25    0.20780    0.23500    3.27770  121.46920  121.46920   91.79660  120.35740  120.35740    3.01410    3.01410    3.56600    3.01410    -999.25    0.42240    0.38000    2.30820 -117.05760    3.56600
 2600.00000   14.54170   10.70870   10.70870  358.91180    0.07260    0.07260    2.23390    -999.25    0.25310    0.27840    2.78620  109.21830  109.21830   87.30890  124.07540  124.07540    2.44850    2.44850    3.14560    2.44850    -999.25    0.46890    0.42720    2.23390 -117.81260    3.14560
 2650.00000   13.18790   11.04750   11.04750  187.72900    0.09850    0.09850    2.42910    -999.25    0.14310    0.16430    5.32730   86.16450   86.16450   68.61390   86.85110   86.85110    5.07440    5.07440    6.01730    5.07440    -999.25    0.28800    0.24400    2.42910 -116.61790    6.01730
 2700.00000   11.62570   11.22220   11.22220   83.57640    0.04870    0.04870    2.37680    -999.25    0.14350    0.19490   11.96510   85.10750   85.10750   60.14010   80.06610   80.06610   11.16630   11.16630   11.13610   11.16630    -999.25    0.30080    0.25680    2.37680 -118.94330   11.13610
 2750.00000   10.07310   10.77090   10.77090  314.09010    0.05460    0.05460    2.43990    -999.25    0.15400    0.15800    3.18380  104.45090  104.45090   82.04180  116.04300  116.04300    3.07180    3.07180    3.75720    3.07180    -999.25    0.38440    0.34120    2.43990 -118.76680    3.75720
 2800.00000   11.18420   10.29100   10.29100  203.94570    0.11620    0.11620    2.32680    -999.25    0.17680    0.22410    4.90480   95.06470   95.06470   77.50150  108.77510  108.77510    4.59550    4.59550    4.51500    4.59550    -999.25    0.38040    0.33720    2.32680 -119.19160    4.51500
