~Version ---------------------------------------------------
VERS.      2.0 : CWLS log ASCII Standard -VERSION 2.0
WRAP.       NO : One line per depth step
CREA. 11/22/17 : LAS Creation Date
~Well ------------------------------------------------------
STRT.FT                              300.0 : START DEPTH
STOP.FT                            16950.0 : STOP DEPTH
STEP.FT                           50.00000 : STEP LENGTH
NULL.                              -999.25 : NULL VALUE
COMP.                        BANFF OIL LTD : COMPANY
WELL. BANFF AQUIT SIEBENS RAMR 14-21-37-11 : WELL
FLD .                                      : FIELD
LOC .                                      : LOCATION
CTRY.                               CANADA : COUNTRY
SRVC.                         Schlumberger : SERVICE COMPANY
DATE.                          21-Oct-1970 : LOGDATE
PROV.                              Alberta : PROVINCE
UWI .                     100142103711W500 : UNIQUE WELL ID
SLAT.WGS84                        52.19912 : SURFACE LATITUDE
SLON.WGS84                       -115.5164 : SURFACE LONGITUDE
~Curve Information -----------------------------------------
DEPT    .FT    : Depth Curve
CALDED  .IN    : CALIPER FROM DENSITY LOG [DEP. ADJ. TO ILMED]
CALNED  .IN    : CALIPER FROM NEUTRON LOG [DEP. ADJ. TO ILMED]
CALSED  .IN    : CALIPER FROM SONIC LOG [DEP. ADJ. TO ILMED]
CALWS   .IN    : CALIPER 148' CALSED 13012' CALNED 13190' CALDED 14980' CALSED 15315' CALDED 16246' CALSED]
CONDWS  .MMHO  : DEEP CONDUCTIVITY [1000/DRESWS]
DCORWS  .G/C3  : DENSITY CORRECTION [DRHOED]
DENWS   .G/C3  : BULK DENSITY [M=2.71, F=1.00] [RHOBED]
DPHILSED.V/V   : DENSITY POROSITY [M=2.71, F=1.00] FROM DENSITY LOG [DEP. ADJ. TO ILMED]
DPOLSWS .V/V   : DENSITY POROSITY [M=2.71, F=1.00] [CAL. FROM DENWS]
DRESWS  .OHMM  : DEEP RESISTIVITY [ILDED]
DRHOED  .G/C3  : DENSITY CORRECTION FROM DENSITY LOG [DEP. ADJ. TO ILMED]
DTED    .US/F  : DELTA TIME FROM SONIC LOG [DEP. ADJ. TO ILMED]
DTWS    .US/F  : DELTA TIME [DTED]
GRDED   .GAPI  : GAMMA RAY FROM DENSITY LOG [DEP. ADJ. TO ILMED]
GRNED   .GAPI  : GAMMA RAY FROM NEUTRON LOG [DEP. ADJ. TO ILMED]
GRSED   .GAPI  : GAMMA RAY FROM SONIC LOG [DEP. ADJ. TO ILMED]
GRWS    .GAPI  : GAMMA RAY [GRSED]
ILDED   .OHMM  : INDUCTION LOG DEEP RESISTIVITY
ILMED   .OHMM  : INDUCTION LOG MEDIUM RESISTIVITY
LL8ED   .OHMM  : 8 INCH LATEROLOG RESISTIVITY
MRESWS  .OHMM  : MEDIUM RESISTIVITY [ILMED]
NPOLSWS .V/V   : NEUTRON POROSITY LIMESTONE [SNPLSED]
RHOBED  .G/C3  : BULK DENSITY FROM DENSITY LOG [DEP. ADJ. TO ILMED]
SNPLSED .V/V   : SIDEWALL NEUTRON POROSITY [LIMESTONE] [DEP. ADJ. TO ILMED]
SPRED   .MV    : SPONTANEOUS POTENTIAL FROM RESIST. LOG [DIVIDED BY 2 BELOW 13778'], SHIFTS REMOVED, PATCHED]
SPWS    .MV    : SPONTANEOUS POTENTIAL [BASELINE 0 MV] [SPRED][PL. USE W/ RESERVATION]
SRESWS  .OHMM  : SHALLOW RESISTIVITY [LL8ED]
~Params ----------------------------------------------------
PD  .                     GL : PERMANENT DATUM
EPD .FT                 4914 : ELEVATION PERMANENT DATUM
LMF .                     KB : LOG MEASURED FROM
DAPD.FT                 18.7 : FEET ABOVE PERMANENT DATUM
EKB .FT               4932.7 : KELLY BUSHING
EGL .FT                 4914 : GROUND LEVEL
DATE.               10/21/70 : RUN DATE
RUN .                      4 : RUN NUMBER
DD  .FT                16960 : DEPTH DRILLER
DL  .FT                16960 : DEPTH LOGGER
BLI .FT                16954 : BOTTOM LOG INTERVAL
TLI .FT                16000 : TOP LOG INTERVAL
BS  .IN                8.375 : BIT SIZE
BSD .FT                16960 : BIT SIZE AT DEPTH
DFT .                    GEL : DRILLING FLUID TYPE
DFD .                   10.1 : DRILLING FLUID DENSITY
DFV .                     61 : DRILLING FLUID VISCOSITY
DFPH.                     10 : DRILLING FLUID PH
DFL .                    8.4 : DRILLING FLUID LOSS
MSS .               FLOWLINE : MUD SAMPLE SOURCE
RMS .OHMM               1.51 : RESISTIVITY MUD SAMPLE
MST .DEGF                 66 : MUD SAMPLE TEMPERATURE
RMF .OHMM               1.11 : RESISTIVITY MUD FILTRATE SAMPLE
MFST.DEGF                 70 : MUD FILTRATE SAMPLE TEMPERATURE
TCS .HRS                   4 : TIME CIRCULATED STOPPED
LUN .                   7002 : LOGGING UNIT NUMBER
LUL .                     RD : LOGGING UNIT LOCATION
ENGI.                 TALBOT : RECORDING ENGINEER
WITN.          LEMEE BRINKER : WITNESSED BY
CLNT.                A2DTECH : CLIENT CODE
ORIG.            2" 5" PRINT : ORIGIN OF DATA
UWI .       100142103711W500 : UNIQUE WELL ID
DICO. A2D Technologies, Inc. : DIGITIZING COMPANY
~Other -----------------------------------------------------
~ASCII -----------------------------------------------------
# ...
 10700.00000    -999.25    -999.25   14.92730   14.92730  102.32590    -999.25    -999.25    -999.25    -999.25    9.77270    -999.25  114.26670  114.26670    -999.25    -999.25   59.66650   59.66650    9.77270    8.72200   11.06460    8.72200    -999.25    -999.25    -999.25   75.62550  -10.74770   11.06460
 10750.00000    -999.25    -999.25   14.94090   14.94090  143.34660    -999.25    -999.25    -999.25    -999.25    6.97610    -999.25   93.21670   93.21670    -999.25    -999.25   58.06670   58.06670    6.97610    5.93640    7.75680    5.93640    -999.25    -999.25    -999.25   78.65860   -7.79380    7.75680
 10800.00000    -999.25    -999.25   14.92700   14.92700  172.85790    -999.25    -999.25    -999.25    -999.25    5.78510    -999.25   96.94120   96.94120    -999.25    -999.25   45.38410   45.38410    5.78510    4.28270    6.77160    4.28270    -999.25    -999.25    -999.25   80.51490   -6.01680    6.77160
 10850.00000    -999.25    -999.25   14.82700   14.82700   76.59840    -999.25    -999.25    -999.25    -999.25   13.05510    -999.25   67.75720   67.75720    -999.25    -999.25   52.19660   52.19660   13.05510   13.45590   17.61670   13.45590    -999.25    -999.25    -999.25   81.23540   -5.37550   17.61670
 10900.00000    -999.25    -999.25   14.81290   14.81290   97.21010    -999.25    -999.25    -999.25    -999.25   10.28700    -999.25   78.74840   78.74840    -999.25    -999.25   53.28250   53.28250   10.28700    8.04180    9.46920    8.04180    -999.25    -999.25    -999.25   79.67510   -7.01510    9.46920
 10950.00000    -999.25    -999.25   14.46540   14.46540   92.11160    -999.25    -999.25    -999.25    -999.25   10.85640    -999.25   78.64580   78.64580    -999.25    -999.25   60.48070   60.48070   10.85640   10.50300   14.75000   10.50300    -999.25    -999.25    -999.25   77.91730   -8.85210   14.75000
 11000.00000    -999.25    -999.25   14.56800   14.56800   99.81240    -999.25    -999.25    -999.25    -999.25   10.01880    -999.25   76.68880   76.68880    -999.25    -999.25   59.92520   59.92520   10.01880    9.55620   12.19880    9.55620    -999.25    -999.25    -999.25   80.31070   -6.53800   12.19880
 11050.00000    -999.25    -999.25   14.28270   14.28270   65.14150    -999.25    -999.25    -999.25    -999.25   15.35120    -999.25   71.08200   71.08200    -999.25    -999.25   53.93590   53.93590   15.35120   15.88980   18.79220   15.88980    -999.25    -999.25    -999.25   81.57820   -5.34980   18.79220
 11100.00000    -999.25    -999.25   14.19340   14.19340   69.10710    -999.25    -999.25    -999.25    -999.25   14.47030    -999.25   71.04210   71.04210    -999.25    -999.25   52.38770   52.38770   14.47030   14.95260   16.85720   14.95260    -999.25    -999.25    -999.25   83.00910   -3.99810   16.85720
 11150.00000    -999.25    -999.25   14.80260   14.80260  104.86250    -999.25    -999.25    -999.25    -999.25    9.53630    -999.25   76.61830   76.61830    -999.25    -999.25   56.18220   56.18220    9.53630    9.21630   12.14720    9.21630    -999.25    -999.25    -999.25   82.07760   -5.00890   12.14720
 11200.00000    -999.25    -999.25   14.72410   14.72410  122.98460    -999.25    -999.25    -999.25    -999.25    8.13110    -999.25   81.10530   81.10530    -999.25    -999.25   57.64510   57.64510    8.13110    7.88380   10.03280    7.88380    -999.25    -999.25    -999.25   82.16550   -5.00020   10.03280
 11250.00000    -999.25    -999.25   14.62760   14.62760  109.35180    -999.25    -999.25    -999.25    -999.25    9.14480    -999.25   82.74570   82.74570    -999.25    -999.25   59.57680   59.57680    9.14480    8.01150   11.40560    8.01150    -999.25    -999.25    -999.25   82.08340   -5.16160   11.40560
 11300.00000    -999.25    -999.25   14.13700   14.13700  133.60410    -999.25    -999.25    -999.25    -999.25    7.48480    -999.25   90.82720   90.82720    -999.25    -999.25   66.13840   66.13840    7.48480    6.91970    9.92360    6.91970    -999.25    -999.25    -999.25   80.84790   -6.47630    9.92360
 11350.00000    -999.25    -999.25   14.33640   14.33640   88.55120    -999.25    -999.25    -999.25    -999.25   11.29290    -999.25   79.10320   79.10320    -999.25    -999.25   60.71780   60.71780   11.29290   10.84510   15.27940   10.84510    -999.25    -999.25    -999.25   79.94010   -7.46340   15.27940
 11400.00000    -999.25    -999.25   14.01670   14.01670   55.29140    -999.25    -999.25    -999.25    -999.25   18.08600    -999.25   78.30810   78.30810    -999.25    -999.25   59.70930   59.70930   18.08600   17.13190   26.55010   17.13190    -999.25    -999.25    -999.25   80.89530   -6.58740   26.55010
 11450.00000    -999.25    -999.25   14.42890   14.42890   54.14390    -999.25    -999.25    -999.25    -999.25   18.46930    -999.25   80.90860   80.90860    -999.25    -999.25   63.69050   63.69050   18.46930   16.46470   25.66260   16.46470    -999.25    -999.25    -999.25   80.39950   -7.16250   25.66260
 11500.00000    -999.25    -999.25   13.52930   13.52930   76.47950    -999.25    -999.25    -999.25    -999.25   13.07540    -999.25   85.20480   85.20480    -999.25    -999.25   61.94030   61.94030   13.07540   12.51630   21.63270   12.51630    -999.25    -999.25    -999.25   78.72490   -8.91630   21.63270
 11550.00000    -999.25    -999.25   14.52150   14.52150   86.70390    -999.25    -999.25    -999.25    -999.25   11.53350    -999.25   90.57580   90.57580    -999.25    -999.25   60.86610   60.86610   11.53350   10.33170   16.02670   10.33170    -999.25    -999.25    -999.25   82.85160   -4.86890   16.02670
 11600.00000    -999.25    -999.25   14.52710   14.52710   89.89980    -999.25    -999.25    -999.25    -999.25   11.12350    -999.25   91.03550   91.03550    -999.25    -999.25   63.66040   63.66040   11.12350   10.01310   14.78420   10.01310    -999.25    -999.25    -999.25   84.40170   -3.39800   14.78420
 11650.00000    -999.25    -999.25   14.36350   14.36350   96.09010    -999.25    -999.25    -999.25    -999.25   10.40690    -999.25   86.87600   86.87600    -999.25    -999.25   63.57210   63.57210   10.40690    9.82990   11.48300    9.82990    -999.25    -999.25    -999.25   82.00540   -5.87360   11.48300
 11700.00000    -999.25    -999.25   13.99850   13.99850  122.98610    -999.25    -999.25    -999.25    -999.25    8.13100    -999.25   78.79740   78.79740    -999.25    -999.25   62.91040   62.91040    8.13100    8.40200   12.96980    8.40200    -999.25    -999.25    -999.25   83.98770   -3.62780   12.96980
 11750.00000    -999.25    -999.25   14.19730   14.19730   99.42730    -999.25    -999.25    -999.25    -999.25   10.05760    -999.25   88.38610   88.38610    -999.25    -999.25   62.75310   62.75310   10.05760    9.86710   14.91480    9.86710    -999.25    -999.25    -999.25   83.80330   -3.54870   14.91480
 11800.00000    -999.25    -999.25   14.32280   14.32280   89.70460    -999.25    -999.25    -999.25    -999.25   11.14770    -999.25   88.51660   88.51660    -999.25    -999.25   65.04440   65.04440   11.14770   10.25820   12.73930   10.25820    -999.25    -999.25    -999.25   81.93660   -5.15190   12.73930
 11850.00000    -999.25    -999.25   14.12650   14.12650  139.89340    -999.25    -999.25    -999.25    -999.25    7.14830    -999.25   85.80340   85.80340    -999.25    -999.25   71.39800   71.39800    7.14830    6.75150    8.79250    6.75150    -999.25    -999.25    -999.25   81.21600   -5.60890    8.79250
 11900.00000    -999.25    -999.25   13.82770   13.82770  168.88470    -999.25    -999.25    -999.25    -999.25    5.92120    -999.25   87.29960   87.29960    -999.25    -999.25   63.32070   63.32070    5.92120    6.14160    9.76760    6.14160    -999.25    -999.25    -999.25   82.18650   -4.37490    9.76760
 11950.00000    -999.25    -999.25   14.30690   14.30690  163.07100    -999.25    -999.25    -999.25    -999.25    6.13230    -999.25   87.30740   87.30740    -999.25    -999.25   73.47630   73.47630    6.13230    5.89080    8.90650    5.89080    -999.25    -999.25    -999.25   82.49630   -3.80160    8.90650
