~Version ---------------------------------------------------
VERS.      2.0 : CWLS log ASCII Standard -VERSION 2.0
WRAP.       NO : One line per depth step
CREA. 11/17/17 : LAS Creation Date
~Well ------------------------------------------------------
STRT.FT                            1200.0 : START DEPTH
STOP.FT                           11100.0 : STOP DEPTH
STEP.FT                          50.00000 : STEP LENGTH
NULL.                             -999.25 : NULL VALUE
COMP.        CANADIAN HOMESTEAD OILS LTD. : COMPANY
WELL. HOMESTEAD RB ANTE CREEK 10-20-65-23 : WELL
FLD .                                     : FIELD
LOC .                                     : LOCATION
CTRY.                              CANADA : COUNTRY
SRVC.              Schlumberger of Canada : SERVICE COMPANY
DATE.                         17-Apr-1963 : LOGDATE
PROV.                             Alberta : PROVINCE
UWI .                    100102006523W500 : UNIQUE WELL ID
SLAT.WGS84                       54.64192 : SURFACE LATITUDE
SLON.WGS84                      -117.4369 : SURFACE LONGITUDE
~Curve Information -----------------------------------------
DEPT  .FT    : Depth Curve
CALSED.IN    : CALIPER FROM SONIC LOG
CALWS .IN    : CALIPER [CALSED]
CILDED.MMHO  : DEEP INDUCTION CONDUCTIVITY FROM RESISTIVITY LOG
CONDWS.MMHO  : CONDUCTIVITY [1000/DRESWS]
DRESWS.OHMM  : DEEP RESISTIVITY [1000/CILDED,IF ILDED<3,ILDED]
DT1ED .US/F  : DELTA TIME (3' SPACING-1' PICK UP SPAN) FROM SONIC LOG
DTED  .US/F  : DELTA TIME (3' SPACING-3' PICK UP SPAN) FROM SONIC LOG
DTWS  .US/F  : COMPRESSIONAL SONIC [DTED]
GRSED .GAPI  : GAMMA RAY FROM SONIC LOG
GRWS  .GAPI  : GAMMA RAY [GRSED]
ILDED .OHMM  : DEEP INDUCTION RESISTIVITY FROM RESISTIVITY LOG
SNED  .OHMM  : 16 INCH  SHORT NORMAL FROM RESISTIVITY LOG
SPRED .MV    : SPONTANEOUS POTENTIAL FROM RESISTIVITY LOG
SPWS  .MV    : SPONTANEOUS POTENTIAL [BASELINE 0 MV,SPRED]
SRESWS.OHMM  : SHALLOW RESISTIVITY [SNED]
~Params ----------------------------------------------------
PD  .                     GL : PERMANENT DATUM
EPD .FT                 2567 : ELEVATION PERMANENT DATUM
LMF .                     KB : LOG MEASURED FROM
DAPD.FT                   14 : FEET ABOVE PERMANENT DATUM
EKB .FT                 2581 : KELLY BUSHING
EGL .FT                 2567 : GROUND LEVEL
DATE.               04/17/69 : RUN DATE
RUN .                      1 : RUN NUMBER
DD  .FT                11135 : DEPTH DRILLER
DL  .FT                11136 : DEPTH LOGGER
BLI .FT                11135 : BOTTOM LOG INTERVAL
TLI .FT                 1229 : TOP LOG INTERVAL
CBD .FT                 1228 : CASING BOTTOM DRILLER
CBL .FT                 1229 : CASING BOTTOM LOGGER
BS  .IN                    9 : BIT SIZE
BSD .FT                11135 : BIT SIZE AT DEPTH
DFT .           GEL CHEMICAL : DRILLING FLUID TYPE
DFD .                     10 : DRILLING FLUID DENSITY
DFV .                     95 : DRILLING FLUID VISCOSITY
DFPH.                      8 : DRILLING FLUID PH
DFL .                   13.2 : DRILLING FLUID LOSS
RMS .OHMM                3.5 : RESISTIVITY MUD SAMPLE
MST .DEGF                 50 : MUD SAMPLE TEMPERATURE
RMF .OHMM                3.3 : RESISTIVITY MUD FILTRATE SAMPLE
MFST.DEGF                 54 : MUD FILTRATE SAMPLE TEMPERATURE
RMC .OHMM                3.6 : RESISTIVITY MUD CAKE
MCST.DEGF                 54 : MUD CAKE SAMPLE TEMPERATURE
RMB .OHMM               0.88 : RESISTIVITY MUD AT BHT
TCS .HRS                   6 : TIME CIRCULATED STOPPED
LUN .                DSU A 9 : LOGGING UNIT NUMBER
ENGI.                MCKEOWN : RECORDING ENGINEER
WITN.                   EARL : WITNESSED BY
CLNT.                A2DTECH : CLIENT CODE
ORIG.            2" 5" PRINT : ORIGIN OF DATA
UWI .       100102006523W500 : UNIQUE WELL ID
DICO. A2D Technologies, Inc. : DIGITIZING COMPANY
~Other -----------------------------------------------------
IEL-BCS LOG RUN
ALL IEL DATA FROM TOP TO 4286' FROM SMALL SCALE SECTION
~ASCII -----------------------------------------------------
# ...
 3500.00000   12.17810   12.17810  141.45290  141.46270    7.06900    -999.25   95.29890   95.29890  142.02520  142.02520    7.06900    6.73780 -161.44050   -2.23080    6.73780
 3550.00000   11.78490   11.78490  103.99460  100.20440    9.97960    -999.25   86.13300   86.13300  120.24180  120.24180    9.97960    9.39180 -160.64340   -2.04830    9.39180
 3600.00000    8.15780    8.15780   72.90090   71.34750   14.01590    -999.25   92.86620   92.86620  122.15950  122.15950   14.01590   18.09800 -195.53310  -37.45090   18.09800
 3650.00000   12.36230   12.36230  101.61300  102.78230    9.72930    -999.25   83.96370   83.96370  150.91720  150.91720    9.72930   10.22970 -160.35190   -2.58510   10.22970
 3700.00000   12.02200   12.02200   94.30460   89.93210   11.11950    -999.25   81.82050   81.82050  147.04960  147.04960   11.11950   11.07920 -159.54960   -2.47100   11.07920
 3750.00000   11.30540   11.30540  117.31900  111.32390    8.98280    -999.25   83.13840   83.13840  153.57750  153.57750    8.98280    8.16290 -158.63060   -2.39990    8.16290
 3800.00000   10.67280   10.67280  112.83480  106.85240    9.35870    -999.25   87.85540   87.85540  153.24330  153.24330    9.35870    8.33920 -158.44610   -3.06330    8.33920
 3850.00000   10.67830   10.67830  146.60970  141.19710    7.08230    -999.25  101.16500  101.16500  156.31930  156.31930    7.08230    7.28440 -158.42020   -3.88530    7.28440
 3900.00000   11.13690   11.13690  142.68990  134.86360    7.41490    -999.25   95.85060   95.85060  156.33180  156.33180    7.41490    7.79040 -156.15190   -2.46490    7.79040
 3950.00000   11.19290   11.19290  146.09380  141.84200    7.05010    -999.25   96.76390   96.76390  169.05100  169.05100    7.05010    7.70600 -154.82140   -1.98230    7.70600
 4000.00000   11.15570   11.15570  129.42510  123.39590    8.10400    -999.25   95.97520   95.97520  165.39750  165.39750    8.10400    9.06330 -153.68350   -1.69230    9.06330
 4050.00000   11.18050   11.18050  129.89830  123.13300    8.12130    -999.25   94.67600   94.67600  162.32730  162.32730    8.12130    9.13250 -153.46960   -2.43390    9.13250
 4100.00000   10.15820   10.15820   80.06120   76.42100   13.08540    -999.25   87.85470   87.85470  166.02670  166.02670   13.08540   14.79670 -152.91030   -2.95130   14.79670
 4150.00000   10.89530   10.89530  101.89890   99.52630   10.04760    -999.25   94.66220   94.66220  150.02000  150.02000   10.04760   11.16530 -151.17100   -2.28880   11.16530
 4200.00000   10.51190   10.51190   70.39800   68.77580   14.54000    -999.25   78.29840   78.29840  155.37700  155.37700   14.54000   17.13360 -149.10620   -1.30070   17.13360
 4250.00000   11.71030   11.71030  123.77960  117.14540    8.53640    -999.25   96.39970   96.39970  151.39720  151.39720    8.53640   10.39330 -149.10580   -2.03840   10.39330
 4300.00000   10.45860   10.45860  100.78990   93.69350   10.67310    -999.25  100.79990  100.79990  175.91750  175.91750   10.67310   15.28430 -148.51800   -1.81570   15.28430
 4350.00000   12.02680   12.02680  159.24370  149.97900    6.66760    -999.25   84.81030   84.81030  141.69290  141.69290    6.66760    7.34780 -149.96050   -3.62930    7.34780
 4400.00000   11.59740   11.59740  158.93340  152.61580    6.55240    -999.25   86.81680   86.81680  142.63460  142.63460    6.55240    7.24470 -148.57000   -2.60980    7.24470
 4450.00000   10.71040   10.71040  111.83820  105.03870    9.52030    -999.25   84.08150   84.08150  136.31740  136.31740    9.52030   11.25380 -147.16880   -1.57970   11.25380
 4500.00000   10.63420   10.63420  115.12770  108.87550    9.18480    -999.25   86.80730   86.80730  148.46230  148.46230    9.18480   10.33570 -147.13000   -1.91190   10.33570
 4550.00000   10.85670   10.85670  155.60930  146.38720    6.83120    -999.25   89.51840   89.51840  145.71700  145.71700    6.83120    7.79030 -146.07720   -1.79300    7.79030
 4600.00000   11.74610   11.74610  188.43840  177.58840    5.63100    -999.25   83.62780   83.62780  137.75250  137.75250    5.63100    5.89900 -144.95830   -1.66370    5.89900
 4650.00000   11.34630   11.34630  124.78330  116.77330    8.56360    -999.25   78.87560   78.87560  131.43780  131.43780    8.56360    9.17610 -145.99110   -3.68610    9.17610
 4700.00000   12.32880   12.32880  213.47970  195.60670    5.11230    -999.25   87.49490   87.49490  124.39130  124.39130    5.11230    5.32560 -144.89110   -3.57560    5.32560
 4750.00000   11.87930   11.87930  210.04300  198.35760    5.04140    -999.25   82.44350   82.44350  126.50720  126.50720    5.04140    5.62040 -144.79200   -4.46610    5.62040
 4800.00000   12.10880   12.10880  333.97710  309.06170    3.23560    -999.25  104.11970  104.11970  145.51050  145.51050    3.23560    3.67340 -142.37440   -3.03810    3.67340
 4850.00000   12.73010   12.73010  372.20290  372.20290    2.68670    -999.25  104.42400  104.42400  131.71700  131.71700    2.89960    3.27380 -141.51310   -2.97030    3.27380
 4900.00000   12.59570   12.59570  391.00010  391.00010    2.55750    -999.25  122.08420  122.08420  114.23290  114.23290    2.73930    3.13160 -143.47260   -5.67430    3.13160
 4950.00000   12.30460   12.30460  207.53700  193.12850    5.17790    -999.25   90.38870   90.38870  138.01110  138.01110    5.17790    5.55660 -139.19120   -2.13740    5.55660
 5000.00000   12.38640   12.38640  283.96330  254.09730    3.93550    -999.25   95.03320   95.03320  143.80890  143.80890    3.93550    4.29780 -139.60050   -3.29120    4.29780
 5050.00000   10.95030   10.95030   89.22400   80.15070   12.47650    -999.25   79.99670   79.99670  133.06440  133.06440   12.47650   12.91270 -138.89560   -3.33080   12.91270
 5100.00000    8.59650    8.59650   58.16650   52.65790   18.99050    -999.25   76.39020   76.39020   97.31100   97.31100   18.99050   25.02610 -177.99330  -43.17300   25.02610
 5150.00000   12.96430   12.96430  261.85410  216.32850    4.62260    -999.25  100.89350  100.89350  114.60640  114.60640    4.62260    5.07950 -139.19960   -5.12380    5.07950
 5200.00000   11.25530   11.25530  121.44370  111.12960    8.99850    -999.25  102.18930  102.18930  124.62920  124.62920    8.99850   11.86270 -136.43710   -3.10580   11.86270
 5250.00000   11.93540   11.93540  148.53870  129.81450    7.70330    -999.25   62.60870   62.60870   99.21410   99.21410    7.70330    9.10310 -136.72210   -4.13530    9.10310
 5300.00000   12.66840   12.66840  103.69910   95.12760   10.51220    -999.25   84.26380   84.26380  125.53490  125.53490   10.51220   12.32050 -137.10700   -5.26470   12.32050
 5350.00000   12.94540   12.94540  117.37520  105.83130    9.44900    -999.25  100.29590  100.29590  122.93870  122.93870    9.44900   10.28340 -133.61220   -3.68570   10.28340
 5400.00000   11.35700   11.35700   54.77980   50.85540   19.66360    -999.25   77.76630   77.76630  103.53180  103.53180   19.66360   29.88480 -137.70280  -10.29800   29.88480
 5450.00000    8.56780    8.56780   49.44050   43.68800   22.88960    -999.25   80.82970   80.82970   66.68350   66.68350   22.88960   30.60710 -158.49130  -34.22820   30.60710
 5500.00000   11.52150   11.52150   55.71570   47.62240   20.99850    -999.25   86.03250   86.03250   95.42200   95.42200   20.99850   24.51240 -125.20350   -4.08210   24.51240
 5550.00000   11.96980   11.96980   68.53250   61.35910   16.29750    -999.25   77.38740   77.38740   86.21900   86.21900   16.29750   19.82430 -130.74040  -12.76070   19.82430
 5600.00000   11.19710   11.19710   84.84270   77.18910   12.95520    -999.25   74.63820   74.63820  128.74310  128.74310   12.95520   17.27830 -118.77750   -3.93950   17.27830
 5650.00000    9.20630    9.20630   66.06280   58.58810   17.06830    -999.25   73.98130   73.98130  109.54300  109.54300   17.06830   26.30710 -151.74020  -38.70220   26.30710
 5700.00000   10.95120   10.95120   74.86830   66.79490   14.97120    -999.25   74.26600   74.26600  113.67470  113.67470   14.97120   17.27640 -122.98180  -11.50700   17.27640
 5750.00000   10.96420   10.96420   76.56740   68.79420   14.53610    -999.25   73.80120   73.80120   98.23550   98.23550   14.53610   19.23290 -128.54990  -18.63830   19.23290
