~Version ---------------------------------------------------
VERS. 2.0 : CWLS log ASCII Standard -VERSION 2.0
WRAP.  NO : ONE LINE PER DEPTH STEP
~Well ------------------------------------------------------
STRT.F                             1150.0 : START DEPTH
STOP.F                            11550.0 : STOP DEPTH
STEP.F                           50.00000 : STEP LENGTH
NULL.                             -999.25 : NULL VALUE
COMP.    AMOCO CANADA PETROLEUM CO., LTD. : COMPANY
WELL. AMOCO HB FINA SOUTH FORK 10-8-59-19 : WELL
FLD .                                     : FIELD
LOC .                                     : LOCATION
CTRY.                              CANADA : COUNTRY
SRVC.                        Schlumberger : SERVICE COMPANY
DATE.                         10-Oct-1977 : LOGDATE
PROV.                             Alberta : PROVINCE
UWI .                    100100805919W500 : UNIQUE WELL ID
SLAT.WGS84                       54.08913 : SURFACE LATITUDE
SLON.WGS84                      -116.8085 : SURFACE LONGITUDE
~Curve Information -----------------------------------------
DEPT   .F                 : 
GRD    .GAPI 45 310 01 00 : GAMMA RAY FROM DENSITY LOG
CALD   .IN   45 280 60 00 : CALIPER FROM DENSITY LOG
DCOR   .G/C3 45 356 01 00 : DENSITY CORRECTION
NPHI_SS.DEC  42 890 03 00 : NEUTRON POROSITY SANDSTONE
DPHI_SS.DEC  45 890 12 00 : DENSITY POROSITY SANDSTONE
ILD    .OHMM 07 120 46 00 : INDUCTION DEEP RESISTIVITY
ILM    .OHMM 07 120 44 00 : INDUCTION MEDIUM RESISTIVITY
LL8    .OHMM 07 220 08 00 : LATEROLOG 8
SPR    .MV   07 010 01 00 : SPONTANEOUS POTENTIAL FROM RESISTIVITY LOG
GRS    .GAPI 60 310 01 00 : GAMMA RAY FROM SONIC LOG
DT     .US/F 60 500 00 00 : DELTA-T (INTERVAL TRANSIT TIME)
CALS   .IN   60 280 50 00 : CALIPER FROM SONIC LOG
RHOB   .G/C3 45 350 01 00 : BULK DENSITY
NPHI_LS.DEC  42 890 01 00 : NEUTRON POROSITY LIMESTONE
DPHI_LS.DEC  45 890 10 00 : DENSITY POROSITY LIMESTONE
~Params ----------------------------------------------------
PD  .                     GL : PERMANENT DATUM
EPD .FT                 2976 : ELEVATION PERMANENT DATUM
LMF .                     KB : LOG MEASURED FROM
DAPD.FT                 20.7 : FEET ABOVE PERMANENT DATUM
EKB .FT               2996.7 : KELLY BUSHING
EGL .FT                 2976 : GROUND LEVEL
DATE.               10/10/77 : RUN DATE
RUN .                      1 : RUN NUMBER
DD  .FT                11577 : DEPTH DRILLER
DL  .FT                11569 : DEPTH LOGGER
BLI .FT                11563 : BOTTOM LOG INTERVAL
TLI .FT                 1534 : TOP LOG INTERVAL
CBD .FT                 1535 : CASING BOTTOM DRILLER
CBL .FT                 1534 : CASING BOTTOM LOGGER
BS  .IN                 8.75 : BIT SIZE
BSD .FT                11577 : BIT SIZE AT DEPTH
DFT .                    GEL : DRILLING FLUID TYPE
DFD .                      9 : DRILLING FLUID DENSITY
DFV .                     80 : DRILLING FLUID VISCOSITY
DFPH.                    8.5 : DRILLING FLUID PH
DFL .                    8.8 : DRILLING FLUID LOSS
MSS .               FLOWLINE : MUD SAMPLE SOURCE
RMS .OHMM               2.24 : RESISTIVITY MUD SAMPLE
MST .DEGF                 54 : MUD SAMPLE TEMPERATURE
RMF .OHMM               1.98 : RESISTIVITY MUD FILTRATE SAMPLE
MFST.DEGF                 64 : MUD FILTRATE SAMPLE TEMPERATURE
TCS .HRS                   3 : TIME CIRCULATED STOPPED
LUN .                   7772 : LOGGING UNIT NUMBER
LUL .                    EDM : LOGGING UNIT LOCATION
ENGI.         BERNISKY TRACY : RECORDING ENGINEER
WITN.                 NEWELL : WITNESSED BY
CLNT.                A2DTECH : CLIENT CODE
ORIG.            2" 5" PRINT : ORIGIN OF DATA
UWI .       100100805919W500 : UNIQUE WELL ID
DICO. A2D Technologies, Inc. : DIGITIZING COMPANY
~Other -----------------------------------------------------
~ASCII -----------------------------------------------------
# ...
 5750.00000  143.25600    9.03650    0.05630    0.38140    0.01910   14.03070   14.80280   19.90080  -85.42680  135.69440   87.54520    9.20350    2.62530    -999.25    -999.25
 5800.00000  142.28090    9.20140    0.00510    0.35750    0.03970   38.90060   30.61830   58.28760  -83.04950  141.03980   84.73820    8.63610    2.55920    -999.25    -999.25
 5850.00000  117.65150   10.58000    0.26430    0.37580    0.21170    8.74510    9.32480   11.25080  -82.48170  124.57050   87.39330    9.20410    2.26170    -999.25    -999.25
 5900.00000  174.50630   10.10880    0.26490    0.41360    0.22580   16.03410   16.83400   24.85540  -86.45470  161.38800   99.47620    8.96470    2.25830    -999.25    -999.25
 5950.00000  104.37890   10.83290    0.25810    0.30550    0.17860    7.96280    8.29390    9.53560  -85.75920  101.77380   79.73260    9.26690    2.39840    -999.25    -999.25
 6000.00000  124.05900   10.30090    0.26680    0.32460    0.19190    7.85500    8.26950   10.05560  -92.53450  112.54880   84.37660    9.28450    2.35010    -999.25    -999.25
 6050.00000  122.14630    9.71060    0.26380    0.31340    0.22470    9.89570   10.40910   12.19910  -91.69680  114.31890   77.76690    8.69960    2.38340    -999.25    -999.25
 6100.00000  108.39570    9.29570    0.00730    0.25390    0.01620   10.41250   11.32510   12.46400  -94.15740  106.32990   73.90240    9.18850    2.59020    -999.25    -999.25
 6150.00000  118.88430    9.96980    0.12730    0.31550   -0.00810    8.67340    9.07510   10.52530  -95.17910  118.52910   79.03860    9.52120    2.65600    -999.25    -999.25
 6200.00000  122.42750   10.74730    0.12610    0.34580    0.07320    6.73460    7.02230    8.46630 -102.81160  119.92210   81.32450   10.15350    2.51630    -999.25    -999.25
 6250.00000  153.24470   11.52960    0.24530    0.37080    0.16330    7.33730    7.93080    9.79340  -93.85140  147.15080   90.06410    9.43330    2.39920    -999.25    -999.25
 6300.00000  143.66950   13.76260    0.22850    0.34310    0.14810    6.22120    6.57290    8.32550  -89.69910  135.02180   91.35950   10.05920    2.44950    -999.25    -999.25
 6350.00000  131.74830   14.28470    0.12180    0.39480    0.12810    4.31310    4.63890    5.61900  -83.77040  129.07110   89.91300    9.88190    2.42850    -999.25    -999.25
 6400.00000  125.10070   14.39370    0.10740    0.33820    0.14090    6.23060    6.48480    8.11540  -83.06950  116.69020   85.84320    9.90750    2.45020    -999.25    -999.25
 6450.00000  122.00640    9.75500    0.26010    0.28450    0.22110    8.69780    9.63140   10.74740  -84.11660  118.18010   76.84490    9.22650    2.29720    -999.25    -999.25
 6500.00000   71.54520    9.32730    0.04920    0.14670   -0.00790   20.58600   19.60220   22.16030  -97.26170   59.36810   66.09670    8.55650    2.68140    -999.25    -999.25
 6550.00000   99.99960   11.16860    0.26570    0.23480    0.12610   13.33440   12.69010   15.58220  -82.01400  101.12950   74.10150    9.46860    2.53180    -999.25    -999.25
 6600.00000   55.33920   11.00230    0.10290    0.22010    0.03580   15.79980   15.25950   15.84430  -80.60360   66.85990   73.33790    9.50080    2.56350    -999.25    -999.25
 6650.00000   89.72550   13.49510    0.15060    0.45130    0.43270   10.72740   13.26860   17.84350  -89.56210   97.41560   97.80080   10.84320    1.79660    -999.25    -999.25
 6700.00000  101.01110   12.33170    0.14610    0.44810    0.17620    9.42170   10.39570   14.07630  -93.88290   98.46350   98.75320    9.93760    2.42330    -999.25    -999.25
 6750.00000   92.71990    9.60780    0.01380    0.42110    0.16990   14.68740   13.86660   20.38840  -88.55440  104.23430   78.25610    9.74080    2.29490    -999.25    -999.25
 6800.00000   96.86980    9.82540    0.00530    0.27100    0.00970   13.81780   13.19440   16.25180  -83.00630   84.79690   71.77270    9.38160    2.59790    -999.25    -999.25
 6850.00000   95.21900    9.44880    0.01070    0.39890    0.17230   15.44700   14.40180   31.82840 -102.71740   95.56620   87.57210    9.76500    2.31910    -999.25    -999.25
 6900.00000   48.65730    9.14930    0.02010    0.11680   -0.00870   60.32650   39.85460  126.32920 -119.40300   32.70460   56.50430    8.76350    2.69130    -999.25    -999.25
 6950.00000   88.10600    9.17410    0.11220    0.29530   -0.00820   18.11120   16.32150   23.53700 -103.77530   93.19730   71.77220    8.99100    2.65950    -999.25    -999.25
 7000.00000   70.58650    9.90500    0.11850    0.24960    0.19060   10.40990    9.82580   11.54440 -105.64770   85.62330   72.44030    9.02410    2.50460    -999.25    -999.25
 7050.00000   93.26530    9.33840    0.03840    0.23540   -0.00930   16.44500   15.54950   20.46190 -101.08950   90.86190   69.34670    8.98780    2.65460    -999.25    -999.25
 7100.00000   93.93610    9.28180    0.07190    0.27180   -0.00950   16.86150   15.85870   19.96790  -98.57670   93.00190   70.36490    8.87900    2.67830    -999.25    -999.25
 7150.00000   87.47860    9.06710    0.00950    0.18870    -999.25   25.87260   23.15140   35.17020  -93.28700   72.25810   64.93340    8.69610    2.68150    -999.25    -999.25
 7200.00000  102.63520    9.97950    0.26680    0.27220    0.12010   12.98290   11.47020   14.87620  -75.33010   92.37250   73.48900    8.89870    2.46640    -999.25    -999.25
 7250.00000   95.48770    9.55230    0.21310    0.26130    0.04330   17.55710   16.54120   22.91360  -68.96410   94.94200   70.05750    8.93300    2.60370    -999.25    -999.25
 7300.00000   68.32130    9.50580    0.13520    0.21460    0.08300   19.18210   25.29270   42.31430  -82.57800   87.92890   70.81570    8.91360    2.58740    -999.25    -999.25
 7350.00000  105.65040    9.93490    0.18000    0.25270    0.07580   18.50350   16.81520   25.40300  -91.99750  112.88610   70.50170    8.92390    2.46740    -999.25    -999.25
 7400.00000   69.47790    8.95810    0.05250    0.16550    0.02380   23.18210   21.60690   29.05870 -124.09340   94.27540   66.55910    8.69330    2.59350    -999.25    -999.25
 7450.00000   84.65610   10.01830    0.24770    0.25470    0.10280   18.46950   19.20630   22.20330 -105.76880   86.48050   69.57440    9.35550    2.47840    -999.25    -999.25
 7500.00000   86.50820   10.19140    0.26620    0.28570    0.12090   13.70710   12.50520   17.79660  -96.47890  117.11540   77.99070    8.63250    2.46920    -999.25    -999.25
 7550.00000  121.94190   11.34420    0.26490    0.36000    0.20420   13.65070   12.36220   17.29690  -97.29460   96.09900   71.61450    9.03390    2.33760    -999.25    -999.25
 7600.00000  106.28770   11.15500    0.24560    0.40940    0.26040    7.62040    7.28980    9.64830  -97.20430  108.87600   81.90670   10.17130    2.18270    -999.25    -999.25
 7650.00000  113.97050   11.41460    0.15510    0.47010    0.19940    4.01230    4.31070    6.40270 -109.36440   94.83020  101.75240   10.56170    2.29980    -999.25    0.21780
 7700.00000   39.12740    8.81310    0.03090    0.12000    0.07080  185.07530   98.41400  459.15590 -124.50380   37.27410   60.89900    8.18810    2.56600    0.09970    0.09310
 7750.00000  197.55150    8.80600    0.00740    0.08570    0.00810  281.07780  168.99600 1225.68040 -133.86880   47.81560   54.76530    8.59310    2.60810    0.04760    0.05050
 7800.00000   85.65010    9.00310    0.03770    0.13400    0.04930   52.08860   59.20730   76.39780 -142.58900   79.07500   63.09500    8.68190    2.57320    0.08910    0.08430
 7850.00000   69.69600    8.93820   -0.03680    -999.25    -999.25   73.90440   65.94790   80.61750 -126.21350   64.64790   98.57290    8.71520    2.58470    0.10400    0.07380
 7900.00000   92.88940    9.02520   -0.00900    -999.25    -999.25   41.77390   35.77900   47.96740 -125.70370   94.45830   57.61800    8.75370    2.70370    0.06980    0.00070
 7950.00000   17.16140    8.76440   -0.07980    -999.25    -999.25   70.96390   29.56690  540.04570 -184.37380   14.69220   50.44140    8.45070    2.70500    0.09190    0.00800
 8000.00000   19.64350    8.73290   -0.20140    -999.25    -999.25  131.19560   83.65920  414.36110 -158.19940   17.43590   49.24200    8.53830    2.72230    0.12810   -0.01050
