~Version ---------------------------------------------------
VERS.      2.0 : CWLS log ASCII Standard -VERSION 2.0
WRAP.       NO : One line per depth step
CREA. 11/16/17 : LAS Creation Date
~Well ------------------------------------------------------
STRT.FT                         1050.0 : START DEPTH
STOP.FT                        10100.0 : STOP DEPTH
STEP.FT                       50.00000 : STEP LENGTH
NULL.                          -999.25 : NULL VALUE
COMP.             PETROFINA CANADA LTD : COMPANY
WELL.        FINA ET AL WIND 7-7-61-16 : WELL
FLD .                                  : FIELD
LOC .                                  : LOCATION
CTRY.                           CANADA : COUNTRY
SRVC. Schlumberger Well Surveying Corp : SERVICE COMPANY
DATE.                      23-Jan-1978 : LOGDATE
PROV.                          Alberta : PROVINCE
UWI .                 100070706116W500 : UNIQUE WELL ID
SLAT.WGS84                    54.25864 : SURFACE LATITUDE
SLON.WGS84                    -116.383 : SURFACE LONGITUDE
~Curve Information -----------------------------------------
DEPT    .FT    : Depth Curve
CALDED  .IN    : CALIPER FROM DENSITY LOG [ADJ.TO RESISTIVITY LOG]
CALSED  .IN    : CALIPER FROM SONIC LOG [ADJ.TO RESISTIVITY LOG]
CALWS   .IN    : CALIPER [CALSED]
CONDWS  .MMHO  : CONDUCTIVITY [1000/DRESWS]
DCORWS  .G/C3  : DENSITY CORRECTION [DRHOED]
DENWS   .G/C3  : FORMATION BULK DENSITY [RHOBED]
DPHILSED.V/V   : DENSITY POROSITY LIMESTONE [M=2.71, F=1.00] FROM DENSITY LOG [ADJ.TO RESISTIVITY LOG]
DPHISSED.V/V   : DENSITY POROSITY SANDSTONE [M=2.65, F=1.00] FROM DENSITY LOG [ADJ.TO RESISTIVITY LOG]
DPOLSWS .V/V   : DENSITY POROSITY LIMESTONE [CALC FROM DENWS, M=2.71, F=1.00]
DRESWS  .OHMM  : DEEP RESISTIVITY [ILDED]
DRHOED  .G/C3  : DENSITY CORRECTION FROM DENSITY LOG [ADJ.TO RESISTIVITY LOG]
DTED    .US/F  : DELTA TIME FROM SONIC LOG [ADJ.TO RESISTIVITY LOG]
DTWS    .US/F  : COMPRESSIONAL SONIC [DTED]
GRDED   .GAPI  : GAMMA RAY FROM DENSITY LOG [ADJ.TO RESISTIVITY LOG]
GRDRED  .GAPI  : GAMMA RAY [FROM REPEAT SECTION] FROM DENSITY LOG [ADJ.TO RESISTIVITY LOG]
GRSED   .GAPI  : GAMMA RAY FROM SONIC LOG [ADJ.TO RESISTIVITY LOG]
GRSRED  .GAPI  : GAMMA RAY [FROM REPEAT SECTION] FROM SONIC LOG [ADJ.TO RESISTIVITY LOG]
GRWS    .GAPI  : GAMMA RAY [GRSED SPL.TO GRSRED @ 10087.5']
ILDED   .OHMM  : DEEP INDUCTION FROM RESISTIVITY LOG
ILMED   .OHMM  : MEDIUM INDUCTION FROM RESISTIVITY LOG
LL8ED   .OHMM  : LATEROLOG 8 FROM RESISTIVITY LOG
MRESWS  .OHMM  : MEDIUM RESISTIVITY [ILMED]
NPHILSED.V/V   : NEUTRON POROSITY LIMESTONE FROM DENSITY LOG [ADJ.TO RESISTIVITY LOG]
NPHISSED.V/V   : NEUTRON POROSITY SANDSTONE FROM DENSITY LOG [ADJ.TO RESISTIVITY LOG]
NPOLSWS .V/V   : NEUTRON POROSITY LIMESTONE [NPHISSED MATRIX (SLB) CONVERSION FOR LIMESTONE, SPL.TO NPHILSED @ 6298']
RHOBED  .G/C3  : BULK DENSITY FROM DENSITY LOG [ADJ.TO RESISTIVITY LOG]
SPRED   .MV    : SPONTANEOUS POTENTIAL FROM RESISTIVITY LOG
SPWS    .MV    : SPONTANEOUS POTENTIAL [BASELINE 0 MV, SPRED]
SRESWS  .OHMM  : SHALLOW RESISTIVITY [LL8ED]
~Params ----------------------------------------------------
PD  .                     GL : PERMANENT DATUM
EPD .FT               2840.2 : ELEVATION PERMANENT DATUM
LMF .                     KB : LOG MEASURED FROM
DAPD.FT                 13.8 : FEET ABOVE PERMANENT DATUM
EKB .FT                 2854 : KELLY BUSHING
EGL .FT               2840.2 : GROUND LEVEL
DATE.               01/23/78 : RUN DATE
RUN .                      1 : RUN NUMBER
DD  .FT                10130 : DEPTH DRILLER
DL  .FT                10136 : DEPTH LOGGER
BLI .FT                10130 : BOTTOM LOG INTERVAL
TLI .FT                 1041 : TOP LOG INTERVAL
CBD .FT                 1041 : CASING BOTTOM DRILLER
CBL .FT                 1041 : CASING BOTTOM LOGGER
BS  .IN                7.875 : BIT SIZE
BSD .FT                10130 : BIT SIZE AT DEPTH
DFT .               GEL CHEM : DRILLING FLUID TYPE
DFD .                    9.1 : DRILLING FLUID DENSITY
DFV .                     88 : DRILLING FLUID VISCOSITY
DFPH.                    9.6 : DRILLING FLUID PH
DFL .                      6 : DRILLING FLUID LOSS
MSS .               FLOWLINE : MUD SAMPLE SOURCE
RMF .OHMM                2.1 : RESISTIVITY MUD FILTRATE SAMPLE
MFST.DEGF                 61 : MUD FILTRATE SAMPLE TEMPERATURE
RMB .OHMM               0.67 : RESISTIVITY MUD AT BHT
TCS .HRS                 2.5 : TIME CIRCULATED STOPPED
LUN .                   7730 : LOGGING UNIT NUMBER
LUL .                    EDM : LOGGING UNIT LOCATION
ENGI.               CAMPBELL : RECORDING ENGINEER
WITN.                  SMITH : WITNESSED BY
CLNT.                A2DTECH : CLIENT CODE
ORIG.            2" 5" PRINT : ORIGIN OF DATA
UWI .       100070706116W500 : UNIQUE WELL ID
DICO. A2D Technologies, Inc. : DIGITIZING COMPANY
~Other -----------------------------------------------------
~ASCII -----------------------------------------------------
# ...
 4800.00000   10.55960   10.29560   10.29560  176.83470    0.19250    2.43550    -999.25    0.13270    0.16050    5.65500    0.19250   90.54180   90.54180  121.47260    -999.25  136.73240    -999.25  136.73240    5.65500    5.35670    6.51400    5.35670    -999.25    0.43530    0.39320    2.43550  -77.94620   -2.14310    6.51400
 4850.00000   10.51060    9.75570    9.75570  184.74300    0.24130    2.42630    -999.25    0.13100    0.16590    5.41310    0.24130   86.13920   86.13920  117.63540    -999.25  145.16870    -999.25  145.16870    5.41310    5.19170    6.36180    5.19170    -999.25    0.38250    0.33930    2.42630  -76.49930   -1.32320    6.36180
 4900.00000   10.56170    9.95500    9.95500  150.33980    0.19530    2.39150    -999.25    0.14040    0.18630    6.65160    0.19530   83.93190   83.93190  115.58020    -999.25  127.38040    -999.25  127.38040    6.65160    6.48620    7.60480    6.48620    -999.25    0.38150    0.33830    2.39150  -75.93940   -1.69640    7.60480
 4950.00000   10.65540   10.07730   10.07730  141.80310    0.14170    2.44660    -999.25    0.11780    0.15410    7.05200    0.14170   83.91700   83.91700  119.56460    -999.25  127.78410    -999.25  127.78410    7.05200    6.87580    8.15040    6.87580    -999.25    0.34820    0.30450    2.44660  -75.94200   -2.01580    8.15040
 5000.00000   10.82000   10.07700   10.07700  141.84600    0.18930    2.50900    -999.25    0.09760    0.11750    7.04990    0.18930   81.63250   81.63250  113.51360    -999.25  134.34260    -999.25  134.34260    7.04990    6.87440    8.38460    6.87440    -999.25    0.37130    0.32790    2.50900  -74.99330   -1.75640    8.38460
 5050.00000   11.15000   10.65090   10.65090  225.38770    0.16540    2.29500    -999.25    0.21580    0.24270    4.43680    0.16540   94.93380   94.93380  113.76370    -999.25  138.03250    -999.25  138.03250    4.43680    4.25740    5.59130    4.25740    -999.25    0.49430    0.45420    2.29500  -73.95970   -1.98960    5.59130
 5100.00000   11.17730   10.29290   10.29290  279.07360    0.19090    2.31080    -999.25    0.20480    0.23340    3.58340    0.19090   99.83990   99.83990  141.06060    -999.25  162.54780    -999.25  162.54780    3.58340    3.46810    4.83980    3.46810    -999.25    0.42490    0.38250    2.31080  -72.56960   -1.76400    4.83980
 5150.00000   10.59010    9.66390    9.66390  350.10330    0.11710    2.30330    -999.25    0.20630    0.23780    2.85630    0.11710   96.10000   96.10000  124.08800    -999.25  139.79430    -999.25  139.79430    2.85630    2.62650    3.33930    2.62650    -999.25    0.44870    0.40700    2.30330  -72.37670   -2.30170    3.33930
 5200.00000   10.58060   10.16550   10.16550  265.65120    0.14240    2.38230    -999.25    0.16220    0.19160    3.76440    0.14240   91.30880   91.30880  120.25700    -999.25  124.94200    -999.25  124.94200    3.76440    3.56120    4.66760    3.56120    -999.25    0.41620    0.37370    2.38230  -72.37910   -2.62090    4.66760
 5250.00000    9.58120    9.45880    9.45880  176.31400    0.07000    2.54830    -999.25    0.06160    0.09460    5.67170    0.07000   85.98330   85.98330  113.22590    -999.25  132.46230    -999.25  132.46230    5.67170    5.51470    7.54140    5.51470    -999.25    0.36080    0.31730    2.54830  -72.33820   -3.04380    7.54140
 5300.00000    8.61430    8.24210    8.24210   78.13970    0.09010    2.46390    -999.25    0.10970    0.14390   12.79760    0.09010   71.83900   71.83900   37.57190    -999.25   43.16660    -999.25   43.16660   12.79760   14.45460   20.79750   14.45460    -999.25    0.19810    0.15470    2.46390 -111.23750  -41.52600   20.79750
 5350.00000   10.21500   10.58270   10.58270  322.55280    0.15890    2.31280    -999.25    0.21000    0.23230    3.11470    0.15890   86.20520   86.20520   87.88330    -999.25  102.44380    -999.25  102.44380    3.11470    2.92260    5.20160    2.92260    -999.25    0.44950    0.40770    2.31280  -72.36300   -2.32280    5.20160
 5400.00000    9.70820    9.88080    9.88080   89.51510    0.03130    2.58100    -999.25    0.04050    0.07540   11.17130    0.03130   73.46210   73.46210   74.70520    -999.25   77.98640    -999.25   77.98640   11.17130   11.54470   12.73020   11.54470    -999.25    0.26640    0.22240    2.58100  -79.46490   -7.38470   12.73020
 5450.00000    9.86730    9.85870    9.85870   98.42390    0.03390    2.52430    -999.25    0.06910    0.10860   10.16040    0.03390   73.38430   73.38430   53.08480    -999.25   56.96800    -999.25   56.96800   10.16040   10.42270   11.19830   10.42270    -999.25    0.29170    0.24770    2.52430  -87.32570  -11.60420   11.19830
 5500.00000   11.38040   11.11800   11.11800  151.81420    0.18900    2.31440    -999.25    0.21770    0.23130    6.58700    0.18900   87.44320   87.44320   99.98990    -999.25  107.89520    -999.25  107.89520    6.58700    6.48260    7.68080    6.48260    -999.25    0.45020    0.40850    2.31440  -78.90360   -4.23050    7.68080
 5550.00000    9.59570    9.99850    9.99850  106.33430    0.00530    2.35420    -999.25    0.15280    0.20810    9.40430    0.00530   77.48130   77.48130   84.30420    -999.25   89.70100    -999.25   89.70100    9.40430    8.64100   12.26790    8.64100    -999.25    0.34770    0.30400    2.35420  -78.37080   -4.74840   12.26790
 5600.00000   10.02350    9.95080    9.95080   98.68110    0.18620    2.55170    -999.25    0.05480    0.09260   10.13360    0.18620   75.01480   75.01480   85.11070    -999.25   92.33970    -999.25   92.33970   10.13360   10.36170   11.59800   10.36170    -999.25    0.29520    0.25120    2.55170  -77.29950   -4.73400   11.59800
 5650.00000    9.86760    9.79940    9.79940  114.25830    0.04390    2.56750    -999.25    0.04760    0.08330    8.75210    0.04390   77.59470   77.59470   68.40100    -999.25   70.63990    -999.25   70.63990    8.75210    9.31090    9.95530    9.31090    -999.25    0.27390    0.22990    2.56750  -82.86840  -11.35130    9.95530
 5700.00000   10.80920   11.52090   11.52090    5.40790    0.00240    1.44030    -999.25    0.45000    0.74250  953.04610    0.00240  133.98500  133.98500   18.73150    -999.25   19.44060    -999.25   19.44060  953.04610   27.64750  228.49730   27.64750    -999.25    0.45000    0.40830    1.44030  -83.96660  -13.50650  228.49730
 5750.00000    9.85060    9.45270    9.45270   81.02480    0.04610    2.62050    -999.25    0.02590    0.05230   12.34190    0.04610   70.94130   70.94130   85.33960    -999.25   97.05560    -999.25   97.05560   12.34190   12.98110   15.06090   12.98110    -999.25    0.26460    0.22060    2.62050  -79.35190   -9.94000   15.06090
 5800.00000    9.23040    9.27120    9.27120   94.61360    0.00690    2.59040    -999.25    0.03480    0.06990   10.56930    0.00690   73.56270   73.56270   94.58320    -999.25   91.90460    -999.25   91.90460   10.56930   11.38320   14.43480   11.38320    -999.25    0.26770    0.22370    2.59040  -78.35640   -9.99530   14.43480
 5850.00000    9.27130    9.36760    9.36760  103.86070    0.00840    2.40170    -999.25    0.13780    0.18030    9.62910    0.00840   82.11830   82.11830   86.13020    -999.25   95.93470    -999.25   95.93470    9.62910    7.90720   12.55590    7.90720    -999.25    0.34390    0.30020    2.40170  -80.07610  -12.77190   12.55590
 5900.00000    9.49110    9.32140    9.32140  111.05430    0.06260    2.67530    -999.25   -0.01730    0.02030    9.00460    0.06260   71.95560   71.95560   89.82080    -999.25   93.27820    -999.25   93.27820    9.00460    9.60950   12.14980    9.60950    -999.25    0.27680    0.23280    2.67530  -70.69210   -4.43630   12.14980
 5950.00000    9.67390    9.35940    9.35940   94.76690    0.04400    2.63630    -999.25    0.00640    0.04310   10.55260    0.04400   72.16330   72.16330  102.31180    -999.25  103.87510    -999.25  103.87510   10.55260   11.08930   14.20140   11.08930    -999.25    0.24220    0.19840    2.63630  -68.82470   -3.62590   14.20140
 6000.00000    9.46760    9.23750    9.23750   78.21360    0.03570    2.64460    -999.25   -0.01300    0.03820   12.78550    0.03570   70.68120   70.68120   98.56060    -999.25  105.05650    -999.25  105.05650   12.78550   14.20330   19.90500   14.20330    -999.25    0.23710    0.19330    2.64460  -66.16130   -2.16000   19.90500
