~Version ---------------------------------------------------
VERS.      2.0 : CWLS log ASCII Standard -VERSION 2.0
WRAP.       NO : One line per depth step
CREA. 12/01/17 : LAS Creation Date
~Well ------------------------------------------------------
STRT.FT                       1000.0 : START DEPTH
STOP.FT                       9450.0 : STOP DEPTH
STEP.FT                     50.00000 : STEP LENGTH
NULL.                        -999.25 : NULL VALUE
COMP.          TEXACO CANADA LIMITED : COMPANY
WELL. TEXCAN FINA SUNSET 10-13-69-20 : WELL
FLD .                                : FIELD
LOC .                                : LOCATION
CTRY.                         CANADA : COUNTRY
SRVC.                  Dresser Atlas : SERVICE COMPANY
DATE.                    24-Dec-1969 : LOGDATE
PROV.                        Alberta : PROVINCE
UWI .               100101306920W500 : UNIQUE WELL ID
SLAT.WGS84                  54.97681 : SURFACE LATITUDE
SLON.WGS84                 -116.9067 : SURFACE LONGITUDE
~Curve Information -----------------------------------------
DEPT  .FT    : Depth Curve
ACED  .US/F  : DELTA TIME (ACOUSTIC) FROM SONIC LOG [ADJ. TO RESISTIVITY LOG]
CALSED.IN    : CALIPER FROM SONIC LOG [ADJ. TO RESISTIVITY LOG]
CALWS .IN    : CALIPER [CALSED]
CONDWS.MMHO  : CONDUCTIVITY [1000/DRESWS]
DRESWS.OHMM  : DEEP RESISTIVITY [ILDED]
DTWS  .US/F  : COMPRESIONAL SONIC [ACED]
GRSED .GAPI  : GAMMA RAY FROM SONIC LOG [ADJ. TO RESISTIVITY LOG]
GRWS  .GAPI  : GAMMA RAY [GRSED]
ILDED .OHMM  : DEEP INDUCTION RESISTIVITY FROM RESISTIVITY LOG
ILMED .OHMM  : MEDIUM INDUCTION RESISTIVITY FROM RESISTIVITY LOG
MRESWS.OHMM  : MEDIUM RESISTIVITY [ILMED]
SFLED .OHMM  : SPHERICALLY FOCUSED RESISTIVITY FROM RESISTIVITY LOG
SPRED .MV    : SPONTANEOUS POTENTIAL FROM RESISTIVITY LOG
SPWS  .MV    : SPONTANEOUS POTENTIAL [BASELINE 0 MV, SPRED]
SRESWS.OHMM  : SHALLOW RESISTIVITY [SFLED]
~Params ----------------------------------------------------
PD  .                     GL : PERMANENT DATUM
EPD .FT                 2371 : ELEVATION PERMANENT DATUM
LMF .                     KB : LOG MEASURED FROM
DAPD.FT                   14 : FEET ABOVE PERMANENT DATUM
DMF .                     KB : DRILLING MEASURED FROM
EKB .FT                 2385 : KELLY BUSHING
EGL .FT                 2371 : GROUND LEVEL
DATE.               12/24/69 : RUN DATE
RUN .                      1 : RUN NUMBER
DD  .FT                 9457 : DEPTH DRILLER
DL  .FT                 9460 : DEPTH LOGGER
BLI .FT                 9458 : BOTTOM LOG INTERVAL
TLI .FT                  982 : TOP LOG INTERVAL
CS  .IN                8.625 : CASING SIZE
CBD .FT                  982 : CASING BOTTOM DRILLER
CBL .FT                  982 : CASING BOTTOM LOGGER
BS  .IN                7.875 : BIT SIZE
BSD .FT                 9457 : BIT SIZE AT DEPTH
DFT .                MUD GEL : DRILLING FLUID TYPE
DFD .                    9.5 : DRILLING FLUID DENSITY
DFV .                     90 : DRILLING FLUID VISCOSITY
DFPH.                    9.5 : DRILLING FLUID PH
DFL .                    8.3 : DRILLING FLUID LOSS
MSS .                   CIRC : MUD SAMPLE SOURCE
RMS .OHMM               1.85 : RESISTIVITY MUD SAMPLE
MST .DEGF                 68 : MUD SAMPLE TEMPERATURE
RMF .OHMM                1.5 : RESISTIVITY MUD FILTRATE SAMPLE
MFST.DEGF                 68 : MUD FILTRATE SAMPLE TEMPERATURE
RMC .OHMM                2.2 : RESISTIVITY MUD CAKE
MCST.DEGF                 68 : MUD CAKE SAMPLE TEMPERATURE
MFSS.                   MEAS : MUD FILTRATE SAMPLE SOURCE
MCSS.                   MEAS : MUD CAKE SAMPLE SOURCE
RMB .OHMM               0.62 : RESISTIVITY MUD AT BHT
TCS .HRS                   3 : TIME CIRCULATED STOPPED
LUN .                   6002 : LOGGING UNIT NUMBER
LUL .                     VV : LOGGING UNIT LOCATION
ENGI.       OFFORD KOWALCHUK : RECORDING ENGINEER
WITN.                BEATTIE : WITNESSED BY
CLNT.                A2DTECH : CLIENT CODE
ORIG.            2" 5" PRINT : ORIGIN OF DATA
UWI .       100101306920W500 : UNIQUE WELL ID
DICO. A2D Technologies, Inc. : DIGITIZING COMPANY
~Other -----------------------------------------------------
DIL-SFL-BHC LOG RUN
~ASCII -----------------------------------------------------
# ...
 3300.00000  180.41270    7.45060    7.45060  525.01710    1.90470  180.41270  127.88060  134.45820    1.90470    2.13550    2.13550    2.96280  -57.50240   -6.02330    2.96280
 3350.00000  112.93200    7.29290    7.29290  404.66170    2.47120  112.93200  115.64570  108.07410    2.47120    2.66250    2.66250    3.29670  -56.31330   -4.47970    3.29670
 3400.00000  120.83160    8.40330    8.40330  352.50990    2.83680  120.83160  118.61740  105.68960    2.83680    3.01320    3.01320    3.65680  -58.34380   -6.15800    3.65680
 3450.00000  113.09490   10.49280   10.49280  239.25010    4.18160  113.09490  124.39350  124.69110    4.18160    4.42910    4.42910    4.80340  -54.99970   -3.16740    4.80340
 3500.00000  104.61090   12.18930   12.18930  398.05750    2.51220  104.61090  102.72630  100.65600    2.51220    2.72480    2.72480    3.91540  -54.72590   -5.80250    3.91540
 3550.00000  100.94950   12.22980   12.22980  175.25410    5.70600  100.94950  107.52970  100.67580    5.70600    5.99150    5.99150    5.94510  -55.17020   -9.15560    5.94510
 3600.00000  115.24540   11.67140   11.67140  266.52450    3.75200  115.24540   90.48510   90.76460    3.75200    4.11260    4.11260    4.80170  -44.87410   -1.78750    4.80170
 3650.00000   81.87910    8.32340    8.32340  248.63870    4.02190   81.87910   41.00400   56.00720    4.02190    6.79490    6.79490   31.36420  -97.44710  -54.97030   31.36420
 3700.00000   91.28730   10.55470   10.55470  262.35800    3.81160   91.28730   81.65340   83.02940    3.81160    4.39660    4.39660    6.16780  -47.01430   -5.08870    6.16780
 3750.00000   92.93140   10.54250   10.54250  239.75070    4.17100   92.93140   96.32820   96.32820    4.17100    4.84520    4.84520    7.75030  -59.65030  -19.54630    7.75030
 3800.00000   69.80720    9.69790    9.69790   81.21500   12.31300   69.80720   73.56040   70.69000   12.31300   15.40460   15.40460   15.73980  -47.36930   -9.36200   15.73980
 3850.00000   94.77560    9.64130    9.64130  195.83650    5.10630   94.77560   76.10130   74.48300    5.10630    6.78650    6.78650    9.75730  -81.16080  -45.26410    9.75730
 3900.00000   92.38740   10.53700   10.53700  236.55760    4.22730   92.38740   87.91080   89.48060    4.22730    6.10470    6.10470    9.66660  -76.27110  -41.08580    9.66660
 3950.00000   95.67680   10.70450   10.70450  227.43530    4.39700   95.67680   77.87090   79.22770    4.39700    5.24140    5.24140    7.56100  -61.29160  -25.10000    7.56100
 4000.00000   92.58710   10.13850   10.13850  228.09180    4.38420   92.58710   75.67660   77.48430    4.38420    6.22290    6.22290   11.48340  -89.86730  -52.67590   11.48340
 4050.00000  121.38930   12.68870   12.68870  338.42090    2.95490  121.38930   78.57080   74.76530    2.95490    3.54160    3.54160    5.06340  -57.19030  -18.99920    5.06340
 4100.00000   94.64540   10.65830   10.65830  170.15770    5.87690   94.64540  101.74620   99.52580    5.87690    6.43610    6.43610    7.23110  -42.92350   -7.44330    7.23110
 4150.00000   99.97710    9.64710    9.64710  243.56380    4.10570   99.97710   85.34150   81.86480    4.10570    4.73630    4.73630    6.83270  -38.52840   -6.11340    6.83270
 4200.00000   93.47980    9.70250    9.70250  196.35390    5.09280   93.47980   98.30950   95.31530    5.09280    5.83280    5.83280    6.04570  -33.86610   -4.53650    6.04570
 4250.00000   91.18990    9.89740    9.89740  179.36580    5.57520   91.18990   92.73980   98.84610    5.57520    6.46430    6.46430    9.69650  -35.66770   -8.90740    9.69650
 4300.00000   76.15020    8.43100    8.43100  115.18220    8.68190   76.15020   74.34600   74.10310    8.68190   12.97950   12.97950   21.94810  -75.78580  -44.55370   21.94810
 4350.00000   87.14490    8.72540    8.72540  157.65410    6.34300   87.14490   96.97070   98.16390    6.34300    7.00260    7.00260    9.16460  -38.72770   -5.66360    9.16460
 4400.00000   84.11700    8.56400    8.56400  125.40130    7.97440   84.11700  112.23310  111.79130    7.97440    8.76710    8.76710   10.10500  -39.48720   -7.43410   10.10500
 4450.00000  128.12090   10.33480   10.33480  427.39790    2.34070  128.12090   97.70350   98.97110    2.34070    2.63810    2.63810    3.43100  -33.71320   -2.67770    3.43100
 4500.00000   80.13550    8.64100    8.64100  126.44780    7.90840   80.13550  105.75050  106.49350    7.90840    8.45470    8.45470    9.63580  -32.07400   -2.04960    9.63580
 4550.00000   98.49010    9.31880    9.31880  204.91800    4.88000   98.49010  107.31480  108.74310    4.88000    5.78130    5.78130    6.42370  -36.87890   -0.95920    6.42370
 4600.00000   82.61260    9.52550    9.52550  107.16050    9.33180   82.61260   82.42470   70.00330    9.33180    9.93040    9.93040   14.61640  -62.36890  -26.44920   14.61640
 4650.00000   98.80540   12.13040   12.13040  346.87290    2.88290   98.80540  118.93310  116.25700    2.88290    3.21310    3.21310    4.10130  -36.51950   -3.46130    4.10130
 4700.00000  105.56060   12.23030   12.23030  349.72270    2.85960  105.56060  105.80480  107.99650    2.85960    3.17030    3.17030    4.19500  -32.41540   -2.75110    4.19500
 4750.00000  116.09090    8.79900    8.79900   76.44790   13.08080  116.09090  151.80080  146.09650   13.08080   14.14060   14.14060   19.79770  -29.96590   -3.67330   19.79770
 4800.00000  100.43100    8.30770    8.30770   20.50600   48.76620  100.43100  319.07780  279.94770   48.76620   35.77000   35.77000   38.30400  -26.15430   -3.23350   38.30400
 4850.00000   95.27860    8.47790    8.47790    3.49970  285.73830   95.27860  276.57090  203.35770  285.73830  107.19450  107.19450  244.09460  -39.21140  -24.32630  244.09460
 4900.00000   80.08540    8.93140    8.93140  280.43410    3.56590   80.08540   81.74430   82.82500    3.56590    5.87220    5.87220   12.65920  -43.02840  -36.07350   12.65920
 4950.00000   78.29850    8.78150    8.78150  314.26300    3.18210   78.29850   97.05460   92.94180    3.18210    5.07780    5.07780   10.36920  -36.92880  -31.73190   10.36920
 5000.00000   79.80110    9.16570    9.16570  373.31540    2.67870   79.80110  109.84290  106.69330    2.67870    3.98110    3.98110    8.65100  -52.43320  -36.23350    8.65100
 5050.00000   79.90750    9.10460    9.10460  356.50620    2.80500   79.90750  115.36050  113.30140    2.80500    3.44730    3.44730    6.75690  -62.37200  -35.16950    6.75690
 5100.00000   82.64010    7.69170    7.69170 1052.96410    0.94970   82.64010   33.71750   39.91120    0.94970    2.32270    2.32270   12.13200 -143.51270 -105.23500   12.13200
 5150.00000   67.91550    8.38000    8.38000  148.37900    6.73950   67.91550   71.01120   73.83450    6.73950    7.71880    7.71880   10.66000  -60.03170  -11.10010   10.66000
 5200.00000   57.12250    8.17560    8.17560  120.35360    8.30880   57.12250   34.77970   36.66780    8.30880   11.87260   11.87260   56.14690 -153.12220 -103.79550   56.14690
 5250.00000   60.89150    7.63010    7.63010  147.31230    6.78830   60.89150   36.34080   72.24840    6.78830   10.80740   10.80740   26.96210 -102.78770  -53.06830   26.96210
 5300.00000   58.31490    6.89750    6.89750  100.28380    9.97170   58.31490   28.67560   34.18280    9.97170   20.54080   20.54080  128.17350 -197.47930 -147.36730  128.17350
 5350.00000   54.64820    8.19090    8.19090   68.21930   14.65860   54.64820   38.30120   49.51270   14.65860   20.52380   20.52380   55.60660 -128.48560  -77.97840   55.60660
 5400.00000   56.63240    7.83140    7.83140   36.89700   27.10250   56.63240   33.94220   29.95060   27.10250   39.74070   39.74070  107.10190 -155.47060 -104.57080  107.10190
 5450.00000   69.58250    8.52790    8.52790   82.09910   12.19510   69.58250   98.21600   92.01000   12.19510   12.41040   12.41040   15.49020  -70.23110  -18.93610   15.49020
 5500.00000   62.78680    8.25660    8.25660   16.91350   59.12430   62.78680   62.60570   61.85680   59.12430   49.03390   49.03390   52.67640  -59.74680   -8.05920   52.67640
 5550.00000   63.44920    8.30950    8.30950   55.48310   18.02350   63.44920   64.53490   79.58190   18.02350   19.49870   19.49870   26.27340  -65.84990  -13.76970   26.27340
