~Version ---------------------------------------------------
VERS.      2.0 : CWLS log ASCII Standard -VERSION 2.0
WRAP.       NO : One line per depth step
CREA. 10/24/17 : LAS Creation Date
~Well ------------------------------------------------------
STRT.FT                         1250.0 : START DEPTH
STOP.FT                        11000.0 : STOP DEPTH
STEP.FT                       50.00000 : STEP LENGTH
NULL.                          -999.25 : NULL VALUE
COMP.             MOBIL OIL CANADA LTD : COMPANY
WELL. MOBIL ET AL ROSEVEAR 10-19-53-14 : WELL
FLD .                                  : FIELD
LOC .                                  : LOCATION
CTRY.                           CANADA : COUNTRY
SRVC.                     Schlumberger : SERVICE COMPANY
DATE.                      04-Mar-1978 : LOGDATE
PROV.                          Alberta : PROVINCE
UWI .                 100101905314W500 : UNIQUE WELL ID
SLAT.WGS84                    53.59265 : SURFACE LATITUDE
SLON.WGS84                   -116.0472 : SURFACE LONGITUDE
~Curve Information -----------------------------------------
DEPT    .FT    : Depth Curve
CALDED  .IN    : CALIPER FROM DENSITY LOG
CALWS   .IN    : CALIPER [CALDED]
CONDWS  .MMHO  : CONDUCTIVITY [1000/DRESWS]
DCORWS  .G/C3  : DENSITY CORRECTION [DRHOED]
DENWS   .G/C3  : BULK DENSITY [M=2.71, F=1.00] [RHOBED]
DPHILSED.V/V   : DENSITY POROSITY [M=2.71, F=1.00] FROM DENSITY LOG
DPHISSED.V/V   : DENSITY POROSITY [M=2650 F=1000] FROM DENSITY LOG
DPOLSWS .V/V   : DENSITY POROSITY [M=2.71, F=1.00] [CAL. FROM DENWS]
DRESWS  .OHMM  : DEEP RESISTIVITY [ILDED]
DRHOED  .G/C3  : DENSITY CORRECTION FROM DENSITY LOG
DTED    .US/F  : DELTA TIME FROM SONIC LOG
DTWS    .US/F  : DELTA TIME [DTED]
GRDED   .GAPI  : GAMMA RAY FROM DENSITY LOG
GRWS    .GAPI  : GAMMA RAY [GRDED]
ILDED   .OHMM  : INDUCTION LOG DEEP RESISTIVITY
ILMED   .OHMM  : INDUCTION LOG MEDIUM RESISTIVITY
LL8ED   .OHMM  : 8 INCH LATEROLOG RESISTIVITY
MRESWS  .OHMM  : MEDIUM RESISTIVITY [ILMED]
NPHILSED.V/V   : NEUTRON POROSITY LIMESTONE FROM DENSITY LOG
NPHISSED.V/V   : NEUTRON POROSITY SANDSTONE FROM DENSITY LOG
NPOLSWS .V/V   : NEUTRON POROSITY LIMESTONE [366 NPOLSCAL [COMP. FROM NPHISSED] 7500'2286 NPHILSED]
RHOBED  .G/C3  : BULK DENSITY FROM DENSITY LOG
SPRED   .MV    : SPONTANEOUS POTENTIAL FROM RESISTIVITY LOG [SHIFT IS REMOVED]
SPWS    .MV    : SPONTANEOUS POTENTIAL [BASELINE 0 MV] [SPRED]
SRESWS  .OHMM  : SHALLOW RESISTIVITY [LL8ED]
~Params ----------------------------------------------------
PD  .                     GL : PERMANENT DATUM
EPD .FT               2885.2 : ELEVATION PERMANENT DATUM
LMF .                     KB : LOG MEASURED FROM
DAPD.FT                 13.8 : FEET ABOVE PERMANENT DATUM
EKB .FT                 2899 : KELLY BUSHING
EGL .FT               2885.2 : GROUND LEVEL
DATE.               03/04/78 : RUN DATE
RUN .                      1 : RUN NUMBER
DD  .FT                11010 : DEPTH DRILLER
DL  .FT                11002 : DEPTH LOGGER
BLI .FT                10999 : BOTTOM LOG INTERVAL
TLI .FT                 1207 : TOP LOG INTERVAL
CBD .FT                 1205 : CASING BOTTOM DRILLER
CBL .FT                 1207 : CASING BOTTOM LOGGER
BS  .IN                 8.75 : BIT SIZE
BSD .FT                11010 : BIT SIZE AT DEPTH
DFT .               GEL CHEM : DRILLING FLUID TYPE
DFD .                    9.2 : DRILLING FLUID DENSITY
DFV .                    132 : DRILLING FLUID VISCOSITY
DFPH.                     10 : DRILLING FLUID PH
DFL .                    9.4 : DRILLING FLUID LOSS
MSS .               FLOWLINE : MUD SAMPLE SOURCE
RMS .OHMM               1.94 : RESISTIVITY MUD SAMPLE
MST .DEGF                 64 : MUD SAMPLE TEMPERATURE
RMF .OHMM               2.12 : RESISTIVITY MUD FILTRATE SAMPLE
MFST.DEGF                 59 : MUD FILTRATE SAMPLE TEMPERATURE
RMB .OHMM               0.65 : RESISTIVITY MUD AT BHT
TCS .HRS                   3 : TIME CIRCULATED STOPPED
LUN .                   7730 : LOGGING UNIT NUMBER
LUL .                    EDM : LOGGING UNIT LOCATION
ENGI.               CAMPBELL : RECORDING ENGINEER
WITN.              MATHEWSON : WITNESSED BY
CLNT.                A2DTECH : CLIENT CODE
ORIG.            2" 5" PRINT : ORIGIN OF DATA
UWI .       100101905314W500 : UNIQUE WELL ID
DICO. A2D Technologies, Inc. : DIGITIZING COMPANY
~Other -----------------------------------------------------
~ASCII -----------------------------------------------------
# ...
 9650.00000    9.25770    9.25770   50.47910    0.22710    2.55990    0.07920    -999.25    0.08780   19.83800    0.22710   60.67680   60.67680   59.39340   59.39340   19.83800   25.16570   29.88790   25.16570    0.15270    -999.25    0.15270    2.55990   -4.14720  -19.24250   29.88790
 9700.00000   11.78140   11.78140  193.72710    0.16370    2.45590    0.14770    -999.25    0.14860    5.16190    0.16370   76.48860   76.48860  109.12170  109.12170    5.16190    5.34400    7.18280    5.34400    0.35850    -999.25    0.35850    2.45590  -12.14870  -28.90770    7.18280
 9750.00000    9.30020    9.30020   47.49040   -0.01070    2.72880   -0.00390    -999.25   -0.01100   21.05690   -0.01070   61.42940   61.42940   82.96680   82.96680   21.05690   22.73070   31.10760   22.73070    0.20370    -999.25    0.20370    2.72880    0.90460  -17.50980   31.10760
 9800.00000    9.96600    9.96600  106.20080    0.21430    2.40140    0.18320    -999.25    0.18050    9.41610    0.21430   68.34810   68.34810  112.18320  112.18320    9.41610   10.07550   14.06650   10.07550    0.28060    -999.25    0.28060    2.40140    4.59060  -15.47090   14.06650
 9850.00000    9.36000    9.36000   77.72300    0.01060    2.63430    0.04360    -999.25    0.04430   12.86620    0.01060   66.21720   66.21720   99.20840   99.20840   12.86620   14.16570   18.50950   14.16570    0.22660    -999.25    0.22660    2.63430    4.28560  -17.43960   18.50950
 9900.00000    9.16000    9.16000   72.74770    0.13460    2.58790    0.06880    -999.25    0.07140   13.76610    0.13460   64.36290   64.36290   93.56170   93.56170   13.76610   16.03440   20.54970   16.03440    0.23290    -999.25    0.23290    2.58790    3.80560  -19.56680   20.54970
 9950.00000    9.90240    9.90240   93.77700    0.22230    2.60660    0.05410    -999.25    0.06050   10.66360    0.22230   68.02770   68.02770  108.50360  108.50360   10.66360   11.49820   16.65930   11.49820    0.26730    -999.25    0.26730    2.60660    5.39330  -19.64280   16.65930
 10000.00000   10.93370   10.93370  119.33460    0.15290    2.51500    0.10830    -999.25    0.11400    8.37980    0.15290   70.68530   70.68530  117.92180  117.92180    8.37980    9.33330   13.11000    9.33330    0.32720    -999.25    0.32720    2.51500    6.47740  -20.21410   13.11000
 10050.00000    9.44240    9.44240   84.45520    0.24540    2.58210    0.07300    -999.25    0.07480   11.84090    0.24540   66.44270   66.44270  103.10910  103.10910   11.84090   13.52530   18.91090   13.52530    0.23540    -999.25    0.23540    2.58210   11.70460  -16.63410   18.91090
 10100.00000    9.18750    9.18750   54.15650   -0.00530    2.68100    0.01790    -999.25    0.01700   18.46500   -0.00530   56.78230   56.78230   68.42610   68.42610   18.46500   22.30940   39.74020   22.30940    0.15500    -999.25    0.15500    2.68100   16.08320  -13.91910   39.74020
 10150.00000    9.59770    9.59770  105.75910    0.18660    2.60680    0.05520    -999.25    0.06040    9.45560    0.18660   69.36070   69.36070  102.11690  102.11690    9.45560   10.72450   15.31670   10.72450    0.24520    -999.25    0.24520    2.60680   17.98330  -13.66620   15.31670
 10200.00000   10.15170   10.15170   99.40850    0.17360    2.67910    0.03910    -999.25    0.01810   10.05950    0.17360   71.44140   71.44140  109.85170  109.85170   10.05950   10.76880   17.45230   10.76880    0.25900    -999.25    0.25900    2.67910   17.21860  -16.09460   17.45230
 10250.00000    9.49020    9.49020  104.18290    0.18750    2.53570    0.12960    -999.25    0.10190    9.59850    0.18750   69.93350   69.93350  106.94900  106.94900    9.59850   10.27050   16.74760   10.27050    0.26240    -999.25    0.26240    2.53570   26.63100   -8.33760   16.74760
 10300.00000    9.19520    9.19520   70.34950    0.03010    2.68130   -0.01120    -999.25    0.01680   14.22000    0.03010   67.07140   67.07140   83.29900   83.29900   14.22000   15.59670   24.34500   15.59670    0.19450    -999.25    0.19450    2.68130   33.64410   -2.97170   24.34500
 10350.00000    9.08110    9.08110   16.43010   -0.00000    2.61050    0.05210    -999.25    0.05820   60.86390   -0.00000   63.91880   63.91880  135.75370  135.75370   60.86390   74.26100  103.36950   74.26100    0.22050    -999.25    0.22050    2.61050   18.16470  -18.02850  103.36950
 10400.00000   11.80650   11.80650   46.75140    0.17620    2.28460    0.25590    -999.25    0.24880   21.41240    0.17620   83.72060   83.72060  156.85900  156.85900   21.41240   15.25270   58.50950   15.25270    0.36750    -999.25    0.36750    2.28460   -4.62340  -39.86890   58.50950
 10450.00000   11.13240   11.13240   99.32160    0.20920    2.45060    0.15880    -999.25    0.15170   10.06830    0.20920   76.09310   76.09310  113.32110  113.32110   10.06830   10.73980   14.53400   10.73980    0.34770    -999.25    0.34770    2.45060   12.67890  -21.60950   14.53400
 10500.00000    8.91610    8.91610    6.71740   -0.01030    2.66450    0.02810    -999.25    0.02660  148.86730   -0.01030   57.49700   57.49700   37.60230   37.60230  148.86730  228.25670  720.19130  228.25670    0.10820    -999.25    0.10820    2.66450    4.28860  -29.04740  720.19130
 10550.00000    9.00660    9.00660   17.76160    0.01190    2.67670    0.01460    -999.25    0.01950   56.33870    0.01190   53.41140   53.41140   45.83240   45.83240   56.33870   66.22830  104.25620   66.22830    0.09760    -999.25    0.09760    2.67670    3.82650  -28.56190  104.25620
 10600.00000    9.03370    9.03370   52.36510   -0.00220    2.69750    0.01380    -999.25    0.00730   19.09670   -0.00220   62.01090   62.01090   82.05820   82.05820   19.09670   22.56190   41.67860   22.56190    0.17350    -999.25    0.17350    2.69750   19.22190  -12.20930   41.67860
 10650.00000    8.92530    8.92530   42.01960    0.00930    2.68160    0.01290    -999.25    0.01660   23.79840    0.00930   59.51110   59.51110   76.61410   76.61410   23.79840   27.68890   37.87610   27.68890    0.15130    -999.25    0.15130    2.68160   26.10870   -4.37490   37.87610
 10700.00000    9.16580    9.16580    6.52470    0.06730    2.68740    0.01630    -999.25    0.01320  153.26350    0.06730   53.46560   53.46560   39.52080   39.52080  153.26350  168.02900  226.44040  168.02900    0.05290    -999.25    0.05290    2.68740  -23.07680  -44.11660  226.44040
 10750.00000    9.18870    9.18870    0.85070    0.20980    2.42260    0.15030    -999.25    0.16810 1175.45940    0.20980   50.64960   50.64960   15.58010   15.58010 1175.45940 1474.39760 1385.58150 1474.39760    0.03910    -999.25    0.03910    2.42260 -135.39920 -144.17120 1385.58150
 10800.00000    9.07270    9.07270    0.64740    0.21930    2.63390    0.04910    -999.25    0.04450 1544.84670    0.21930   49.12920   49.12920   23.21210   23.21210 1544.84670 1293.36720 1308.26500 1293.36720    0.02550    -999.25    0.02550    2.63390 -127.86930 -133.96520 1308.26500
 10850.00000    8.59780    8.59780    0.60650    0.21380    2.66770    0.02180    -999.25    0.02470 1648.71450    0.21380   50.27020   50.27020   32.26680   32.26680 1648.71450 1452.25330 1391.26380 1452.25330    0.03550    -999.25    0.03550    2.66770 -123.60950 -128.32270 1391.26380
 10900.00000    8.81190    8.81190    0.61280    0.17300    2.69320    0.01480    -999.25    0.00980 1631.88360    0.17300   48.36300   48.36300   16.91160   16.91160 1631.88360 1402.10900 1101.04890 1402.10900    0.01670    -999.25    0.01670    2.69320  -88.48960  -91.83370 1101.04890
 10950.00000    8.66090    8.66090   16.70660    0.05580    2.60160    0.05630    -999.25    0.06340   59.85670    0.05580   56.25680   56.25680   71.85020   71.85020   59.85670   53.34660   93.39570   53.34660    0.01810    -999.25    0.01810    2.60160  -22.87850  -25.14260   93.39570
 11000.00000    8.56500    8.56500    -999.25    0.10650    2.67420    -999.25    -999.25    0.02090    -999.25    0.10650    -999.25    -999.25    -999.25    -999.25    -999.25    -999.25    -999.25    -999.25    -999.25    -999.25    -999.25    2.67420    -999.25    -999.25    -999.25
