~Version ---------------------------------------------------
VERS.      2.0 : CWLS log ASCII Standard -VERSION 2.0
WRAP.       NO : One line per depth step
CREA. 11/20/17 : LAS Creation Date
~Well ------------------------------------------------------
STRT.FT                      1000.0 : START DEPTH
STOP.FT                      9200.0 : STOP DEPTH
STEP.FT                    50.00000 : STEP LENGTH
NULL.                       -999.25 : NULL VALUE
COMP. AMOCO CANADA PETROLEUM CO LTD : COMPANY
WELL.    AMOCO HB SAKWA 11-26-62-14 : WELL
FLD .                               : FIELD
LOC .                               : LOCATION
CTRY.                        CANADA : COUNTRY
SRVC.                       Unknown : SERVICE COMPANY
DATE.                   15-Jan-1977 : LOGDATE
PROV.                       Alberta : PROVINCE
UWI .              100112606214W500 : UNIQUE WELL ID
SLAT.WGS84                 54.39502 : SURFACE LATITUDE
SLON.WGS84                 -115.993 : SURFACE LONGITUDE
~Curve Information -----------------------------------------
DEPT    .FT    : Depth Curve
CALDED  .IN    : CALIPER FROM DENSITY LOG [ADJ. TO RESISTIVITY LOG]
CALSED  .IN    : CALIPER FROM SONIC LOG [ADJ. TO RESISTIVITY LOG]
CALWS   .IN    : CALIPER [CALDED]
CONDWS  .MMHO  : CONDUCTIVITY [1000/DRESWS]
DCORWS  .G/C3  : DENSITY CORRECTION [DRHOED]
DENWS   .G/C3  : FORMATION BULK DENSITY [CALC. FROM DPOLSWS,M=2.71, F=1.00]
DPHILSED.V/V   : DENSITY POROSITY LIMESTONE [M=2.71, F=1.00] FROM DENSITY LOG [ADJ. TO RESISTIVITY LOG/NPHILS/NPHISS]
DPHISSED.V/V   : DENSITY POROSITY SANDSTONE [M=2.65, F=1.00] FROM DENSITY LOG [ADJ. TO RESISTIVITY LOG/NPHILSED/NPHISSED]
DPOLSWS .V/V   : DENSITY POROSITY LIMESTONE [DPHISSED CONVERTED TO LIMESTONE MATRIX,M=2.71, F=1.00,SPL. TO DPHILSED @ 5507']
DRESWS  .OHMM  : DEEP RESISTIVITY [ILDED]
DRHOED  .G/C3  : DENSITY CORRECTION FROM DENSITY LOG [ADJ. TO RESISTIVITY LOG/NPHILSED/NPHISSED/DPHILSED/DPHISSED]
DTED    .US/F  : DELTA-T FROM SONIC LOG [ADJ. TO RESISTIVITY LOG]
DTWS    .US/F  : COMPRESSIONAL SONIC [DTED]
GRDED   .GAPI  : GAMMA RAY FROM DENSITY LOG [ADJ. TO RESISTIVITY LOG]
GRSED   .GAPI  : GAMMA RAY FROM SONIC LOG [ADJ. TO RESISTIVITY LOG]
GRWS    .GAPI  : GAMMA RAY [GRSED SPL. TO GRDED @ 1007']
ILDED   .OHMM  : DEEP INDUCTION RESISTIVITY FROM RESISTIVITY LOG
ILMED   .OHMM  : MEDIUM INDUCTION RESISTIVITY FROM RESISTIVITY LOG
LL8ED   .OHMM  : LATEROLOG 8 FROM RESISTIVITY LOG
MRESWS  .OHMM  : MEDIUM RESISTIVITY [ILMED]
NPHILSED.V/V   : NEUTRON POROSITY LIMESTONE FROM DENSITY LOG [ADJ. TO RESISTIVITY LOG]
NPHISSED.V/V   : NEUTRON POROSITY SANDSTONE FROM DENSITY LOG [ADJ. TO RESISTIVITY LOG]
NPOLSWS .V/V   : NEUTRON POROSITY LIMESTONE [NPHISSED MATRIX CONVERSION FOR LIMESTONE, SPL. TO NPHILSED @5597']
RHOBED  .G/C3  : BULK DENSITY FROM DENSITY LOG [ADJ. TO RESISTIVITY LOG/NPHILSED/NPHISSED/DPHILSED/DPHISSED]
SPRED   .MV    : SPONTANEOUS POTENTIAL FROM RESISTIVITY LOG
SPWS    .MV    : SPONTANEOUS POTENTIAL [BASELINE 0 MV,SPRED]
SRESWS  .OHMM  : SHALLOW RESISTIVITY [LL8ED]
~Params ----------------------------------------------------
PD  .                     GL : PERMANENT DATUM
EPD .FT                 2835 : ELEVATION PERMANENT DATUM
LMF .                     KB : LOG MEASURED FROM
DAPD.FT                 14.6 : FEET ABOVE PERMANENT DATUM
EKB .FT               2849.6 : KELLY BUSHING
EGL .FT               2835.0 : GROUND LEVEL
DATE.               01/15/77 : RUN DATE
RUN .                      1 : RUN NUMBER
DD  .FT                 9200 : DEPTH DRILLER
DL  .FT                 9205 : DEPTH LOGGER
BLI .FT                 9204 : BOTTOM LOG INTERVAL
TLI .FT                 1012 : TOP LOG INTERVAL
CBD .FT                 1015 : CASING BOTTOM DRILLER
CBL .FT                 1012 : CASING BOTTOM LOGGER
BS  .IN                 8.25 : BIT SIZE
BSD .FT                 9200 : BIT SIZE AT DEPTH
DFT .                    GEL : DRILLING FLUID TYPE
DFD .                    9.1 : DRILLING FLUID DENSITY
DFV .                    105 : DRILLING FLUID VISCOSITY
DFPH.                    9.5 : DRILLING FLUID PH
RMS .OHMM               3.85 : RESISTIVITY MUD SAMPLE
MST .DEGF                 48 : MUD SAMPLE TEMPERATURE
RMF .OHMM               3.25 : RESISTIVITY MUD FILTRATE SAMPLE
MFST.DEGF                 62 : MUD FILTRATE SAMPLE TEMPERATURE
TCS .HRS                   8 : TIME CIRCULATED STOPPED
LUN .                   7802 : LOGGING UNIT NUMBER
LUL .                    EDM : LOGGING UNIT LOCATION
ENGI.                   PIHM : RECORDING ENGINEER
WITN.            PHILLIPCHUK : WITNESSED BY
CLNT.                A2DTECH : CLIENT CODE
ORIG.            2" 5" PRINT : ORIGIN OF DATA
UWI .       100112606214W500 : UNIQUE WELL ID
DICO. A2D Technologies, Inc. : DIGITIZING COMPANY
~Other -----------------------------------------------------
DIL-CNFD-BHC LOG RUN.
RHOB & DRHO VERIFYED FROM 2" OF SCALE
~ASCII -----------------------------------------------------
# ...
 2300.00000    9.94870    9.67970    9.94870  229.03280    0.07120    2.32000    -999.25    0.20000    0.22810    4.36760    0.07120  106.75990  106.75990   67.31120   81.94630   67.31120    4.36760    3.90360    4.23830    3.90360    -999.25    0.40100    0.35810    2.33540 -191.00940  -16.16720    4.23830
 2350.00000    9.44970    9.51660    9.44970  288.70030    0.04280    2.15940    -999.25    0.29730    0.32200    3.46380    0.04280  120.28690  120.28690   69.64470   85.33280   69.64470    3.46380    3.12730    3.36600    3.12730    -999.25    0.46290    0.42160    2.17660 -196.19670  -22.88770    3.36600
 2400.00000    8.27970    8.97720    8.27970   93.22440    0.06750    2.24340    -999.25    0.24640    0.27280   10.72680    0.06750  104.58420  104.58420   50.67000   58.56990   50.67000   10.72680   10.38330    9.89830   10.38330    -999.25    0.39270    0.34970    2.25610 -181.71880   -9.93540    9.89830
 2450.00000    8.45020    9.07560    8.45020  176.15560    0.06510    2.27310    -999.25    0.22840    0.25550    5.67680    0.06510  100.44590  100.44590   58.22160   66.25270   58.22160    5.67680    5.61850    8.86980    5.61850    -999.25    0.39870    0.35580    2.28480 -174.46120   -4.20330    8.86980
 2500.00000    8.18660    8.95250    8.18660   38.53530    0.06430    2.41030    -999.25    0.14520    0.17520   25.95020    0.06430   85.06840   85.06840   44.15800   54.37980   44.15800   25.95020   27.61160   47.78090   27.61160    -999.25    0.30560    0.26160    2.42970 -182.68740  -13.05160   47.78090
 2550.00000    9.60620    9.34010    9.60620  206.76890    0.25070    2.16020    -999.25    0.29690    0.32150    4.83700    0.25070   98.37240   98.37240   64.01020   78.85060   64.01020    4.83700    4.38630    4.56470    4.38630    -999.25    0.40070    0.35780    2.17130 -171.39080   -2.30620    4.56470
 2600.00000    8.72440    9.18490    8.72440  132.49770    0.08610    2.34950    -999.25    0.18210    0.21080    7.54730    0.08610   96.15600   96.15600   62.84390   77.26980   62.84390    7.54730    6.77730    7.11280    6.77730    -999.25    0.38880    0.34570    2.37290 -175.08650   -6.55870    7.11280
 2650.00000    9.28960    9.24110    9.28960  253.53680    0.07260    2.18490    -999.25    0.28190    0.30710    3.94420    0.07260  112.22850  112.22850   71.16510   83.60090   71.16510    3.94420    3.56410    4.03340    3.56410    -999.25    0.48600    0.44560    2.20370 -170.51880   -2.54500    4.03340
 2700.00000    8.87140    9.29540    8.87140  174.66940    0.08140    2.34950    -999.25    0.18210    0.21080    5.72510    0.08140   95.59440   95.59440   60.31960   68.47620   60.31960    5.72510    5.08620    5.83750    5.08620    -999.25    0.39050    0.34740    2.35880 -172.92940   -5.50960    5.83750
 2750.00000    9.91280    9.34310    9.91280  220.81390    0.16470    2.41780    -999.25    0.14070    0.17090    4.52870    0.16470   99.62930   99.62930   70.79750   81.15640   70.79750    4.52870    4.00530    4.52700    4.00530    -999.25    0.38630    0.34320    2.42990 -169.39160   -2.52580    4.52700
 2800.00000    9.61150    9.52860    9.61150  232.11850    0.04690    2.39650    -999.25    0.15360    0.18330    4.30830    0.04690  101.19050  101.19050   69.19690   81.12150   69.19690    4.30830    4.10740    5.03680    4.10740    -999.25    0.41860    0.37610    2.41430 -169.34200   -3.02740    5.03680
 2850.00000    9.63920    9.53180    9.63920  198.55060    0.03400    2.37860    -999.25    0.16450    0.19380    5.03650    0.03400   98.33380   98.33380   74.51930   84.22860   74.51930    5.03650    4.71960    5.07700    4.71960    -999.25    0.37530    0.33200    2.39580 -167.29340   -1.53560    5.07700
 2900.00000    9.83000   10.33930    9.83000  218.77530    0.06700    2.47460    -999.25    0.10630    0.13770    4.57090    0.06700   94.74960   94.74960   71.55730   84.78550   71.55730    4.57090    4.41550    4.54640    4.41550    -999.25    0.38130    0.33810    2.48060 -166.77400   -1.57030    4.54640
 2950.00000    9.61940   10.02950    9.61940  155.63960    0.10640    2.25850    -999.25    0.23730    0.26410    6.42510    0.10640   98.87950   98.87950   98.97470  120.05890   98.97470    6.42510    5.65460    6.10390    5.65460    -999.25    0.42890    0.38670    2.27790 -170.54250   -5.89280    6.10390
 3000.00000   10.84070    9.67430   10.84070  135.42430    0.09250    2.41830    -999.25    0.14040    0.17060    7.38420    0.09250   90.64490   90.64490  103.67960  120.40230  103.67960    7.38420    6.52410    7.00030    6.52410    -999.25    0.33320    0.28940    2.44660 -170.14980   -6.05410    7.00030
 3050.00000   11.38020    9.35360   11.38020  164.40740    0.11430    2.37590    -999.25    0.16610    0.19540    6.08240    0.11430   96.26500   96.26500  110.27520  134.39630  110.27520    6.08240    5.52330    6.47610    5.52330    -999.25    0.37280    0.32950    2.38690 -169.63440   -6.08990    6.47610
 3100.00000   10.88770   10.15470   10.88770  124.59200    0.05050    2.47200    -999.25    0.10790    0.13920    8.02620    0.05050  101.52390  101.52390  151.96040  183.74000  151.96040    8.02620    7.48280    9.06270    7.48280    -999.25    0.38040    0.33720    2.48680 -165.57890   -2.59120    9.06270
 3150.00000   10.81040    9.68210   10.81040  124.80340    0.08110    2.39050    -999.25    0.15730    0.18690    8.01260    0.08110   96.17790   96.17790  111.40020  134.46030  111.40020    8.01260    6.94860    7.57780    6.94860    -999.25    0.37300    0.32970    2.42910 -165.49570   -3.22510    7.57780
 3200.00000   11.73500    9.78970   11.73500  120.10140    0.11810    2.36310    -999.25    0.17390    0.20290    8.32630    0.11810   86.43300   86.43300  103.45200  124.27160  103.45200    8.32630    7.52130    7.91350    7.52130    -999.25    0.31090    0.26700    2.38210 -166.52160   -4.37200    7.91350
 3250.00000   12.22470    9.58660   12.22470  142.29000    0.08530    2.33900    -999.25    0.18850    0.21700    7.02790    0.08530   89.98810   89.98810   96.56150  117.53430   96.56150    7.02790    6.47200    6.75070    6.47200    -999.25    0.30630    0.26230    2.37760 -166.52860   -4.45460    6.75070
 3300.00000   12.29580    9.63830   12.29580  144.67900    0.08410    2.34680    -999.25    0.18380    0.21240    6.91200    0.08410   98.97900   98.97900   90.97540  126.88000   90.97540    6.91200    6.27600    6.82640    6.27600    -999.25    0.33890    0.29520    2.36990 -166.31710   -4.31820    6.82640
 3350.00000   13.69830    9.82470   13.69830  153.37890    0.09940    2.38600    -999.25    0.16000    0.18950    6.51980    0.09940   95.68740   95.68740  102.61070  124.66120  102.61070    6.51980    6.01640    6.64580    6.01640    -999.25    0.33370    0.28990    2.39460 -165.80200   -3.87910    6.64580
 3400.00000   11.43150   10.00950   11.43150  125.80830    0.09680    2.38470    -999.25    0.16080    0.19020    7.94860    0.09680   92.97710   92.97710  111.06750  128.36560  111.06750    7.94860    7.46690    8.32800    7.46690    -999.25    0.33770    0.29390    2.38450 -166.31350   -4.46620    8.32800
 3450.00000   13.54080    9.55690   13.54080  132.52760    0.05930    2.33240    -999.25    0.19250    0.22080    7.54560    0.05930   92.82980   92.82980  109.96880  127.12980  109.96880    7.54560    6.84020    6.39310    6.84020    -999.25    0.32100    0.27710    2.35450 -167.25180   -5.48000    6.39310
 3500.00000   12.20920    9.74780   12.20920  137.37580    0.09680    2.36260    -999.25    0.17420    0.20320    7.27930    0.09680   90.60560   90.60560  105.69410  128.43080  105.69410    7.27930    6.45960    6.88970    6.45960    -999.25    0.32820    0.28440    2.37240 -166.64700   -4.95080    6.88970
 3550.00000   11.91940    9.76260   11.91940  122.39900    0.09300    2.33790    -999.25    0.18910    0.21760    8.17020    0.09300   87.27770   87.27770  102.34190  123.35470  102.34190    8.17020    7.48290    8.05580    7.48290    -999.25    0.29850    0.25450    2.35760 -164.27860   -2.65750    8.05580
