~Version ---------------------------------------------------
VERS.      2.0 : CWLS log ASCII Standard -VERSION 2.0
WRAP.       NO : One line per depth step
CREA. 08/17/13 : LAS Creation Date
~Well ------------------------------------------------------
STRT.M                           400.0 : START DEPTH
STOP.M                          2400.0 : STOP DEPTH
STEP.M                        50.00000 : STEP LENGTH
NULL.                          -999.25 : NULL VALUE
COMP.        GULF CANADA RESOURCES INC : COMPANY
WELL. GULF POC AEC IROQUOIS 6-13-75-18 : WELL
FLD .                                  : FIELD
LOC .                                  : LOCATION
CTRY.                           CANADA : COUNTRY
SRVC.                          Unknown : SERVICE COMPANY
DATE.                      09-Feb-1982 : LOGDATE
PROV.                          Alberta : PROVINCE
UWI .                 100061307518W500 : UNIQUE WELL ID
SLAT.WGS84                    55.49456 : SURFACE LATITUDE
SLON.WGS84                   -116.6526 : SURFACE LONGITUDE
~Curve Information -----------------------------------------
DEPT    .M      : DEPTH METER
CALDED  .MM     : CALIPER FROM DENSITY LOG
CALSED  .MM     : CALIPER FROM SONIC LOG [ADJ. TO RESISTIVITY LOG]
CALWS   .MM     : CALIPER [CALSED]
CONDWS  .MMHO   : CONDUCTIVITY [1000/DRESWS]
DCORWS  .KG/M3  : DENSITY CORRECTION [DRHOED]
DENWS   .KG/M3  : FORMATION BULK DENSITY [CALC. FROM DPOLSWS,M=2710,F=1000]
DPHILSED.V/V    : DENSITY POROSITY LIMESTONE [M=2710,F=1000] FROM DENSITY LOG
DPHISSED.V/V    : DENSITY POROSITY SANDSTONE [M=2650,F=1000] FROM DENSITY LOG
DPOLSWS .V/V    : DENSITY POROSITY LIMESTONE [DPHISSED CONVERTED TO LIMESTONE (M=2710,F=1000),SPL. TO DPHILSED @860M]
DRESWS  .OHMM   : DEEP RESISTIVITY [ILDED]
DRHOED  .KG/M3  : DENSITY CORRECTION FROM DENSITY LOG [ADJ. TO DPHILSED]
DTED    .US/M   : DELTA-T FROM SONIC LOG [ADJ. TO RESISTIVITY LOG]
DTWS    .US/M   : COMPRESSIONAL SONIC [DTED]
GRDED   .GAPI   : GAMMA RAY FROM DENSITY LOG
GRSED   .GAPI   : GAMMA RAY FROM SONIC LOG [ADJ. TO RESISTIVITY LOG]
GRWS    .GAPI   : GAMMA RAY [GRSED]
ILDED   .OHMM   : DEEP INDUCTION FROM RESISTIVITY LOG
ILMED   .OHMM   : MEDIUM INDUCTION FROM RESISTIVITY LOG
MRESWS  .OHMM   : MEDIUM RESISTIVITY [ILMED]
NPHILSED.V/V    : NEUTRON POROSITY LIMESTONE FROM DENSITY LOG
NPHISSED.V/V    : NEUTRON POROSITY SANDSTONE FROM DENSITY LOG
NPOLSWS .V/V    : NEUTRON POROSITY LIMESTONE [SLB. NPHISSED MATRIX CONVERSION FOR LIMESTONE,SPL TO NPHILSED @ 860M]
RHOBED  .KG/M3  : BULK DENSITY FROM DENSITY LOG [ADJ. TO DPHILSED]
SFLUED  .OHMM   : SPHERICALLY FOCUSED FROM RESISTIVITY LOG
SPRED   .MV     : SPONTANEOUS POTENTIAL FROM RESISTIVITY LOG
SPWS    .MV     : SPONTANEOUS POTENTIAL [BASELINE 0 MV,SPRED]
SRESWS  .OHMM   : SHALLOW RESISTIVITY [SFLUED]
~Params ----------------------------------------------------
PD  .                         GL : PERMANENT DATUM
EPD .M                    625.05 : ELEVATION PERMANENT DATUM
LMF .                         KB : LOG MEASURED FROM
DAPD.M                      6.55 : FEET ABOVE PERMANENT DATUM
DMF .                         KB : DRILLING MEASURED FROM
EKB .M                     631.6 : KELLY BUSHING
EGL .M                    625.05 : GROUND LEVEL
DATE.                   02/09/82 : RUN DATE
RUN .                          1 : RUN NUMBER
DD  .M                      2411 : DEPTH DRILLER
DL  .M                      2411 : DEPTH LOGGER
BLI .M                      2410 : BOTTOM LOG INTERVAL
TLI .M                       372 : TOP LOG INTERVAL
CS  .MM                      219 : CASING SIZE
CBD .M                       372 : CASING BOTTOM DRILLER
CBL .M                       372 : CASING BOTTOM LOGGER
BS  .MM                      200 : BIT SIZE
BSD .M                      2411 : BIT SIZE AT DEPTH
DFT .                   GEL CHEM : DRILLING FLUID TYPE
DFD .                       1150 : DRILLING FLUID DENSITY
DFV .                         68 : DRILLING FLUID VISCOSITY
DFPH.                         11 : DRILLING FLUID PH
DFL .                        9.5 : DRILLING FLUID LOSS
MSS .                   FLOWLINE : MUD SAMPLE SOURCE
RMS .OHMM                   2.06 : RESISTIVITY MUD SAMPLE
MST .DEGC                   13.3 : MUD SAMPLE TEMPERATURE
RMF .OHMM                   1.84 : RESISTIVITY MUD FILTRATE SAMPLE
MFST.DEGC                   13.3 : MUD FILTRATE SAMPLE TEMPERATURE
RMC .OHMM                  0.912 : RESISTIVITY MUD CAKE
MCST.DEGC                   48.8 : MUD CAKE SAMPLE TEMPERATURE
MFSS.                   FLOWLINE : MUD FILTRATE SAMPLE SOURCE
RMB .OHMM                  1.021 : RESISTIVITY MUD AT BHT
TCS .HRS                    1200 : TIME CIRCULATED STOPPED
TLAB.HRS                    2300 : TIME LOGGER AT BOTTOM
LUN .                       8037 : LOGGING UNIT NUMBER
LUL .                        EDM : LOGGING UNIT LOCATION
ENGI.              BENWOOD AMLIN : RECORDING ENGINEER
WITN.                      THORP : WITNESSED BY
CLNT.                    A2DTECH : CLIENT CODE
ORIG. 6.5"/100M 16.5"/100M PRINT : ORIGIN OF DATA
UWI .           100061307518W500 : UNIQUE WELL ID
DICO.     A2D Technologies, Inc. : DIGITIZING COMPANY
~Other -----------------------------------------------------
DIL-SFL-CNFD TOOL RAN IN COMBO & BCS LOG RAN.
RHOB & DRHO ARE FROM SMALL SCALE log
NEUTRON MATRIX CONVERSION: SCHLUMBERGER
~ASCII -----------------------------------------------------
# ...
 1700.00000  256.65850  217.74080  217.74080    5.04520   -0.26250 2718.37900   -0.00490    -999.25   -0.00490  198.20840   -0.26250  162.09440  162.09440   18.13470   15.97460   15.97460  198.20840  133.36080  133.36080    0.00040    -999.25    0.00040 2719.69380  290.95560  -79.09050  -49.30820  290.95560
 1750.00000  247.65770  215.49770  215.49770    1.88470    3.94870 2726.07400   -0.00940    -999.25   -0.00940  530.58100    3.94870  161.81990  161.81990   14.23300   12.53550   12.53550  530.58100  256.84650  256.84650   -0.00200    -999.25   -0.00200 2729.94120  624.58640  -95.44500  -64.91040  624.58640
 1800.00000  232.12700  207.81440  207.81440   10.90640   39.13680 2702.64700    0.00430    -999.25    0.00430   91.68970   39.13680  161.84400  161.84400   12.31150   10.59000   10.59000   91.68970  107.85770  107.85770    0.09530    -999.25    0.09530 2701.83180  307.21980 -130.19230  -98.90540  307.21980
 1850.00000  241.36370  218.46070  218.46070   54.64600   23.08150 2760.27400   -0.02940    -999.25   -0.02940   18.29960   23.08150  168.14920  168.14920   26.32510   26.43790   26.43790   18.29960   18.22350   18.22350    0.10560    -999.25    0.10560 2770.02080   31.97470  -94.09050  -62.05130   31.97470
 1900.00000  228.42690  209.08240  209.08240  132.75500   33.71150 2665.54000    0.02600    -999.25    0.02600    7.53510   33.71150  202.65070  202.65070   54.82380   56.56000   56.56000    7.53510    7.27000    7.27000    0.10400    -999.25    0.10400 2667.05540    7.86660  -50.79680  -27.70650    7.86660
 1950.00000  391.70190  255.26460  255.26460  271.60570   83.30030 2479.15000    0.13500    -999.25    0.13500    3.68830   83.30030  281.23680  281.23680   98.83420  102.89630  102.89630    3.68830    3.43960    3.43960    0.33160    -999.25    0.33160 2480.10860    4.11080  -52.83300  -10.90370    4.11080
 2000.00000  562.28190  211.49330  211.49330  281.03670  250.00170 2489.32450    0.12900    -999.25    0.12900    3.55860  250.00170  281.14150  281.14150  116.19080  121.85950  121.85950    3.55860    3.07170    3.07170    0.26930    -999.25    0.26930 2480.27470    3.80710  -48.91400   -9.47290    3.80710
 2050.00000  562.28000  204.11310  204.11310  241.93180  166.97850 2561.40100    0.08690    -999.25    0.08690    4.13340  166.97850  269.24650  269.24650   94.12540   97.28130   97.28130    4.13340    3.81930    3.81930    0.22220    -999.25    0.22220 2559.52240    4.69460  -30.15530   -8.95670    4.69460
 2100.00000  210.92680  202.24840  202.24840   71.39900   -1.95120 2685.54700    0.01430    -999.25    0.01430   14.00580   -1.95120  209.96700  209.96700   67.34770   70.89430   70.89430   14.00580   15.27790   15.27790    0.13160    -999.25    0.13160 2688.60030   19.48850   -4.04520   -2.80070   19.48850
 2150.00000  262.74740  215.49930  215.49930  136.82140  249.79780 2481.71500    0.13350    -999.25    0.13350    7.30880  249.79780  232.70450  232.70450   80.87510   84.64190   84.64190    7.30880    7.64380    7.64380    0.25630    -999.25    0.25630 2482.41060    8.97660  -16.75120  -31.83370    8.97660
 2200.00000  388.75620  276.14060  276.14060  351.49380  111.72690 2278.90900    0.25210    -999.25    0.25210    2.84500  111.72690  311.16770  311.16770   89.18030   95.29080   95.29080    2.84500    2.61900    2.61900    0.45180    -999.25    0.45180 2301.61470    3.48120  -17.10370  -41.50320    3.48120
 2250.00000  228.99470  216.11950  216.11950   64.93340   -3.99900 2670.84100    0.02290    -999.25    0.02290   15.40040   -3.99900  202.76990  202.76990   48.86570   53.41080   53.41080   15.40040   15.62230   15.62230    0.10140    -999.25    0.10140 2672.21290   19.96230   17.86550   -8.17940   19.96230
 2300.00000  207.35840  214.86790  214.86790    9.76060    0.51050 2700.25300    0.00570    -999.25    0.00570  102.45270    0.51050  172.18230  172.18230   22.78490   21.91980   21.91980  102.45270   90.61230   90.61230    0.02330    -999.25    0.02330 2700.43240  152.32420   10.87060  -14.76610  152.32420
 2350.00000  200.46560  214.02750  214.02750 1984.52070   21.15860 2319.26500    0.22850    -999.25    0.22850    0.50390   21.15860  268.45350  268.45350  116.42790   95.89010   95.89010    0.50390    0.64880    0.64880    0.17210    -999.25    0.17210 2320.29390    3.04710  -72.90640  -78.68070    3.04710
 2400.00000    -999.25  211.73910  211.73910   15.93410    -999.25    -999.25    -999.25    -999.25    -999.25   62.75830    -999.25  173.95720  173.95720    -999.25    -999.25    -999.25   62.75830  101.35070  101.35070    -999.25    -999.25    -999.25    -999.25  629.92490  -32.33490  -19.02380  629.92490
