~Version ---------------------------------------------------
VERS.      2.0 : CWLS log ASCII Standard -VERSION 2.0
WRAP.       NO : ONE LINE PER DEPTH STEP
CREA. 06/21/13 : LAS CREATION DATE
~Well ------------------------------------------------------
STRT.M                            350.0 : START DEPTH
STOP.M                           2350.0 : STOP DEPTH
STEP.M                         50.00000 : STEP LENGTH
NULL.                           -999.25 : NULL VALUE
COMP. CANADIAN RESERVE OIL AND GAS LTD. : COMPANY
WELL.   CDNRES ET AL OBERLIN 12-9-38-21 : WELL
FLD .                                   : FIELD
LOC .                                   : LOCATION
CTRY.                            CANADA : COUNTRY
SRVC.                           Unknown : SERVICE COMPANY
DATE.                       08-Feb-1984 : LOGDATE
PROV.                           Alberta : PROVINCE
UWI .                  100120903821W400 : UNIQUE WELL ID
SLAT.WGS84                     52.25356 : SURFACE LATITUDE
SLON.WGS84                    -112.9546 : SURFACE LONGITUDE
~Curve Information -----------------------------------------
DEPT    .M      : DEPTH METERS
CALDED  .MM     : CALIPER FROM DENSITY LOG
CALSED  .MM     : CALIPER FROM SONIC LOG
CALWS   .MM     : CALIPER [CALSED]
CONDWS  .MMHO   : CONDUCTIVITY [1000/DRESWS]
DCORWS  .KG/M3  : DENSITY CORRECTION [DRHOED]
DENWS   .KG/M3  : BULK DENSITY [RHOBED]
DPHILSED.V/V    : DENSITY POROSITY [M=2710 F=1000] FROM DENSITY LOG
DPHISSED.V/V    : DENSITY POROSITY [M=2650 F=1000] FROM DENSITY LOG
DPOLSWS .V/V    : DENSITY POROSITY LIMESTONE [CALCULATED FROM DENWS]
DRESWS  .OHMM   : DEEP RESISTIVITY [ILDED]
DRHOED  .KG/M3  : DENSITY CORRECTION FROM DENSITY LOG
DTED    .US/M   : DELTA TIME FROM SONIC LOG
DTWS    .US/M   : DELTA TIME [DTED]
GRDED   .GAPI   : GAMMA RAY FROM DENSITY LOG
GRSED   .GAPI   : GAMMA RAY FROM SONIC LOG
GRWS    .GAPI   : GAMMA RAY [GRSED], SPLICED WITH [GRDED] AT 2349
ILDED   .OHMM   : INDUCTION LOG DEEP RESISTIVITY
ILMED   .OHMM   : INDUCTION LOG MEDIUM RESISTIVITY
MRESWS  .OHMM   : MEDIUM RESISTIVITY [ILMED]
NPHILSED.V/V    : NEUTRON POROSITY LIMESTONE FROM DENSITY LOG
NPHISSED.V/V    : NEUTRON POROSITY SANDSTONE FROM DENSITY LOG
NPOLSWS .V/V    : NEUTRON POROSITY LIMESTONE, MATRIX CONVERTED [NPHISSED] FROM TOP TO 1390
RHOBED  .KG/M3  : BULK DENSITY FROM DENSITY LOG
SFLUED  .OHMM   : SPHERICALLY FOCUSED LOG RESISTIVITY
SPRED   .MV     : SPONTANEOUS POTENTIAL FROM RESISTIVITY LOG
SPWS    .MV     : SPONTANEOUS POTENTIAL [BASELINE 0 MV] [SPRED]
SRESWS  .OHMM   : SHALLOW RESISTIVITY [SFLUED]
TENDED  .N      : TENSION FROM DENSITY LOG
TENSED  .N      : TENSION FROM SONIC LOG
~Params ----------------------------------------------------
PD  .                         GL : PERMANENT DATUM
EPD .M                       846 : ELEVATION PERMANENT DATUM
LMF .                         KB : LOG MEASURED FROM
DAPD.M                         5 : FEET ABOVE PERMANENT DATUM
DMF .                         KB : DRILLING MEASURED FROM
EKB .M                       851 : KELLY BUSHING
EGL .M                       846 : GROUND LEVEL
DATE.                   02/08/84 : RUN DATE
RUN .                          1 : RUN NUMBER
DD  .M                      2370 : DEPTH DRILLER
DL  .M                    2369.5 : DEPTH LOGGER
BLI .M                    2368.5 : BOTTOM LOG INTERVAL
TLI .M                       389 : TOP LOG INTERVAL
CS  .MM                      219 : CASING SIZE
CBD .M                       390 : CASING BOTTOM DRILLER
CBL .M                       389 : CASING BOTTOM LOGGER
BS  .MM                      200 : BIT SIZE
BSD .M                      2370 : BIT SIZE AT DEPTH
DFT .                   GEL CHEM : DRILLING FLUID TYPE
DFD .                       1140 : DRILLING FLUID DENSITY
DFV .                         50 : DRILLING FLUID VISCOSITY
DFPH.                         11 : DRILLING FLUID PH
DFL .                       10.6 : DRILLING FLUID LOSS
MSS .                CIRCULATION : MUD SAMPLE SOURCE
RMS .OHMM                  0.661 : RESISTIVITY MUD SAMPLE
MST .DEGC                   17.7 : MUD SAMPLE TEMPERATURE
RMF .OHMM                  0.615 : RESISTIVITY MUD FILTRATE SAMPLE
MFST.DEGC                   18.3 : MUD FILTRATE SAMPLE TEMPERATURE
RMC .OHMM                  0.262 : RESISTIVITY MUD CAKE
MCST.DEGC                     72 : MUD CAKE SAMPLE TEMPERATURE
MFSS.                      PRESS : MUD FILTRATE SAMPLE SOURCE
RMB .OHMM                  0.278 : RESISTIVITY MUD AT BHT
TCS .HRS                    1200 : TIME CIRCULATED STOPPED
TLAB.HRS                     230 : TIME LOGGER AT BOTTOM
LUN .                       8210 : LOGGING UNIT NUMBER
LUL .                        EDM : LOGGING UNIT LOCATION
ENGI.                 BRANDSTROM : RECORDING ENGINEER
WITN.                     DAVIES : WITNESSED BY
CLNT.                    A2DTECH : CLIENT CODE
ORIG. 6.5"/100M 16.5"/100M PRINT : ORIGIN OF DATA
UWI .           100120903821W400 : UNIQUE WELL ID
DICO.     A2D Technologies, Inc. : DIGITIZING COMPANY
~Other -----------------------------------------------------
~ASCII -----------------------------------------------------
# ...
 1600.00000  238.56040  226.74420  226.74420    8.55970   -2.85090 2905.53340   -0.11010    -999.25   -0.11430  116.82700   -2.85090  164.82740  164.82740   11.12130    9.37650    9.37650  116.82700  257.67200  257.67200    0.00430    -999.25    0.00430 2905.53340  788.47920  -69.51270  -46.96010  788.47920 85528.78210 95642.82500
 1650.00000  394.40800  330.33710  330.33710  316.14560   58.11730 1582.92770    0.65500    -999.25    0.65910    3.16310   58.11730  236.10870  236.10870   21.57410   17.35020   17.35020    3.16310    0.92480    0.92480    0.27670    -999.25    0.27670 1582.92770  302.74620  -61.47300  -40.06040  302.74620 87060.67700 97433.36300
 1700.00000  250.56160  232.75800  232.75800    0.68090   -0.03630 2912.84790   -0.12220    -999.25   -0.11860 1468.62730   -0.03630  156.99080  156.99080   13.69180   12.94940   12.94940 1468.62730 1239.21130 1239.21130   -0.00340    -999.25   -0.00340 2912.84790 1958.73520  -56.66450  -36.71100 1958.73520 89237.01540 100141.58130
 1750.00000  251.27730  235.17120  235.17120    1.09240   70.55270 2644.64700    0.03920    -999.25    0.03820  915.37620   70.55270  177.54770  177.54770   41.16320   32.69040   32.69040  915.37620 1961.97570 1961.97570    0.08750    -999.25    0.08750 2644.64700 1511.55030 -102.41980  -85.52910 1511.55030 91867.51500 102717.10130
 1800.00000  263.17180  248.80260  248.80260   25.09140   38.29550 2714.29810   -0.00360    -999.25   -0.00250   39.85430   38.29550  203.70240  203.70240   81.01220   78.59860   78.59860   39.85430   35.38090   35.38090    0.08530    -999.25    0.08530 2714.29810   46.44910 -107.27820  -93.45030   46.44910 94691.83540 104710.86280
 1850.00000  268.76840  247.22760  247.22760   44.51010   13.83490 2706.62160    0.00070    -999.25    0.00200   22.46680   13.83490  207.57290  207.57290  105.59840  104.14670  104.14670   22.46680   21.48110   21.48110    0.10480    -999.25    0.10480 2706.62160   26.07040  -92.16260  -81.39740   26.07040 96415.36870 106196.52530
 1900.00000  254.97710  232.55130  232.55130    2.70360   69.40500 2779.96900   -0.03310    -999.25   -0.04090  369.87880   69.40500  165.25330  165.25330   24.84800   21.27050   21.27050  369.87880  262.44960  262.44960    0.01630    -999.25    0.01630 2779.96900  312.45810  -48.00580  -40.30340  312.45810 99485.84910 108990.04200
 1950.00000  220.91000  209.18720  209.18720   30.20780   30.93970 2741.79000   -0.01550    -999.25   -0.01860   33.10400   30.93970  166.96010  166.96010   11.58750    8.52160    8.52160   33.10400   83.80190   83.80190    0.09020    -999.25    0.09020 2741.79000  157.25520  -80.17900  -76.91100  157.25520 99001.60260 110912.91910
 2000.00000  249.75690  225.93110  225.93110   12.17080   18.43680 2784.47630   -0.03620    -999.25   -0.04360   82.16370   18.43680  164.13110  164.13110    8.90830    9.78920    9.78920   82.16370  168.50870  168.50870    0.00470    -999.25    0.00470 2784.47630  149.51490  -86.00210  -95.06440  149.51490 101458.03900 113193.32550
 2050.00000  268.44490  246.04300  246.04300   16.32450    5.69350 2734.78050   -0.01420    -999.25   -0.01450   61.25780    5.69350  186.17200  186.17200   61.33030   63.73970   63.73970   61.25780   56.66220   56.66220    0.07480    -999.25    0.07480 2734.78050   68.69510    1.00170  -20.39090   68.69510 103884.10280 114823.17250
 2100.00000  235.23540  222.28720  222.28720   14.69080   -2.54190 2803.76930   -0.05170    -999.25   -0.05480   68.06960   -2.54190  167.67030  167.67030   25.40850   24.05150   24.05150   68.06960   96.47400   96.47400    0.03110    -999.25    0.03110 2803.76930  252.76940  -36.80700  -70.52990  252.76940 105403.60440 116789.96500
 2150.00000  258.16440  226.23930  226.23930    1.80140   16.30990 2703.39310    0.01180    -999.25    0.00390  555.13500   16.30990  162.05900  162.05900   11.11740   13.45480   13.45480  555.13500  321.77980  321.77980   -0.00500    -999.25   -0.00500 2703.39310  390.23860  -93.73970 -139.79280  390.23860 107035.07690 120260.22870
 2200.00000  251.99830  223.52280  223.52280    0.98440    5.34070 2690.79760    0.01240    -999.25    0.01120 1015.89670    5.34070  184.22570  184.22570   34.56290   34.89400   34.89400 1015.89670  254.05290  254.05290    0.02930    -999.25    0.02930 2690.79760  613.92730  -25.09580  -83.47920  613.92730 110029.88620 120963.74710
 2250.00000  234.98750  223.69190  223.69190  103.24070   21.18710 2704.29320    0.00730    -999.25    0.00330    9.68610   21.18710  175.15380  175.15380   38.31800   31.12540   31.12540    9.68610    9.52020    9.52020    0.12220    -999.25    0.12220 2704.29320   12.46050   46.01980  -19.67080   12.46050 111385.92170 122975.59560
 2300.00000  222.90710  219.50400  219.50400   28.06190   17.42420 2504.82080    0.07230    -999.25    0.12000   35.63550   17.42420  200.44320  200.44320  157.76550  145.14190  145.14190   35.63550   15.95060   15.95060    0.05880    -999.25    0.05880 2504.82080   32.12180   20.93800  -45.92050   32.12180 116065.80910 126111.59890
 2350.00000  231.97570  212.24010  212.24010   82.49600   49.33370 2533.43920    0.10520    -999.25    0.10330   12.12180   49.33370  215.16250  215.16250  149.82030    -999.25  149.82030   12.12180   18.86400   18.86400    0.28170    -999.25    0.28170 2533.43920   14.39910   19.31460  -48.71170   14.39910 115992.93100 128226.85990
