~Version ---------------------------------------------------
VERS. 2.0 : CWLS log ASCII Standard -VERSION 2.0
WRAP.  NO : ONE LINE PER DEPTH STEP
~Well ------------------------------------------------------
STRT.F                          1450.0 : START DEPTH
STOP.F                         11100.0 : STOP DEPTH
STEP.F                        50.00000 : STEP LENGTH
NULL.                          -999.25 : NULL VALUE
COMP. AMOCO CANADA PETROLEUM CO., LTD. : COMPANY
WELL.       AMOCO PEX TONY 10-16-64-22 : WELL
FLD .                                  : FIELD
LOC .                                  : LOCATION
CTRY.                           CANADA : COUNTRY
SRVC.           Schlumberger of Canada : SERVICE COMPANY
DATE.                      08-Apr-1978 : LOGDATE
PROV.                          Alberta : PROVINCE
UWI .                 100101606422W500 : UNIQUE WELL ID
SLAT.WGS84                    54.53914 : SURFACE LATITUDE
SLON.WGS84                   -117.2632 : SURFACE LONGITUDE
~Curve Information -----------------------------------------
DEPT   .F                 : 
GRD    .GAPI 45 310 01 00 : GAMMA RAY FROM DENSITY LOG
CALD   .IN   45 280 60 00 : CALIPER FROM DENSITY LOG
RHOB   .G/C3 45 350 01 00 : BULK DENSITY
DRHO   .G/C3 45 356 01 00 : BULK DENSITY CORRECTION
DPHI_SS.DEC  45 890 03 00 : DENSITY POROSITY SANDSTONE
NPHI_SS.DEC  42 890 03 00 : NEUTRON POROSITY SANDSTONE
GRS    .GAPI 60 310 01 00 : GAMMA RAY FROM SONIC LOG
DT     .US/F 60 500 00 00 : DELTA-T (INTERVAL TRANSIT TIME)
CALS   .IN   60 280 50 00 : CALIPER FROM SONIC LOG
NPHI_LS.DEC  42 890 01 00 : NEUTRON POROSITY LIMESTONE
DPHI_LS.DEC  45 890 10 00 : DENSITY POROSITY LIMESTONE
ILD    .OHMM 07 120 46 00 : INDUCTION DEEP RESISTIVITY
ILM    .OHMM 07 120 44 00 : INDUCTION MEDIUM RESISTIVITY
LL8    .OHMM 07 220 08 00 : LATEROLOG 8
SPR    .MV   07 010 01 00 : SPONTANEOUS POTENTIAL FROM RESISTIVITY LOG
GR     .GAPI 81 310 01 00 : GAMMA RAY
NEUT   .NAPI 35 330 01 00 : NEUTRON
~Params ----------------------------------------------------
PD  .                     GL : PERMANENT DATUM
EPD .FT               2639.4 : ELEVATION PERMANENT DATUM
LMF .                     KB : LOG MEASURED FROM
DAPD.FT                 21.4 : FEET ABOVE PERMANENT DATUM
EKB .FT               2660.8 : KELLY BUSHING
EGL .FT               2639.4 : GROUND LEVEL
DATE.               04/08/78 : RUN DATE
RUN .                      2 : RUN NUMBER
DD  .FT                11105 : DEPTH DRILLER
DL  .FT                11103 : DEPTH LOGGER
BLI .FT                11099 : BOTTOM LOG INTERVAL
TLI .FT                 6000 : TOP LOG INTERVAL
CBD .FT                 1528 : CASING BOTTOM DRILLER
CBL .FT                 1528 : CASING BOTTOM LOGGER
BS  .IN                 8.75 : BIT SIZE
BSD .FT                11105 : BIT SIZE AT DEPTH
DFT .              GEL GELEX : DRILLING FLUID TYPE
DFD .                      9 : DRILLING FLUID DENSITY
DFV .                     92 : DRILLING FLUID VISCOSITY
DFPH.                      9 : DRILLING FLUID PH
DFL .                    9.8 : DRILLING FLUID LOSS
MSS .               FLOWLINE : MUD SAMPLE SOURCE
RMS .OHMM               1.91 : RESISTIVITY MUD SAMPLE
MST .DEGF                 52 : MUD SAMPLE TEMPERATURE
RMF .OHMM               1.45 : RESISTIVITY MUD FILTRATE SAMPLE
MFST.DEGF                 60 : MUD FILTRATE SAMPLE TEMPERATURE
TCS .HRS                 2.5 : TIME CIRCULATED STOPPED
LUN .              OSU C 244 : LOGGING UNIT NUMBER
LUL .                    EDM : LOGGING UNIT LOCATION
ENGI.                   GUNN : RECORDING ENGINEER
WITN.                   WALL : WITNESSED BY
CLNT.                A2DTECH : CLIENT CODE
ORIG.            2" 5" PRINT : ORIGIN OF DATA
UWI .       100101606422W500 : UNIQUE WELL ID
DICO. A2D Technologies, Inc. : DIGITIZING COMPANY
~Other -----------------------------------------------------
~ASCII -----------------------------------------------------
# ...
 5550.00000   99.66820   10.62570    2.53650    0.01280    0.08160    0.31150  112.67330   76.67090    9.00530    -999.25    -999.25    7.85410    8.67460   12.10150 -113.87340    -999.25    -999.25
 5600.00000   47.16120   10.58890    2.35340   -0.00360    0.18950    0.26010   90.02780   76.86250    9.02470    -999.25    -999.25   10.34570   11.31420   15.34700 -129.62210    -999.25    -999.25
 5650.00000   77.08170   10.88770    2.54540   -0.02670    0.06350    0.24750   99.99690   71.86980    9.02090    -999.25    -999.25   12.48780   13.78030   17.26510 -116.04780    -999.25    -999.25
 5700.00000   50.72010   10.61930    2.48980   -0.00210    0.09790    0.17940   48.48650   75.33990    9.18660    -999.25    -999.25   13.60820   15.09590   40.54310 -136.12950    -999.25    -999.25
 5750.00000   89.90540   11.47430    2.26130   -0.01410    0.31580    0.45130   82.11240  119.76970   11.54620    -999.25    -999.25   17.39810   18.90430   24.14340 -106.24730    -999.25    -999.25
 5800.00000   86.65280   11.17700    2.59020   -0.02480    0.02170    0.24300   99.67130   72.03920    9.36150    -999.25    -999.25   11.26920   12.35650   16.47150 -111.44230    -999.25    -999.25
 5850.00000   78.28750   11.02690    2.32280   -0.03010    0.36120    0.32310   95.23580  125.85870   11.25490    -999.25    -999.25   14.91330   20.48430   28.55420  -97.12280    -999.25    -999.25
 5900.00000   86.15260   11.39070    2.54480   -0.00040    0.05840    0.30270   94.12840   76.72440    9.49290    -999.25    -999.25   11.06610   12.37500   18.80390  -96.03710    -999.25    -999.25
 5950.00000   57.01320   11.82220    2.56290   -0.01350    0.04100    0.20870   83.60640   73.34070    9.55380    -999.25    -999.25    8.44880    8.90760   10.69440  -98.59200    -999.25    -999.25
 6000.00000   67.87050   12.09740    2.03440   -0.03120    0.27130    0.45130  113.79750   79.77570    9.63150    -999.25    -999.25    9.44590   10.43210   14.12280 -102.37900    -999.25    -999.25
 6050.00000   56.40070   11.19230    2.49050   -0.01720    0.09070    0.24260   72.17830   73.58000    9.48610    -999.25    -999.25    6.97920    7.34260   12.07090 -119.88260    -999.25    -999.25
 6100.00000   89.86390   11.26760    2.60360   -0.02980    0.02230    0.23220  111.72580   74.25140    9.49370    -999.25    -999.25   11.91820   12.75830   16.40860  -90.47120    -999.25    -999.25
 6150.00000   83.05120   11.26620    2.59170   -0.02300    0.04610    0.25240  102.43820   80.07970    9.52710    -999.25    -999.25    6.36990    6.91650   11.05560  -84.68120    -999.25    -999.25
 6200.00000   64.23880   10.99930    2.50330   -0.02340    0.05520    0.20330  118.28560   74.54920    9.39260    -999.25    -999.25    8.92630    9.58540   13.43400  -76.04820   34.00980  923.97900
 6250.00000   86.41650   10.68870    2.61930   -0.03440    0.01040    0.19960  112.93980   80.77750    9.19200    -999.25    -999.25   19.42370   20.22330   29.50650  -74.67830   39.36750 1023.64760
 6300.00000   66.43960   10.92060    2.53220   -0.03150    0.06870    0.17070   94.51160   67.97500    9.28640    -999.25    -999.25   22.68410   27.22700   66.32930  -75.14790   62.90170  736.12530
 6350.00000   56.98630   10.92100    2.60240   -0.02680    0.03490    0.12750   85.32640   64.64880    9.25190    -999.25    -999.25   17.40330   19.24940   25.33290  -74.20240   60.88510  889.25790
 6400.00000  106.20480   10.59760    2.49310   -0.01360    0.10470    0.20520   91.73240   69.55090    9.09690    -999.25    -999.25   23.70650   28.48370   37.63670  -79.54560   65.15700  891.86910
 6450.00000   83.71710   10.24100    2.62180   -0.01570    0.02770    0.14670   96.30350   63.80600    8.98650    -999.25    -999.25   21.47270   24.38090   31.55090  -84.08230   61.97660  946.84450
 6500.00000   35.83050    9.70040    2.42730    0.02620    0.11540    0.18550   42.44720   72.71320    8.76360    -999.25    -999.25    5.59520    6.77980   23.45200 -145.02310   30.12540  979.77630
 6550.00000   55.21690   10.07080    2.53550   -0.01050    0.06520    0.15040   50.15270   61.86570    8.95330    -999.25    -999.25   12.90130   14.06720   20.44240  -98.84550   40.59130  942.53900
 6600.00000   35.50700    9.61420    2.35970    0.00080    0.17440    0.17870   48.67500   75.13920    8.75010    -999.25    -999.25    8.25160   11.09020   31.40760 -132.60310   51.39490  969.33670
 6650.00000  155.21800    9.81740    2.39670   -0.03330    0.15820    0.29540  179.75470   79.99400    8.94100    -999.25    -999.25   43.62580   79.14970  532.49850  -98.06930   77.02570  833.63680
 6700.00000  296.90290    9.87270    2.32760    0.02210    0.17350    -999.25  298.90480   77.62320    8.53180    0.24910    -999.25   77.16550   89.77520   97.32520  -64.12330  183.07330  864.77720
 6750.00000   85.35680    8.92430    2.67400    0.02800    -999.25    -999.25   84.97660   61.98670    8.51840    0.06940    0.03200   14.07450   14.92120   17.10090  -51.24280   66.81760  928.99710
 6800.00000   70.94340    8.74690    2.67050    0.04110    -999.25    -999.25   83.06970   63.18380    8.85990    0.10060    0.03610    8.11880    8.80930   13.74420  -77.96150   51.64150  696.87540
 6850.00000   73.59350    8.87430    2.72280    0.01490    -999.25    -999.25   79.85460   57.82710    8.58110    0.06960   -0.01080   19.96110   22.14890   27.02430  -44.88360   64.22920  739.10520
 6900.00000   93.84110    9.13280    2.67640    0.00150    -999.25    -999.25   90.19830   62.74830    8.79780    0.09000    0.01680   17.86920   19.40630   23.29030  -41.28610   59.87090  677.72830
 6950.00000  104.65060    9.19300    2.70740    0.02030    -999.25    -999.25  100.08110   64.30840    8.80360    0.09300    0.00920   16.48020   17.29870   20.26640  -38.57040    -999.25    -999.25
 7000.00000   74.40310    8.74010    2.70970    0.02350    -999.25    -999.25   69.91000   57.79170    8.44030    0.05730   -0.01150   51.28660   56.20500   68.98510  -45.38890    -999.25    -999.25
 7050.00000  100.43900    8.97700    2.70690    0.00880    -999.25    -999.25  108.63930   60.86780    9.21560    0.08970   -0.00090   30.46240   32.23500   38.44360  -35.74250    -999.25    -999.25
 7100.00000   21.74130    8.24270    2.51690    0.05620    -999.25    -999.25   22.27860   63.03280    8.49550    0.19850    0.12800    1.97560    3.50110   18.03350 -153.56460    -999.25    -999.25
 7150.00000   27.68600    8.47000    2.74230    0.06200    -999.25    -999.25   25.59260   54.90230    9.28260    0.11470   -0.01160   34.76340   36.45650   40.56260 -118.24420    -999.25    -999.25
 7200.00000   39.23490    9.53720    2.66630    0.21760    -999.25    -999.25   30.54140   50.86000    9.24650    0.10480    0.03850   31.69570   41.08750   64.62190 -101.97420    -999.25    -999.25
 7250.00000   24.17940    8.69220    2.83820    0.00930    -999.25    -999.25   23.63880   46.78320    9.17590    0.00960   -0.08550  238.85100  127.82640 1240.93770  -97.65610    -999.25    -999.25
 7300.00000   44.10300    9.17690    2.69320    0.00170    -999.25    -999.25   40.73760   51.70400    9.20300    0.11440    0.00570   74.51430   70.85900  201.97240 -106.41510    -999.25    -999.25
 7350.00000   15.32060    9.21170    2.65800    0.05000    -999.25    -999.25   21.35940   50.86920    9.59940    0.02800    0.03650   73.86910   90.98460  159.98560 -127.14460    -999.25    -999.25
 7400.00000   58.91310    9.33020    2.69790    0.02080    -999.25    -999.25   82.08580   62.29480    8.66490    0.07950    0.00140    9.23450    -999.25   14.46140  -49.26300    -999.25    -999.25
 7450.00000   49.06620    8.92470    2.71140    0.01670    -999.25    -999.25   65.68550   55.66720    9.43680    0.01380   -0.00760   33.52190   36.53740   72.32410  -38.03590    -999.25    -999.25
 7500.00000   72.93570    8.99070    2.70530    0.04560    -999.25    -999.25   31.36220   51.77960    9.54250    0.06410   -0.01880  111.47690  115.25640 1374.12270  -73.29230    -999.25    -999.25
 7550.00000   44.66360    9.23290    2.78890    0.16280    -999.25    -999.25   49.66720   57.71250    9.43140    0.08050   -0.06950   23.46610   31.82130   82.13520  -93.53830    -999.25    -999.25
