~Version ---------------------------------------------------
VERS. 2.0 : CWLS log ASCII Standard -VERSION 2.0
WRAP.  NO : One line per depth step
~Well ------------------------------------------------------
STRT.M                       450.0 : START DEPTH
STOP.M                      3150.0 : STOP DEPTH
STEP.M                    50.00000 : STEP LENGTH
NULL.                      -999.25 : NULL VALUE
COMP.       CHEVRON CANADA LIMITED : COMPANY
WELL. CHEVRON ET AL GILBY 7-1-41-3 : WELL
FLD .                              : FIELD
LOC .                              : LOCATION
CTRY.                       CANADA : COUNTRY
SRVC.                      Unknown : SERVICE COMPANY
DATE.                  29-Dec-1986 : LOGDATE
PROV.                      Alberta : PROVINCE
UWI .             100070104103W500 : UNIQUE WELL ID
SLAT.WGS84                52.50131 : SURFACE LATITUDE
SLON.WGS84               -114.2957 : SURFACE LONGITUDE
~Curve Information -----------------------------------------
DEPT    .M      : 
C1ED    .MM     : CALIPER1 FROM DENSITY LOG [ADJ. TO RESISTIVITY LOG]
C2ED    .MM     : CALIPER2 FROM DENSITY LOG [ADJ. TO RESISTIVITY LOG]
CALSED  .MM     : CALIPER FROM SONIC LOG [ADJ. TO RESISTIVITY LOG]
CALWS   .MM     : CALIPER [CALSED]
CONDWS  .MMHO   : CONDUCTIVITY [1000/DRESWS]
DCORWS  .KG/M3  : DENSITY CORRECTION [DRHOED]
DENWS   .KG/M3  : FORMATION BULK DENSITY [RHOBED]
DPHILSED.V/V    : DENSITY POROSITY LIMESTONE [M=2710,F=1000, ADJ. TO RESISTIVITY LOG] FROM DENSITY LOG
DPHISSED.V/V    : DENSITY POROSITY SANDSTONE [M=2650,F=1000, ADJ. TO RESISTIVITY LOG] FROM DENSITY LOG
DPOLSWS .V/V    : DENSITY POROSITY LIMESTONE [CALC FROM DENWS, M=2710,F=1000]
DRESWS  .OHMM   : DEEP RESISTIVITY [ILDED]
DRHOED  .KG/M3  : DENSITY CORRECTION FROM DENSITY LOG [ADJ. TO RESISTIVITY LOG]
DTED    .US/M   : DELTA TIME FROM SONIC LOG [ADJ. TO RESISTIVITY LOG]
DTWS    .US/M   : COMPRESSIONAL  SONIC [DTED]
GRDED   .GAPI   : GAMMA RAY FROM DENSITY LOG [ADJ. TO RESISTIVITY LOG]
GRSED   .GAPI   : GAMMA RAY FROM SONIC LOG [ADJ. TO RESISTIVITY LOG]
GRWS    .GAPI   : GAMMA RAY [GRSED SPL. TO GRDED @ 2082.4-2092.4M & 2037.4-2044.3M]
ILDED   .OHMM   : DEEP INDUCTION FROM RESISTIVITY LOG
ILMED   .OHMM   : MEDIUM INDUCTION FROM RESISTIVITY LOG
MRESWS  .OHMM   : MEDIUM RESISTIVITY [ILMED]
NPHILSED.V/V    : NEUTRON POROSITY LIMESTONE FROM DENSITY LOG [ADJ. TO RESISTIVITY LOG]
NPHISSED.V/V    : NEUTRON POROSITY SANDSTONE FROM DENSITY LOG [ADJ. TO RESISTIVITY LOG]
NPOLSWS .V/V    : NEUTRON POROSITY LIMESTONE [NPHISSED MATRIX CONVERSION FOR LIMESTONE, SPL. TO NPHILSED @2060M]
PEFED   .B/E    : PHOTOELECTRIC FACTOR FROM DENSITY LOG [ADJ. TO RESISTIVITY LOG]
PEFWS   .B/E    : PHOTOELECTRIC FACTOR [PEFED]
RHOBED  .KG/M3  : BULK DENSITY FROM DENSITY LOG [ADJ. TO RESISTIVITY LOG]
SFLUED  .OHMM   : SPHERICALLY FOCUSED RESISTIVITY FROM RESISTIVITY LOG
SPRED   .MV     : SPONTANEOUS POTENTIAL FROM RESISTIVITY LOG
SRESWS  .OHMM   : SHALLOW RESISTIVITY [SFLUED]
TENDED  .N      : TENSION FROM DENSITY LOG [ADJ. TO RESISTIVITY LOG]
TENRED  .N      : TENSION FROM RESISTIVITY LOG
SPWS    .MV     : SPONTANEOUS POTENTIAL [BASELINE 0 MV, SPRED]
~Params ----------------------------------------------------
PD  .                         GL : PERMANENT DATUM
EPD .M                     978.7 : ELEVATION PERMANENT DATUM
LMF .                         KB : LOG MEASURED FROM
DAPD.M                       3.5 : FEET ABOVE PERMANENT DATUM
DMF .                         KB : DRILLING MEASURED FROM
EKB .M                     982.2 : KELLY BUSHING
EGL .M                     978.7 : GROUND LEVEL
DATE.                   12/29/86 : RUN DATE
RUN .                          1 : RUN NUMBER
DD  .M                      3170 : DEPTH DRILLER
DL  .M                    3165.4 : DEPTH LOGGER
BLI .M                    3164.7 : BOTTOM LOG INTERVAL
TLI .M                     451.5 : TOP LOG INTERVAL
CS  .MM                    244.5 : CASING SIZE
CBD .M                     451.7 : CASING BOTTOM DRILLER
CBL .M                     451.5 : CASING BOTTOM LOGGER
BS  .MM                    215.9 : BIT SIZE
BSD .M                      3170 : BIT SIZE AT DEPTH
DFT .                   GEL CHEM : DRILLING FLUID TYPE
DFD .                       1080 : DRILLING FLUID DENSITY
DFV .                         82 : DRILLING FLUID VISCOSITY
DFPH.                       10.5 : DRILLING FLUID PH
DFL .                          7 : DRILLING FLUID LOSS
MSS .                   FLOWLINE : MUD SAMPLE SOURCE
RMS .OHMM                   1.18 : RESISTIVITY MUD SAMPLE
MST .DEGC                   26.7 : MUD SAMPLE TEMPERATURE
RMF .OHMM                   1.28 : RESISTIVITY MUD FILTRATE SAMPLE
MFST.DEGC                     20 : MUD FILTRATE SAMPLE TEMPERATURE
RMC .OHMM                  0.535 : RESISTIVITY MUD CAKE
MCST.DEGC                     78 : MUD CAKE SAMPLE TEMPERATURE
MFSS.                      PRESS : MUD FILTRATE SAMPLE SOURCE
MCSS.                    FILT CK : MUD CAKE SAMPLE SOURCE
RMB .OHMM                  0.573 : RESISTIVITY MUD AT BHT
TCS .HRS                    1800 : TIME CIRCULATED STOPPED
TLAB.HRS                    2332 : TIME LOGGER AT BOTTOM
LUN .                       8123 : LOGGING UNIT NUMBER
LUL .                         RD : LOGGING UNIT LOCATION
ENGI.                      POWER : RECORDING ENGINEER
WITN.                     SANDHU : WITNESSED BY
CLNT.                    A2DTECH : CLIENT CODE
ORIG. 6.5"/100" 16.5"/100M PRINT : ORIGIN OF DATA
UWI .           100070104103W500 : UNIQUE WELL ID
DICO.     A2D Technologies, Inc. : DIGITIZING COMPANY
~Other -----------------------------------------------------
~ASCII -----------------------------------------------------
# ...
 2650.00000  232.10140  252.10460  241.94340  241.94340   52.24030   -5.91190 2708.86210    0.00080    -999.25    0.00070   19.14230   -5.91190  220.05450  220.05450   91.81240   96.60370   96.60370   19.14230   19.79690   19.79690    0.18560    -999.25    0.18560    4.24770    4.24770 2708.86210   24.87550   -2.81980   24.87550 17378.80470 15703.06540   -1.94300
 2700.00000  225.04130  233.92190  221.33370  221.33370   19.59960    1.09050 2722.06980   -0.00790    -999.25   -0.00710   51.02140    1.09050  202.24080  202.24080  101.11660  102.33910  102.33910   51.02140   53.98530   53.98530    0.14850    -999.25    0.14850    3.91030    3.91030 2722.06980   69.76690   -4.20440   69.76690 17663.95310 15904.57230   -3.38470
 2750.00000  213.05470  227.98610  213.90460  213.90460    0.49800   60.57590 2659.95650    0.02710    -999.25    0.02930 2007.90620   60.57590  168.04900  168.04900   44.48610   45.90010   45.90010 2007.90620 2000.00000 2000.00000    0.02930    -999.25    0.02930    4.63010    4.63010 2659.95650 1757.84200 -335.73530 1757.84200 17716.33400 16240.43550 -338.69760
 2800.00000  218.86700  225.82030  218.38260  218.38260    0.50000  171.48010 2747.74020   -0.02320    -999.25   -0.02210 2000.00000  171.48010  161.13470  161.13470   31.43130   29.57040   29.57040 2000.00000  365.25750  365.25750    0.07090    -999.25    0.07090    3.40280    3.40280 2747.74020 1844.89810 -269.85480 1844.89810 17989.04490 16346.66990 -276.32800
 2850.00000  235.55100  227.41470  214.25540  214.25540    8.02650  250.00810 2893.26270   -0.10410    -999.25   -0.10720  124.58730  250.00810  151.71540  151.71540   15.51030   14.19780   14.19780  124.58730   50.38080   50.38080    0.06450    -999.25    0.06450    3.43260    3.43260 2893.26270   95.88480 -138.69670   95.88480 18009.76170 16750.86910 -148.68080
 2900.00000  217.35800  233.01950  220.02830  220.02830    1.77940  119.70280 2720.40580   -0.00830    -999.25   -0.00610  561.98550  119.70280  165.48140  165.48140   39.21690   38.67150   38.67150  561.98550  143.79580  143.79580    0.03700    -999.25    0.03700    4.44640    4.44640 2720.40580  747.78080  -65.10420  747.78080 18540.88670 16945.32810  -78.59930
 2950.00000  209.93210  228.67830  216.33940  216.33940   11.43020    1.45580 2744.85600   -0.02030    -999.25   -0.02040   87.48780    1.45580  181.07910  181.07910   60.06230   58.54830   58.54830   87.48780   74.22980   74.22980    0.10330    -999.25    0.10330    4.32340    4.32340 2744.85600   97.39070  -19.72330   97.39070 18789.47850 17325.83790   -8.90600
 3000.00000  217.38890  266.56530  225.94210  225.94210   11.99590   10.52230 2707.02760    0.00110    -999.25    0.00170   83.36200   10.52230  184.03480  184.03480   59.10390   51.96600   51.96600   83.36200   69.27080   69.27080    0.10980    -999.25    0.10980    4.40890    4.40890 2707.02760   88.28700  -65.92540   88.28700 19187.25780 17614.68160  -54.38290
 3050.00000  210.18430  236.82870  211.20920  211.20920    2.78200    8.87310 2711.42720   -0.00080    -999.25   -0.00080  359.44990    8.87310  163.42080  163.42080   22.08310   26.68170   26.68170  359.44990  438.73170  438.73170    0.02640    -999.25    0.02640    4.60630    4.60630 2711.42720  504.44120  -64.28410  504.44120 19466.48240 17714.78120  -55.47790
 3100.00000  207.02000  294.14100  221.21990  221.21990    7.76670    0.34820 2716.41530   -0.00440    -999.25   -0.00380  128.75560    0.34820  176.21830  176.21830   22.87540   23.42900   23.42900  128.75560  494.44860  494.44860    0.10560    -999.25    0.10560    3.88320    3.88320 2716.41530  220.65830  -55.43680  220.65830 19562.57620 17953.77340  -35.61130
 3150.00000  210.44280  236.96720  209.21820  209.21820   76.02310   -2.83740 2744.33540   -0.02170    -999.25   -0.02010   13.15390   -2.83740  185.68510  185.68510    -999.25    -999.25    -999.25   13.15390   14.00080   14.00080    0.14440    -999.25    0.14440    3.38390    3.38390 2744.33540   15.26490  -18.21700   15.26490 20010.39260 17895.07230   -8.34550
