~Version ---------------------------------------------------
VERS.      2.0 : CWLS log ASCII Standard -VERSION 2.0
WRAP.       NO : One line per depth step
CREA. 11/17/17 : LAS Creation Date
~Well ------------------------------------------------------
STRT.FT                           1050.0 : START DEPTH
STOP.FT                           9750.0 : STOP DEPTH
STEP.FT                         50.00000 : STEP LENGTH
NULL.                            -999.25 : NULL VALUE
COMP.                TENNECO OIL COMPANY : COMPANY
WELL. TENN SUN A1 SAKWATAMAU 10-25-64-15 : WELL
FLD .                                    : FIELD
LOC .                                    : LOCATION
CTRY.                             CANADA : COUNTRY
SRVC.                       Schlumberger : SERVICE COMPANY
DATE.                        21-Feb-1963 : LOGDATE
PROV.                            Alberta : PROVINCE
UWI .                   100102506415W500 : UNIQUE WELL ID
SLAT.WGS84                      54.56867 : SURFACE LATITUDE
SLON.WGS84                     -116.1264 : SURFACE LONGITUDE
~Curve Information -----------------------------------------
DEPT  .FT    : Depth Curve
CALSED.IN    : CALIPER FROM SONIC LOG [ADJ. TO RESISTIVITY LOG]
CALWS .IN    : CALIPER [CALSED]
CILDED.MMHO  : CONDUCTIVITY FROM RESISTIVITY LOG
CONDWS.MMHO  : CONDUCTIVITY [1000/DRESWS]
DRESWS.OHMM  : DEEP RESISTIVITY [1000/CILDED IF ILDED < 1, ILDED]
DT1ED .US/F  : DELTA-T 1' SPAN FROM SONIC LOG [ADJ. TO RESISTIVITY LOG]
DTED  .US/F  : DELTA-T 3' SPAN FROM SONIC LOG [ADJ. TO RESISTIVITY LOG]
DTWS  .US/F  : COMPRESSIONAL SONIC [DTED]
GRSED .GAPI  : GAMMA RAY FROM SONIC LOG [ADJ. TO RESISTIVITY LOG]
GRWS  .GAPI  : GAMMA RAY [GRSED]
ILDED .OHMM  : DEEP INDUCTION FROM RESISTIVITY LOG
SNED  .OHMM  : SHORT NORMAL FROM RESISTIVITY LOG
SPRED .MV    : SPONTANEOUS POTENTIAL FROM RESISTIVITY LOG
SPWS  .MV    : SPONTANEOUS POTENTIAL [BASELINE 0 MV, SPRED]
SRESWS.OHMM  : SHALLOW RESISTIVITY [SNED]
~Params ----------------------------------------------------
PD  .                     GL : PERMANENT DATUM
EPD .FT              3480.18 : ELEVATION PERMANENT DATUM
LMF .                     KB : LOG MEASURED FROM
DAPD.FT                 11.6 : FEET ABOVE PERMANENT DATUM
DMF .                     KB : DRILLING MEASURED FROM
EKB .FT              3491.78 : KELLY BUSHING
EGL .FT              3490.18 : GROUND LEVEL
DATE.               02/21/63 : RUN DATE
RUN .                      1 : RUN NUMBER
DD  .FT                 9800 : DEPTH DRILLER
DL  .FT                 9804 : DEPTH LOGGER
BLI .FT                 9803 : BOTTOM LOG INTERVAL
TLI .FT                 1027 : TOP LOG INTERVAL
CBD .FT                 1024 : CASING BOTTOM DRILLER
CBL .FT                 1027 : CASING BOTTOM LOGGER
BS  .IN                 8.75 : BIT SIZE
BSD .FT                 9800 : BIT SIZE AT DEPTH
DFT .           OIL EMULSION : DRILLING FLUID TYPE
DFD .                    9.6 : DRILLING FLUID DENSITY
DFV .                     90 : DRILLING FLUID VISCOSITY
DFPH.                   10.5 : DRILLING FLUID PH
DFL .                    8.8 : DRILLING FLUID LOSS
RMS .OHMM               1.35 : RESISTIVITY MUD SAMPLE
MST .DEGF                 74 : MUD SAMPLE TEMPERATURE
RMF .OHMM              0.895 : RESISTIVITY MUD FILTRATE SAMPLE
MFST.DEGF                 74 : MUD FILTRATE SAMPLE TEMPERATURE
RMC .OHMM               1.92 : RESISTIVITY MUD CAKE
MCST.DEGF                 74 : MUD CAKE SAMPLE TEMPERATURE
RMB .OHMM              0.895 : RESISTIVITY MUD AT BHT
TCS .HRS                   3 : TIME CIRCULATED STOPPED
LUN .                   1572 : LOGGING UNIT NUMBER
LUL .                    EDM : LOGGING UNIT LOCATION
ENGI.                 HAINES : RECORDING ENGINEER
WITN.                 MORGAN : WITNESSED BY
CLNT.                A2DTECH : CLIENT CODE
ORIG.            2" 5" PRINT : ORIGIN OF DATA
UWI .       100102506415W500 : UNIQUE WELL ID
DICO. A2D Technologies, Inc. : DIGITIZING COMPANY
~Other -----------------------------------------------------
IEL-BHC LOG RUN
ALL DATA VERIFY FROM TOP - 5978' & 6430' - 9114' FROM 2" SCALE LOG
~ASCII -----------------------------------------------------
# ...
 3350.00000   12.08440   12.08440  176.95430  175.75620    5.68970    -999.25   96.37600   96.37600   97.72700   97.72700    5.68970    5.68770  -60.60200   -4.12520    5.68770
 3400.00000   11.21100   11.21100  216.79650  216.23800    4.62470    -999.25  114.89470  114.89470  116.61690  116.61690    4.62470    5.16180  -62.90090   -6.46780    5.16180
 3450.00000   10.10700   10.10700  243.28070  249.13430    4.01390    -999.25  108.27310  108.27310  115.10060  115.10060    4.01390    4.94160  -61.56570   -5.17680    4.94160
 3500.00000    9.58020    9.58020  156.14170  156.00870    6.40990    -999.25   99.80790   99.80790  116.70680  116.70680    6.40990    7.62190  -61.27240   -4.92740    7.62190
 3550.00000    9.49040    9.49040  193.50490  191.71300    5.21620    -999.25  112.72020  112.72020  117.21840  117.21840    5.21620    5.85930  -59.32350   -3.02230    5.85930
 3600.00000    7.98610    7.98610  167.62270  167.59960    5.96660    -999.25  101.11220  101.11220  110.36070  110.36070    5.96660    6.34110  -58.99970   -2.74270    6.34110
 3650.00000    7.92620    7.92620  182.89930  182.88420    5.46810    -999.25   97.95320   97.95320  111.99940  111.99940    5.46810    5.76450  -61.89050   -5.67720    5.76450
 3700.00000    8.09070    8.09070  204.80330  210.97050    4.74000    -999.25  101.67030  101.67030  111.79340  111.79340    4.74000    5.36470  -61.09580   -4.92670    5.36470
 3750.00000    8.94730    8.94730  166.98740  167.66150    5.96440    -999.25   91.64110   91.64110  108.21550  108.21550    5.96440    6.69190  -60.09380   -3.96860    6.69190
 3800.00000    9.19200    9.19200  192.11350  200.81960    4.97960    -999.25  103.88430  103.88430  117.20770  117.20770    4.97960    5.55990  -60.27710   -4.19570    5.55990
 3850.00000    9.92190    9.92190  190.24560  190.30580    5.25470    -999.25  102.18300  102.18300  114.10240  114.10240    5.25470    5.63360  -60.23290   -4.19570    5.63360
 3900.00000   10.92710   10.92710  175.74460  175.81340    5.68800    -999.25   96.42710   96.42710  119.37030  119.37030    5.68800    6.57100  -60.46870   -4.47520    6.57100
 3950.00000    9.79000    9.79000  210.13060  211.68050    4.72410    -999.25  112.76020  112.76020  125.88530  125.88530    4.72410    5.69530  -60.71530   -4.76600    5.69530
 4000.00000   11.13100   11.13100  139.84070  140.85900    7.09930    -999.25   88.88260   88.88260  102.80160  102.80160    7.09930    7.77480  -60.89000   -4.98460    7.77480
 4050.00000   11.53490   11.53490  174.13230  175.85840    5.68640    -999.25   80.63330   80.63330  109.22400  109.22400    5.68640    6.47400  -60.31840   -4.45680    6.47400
 4100.00000    9.96550    9.96550  208.13360  218.69400    4.57260    -999.25  101.99630  101.99630  118.48290  118.48290    4.57260    6.30090  -60.63220   -4.81480    6.30090
 4150.00000   10.36560   10.36560  193.66940  200.43380    4.98920    -999.25  101.70610  101.70610  121.13090  121.13090    4.98920    6.46970  -60.51810   -4.74440    6.46970
 4200.00000   10.19590   10.19590  200.23840  204.30680    4.89460    -999.25  103.33460  103.33460  119.12470  119.12470    4.89460    6.29700  -60.42800   -4.69850    6.29700
 4250.00000   11.08770   11.08770  181.78920  184.56310    5.41820    -999.25  101.41630  101.41630  108.79260  108.79260    5.41820    7.54800  -60.32940   -4.64380    7.54800
 4300.00000   10.20490   10.20490  169.23340  169.77930    5.89000    -999.25  101.49470  101.49470  107.94090  107.94090    5.89000    8.11920  -59.28100   -3.63910    8.11920
 4350.00000    9.25080    9.25080  122.08810  122.55950    8.15930    -999.25   95.46560   95.46560  145.07890  145.07890    8.15930   11.26940  -59.65480   -4.05720   11.26940
 4400.00000    9.17590    9.17590  124.80370  124.34810    8.04310    -999.25  210.11160  210.11160  178.54350  178.54350    8.04310   13.43160  -57.43710   -1.88320   13.43160
 4450.00000   11.13130   11.13130  159.06620  161.11100    6.20690    -999.25   82.42240   82.42240  104.28820  104.28820    6.20690    7.09390  -60.47620   -4.96650    7.09390
 4500.00000   11.23420   11.23420  248.95750  258.42460    3.86960    -999.25   96.23940   96.23940  105.37470  105.37470    3.86960    5.58190  -57.26880   -2.37360    5.58190
 4550.00000   10.63890   10.63890  204.19270  208.09360    4.80660    -999.25   95.18880   95.18880  108.74490  108.74490    4.80660    6.38840  -61.09300   -7.06410    6.38840
 4600.00000   10.81180   10.81180  211.60890  218.23100    4.58230    -999.25   92.11600   92.11600  116.03930  116.03930    4.58230    6.37290  -59.86390   -6.71030    6.37290
 4650.00000   11.77470   11.77470  281.27500  295.52630    3.38490    -999.25   99.57120   99.57120  123.86570  123.86570    3.38490    4.95710  -58.47950   -6.19230    4.95710
 4700.00000   11.58880   11.58880  314.57830  321.93680    3.10620    -999.25  102.55520  102.55520  115.14780  115.14780    3.10620    4.22490  -59.35790   -7.94580    4.22490
 4750.00000   11.27160   11.27160  264.31730  267.17970    3.74280    -999.25  102.46740  102.46740  122.98450  122.98450    3.74280    4.88940  -57.79020   -7.24890    4.88940
 4800.00000   10.63430   10.63430  565.88990  686.22380    1.45740    -999.25  120.06760  120.06760  152.13300  152.13300    1.45740    2.87500  -55.96190   -6.28700    2.87500
 4850.00000    8.82370    8.82370  559.39710  688.23120    1.45300    -999.25  129.94340  129.94340  120.45640  120.45640    1.45300    2.49450  -55.80490   -7.00520    2.49450
 4900.00000    8.83600    8.83600  373.67650  398.23510    2.51550    -999.25  113.69110  113.69110  120.48580  120.48580    2.51550    3.45020  -55.78960   -7.85640    3.45020
 4950.00000   10.61960   10.61960  313.70780  324.30680    3.08350    -999.25  101.81010  101.81010  118.92350  118.92350    3.08350    3.89180  -55.55750   -8.49940    3.89180
 5000.00000   10.41450   10.41450  140.05830  139.90320    7.14780    -999.25   79.07140   79.07140  100.43930  100.43930    7.14780    9.30020  -61.15300  -14.96570    9.30020
 5050.00000   10.71040   10.71040  972.29490  991.53810    1.00960    -999.25   89.18090   89.18090   62.11750   62.11750    0.92140    3.13260  -55.40710  -10.08620    3.13260
 5100.00000    9.81100    9.81100  127.34530  112.45050    8.89280    -999.25   99.91300   99.91300   94.84910   94.84910    8.89280    9.90950  -64.81630  -20.37060    9.90950
 5150.00000   11.16800   11.16800  133.94980  130.41700    7.66780    -999.25   81.37530   81.37530   62.89340   62.89340    7.66780   10.25750  -64.10440  -20.52520   10.25750
 5200.00000   11.14870   11.14870  150.11310  135.41140    7.38490    -999.25   82.30730   82.30730   67.35870   67.35870    7.38490   10.41230  -59.48220  -16.77810   10.41230
 5250.00000   11.32860   11.32860  261.12840  221.60660    4.51250    -999.25  128.64920  128.64920   82.63520   82.63520    4.51250    8.96850  -53.10020  -11.26690    8.96850
 5300.00000    9.60830    9.60830  108.14460  101.57420    9.85440    -999.25   80.27690   80.27690   57.34460   57.34460    9.85440   13.52840  -87.18500  -46.21820   13.52840
 5350.00000   12.79110   12.79110  162.89350  148.85160    6.71810    -999.25   93.26050   93.26050   85.69080   85.69080    6.71810    8.65020  -48.85660   -8.76490    8.65020
 5400.00000   10.52130   10.52130  121.31340  114.41180    8.74790    -999.25   77.49660   77.49660   49.04620   49.04620    8.74790   17.81730  -83.24190  -44.01660   17.81730
 5450.00000   11.34700   11.34700  189.88050  170.33160    5.87090    -999.25   84.90650   84.90650   89.95920   89.95920    5.87090    7.39940  -49.70920  -11.35910    7.39940
 5500.00000   10.51600   10.51600  186.78130  178.44720    5.60390    -999.25   77.50130   77.50130   62.36680   62.36680    5.60390   13.08930 -104.29400  -66.81470   13.08930
 5550.00000   12.51410   12.51410  147.71660  139.77350    7.15460    -999.25   90.78530   90.78530   88.05120   88.05120    7.15460   10.46260  -62.01750  -25.40470   10.46260
 5600.00000   11.96580   11.96580  190.85760  184.10780    5.43160    -999.25   76.72920   76.72920   75.44120   75.44120    5.43160    7.02200  -53.64100  -16.89070    7.02200
