~Version ---------------------------------------------------
VERS.      2.0 : CWLS log ASCII Standard -VERSION 2.0
WRAP.       NO : One line per depth step
CREA. 12/29/17 : LAS Creation Date
~Well ------------------------------------------------------
STRT.FT                            300.0 : START DEPTH
STOP.FT                          10550.0 : STOP DEPTH
STEP.FT                         50.00000 : STEP LENGTH
NULL.                            -999.25 : NULL VALUE
COMP.      HUDSON'S BAY OIL & GAS CO LTD : COMPANY
WELL. HB PAN AM FINA KAYBOBS 10-29-59-18 : WELL
FLD .                                    : FIELD
LOC .                                    : LOCATION
CTRY.                             CANADA : COUNTRY
SRVC.                      Dresser Atlas : SERVICE COMPANY
DATE.                        20-Nov-1968 : LOGDATE
PROV.                            Alberta : PROVINCE
UWI .                   100102905918W500 : UNIQUE WELL ID
SLAT.WGS84                      54.13226 : SURFACE LATITUDE
SLON.WGS84                     -116.6597 : SURFACE LONGITUDE
~Curve Information -----------------------------------------
DEPT  .FT    : Depth Curve
ACED  .US/F  : DELTA TIME (ACOUSTIC) FROM SONIC LOG [ADJ TO ILDED]
CALWS .IN    : CALIPER [MCALED]
CILDED.MMHO  : CONDUCTIVITY FROM RESISTIVITY LOG
CONDWS.MMHO  : CONDUCTIVITY [1000/DRESWS]
DRESWS.OHMM  : DEEP RESISTIVITY [ILDED] IF ILDED<2;1000/CILDED;ELSE ILDED
DTWS  .US/F  : DELTA TIME [ACED]
GRED  .GAPI  : GAMMA RAY FROM GR LOG [ADJ TO GRSED]
GRSED .GAPI  : GAMMA RAY FROM SONIC LOG [ADJ TO ILDED]
GRWS  .GAPI  : GAMMA RAY [SPL GRD3ED <1112'> GRSED]
ILDED .OHMM  : INDUCTION LOG DEEP RESISTIVITY
ILMED .OHMM  : INDUCTION LOG MEDIUM RESISTIVITY
MCALED.IN    : CALIPER MICROLOG
MRESWS.OHMM  : MEDIUM RESISTIVITY [ILMED]
SFLED .OHMM  : SPHERICALLY FOCUSED LOG RESISTIVITY
SPRED .MV    : SPONTANEOUS POTENTIAL FROM RESISTIVITY LOG
SPWS  .MV    : SPONTANEOUS POTENTIAL [BASELINE 0 MV] [SPRED]
SRESWS.OHMM  : SHALLOW RESISTIVITY [SFLED]
~Params ----------------------------------------------------
PD  .                     GL : PERMANENT DATUM
EPD .FT               2683.7 : ELEVATION PERMANENT DATUM
LMF .                     KB : LOG MEASURED FROM
DAPD.FT                 13.3 : FEET ABOVE PERMANENT DATUM
DMF .                     KB : DRILLING MEASURED FROM
EKB .FT               2697.0 : KELLY BUSHING
EGL .FT               2683.7 : GROUND LEVEL
DATE.               11/20/68 : RUN DATE
RUN .                      1 : RUN NUMBER
DD  .FT                10598 : DEPTH DRILLER
DL  .FT                10592 : DEPTH LOGGER
BLI .FT                10588 : BOTTOM LOG INTERVAL
TLI .FT                 1145 : TOP LOG INTERVAL
CS  .IN                9.625 : CASING SIZE
CBD .FT                 1145 : CASING BOTTOM DRILLER
CBL .FT                 1145 : CASING BOTTOM LOGGER
BS  .IN                7.875 : BIT SIZE
BSD .FT                10598 : BIT SIZE AT DEPTH
DFT .                MUD GEL : DRILLING FLUID TYPE
DFD .                    9.7 : DRILLING FLUID DENSITY
DFV .                     68 : DRILLING FLUID VISCOSITY
DFPH.                   10.5 : DRILLING FLUID PH
DFL .                    9.8 : DRILLING FLUID LOSS
MSS .                   CIRC : MUD SAMPLE SOURCE
RMS .OHMM                2.2 : RESISTIVITY MUD SAMPLE
MST .DEGF                 55 : MUD SAMPLE TEMPERATURE
RMF .OHMM                1.9 : RESISTIVITY MUD FILTRATE SAMPLE
MFST.DEGF                 55 : MUD FILTRATE SAMPLE TEMPERATURE
RMC .OHMM                1.4 : RESISTIVITY MUD CAKE
MCST.DEGF                 55 : MUD CAKE SAMPLE TEMPERATURE
MFSS.                   MEAS : MUD FILTRATE SAMPLE SOURCE
MCSS.                   MEAS : MUD CAKE SAMPLE SOURCE
RMB .OHMM               0.51 : RESISTIVITY MUD AT BHT
TCS .HRS                 4.5 : TIME CIRCULATED STOPPED
LUN .                   6002 : LOGGING UNIT NUMBER
LUL .                    V V : LOGGING UNIT LOCATION
ENGI.              KOWALCHUK : RECORDING ENGINEER
WITN.                 HARRIS : WITNESSED BY
CLNT.                A2DTECH : CLIENT CODE
ORIG.            2" 5" PRINT : ORIGIN OF DATA
UWI .       100102905918W500 : UNIQUE WELL ID
DICO. A2D Technologies, Inc. : DIGITIZING COMPANY
~Other -----------------------------------------------------
IE-DIL-ML-SONIC LOGS RUN
RHOBED CURVE DATA FROM 2" SCALE
MCALED CURVE TOP-5380' FROM 2" SCALE
IE LOG ALL CURVES TOP-5300' FROM 2" SCALE
SONIC LOG ALL CURVES TOP-5300' FROM 2" SCALE
~ASCII -----------------------------------------------------
# ...
 2350.00000   98.85470   14.50250  212.58240  186.30650    5.36750   98.85470   76.68310   76.90360   76.90360    5.36750    -999.25   14.50250    -999.25    4.55490  -92.35140   -3.24310    4.55490
 2400.00000  104.36300   12.87750  148.70950  147.33620    6.78720  104.36300   64.57820   70.12010   70.12010    6.78720    -999.25   12.87750    -999.25    6.08380  -93.10870   -4.65800    6.08380
 2450.00000   79.68200   11.81210   83.64920   83.31180   12.00310   79.68200   80.88830   84.28950   84.28950   12.00310    -999.25   11.81210    -999.25   13.54970  -91.62320   -3.83340   13.54970
 2500.00000   98.40570   14.31390  192.75840  183.03960    5.46330   98.40570   74.09640   68.93490   68.93490    5.46330    -999.25   14.31390    -999.25    4.56080  -90.92820   -3.79260    4.56080
 2550.00000   97.67140   15.82240  192.84850  182.98600    5.46490   97.67140   71.72950   79.96170   79.96170    5.46490    -999.25   15.82240    -999.25    4.68470  -90.33090   -3.85290    4.68470
 2600.00000   95.10210   15.27330  153.24500  145.78320    6.85950   95.10210   63.49460   59.87710   59.87710    6.85950    -999.25   15.27330    -999.25    6.01720  -89.17690   -3.35650    6.01720
 2650.00000  118.29260   15.97590  348.11130  284.72180    3.51220  118.29260   94.33170  106.02170  106.02170    3.51220    -999.25   15.97590    -999.25    2.82470  -88.18040   -3.01760    2.82470
 2700.00000   91.05480   15.99460  148.65430  145.39850    6.87760   91.05480   56.53550   67.06090   67.06090    6.87760    -999.25   15.99460    -999.25    5.69890  -87.44150   -2.93950    5.69890
 2750.00000   91.39880   15.77800  147.14010  146.03660    6.84760   91.39880   59.99170   62.29960   62.29960    6.84760    -999.25   15.77800    -999.25    6.23990  -87.80310   -3.82530    6.23990
 2800.00000   86.88220   12.55250   79.67680   82.17330   12.16940   86.88220   36.50780   39.70200   39.70200   12.16940    -999.25   12.55250    -999.25   14.79120  -92.36040   -8.22720   14.79120
 2850.00000   89.94620   11.89380  108.87000  115.27640    8.67480   89.94620   41.19950   47.53240   47.53240    8.67480    -999.25   11.89380    -999.25    9.14960  -87.76350   -3.47490    9.14960
 2900.00000   90.84070   14.03770  134.49560  130.28810    7.67530   90.84070   47.26020   42.19410   42.19410    7.67530    -999.25   14.03770    -999.25    7.25130  -87.14500   -2.70100    7.25130
 2950.00000   98.70770   12.35300  143.48780  140.86090    7.09920   98.70770   58.87410   54.83890   54.83890    7.09920    -999.25   12.35300    -999.25    6.80120  -88.17720   -3.57700    6.80120
 3000.00000  122.83150   11.94310  142.88690  137.20810    7.28820  122.83150   64.87270   51.62530   51.62530    7.28820    -999.25   11.94310    -999.25    7.14550  -85.94920   -1.19430    7.14550
 3050.00000   92.69470   13.75090  130.10930  126.35360    7.91430   92.69470   55.97020   54.33300   54.33300    7.91430    -999.25   13.75090    -999.25    6.24680  -88.64190   -3.73160    6.24680
 3100.00000   90.72760   12.01040  113.56750  107.74580    9.28110   90.72760   47.40300   44.43060   44.43060    9.28110    -999.25   12.01040    -999.25    8.72190  -88.20550   -3.13980    8.72190
 3150.00000   87.28390   10.74390   51.25230   55.02760   18.17270   87.28390   29.15250   29.77700   29.77700   18.17270    -999.25   10.74390    -999.25   20.74350  -98.43110  -13.20990   20.74350
 3200.00000   93.94870   12.42500  124.74060  126.39430    7.91170   93.94870   46.72710   50.49780   50.49780    7.91170    -999.25   12.42500    -999.25    7.08430  -87.95700   -2.57960    7.08430
 3250.00000   85.18030   10.57340   82.94770   81.52420   12.26630   85.18030   50.89990   45.22320   45.22320   12.26630    -999.25   10.57340    -999.25   13.84180  -89.35740   -3.82540   13.84180
 3300.00000   82.03040   13.90510   97.61240  102.04190    9.79990   82.03040   36.48090   40.39930   40.39930    9.79990    -999.25   13.90510    -999.25    8.10350  -90.41990   -4.73250    8.10350
 3350.00000  104.57440   13.54350  146.17100  139.97370    7.14420  104.57440   54.87970   49.34400   49.34400    7.14420    -999.25   13.54350    -999.25    6.34850  -91.19770   -5.35480    6.34850
 3400.00000   91.01580   10.90810   93.15020   84.66250   11.81160   91.01580   41.41050   42.17130   42.17130   11.81160    -999.25   10.90810    -999.25   13.06950  -90.04720   -4.04890   13.06950
 3450.00000   83.69060    9.32750   37.55770   38.35620   26.07140   83.69060   32.27680   17.23590   17.23590   26.07140    -999.25    9.32750    -999.25   39.24730 -112.82210  -26.66760   39.24730
 3500.00000  104.68940   12.38320  133.73200  133.80070    7.47380  104.68940   62.81690   57.40540   57.40540    7.47380    -999.25   12.38320    -999.25    6.71700  -94.57370   -8.26450    6.71700
 3550.00000   87.11710   13.46730   86.77110   87.62090   11.41280   87.11710   49.98100   47.76740   47.76740   11.41280    -999.25   13.46730    -999.25   12.28970  -93.09760   -6.63300   12.28970
 3600.00000   80.62820    9.98210   51.21720   54.37410   18.39110   80.62820   29.64770   23.77760   23.77760   18.39110    -999.25    9.98210    -999.25   23.96700 -128.95850  -42.33850   23.96700
 3650.00000   81.62000   12.18310   81.52990   81.75550   12.23160   81.62000   48.07250   50.75040   50.75040   12.23160    -999.25   12.18310    -999.25   11.56310  -94.28360   -7.50820   11.56310
 3700.00000   79.39670   12.44320   70.42680   73.01350   13.69610   79.39670   64.26090   51.99000   51.99000   13.69610    -999.25   12.44320    -999.25   14.27030  -94.62160   -7.69000   14.27030
 3750.00000   89.15520   11.95830  123.56260  124.10030    8.05800   89.15520   64.93290   71.38920   71.38920    8.05800    -999.25   11.95830    -999.25    7.51060  -92.53470   -5.44840    7.51060
 3800.00000   87.46060   12.68200   99.32810  102.20770    9.78400   87.46060   89.80030   89.04190   89.04190    9.78400    -999.25   12.68200    -999.25    8.67960  -94.15530   -6.91360    8.67960
 3850.00000   88.38440   12.83300   95.94760   97.07140   10.30170   88.38440   76.05440   87.97970   87.97970   10.30170    -999.25   12.83300    -999.25    9.36500  -94.29870   -6.90160    9.36500
 3900.00000   88.81430   12.60160   94.37040   95.01460   10.52470   88.81430   88.60350   93.39590   93.39590   10.52470    -999.25   12.60160    -999.25    9.94250  -95.93630   -8.38370    9.94250
 3950.00000   94.64860   13.29510  102.60840  102.65680    9.74120   94.64860   81.39430   90.85950   90.85950    9.74120    -999.25   13.29510    -999.25    9.24120  -94.96140   -7.25260    9.24120
 4000.00000   91.40080   12.35310   76.73580   78.57130   12.72730   91.40080  108.44420  118.47840  118.47840   12.72730    -999.25   12.35310    -999.25   15.14740  -93.20660   -5.34320   15.14740
 4050.00000   88.96660   12.88700   84.27060   85.49350   11.69680   88.96660   89.77400   95.19720   95.19720   11.69680    -999.25   12.88700    -999.25   12.46450  -93.38160   -5.36280   12.46450
 4100.00000   90.20630   12.67410   93.95720  100.26070    9.97400   90.20630   92.97600   90.95820   90.95820    9.97400    -999.25   12.67410    -999.25   10.44980  -93.41810   -5.24380   10.44980
 4150.00000   89.16450   12.63270  113.23390  114.04590    8.76840   89.16450   73.77660   87.27890   87.27890    8.76840    -999.25   12.63270    -999.25    8.13490  -94.08760   -5.75790    8.13490
 4200.00000   88.49000   12.24540   97.90840  100.06250    9.99380   88.49000   82.43540   91.87330   91.87330    9.99380    -999.25   12.24540    -999.25    9.45980  -94.65160   -6.16570    9.45980
 4250.00000   85.86220   12.01120   93.96520   96.01350   10.41520   85.86220   79.38020   83.95680   83.95680   10.41520    -999.25   12.01120    -999.25    9.57150  -94.30570   -5.66520    9.57150
 4300.00000   82.12250   12.35920   76.60330   78.35330   12.76270   82.12250   64.46140   77.04500   77.04500   12.76270    -999.25   12.35920    -999.25   12.14730  -93.29000   -4.49400   12.14730
 4350.00000   87.54910   11.98400   93.26230   93.20710   10.72880   87.54910   82.73500   89.93500   89.93500   10.72880    -999.25   11.98400    -999.25   10.22490  -93.19570   -4.24430   10.22490
