~Version ---------------------------------------------------
VERS.      2.0 : CWLS log ASCII Standard -VERSION 2.0
WRAP.       NO : One line per depth step
CREA. 08/31/17 : LAS Creation Date
~Well ------------------------------------------------------
STRT.FT                             1100.0 : START DEPTH
STOP.FT                            11500.0 : STOP DEPTH
STEP.FT                           50.00000 : STEP LENGTH
NULL.                              -999.25 : NULL VALUE
COMP.              MURPHY OIL COMPANY LTD. : COMPANY
WELL. MURPHY ASHLAND WOLF CREEK 11-5-53-15 : WELL
FLD .                                      : FIELD
LOC .                                      : LOCATION
CTRY.                               CANADA : COUNTRY
SRVC.               Schlumberger of Canada : SERVICE COMPANY
DATE.                          08-Dec-1976 : LOGDATE
PROV.                              Alberta : PROVINCE
UWI .                     100110505315W500 : UNIQUE WELL ID
SLAT.WGS84                        53.55101 : SURFACE LATITUDE
SLON.WGS84                        -116.179 : SURFACE LONGITUDE
~Curve Information -----------------------------------------
DEPT    .FT    : Depth Curve
CALDED  .IN    : CALIPER FROM CNL-FDC LOG [ADJ. TO GRSED]
CALSED  .IN    : CALIPER FROM SONIC LOG
CALWS   .IN    : CALIPER [CALDED]
CILDED  .MMHO  : DEEP INDUCTION CONDUCTIVITY FROM RESISTIVITY LOG
CONDWS  .MMHO  : CONDUCTIVITY [1000/DRESWS]
DCORWS  .G/C3  : DENSITY CORRECTION [DRHOED]
DENWS   .G/C3  : FORMATION BULK DENSITY [RHOBED]
DPHILSED.V/V   : DENSITY POROSITY LIME [M=2.71, F=1.00] FROM CNL-FDC LOG [ADJ. TO GRSED]
DPHISSED.V/V   : DENSITY POROSITY SAND [M=2.65, F=1.00] FROM CNL-FDC LOG [ADJ. TO GRSED]
DPOLSWS .V/V   : DENSITY POROSITY LIME [CALCULATED FROM DENWS, M=2.71, F=1.00]
DRESWS  .OHMM  : DEEP RESISTIVITY [ILDED]
DRHOED  .G/C3  : BULK DENSITY CORRECTION FROM DENSITY LOG [ADJ. TO DPHISSED/DPHILSED/GRSED]
DTED    .US/F  : DELTA-T (INTERVAL TRANSIT TIME) FROM SONIC LOG
DTWS    .US/F  : COMPRESSIONAL SONIC [DTED]
GRDED   .GAPI  : GAMMA RAY FROM DENSITY LOG [ADJ. TO GRSED]
GRSED   .GAPI  : GAMMA RAY FROM SONIC LOG
GRWS    .GAPI  : GAMMA RAY [GRSED]
ILDED   .OHMM  : DEEP INDUCTION FROM RESISTIVITY LOG
ILMED   .OHMM  : MEDIUM INDUCTION FROM RESISTIVITY LOG
LL8ED   .OHMM  : LATEROLOG 8 FROM RESISTIVITY LOG
MRESWS  .OHMM  : MEDIUM RESISTIVITY [ILMED]
NPHILSED.V/V   : NEUTRON POROSITY LIME FROM CNL-FDC LOG [ADJ. TO GRSED]
NPHISSED.V/V   : NEUTRON POROSITY SAND FROM CNL-FDC LOG [ADJ. TO GRSED]
NPOLSWS .V/V   : NEUTRON POROSITY LIME [NPHISSED MATRIX CONVERTED TO LIMESTONE & SPL. TO NPHILSED @ 8000']
RHOBED  .G/C3  : BULK DENSITY FROM DENSITY LOG [ADJ. TO DPHISSED/DPHILSED/GRSED]
SPRED   .MV    : SPONTANEOUS POTENTIAL FROM RESISTIVITY LOG
SPWS    .MV    : SPONTANEOUS POTENTIAL [BASELINE 0 MV, SPRED]
SRESWS  .OHMM  : SHALLOW RESISTIVITY [LL8ED]
~Params ----------------------------------------------------
PD  .                     GL : PERMANENT DATUM
EPD .FT               2966.3 : ELEVATION PERMANENT DATUM
LMF .                     KB : LOG MEASURED FROM
DAPD.FT                 15.4 : FEET ABOVE PERMANENT DATUM
EKB .FT               2981.7 : KELLY BUSHING
EGL .FT               2966.3 : GROUND LEVEL
DATE.               12/08/76 : RUN DATE
RUN .                      1 : RUN NUMBER
DD  .FT                11560 : DEPTH DRILLER
DL  .FT                11554 : DEPTH LOGGER
BLI .FT                11548 : BOTTOM LOG INTERVAL
TLI .FT                 1160 : TOP LOG INTERVAL
CBD .FT                 1160 : CASING BOTTOM DRILLER
CBL .FT                 1160 : CASING BOTTOM LOGGER
BS  .IN                 8.75 : BIT SIZE
BSD .FT                11560 : BIT SIZE AT DEPTH
DFT .               GEL CHEM : DRILLING FLUID TYPE
DFD .                    9.1 : DRILLING FLUID DENSITY
DFV .                    290 : DRILLING FLUID VISCOSITY
DFPH.                     11 : DRILLING FLUID PH
DFL .                    5.8 : DRILLING FLUID LOSS
MSS .               FLOWLINE : MUD SAMPLE SOURCE
RMS .OHMM               1.67 : RESISTIVITY MUD SAMPLE
MST .DEGF                 37 : MUD SAMPLE TEMPERATURE
RMF .OHMM                1.3 : RESISTIVITY MUD FILTRATE SAMPLE
MFST.DEGF                 55 : MUD FILTRATE SAMPLE TEMPERATURE
TCS .HRS                 2.5 : TIME CIRCULATED STOPPED
LUN .                   7730 : LOGGING UNIT NUMBER
LUL .                    EDM : LOGGING UNIT LOCATION
ENGI.        MCDONALD KARAKI : RECORDING ENGINEER
WITN.            ABEL WORKUM : WITNESSED BY
CLNT.                A2DTECH : CLIENT CODE
ORIG.            2" 5" PRINT : ORIGIN OF DATA
UWI .       100110505315W500 : UNIQUE WELL ID
DICO. A2D Technologies, Inc. : DIGITIZING COMPANY
~Other -----------------------------------------------------
~ASCII -----------------------------------------------------
# ...
 4850.00000   12.05530    9.39410   12.05530   88.93100   88.92450    0.06300    2.58170    -999.25    -999.25    0.07500   11.24550    0.06300   80.27910   80.27910  107.59470  115.55820  115.55820   11.24550    -999.25   12.10970    -999.25    -999.25    -999.25    -999.25    2.58170  -12.94970   -4.78590   12.10970
 4900.00000   13.84170    9.72580   13.84170    -999.25   81.02160    0.09170    2.61130    -999.25    -999.25    0.05780   12.34390    0.09170   78.17660   78.17660   99.79120  114.47610  114.47610   12.34390   12.57620   13.74820   12.57620    -999.25    -999.25    -999.25    2.61130  -15.26470   -7.18150   13.74820
 4950.00000   12.77170    9.67770   12.77170    -999.25   74.02690    0.21210    2.36570    -999.25    0.13840    0.20130   13.50860    0.21210   76.36170   76.36170   97.14840  109.55890  109.55890   13.50860   13.74390   14.67200   13.74390    -999.25    0.24510    0.20120    2.36570   -8.80890   -0.80710   14.67200
 5000.00000   14.64340    9.88510   14.64340    -999.25   82.16390    0.07970    2.37270    -999.25    0.18020    0.19730   12.17080    0.07970   79.77750   79.77750  100.47480  112.70010  112.70010   12.17080   12.87010   14.12070   12.87010    -999.25    0.33170    0.28790    2.37270  -11.31640   -3.39560   14.12070
 5050.00000   11.83110    9.45450   11.83110    -999.25   75.08710    0.06280    2.58860    -999.25    0.03790    0.07100   13.31830    0.06280   82.56430   82.56430  112.81440  127.42260  127.42260   13.31830   13.54990   15.01040   13.54990    -999.25    0.30750    0.26360    2.58860   -9.67860   -1.83840   15.01040
 5100.00000   10.81860    9.53720   10.81860    -999.25   78.27790    0.08010    2.47100    -999.25    0.09820    0.13980   12.77500    0.08010   85.82520   85.82520  124.75190  135.22270  135.22270   12.77500   12.96070   14.72990   12.96070    -999.25    0.34940    0.30580    2.47100   -8.93900   -1.18020   14.72990
 5150.00000   10.93710    9.71480   10.93710    -999.25   69.75480    0.06280    2.61970    -999.25    0.02420    0.05290   14.33620    0.06280   82.44570   82.44570  116.25600  130.69740  130.69740   14.33620   13.55960   15.75130   13.55960    -999.25    0.33810    0.29430    2.61970  -10.00650   -2.32840   15.75130
 5200.00000   12.04310   10.36170   12.04310    -999.25   81.92220    0.17230    2.52550    -999.25    0.06550    0.10790   12.20670    0.17230   79.52810   79.52810  107.30520  130.82450  130.82450   12.20670   14.10210   14.49820   14.10210    -999.25    0.35570    0.31210    2.52550   -9.69470   -2.09790   14.49820
 5250.00000   14.16760   11.07440   14.16760    -999.25   98.27530    0.19670    1.90390    -999.25    0.44960    0.47140   10.17550    0.19670   80.01820   80.01820   86.89550   92.83880   92.83880   10.17550    8.83310    8.74550    8.83310    -999.25    0.47870    0.43700    1.90390  -11.81570   -4.25780    8.74550
 5300.00000   12.67070   10.57010   12.67070    -999.25  107.58280    0.16370    2.30660    -999.25    0.22200    0.23590    9.29520    0.16370   77.98790   77.98790   86.48150  106.76790  106.76790    9.29520    9.45350   10.01730    9.45350    -999.25    0.42230    0.37990    2.30660  -10.28470   -2.72680   10.01730
 5350.00000   15.07940   10.62960   15.07940    -999.25   99.05600    0.16340    1.78010    -999.25    0.45000    0.54380   10.09530    0.16340   79.51760   79.51760   86.81230  100.49640  100.49640   10.09530    9.68520   11.45610    9.68520    -999.25    0.41640    0.37380    1.78010  -11.94670   -4.38880   11.45610
 5400.00000   12.75200    9.83950   12.75200    -999.25  106.84060    0.16980    1.95420    -999.25    0.42010    0.44200    9.35980    0.16980   77.66400   77.66400   96.78160  108.39190  108.39190    9.35980    9.88370   10.95800    9.88370    -999.25    0.39850    0.35560    1.95420  -13.27350   -5.71560   10.95800
 5450.00000   15.12580   10.75800   15.12580    -999.25   77.81860    0.16580    1.85990    -999.25    0.44990    0.49710   12.85040    0.16580   80.19260   80.19260   83.33370   95.55810   95.55810   12.85040   10.37160    9.05620   10.37160    -999.25    0.41120    0.36860    1.85990  -11.07550   -3.51760    9.05620
 5500.00000   15.00000   10.35350   15.00000    -999.25  108.62480    0.13940    1.75070    -999.25    0.45000    0.56100    9.20600    0.13940   82.30240   82.30240   95.07680  113.73910  113.73910    9.20600    9.36190   10.98080    9.36190    -999.25    0.44270    0.40080    1.75070  -11.07280   -3.51490   10.98080
 5550.00000   13.73680   10.06270   13.73680    -999.25  108.18650    0.15330    1.67450    -999.25    0.45000    0.60550    9.24390    0.15330   78.21020   78.21020   91.17970  114.19310  114.19310    9.24390    9.46180    9.70980    9.46180    -999.25    0.40920    0.36650    1.67450  -10.73830   -3.48260    9.70980
 5600.00000   15.00000   10.23730   15.00000    -999.25  116.41170    0.13580    1.68820    -999.25    0.45000    0.59750    8.59020    0.13580   79.90410   79.90410   88.03260  106.36350  106.36350    8.59020    8.28240    7.93000    8.28240    -999.25    0.48190    0.44020    1.68820  -19.64620  -13.27080    7.93000
 5650.00000   15.00000   10.93860   15.00000    -999.25  104.50540    0.12450    1.62720    -999.25    0.45000    0.63320    9.57860    0.12450   79.63590   79.63590   85.75900   98.27790   98.27790    9.57860    9.49280    9.86480    9.49280    -999.25    0.46670    0.42500    1.62720   -7.11380   -1.60990    9.86480
 5700.00000   15.00610   10.29140   15.00610    -999.25   95.02990    0.13060    1.62630    -999.25    0.45000    0.63370   10.52300    0.13060   75.44180   75.44180   89.94620   97.31610   97.31610   10.52300   10.86950   11.74720   10.86950    -999.25    0.41310    0.37050    1.62630   -5.10260   -0.47900   11.74720
 5750.00000   12.66350    9.27070   12.66350    -999.25   60.67450    0.15200    1.70870    -999.25    0.44980    0.58560   16.48140    0.15200   79.67710   79.67710   58.74590   64.39010   64.39010   16.48140   21.58110   16.10090   21.58110    -999.25    0.22880    0.18500    1.70870  -16.32170  -12.57400   16.10090
 5800.00000   15.00000    9.45930   15.00000    -999.25   75.90500    0.20960    2.14040    -999.25    0.31060    0.33310   13.17500    0.20960   77.07230   77.07230   92.67310  107.23450  107.23450   13.17500   13.31610   12.20570   13.31610    -999.25    0.34610    0.30250    2.14040   -4.86020   -1.98410   12.20570
 5850.00000   14.32550   10.19830   14.32550    -999.25   67.48320    0.14730    1.78200    -999.25    0.45000    0.54270   14.81850    0.14730   74.83060   74.83060   89.27940  103.60330  103.60330   14.81850   13.83620   12.52250   13.83620    -999.25    0.38420    0.34100    1.78200  -10.86580   -8.86990   12.52250
 5900.00000   15.00000   11.30930   15.00000    -999.25   83.63390    0.08700    1.52250    -999.25    0.45000    0.69450   11.95970    0.08700   71.23260   71.23260   74.20180   92.62730   92.62730   11.95970   10.86660    8.49040   10.86660    -999.25    0.56190    0.52020    1.52250   -2.39840   -1.27410    8.49040
 5950.00000   15.00000   10.72390   15.00000    -999.25   88.47370    0.12690    1.63340    -999.25    0.45000    0.62960   11.30280    0.12690   81.82800   81.82800   87.59620  105.17380  105.17380   11.30280   10.95860   10.15820   10.95860    -999.25    0.46960    0.42790    1.63340   -3.13590   -2.86760   10.15820
 6000.00000   15.02860   10.63020   15.02860    -999.25  100.11910    0.16940    1.84260    -999.25    0.45000    0.50730    9.98810    0.16940   81.60890   81.60890   89.22780  108.34220  108.34220    9.98810    9.60630    9.77760    9.60630    -999.25    0.47010    0.42840    1.84260    0.44380    0.00000    9.77760
 6050.00000   15.00000   10.87050   15.00000    -999.25   91.93540    0.12050    1.67440    -999.25    0.45000    0.60560   10.87720    0.12050   79.88340   79.88340   90.31010   99.31380   99.31380   10.87720   11.06180   12.89020   11.06180    -999.25    0.44540    0.40360    1.67440    1.54620    0.00000   12.89020
