~Version ---------------------------------------------------
VERS. 2.0 : CWLS log ASCII Standard -VERSION 2.0
WRAP.  NO : ONE LINE PER DEPTH STEP
~Well ------------------------------------------------------
STRT.F                                        1500.0 : START DEPTH
STOP.F                                       11100.0 : STOP DEPTH
STEP.F                                      50.00000 : STEP LENGTH
NULL.                                        -999.25 : NULL VALUE
COMP. GREAT PLAINS DEVELOPMENT COMPANY OF CANADA LTD : COMPANY
WELL.                 GPD ET AL ROSEVEAR 10-14-54-16 : WELL
FLD .                                                : FIELD
LOC .                                                : LOCATION
CTRY.                                         CANADA : COUNTRY
SRVC.                                   Schlumberger : SERVICE COMPANY
DATE.                                    01-Feb-1978 : LOGDATE
PROV.                                        Alberta : PROVINCE
UWI .                               100101405416W500 : UNIQUE WELL ID
SLAT.WGS84                                  53.66484 : SURFACE LATITUDE
SLON.WGS84                                 -116.2439 : SURFACE LONGITUDE
~Curve Information -----------------------------------------
DEPT   .F     : 
GRS    .GAPI  : GAMMA RAY FROM SONIC LOG
DT     .US/F  : DELTA TIME
CALS   .IN    : CALIPER FROM SONIC LOG
LLD    .OHMM  : LATEROLOG DEEP RESISTIVITY
LLS    .OHMM  : LATEROLOG SHALLOW
SPR    .MV    : SPONTANEOUS POTENTIAL FROM RESISTIVITY LOG
GRD    .GAPI  : GAMMA RAY FROM DENSITY LOG
DRHO   .G/C3  : DENSITY CORRECTION
RHOB   .G/C3  : BULK DENSITY
CALD   .IN    : CALIPER FROM DENSITY LOG
NPOR_SS.DEC   : NEUTRON POROSITY  SANDSTONE
DPHI_SS.DEC   : DENSITY POROSITY SANDSTONE
NPHI_LS.DEC   : NEUTRON POROSITY LIMESTONE
DPHI_LS.DEC   : DENSITY POROSITY LIMESTONE
~Params ----------------------------------------------------
PD  .                     GL : PERMANENT DATUM
EPD .FT                 2743 : ELEVATION PERMANENT DATUM
LMF .                     KB : LOG MEASURED FROM
DAPD.FT                 21.4 : FEET ABOVE PERMANENT DATUM
EKB .FT               2764.4 : KELLY BUSHING
EGL .FT                 2743 : GROUND LEVEL
DATE.               02/01/78 : RUN DATE
RUN .                      1 : RUN NUMBER
DD  .FT                11140 : DEPTH DRILLER
DL  .FT                11134 : DEPTH LOGGER
BLI .FT                11133 : BOTTOM LOG INTERVAL
TLI .FT                 1512 : TOP LOG INTERVAL
CBD .FT                 1512 : CASING BOTTOM DRILLER
CBL .FT                 1512 : CASING BOTTOM LOGGER
BS  .IN                 8.75 : BIT SIZE
BSD .FT                11140 : BIT SIZE AT DEPTH
DFT .            KCL POLYMER : DRILLING FLUID TYPE
DFD .                    9.4 : DRILLING FLUID DENSITY
DFV .                     45 : DRILLING FLUID VISCOSITY
DFPH.                    9.5 : DRILLING FLUID PH
DFL .                     16 : DRILLING FLUID LOSS
RMS .OHMM              0.205 : RESISTIVITY MUD SAMPLE
MST .DEGF                 39 : MUD SAMPLE TEMPERATURE
RMF .OHMM              0.163 : RESISTIVITY MUD FILTRATE SAMPLE
MFST.DEGF                 38 : MUD FILTRATE SAMPLE TEMPERATURE
RMC .OHMM              0.032 : RESISTIVITY MUD CAKE
MCST.DEGF                118 : MUD CAKE SAMPLE TEMPERATURE
RMB .OHMM              0.032 : RESISTIVITY MUD AT BHT
TCS .HRS                   7 : TIME CIRCULATED STOPPED
LUN .                   7772 : LOGGING UNIT NUMBER
LUL .                    EDM : LOGGING UNIT LOCATION
ENGI.                BODYMAN : RECORDING ENGINEER
WITN.                  BATES : WITNESSED BY
CLNT.                A2DTECH : CLIENT CODE
ORIG.               5" PRINT : ORIGIN OF DATA
UWI .       100101405416W500 : UNIQUE WELL ID
DICO. A2D Technologies, Inc. : DIGITIZING COMPANY
~Other -----------------------------------------------------
~ASCII -----------------------------------------------------
# ...
 8850.00000   20.23440   47.57840    8.98340  210.78560  179.84300  -79.01960   15.57100    0.09320    2.73430   10.13850    -999.25    -999.25    0.02180    0.03650
 8900.00000   18.92120   49.96290    9.56190  261.43810  167.98850  -79.35240   20.96450    0.24830    2.67440   11.35170    -999.25    -999.25    0.00710    0.04320
 8950.00000   17.93220   50.67810    9.65750  167.39230  132.75840  -78.17930   21.53000    0.17250    2.57520   12.67530    -999.25    -999.25    0.01650    0.09840
 9000.00000   23.44030   52.00460    9.62360  597.91080  125.08050  -74.71810   24.17040    0.16360    2.55760   15.05710    -999.25    -999.25    0.02290    0.10910
 9050.00000   20.36980   52.75050   10.66980 4406.06200   59.71490  -74.96760   26.94870    0.20160    2.32050   15.15610    -999.25    -999.25    0.07570    0.19620
 9100.00000   21.90620   60.31810   11.21210  394.11760    7.30030  -73.71410   36.25490    0.04400    1.63490    -999.25    -999.25    -999.25    0.15370    -999.25
 9150.00000   21.33110   49.35580    9.43140 1003.69100  392.22600  -55.34940   22.42930    0.22260    2.61610   13.21950    -999.25    -999.25    0.00480    0.12440
 9200.00000   29.83920   47.26370    9.20860  560.61180  276.55480  -71.37320   25.57380    0.12720    2.65560   10.01100    -999.25    -999.25    0.03180   -0.07310
 9250.00000   20.41610   48.92980    9.43090 35810.46090  775.65010  -75.89970   19.64140    0.03040    2.81780    9.88940    -999.25    -999.25    0.00270   -0.09560
 9300.00000   28.00910   51.57580    9.80240  337.82070   99.64520  -74.48120   28.17540    0.25190    2.40690   15.02260    -999.25    -999.25    0.10910    0.18990
 9350.00000   33.62880   57.69210   10.01670  137.76010   54.83560  -72.13700   31.78740    0.09020    2.15500   14.95770    -999.25    -999.25    0.14910    0.29100
 9400.00000   39.13910   49.67260    9.57450  116.47640  129.24880  -74.62690   39.85090    0.17930    2.67900   10.61190    -999.25    -999.25    0.06750    0.07180
 9450.00000   44.37570   55.77280    9.05610   39.14190   44.38390  -70.07670   50.85170    0.01540    2.71230    9.57790    -999.25    -999.25    0.06370   -0.00930
 9500.00000   60.85150   57.38970    8.97030   26.76370   32.45350  -70.31190   60.14420    0.01910    2.74220    9.38730    -999.25    -999.25    0.08310   -0.02130
 9550.00000   63.50090   62.15460    9.42690   13.40510   17.75950  -66.99060   66.00080    0.06790    2.76950    9.60280    -999.25    -999.25    0.11360   -0.02250
 9600.00000   58.25930   57.88790    9.12040   23.35610   27.93530  -62.72390   59.41230    0.01430    2.70790    9.45170    -999.25    -999.25    0.09540   -0.00240
 9650.00000   70.18660   61.20320    9.21990   15.99330   18.64780  -63.41850   66.64270    0.05390    2.79960    9.30430    -999.25    -999.25    0.11890   -0.03050
 9700.00000  101.07070   80.53370   11.66300    5.19110    5.70620  -52.49180  105.85260    0.14460    2.25960   14.60890    -999.25    -999.25    0.31320    0.29770
 9750.00000   94.80850   66.44990    8.88200   32.75230   36.25540  -62.91570   94.75780    0.01110    2.70430    9.31730    -999.25    -999.25    0.17900    0.01220
 9800.00000   74.45360   60.87530    8.94950   18.04510   23.83970  -63.97650   85.19780    0.03740    2.80090    9.28970    -999.25    -999.25    0.13350   -0.03450
 9850.00000  106.42830   76.37890    9.88080    8.13760    8.47340  -64.10490  106.57180    0.21050    2.62740   13.17820    -999.25    -999.25    0.24160    0.05490
 9900.00000   81.12170   65.86770    8.81450   14.31250   16.46410  -64.92230   89.20280    0.02320    2.72220    9.12750    -999.25    -999.25    0.15250    0.00470
 9950.00000   91.51450   64.86400    8.91770   14.78250   17.34170  -63.25330   92.60120    0.01470    2.73430    9.15900    -999.25    -999.25    0.18760   -0.02760
 10000.00000   80.46160   60.79120    8.88790   21.98030   26.53150  -60.43020   76.20010    0.01620    2.75170    9.09450    -999.25    -999.25    0.12530   -0.00950
 10050.00000   91.09830   65.50300    8.83030   10.65850   12.94820  -60.53170  102.06420    0.01220    2.78240    9.37510    -999.25    -999.25    0.14160   -0.03490
 10100.00000  100.41660   65.77360    8.81910   15.16610   19.22010  -59.44130  106.11450    0.01540    2.75640    9.17800    -999.25    -999.25    0.17720   -0.02180
 10150.00000  112.69120   71.00120    8.80350    9.64790   12.64870  -60.38250  117.07010   -0.00200    2.74380    9.20550    -999.25    -999.25    0.21890   -0.02610
 10200.00000   86.32720   65.87830    8.77040   12.68280   15.11680  -57.93220   88.84360   -0.01100    2.68030    9.11840    -999.25    -999.25    0.15270    0.00120
 10250.00000   95.59120   68.46900    8.75530   12.19890   14.88300  -55.02120  105.68990    0.02170    2.73300    9.10890    -999.25    -999.25    0.18420   -0.01330
 10300.00000  124.41630   72.29180    8.75060   10.29820   12.96210  -55.38640  121.23120    0.01070    2.73130    9.25680    -999.25    -999.25    0.21720   -0.00100
 10350.00000  100.32090   67.56910    8.80960   12.54680   15.51300  -55.52610  102.08540    0.02410    2.73110    9.23480    -999.25    -999.25    0.18500   -0.00930
 10400.00000   87.19560   65.27810    8.70690   14.61610   16.83090  -56.88780   87.29060    0.01130    2.75340    9.11590    -999.25    -999.25    0.15220   -0.02240
 10450.00000   87.37790   64.40070    8.75000   68.74660   90.93620  -65.28280  108.38130    0.02060    2.69400    8.99160    -999.25    -999.25    0.13580   -0.00560
 10500.00000   92.73390   60.06150    8.60370  124.30920  137.19650  -60.09220   91.43220    0.00030    2.66620    9.15390    -999.25    -999.25    0.12440    0.00160
 10550.00000   13.57150   49.44760    8.59920 3306.06710 1218.39270  -59.36550   14.23980    0.01520    2.61350    9.43090    -999.25    -999.25    0.00580    0.09270
 10600.00000   16.21790   49.77830    8.76930 37350.88670 1075.04030  -64.32090   19.54220    0.09910    2.74670    9.01910    -999.25    -999.25    0.00540    0.01430
 10650.00000   19.08930   48.70080    9.18300 15241.61820  979.19150  -64.52600   22.82050    0.13180    2.60660    9.76120    -999.25    -999.25    0.00600    0.05660
 10700.00000   22.57000   49.96930    9.14800 2763.43900  512.87300  -57.92400   20.48710    0.09210    2.61310   10.22070    -999.25    -999.25    0.00050    0.04330
 10750.00000   19.05260   48.60440    9.37300 36227.76170 1546.81070  -68.55240   20.32430    0.19870    2.65060   10.70240    -999.25    -999.25   -0.00190    0.01500
 10800.00000   15.28250   50.21020    7.73850  240.45160   89.37430  -61.05410   15.89230   -0.02040    2.67840    8.83560    -999.25    -999.25    0.00770    0.00520
 10850.00000   19.22400   52.48500    9.29300 14689.48240  315.54900  -52.45460   24.39220    0.07820    2.56440   12.00140    -999.25    -999.25    0.00400    0.13310
 10900.00000   21.42120   52.21850    9.66070 26701.43750  226.58460  -54.67230   24.72180    0.13110    2.56830   14.20300    -999.25    -999.25    0.01770    0.05290
 10950.00000   25.05940   50.33880    9.67790 22297.20310  535.30460  -54.11550   25.01050    0.21900    2.45910   11.57330    -999.25    -999.25    0.00340    0.13370
 11000.00000   31.39590   51.15810    9.22970 38126.36330 1045.02660  -68.03470   35.95900    0.11190    2.55430   10.07450    -999.25    -999.25    0.00750    0.07840
 11050.00000   90.36770   57.66350    8.74440   35.19500   51.80780  -62.00230  136.21880   -0.00210    2.63240    9.14030    -999.25    -999.25    0.03480    0.05030
 11100.00000   15.92220   46.83860    8.71330   30.59360   37.37960    -999.25   23.95260    0.00520    2.69600    8.99840    -999.25    -999.25    0.07840    0.01050
