~Version ---------------------------------------------------
VERS.      2.0 : CWLS log ASCII Standard -VERSION 2.0
WRAP.       NO : One line per depth step
CREA. 01/04/18 : LAS Creation Date
~Well ------------------------------------------------------
STRT.FT                            1100.0 : START DEPTH
STOP.FT                           10550.0 : STOP DEPTH
STEP.FT                          50.00000 : STEP LENGTH
NULL.                             -999.25 : NULL VALUE
COMP.                CHEVRON STANDARD LTD : COMPANY
WELL. CHEVRON GULF SHININGBANK 3-13-56-15 : WELL
FLD .                                     : FIELD
LOC .                                     : LOCATION
CTRY.                              CANADA : COUNTRY
SRVC.              Schlumberger of Canada : SERVICE COMPANY
DATE.                         25-Oct-1976 : LOGDATE
PROV.                             Alberta : PROVINCE
UWI .                    100031305615W500 : UNIQUE WELL ID
SLAT.WGS84                       53.83559 : SURFACE LATITUDE
SLON.WGS84                      -116.0977 : SURFACE LONGITUDE
~Curve Information -----------------------------------------
DEPT    .FT    : Depth Curve
CALDED  .IN    : CALIPER FROM DENSITY LOG
CALSED  .IN    : CALIPER FROM SONIC LOG [ADJ. TO RESISTIVITY LOG]
CALWS   .IN    : CALIPER [CALSED]
CONDWS  .MMHO  : CONDUCTIVITY [1000/DRESWS]
DCORED  .G/C3  : DENSITY CORRECTION FROM DENSITY LOG
DCORWS  .G/C3  : DENSITY CORRECTION [DCORED]
DENWS   .G/C3  : FORMATION BULK DENSITY [M=2.71 F=1.00] [RHOBED AND SPL. CALC DPHISSED FROM TOP TO 1142']
DPHILSED.V/V   : DENSITY POROSITY LIME [M=2.71 F=1.00] FROM DENSITY LOG [ADJ. TO RHOBED]
DPHISSED.V/V   : DENSITY POROSITY SAND [M=2.65 F=1.00] FROM DENSITY LOG [ADJ. TO RHOBED]
DPOLSWS .V/V   : DENSITY POROSITY [M=2.71 F=1.00] [CALC FROM DENWS]
DRESWS  .OHMM  : DEEP RESISTIVITY [ILDED]
DTED    .US/F  : DELTA-T FROM SONIC LOG [ADJ. TO RESISTIVITY LOG]
DTWS    .US/F  : COMPRESSIONAL SONIC [DTED]
GRDED   .GAPI  : GAMMA RAY FROM DENSITY LOG
GRSED   .GAPI  : GAMMA RAY FROM SONIC LOG [ADJ. TO GRDED]
GRWS    .GAPI  : GAMMA RAY [GRSED]
ILDED   .OHMM  : DEEP INDUCTION FROM RESISTIVITY LOG
ILMED   .OHMM  : MEDIUM INDUCTION FROM RESISTIVITY LOG
LL8ED   .OHMM  : LATEROLOG 8 FROM RESISTIVITY LOG
MRESWS  .OHMM  : MEDIUM RESISTIVITY [ILMED]
NPHILSED.V/V   : NEUTRON POROSITY LIME FROM DENSITY LOG [ADJ. TO RHOBED]
NPHISSED.V/V   : NEUTRON POROSITY SAND FROM DENSITY LOG [ADJ. TO RHOBED]
NPOLSWS .V/V   : NEUTRON POROSITY LIME [SS MATRIX(SLB) CONVERTED TO LIME, SPL. TO NPHILSED @ 2164']
RHOBED  .G/C3  : BULK DENSITY FROM DENSITY LOG
SPRED   .MV    : SPONTANEOUS POTENTIAL FROM RESISTIVITY LOG
SPWS    .MV    : SPONTANEOUS POTENTIAL [BASELINE 0 MV, SPRED]
SRESWS  .OHMM  : SHALLOW RESISTIVITY [LL8ED]
TENDED  .LBF   : TENSION FROM DENSITY LOG
TENSED  .LBF   : TENSION FROM SONIC LOG [ADJ. TO RESISTIVITY LOG]
~Params ----------------------------------------------------
EKB .FT               2889.7 : KELLY BUSHING
EGL .FT               2873.6 : GROUND LEVEL
DATE.               10/25/76 : RUN DATE
RUN .                      1 : RUN NUMBER
DD  .FT                10595 : DEPTH DRILLER
DL  .FT                10593 : DEPTH LOGGER
BLI .FT                10592 : BOTTOM LOG INTERVAL
TLI .FT                 1094 : TOP LOG INTERVAL
CBD .FT               1094.6 : CASING BOTTOM DRILLER
CBL .FT                 1094 : CASING BOTTOM LOGGER
BS  .IN                 8.75 : BIT SIZE
BSD .FT                10595 : BIT SIZE AT DEPTH
DFT .               GEL CHEM : DRILLING FLUID TYPE
DFD .                    9.5 : DRILLING FLUID DENSITY
DFV .                    124 : DRILLING FLUID VISCOSITY
DFPH.                   10.5 : DRILLING FLUID PH
DFL .                     10 : DRILLING FLUID LOSS
RMC .OHMM               2.04 : RESISTIVITY MUD CAKE
MCST.DEGF                 56 : MUD CAKE SAMPLE TEMPERATURE
RMB .OHMM               0.41 : RESISTIVITY MUD AT BHT
TCS .HRS                   5 : TIME CIRCULATED STOPPED
LUN .                   7691 : LOGGING UNIT NUMBER
LUL .                    WCT : LOGGING UNIT LOCATION
ENGI.              CROCKFORD : RECORDING ENGINEER
WITN.        WONG RICHARDSON : WITNESSED BY
CLNT.                A2DTECH : CLIENT CODE
ORIG.            2" 5" PRINT : ORIGIN OF DATA
UWI .       100031305615W500 : UNIQUE WELL ID
DICO. A2D Technologies, Inc. : DIGITIZING COMPANY
~Other -----------------------------------------------------
~ASCII -----------------------------------------------------
# ...
 4850.00000   13.88720   10.73840   10.73840  132.00660    0.13550    0.13550    1.78620    -999.25    0.51440    0.54020    7.57630   85.87970   85.87970   89.98340   91.20820   91.20820    7.57630    6.63160    7.05480    6.63160    -999.25    0.35400    0.31040    1.78620  -32.10190   -3.95530    7.05480  872.00870 1120.54390
 4900.00000   10.39810   10.35010   10.35010   99.82830    0.20480    0.20480    2.08430    -999.25    0.38940    0.36590   10.01720   78.29790   78.29790   92.08700   81.98670   81.98670   10.01720    9.67020   11.01240    9.67020    -999.25    0.25940    0.21550    2.08430  -31.19260   -3.47410   11.01240  996.86630 1809.64150
 4950.00000   11.90230   10.13880   10.13880  109.57690    0.16260    0.16260    2.03490    -999.25    0.44230    0.39480    9.12860   76.95110   76.95110   85.16380   85.05390   85.05390    9.12860    8.38100    9.48050    8.38100    -999.25    0.26140    0.21750    2.03490  -31.79720   -4.50960    9.48050 1291.96870 1427.51080
 5000.00000   11.67330   10.24210   10.24210  122.99060    0.17850    0.17850    2.06480    -999.25    0.31390    0.37730    8.13070   81.73680   81.73680  100.31000   91.53710   91.53710    8.13070    7.50980    9.09050    7.50980    -999.25    0.32160    0.27770    2.06480  -31.58270   -4.72320    9.09050 1364.18040 1597.81460
 5050.00000   11.99180   10.87290   10.87290  125.62970    0.17050    0.17050    2.12890    -999.25    0.30820    0.33980    7.95990   83.91570   83.91570  100.52880   98.76030   98.76030    7.95990    7.49250    8.38510    7.49250    -999.25    0.31940    0.27550    2.12890  -31.02120   -4.58980    8.38510 1309.43490 1532.74810
 5100.00000   12.07680   11.01010   11.01010  134.96520    0.15110    0.15110    1.96130    -999.25    0.35860    0.43780    7.40940   83.70510   83.70510  101.98000   99.23650   99.23650    7.40940    6.97490    8.20130    6.97490    -999.25    0.33960    0.29590    1.96130  -29.61780   -3.61730    8.20130 1406.79840 1189.12910
 5150.00000   12.23390   10.47660   10.47660  160.57810    0.19490    0.19490    2.10860    -999.25    0.32440    0.35170    6.22750   93.98170   93.98170  108.19220  103.86330  103.86330    6.22750    5.80640    7.09030    5.80640    -999.25    0.37190    0.32850    2.10860  -27.41950   -1.84710    7.09030 1759.71830 1300.75910
 5200.00000   10.97540    9.82930    9.82930  105.38870    0.19990    0.19990    2.21980    -999.25    0.25980    0.28670    9.48880   90.22280   90.22280  113.83110  113.28100  113.28100    9.48880    9.03420   11.40330    9.03420    -999.25    0.34520    0.30150    2.21980  -27.10770   -1.96620   11.40330 1632.48090 1555.48130
 5250.00000   12.00010   10.00610   10.00610  126.31050    0.19950    0.19950    2.14700    -999.25    0.31520    0.32920    7.91700   89.97600   89.97600  109.74280  101.38650  101.38650    7.91700    7.60070    9.64210    7.60070    -999.25    0.35260    0.30900    2.14700  -26.85170   -2.13830    9.64210 1751.69950 1592.07950
 5300.00000   10.47320    9.50590    9.50590   98.38360    0.25180    0.25180    2.39600    -999.25    0.14320    0.18360   10.16430   87.57560   87.57560  122.36020  119.33790  119.33790   10.16430    9.69030   16.33050    9.69030    -999.25    0.31740    0.27340    2.39600  -28.90880   -4.62350   16.33050 1322.98190 1664.33400
 5350.00000   10.32060    9.63600    9.63600   89.45320    0.10980    0.10980    2.42510    -999.25    0.15440    0.16660   11.17920   90.35280   90.35280  120.88790  118.11880  118.11880   11.17920   10.68600   14.25830   10.68600    -999.25    0.32850    0.28470    2.42510  -28.04470   -4.19030   14.25830 1053.07300 1807.69010
 5400.00000    9.97500    9.80300    9.80300   54.26020    0.01920    0.01920    2.57830    -999.25    0.05570    0.07700   18.42970   68.98110   68.98110   80.47710   83.17110   83.17110   18.42970   16.56070   38.84690   16.56070    -999.25    0.20760    0.16410    2.57830  -28.85560   -5.42930   38.84690 1084.95500 1240.46330
 5450.00000   10.93610   10.21100   10.21100  101.78720    0.15700    0.15700    2.37780    -999.25    0.18190    0.19430    9.82480   94.12540   94.12540  146.52440  138.11100  138.11100    9.82480    9.20660   13.94440    9.20660    -999.25    0.36330    0.31980    2.37780  -24.61560   -1.62020   13.94440 1715.54280 1452.59590
 5500.00000   11.95130   10.93690   10.93690  122.73550    0.16850    0.16850    2.42340    -999.25    0.14530    0.16760    8.14760   83.82440   83.82440  100.59530   99.59550   99.59550    8.14760    7.65260   10.29680    7.65260    -999.25    0.27500    0.23100    2.42340  -25.28010   -2.71280   10.29680 1417.65180 1464.09110
 5550.00000   12.44860   10.96260   10.96260  118.76060    0.19090    0.19090    2.46660    -999.25    0.09780    0.14230    8.42030   84.15470   84.15470  102.05800   97.70920   97.70920    8.42030    7.56470    9.86660    7.56470    -999.25    0.25930    0.21540    2.46660  -26.69560   -4.55640    9.86660  269.38630 1579.64980
 5600.00000   14.25190   10.59250   10.59250  154.52990    0.13580    0.13580    2.39540    -999.25    0.15520    0.18390    6.47120   82.52010   82.52010  105.50080  102.55250  102.55250    6.47120    6.22910    7.20680    6.22910    -999.25    0.27130    0.22730    2.39540  -25.86410   -4.15580    7.20680  421.31290 1323.49380
 5650.00000   15.49670   11.21790   11.21790  176.49140    0.15290    0.15290    2.42030    -999.25    0.14140    0.16940    5.66600   87.32660   87.32660  118.74570  109.64310  109.64310    5.66600    5.16370    6.43710    5.16370    -999.25    0.28380    0.23980    2.42030  -33.61040  -12.33020    6.43710  467.97480 1428.81580
 5700.00000    -999.25    9.43650    9.43650  146.40710    0.15200    0.15200    2.47340    -999.25    0.11830    0.13840    6.83030   81.65490   81.65490  109.18510  103.53620  103.53620    6.83030    6.35940    7.94540    6.35940    -999.25    0.23890    0.19510    2.47340  -22.06260   -1.21330    7.94540  723.51760 1609.74490
 5750.00000    -999.25    9.26760    9.26760  156.76680    0.18780    0.18780    2.40310    -999.25    0.14980    0.17950    6.37890   82.01780   82.01780  103.50550  100.52910  100.52910    6.37890    5.96810    7.45840    5.96810    -999.25    0.26570    0.22170    2.40310  -22.51670   -2.09550    7.45840  776.12750 1966.33200
 5800.00000   15.52020   10.15000   10.15000  205.76560    0.11910    0.11910    2.45840    -999.25    0.11850    0.14710    4.85990   94.69170   94.69170  125.59410  127.34120  127.34120    4.85990    4.64560    5.81210    4.64560    -999.25    0.30130    0.25730    2.45840  -20.61870   -0.62560    5.81210  765.11880 2048.35620
 5850.00000    -999.25   11.45800   11.45800  302.10010    0.08730    0.08730    2.31220    -999.25    0.19630    0.23260    3.31050   99.22110   99.22110  104.81170   95.25280   95.25280    3.31050    2.69540    3.50160    2.69540    -999.25    0.39340    0.35040    2.31220  -20.26940   -0.70720    3.50160  978.45770 1735.73020
 5900.00000   12.78900   12.07770   12.07770  240.10180    0.10040    0.10040    2.34280    -999.25    0.19070    0.21470    4.16490   93.96650   93.96650  103.80640  104.27060  104.27060    4.16490    3.86250    4.77030    3.86250    -999.25    0.36800    0.32460    2.34280  -20.95290   -1.81880    4.77030 1281.66740 1701.28250
 5950.00000    9.88820    9.64540    9.64540   78.82110    0.09420    0.09420    2.51330    -999.25    0.07360    0.11510   12.68780   74.01930   74.01930   79.71640   72.75080   72.75080   12.68780   11.60760   17.90300   11.60760    -999.25    0.24800    0.20420    2.51330  -40.20190  -21.49870   17.90300 1326.59920 2020.94450
 6000.00000    9.33230    8.76200    8.76200   41.17410    0.08750    0.08750    2.55220    -999.25    0.06770    0.09230   24.28710   69.25430   69.25430   30.01470   31.08640   31.08640   24.28710   23.15310   28.84130   23.15310    -999.25    0.15360    0.11100    2.55220  -61.02220  -42.74710   28.84130 1569.96120 1904.57870
 6050.00000   15.02110   11.96610   11.96610  624.84380    0.03500    0.03500    1.82880    -999.25    0.49670    0.51530    1.60040  158.47710  158.47710   78.65480   79.43680   79.43680    1.60040    1.27500    2.27610    1.27500    -999.25    0.46420    0.42250    1.82880  -25.19850   -7.35150    2.27610 1367.60470 1172.22840
