~Version ---------------------------------------------------
VERS.      2.0 : CWLS log ASCII Standard -VERSION 2.0
WRAP.       NO : One line per depth step
CREA. 12/21/17 : LAS Creation Date
~Well ------------------------------------------------------
STRT.FT                             1150.0 : START DEPTH
STOP.FT                            10850.0 : STOP DEPTH
STEP.FT                           50.00000 : STEP LENGTH
NULL.                              -999.25 : NULL VALUE
COMP.             CANADIAN KEWANEE LIMITED : COMPANY
WELL. KEWANEE ET AL SAKWATAMAU 10-15-63-15 : WELL
FLD .                                   WC : FIELD
LOC .                                      : LOCATION
CTRY.                               CANADA : COUNTRY
SRVC.                         Schlumberger : SERVICE COMPANY
DATE.                          21-Mar-1965 : LOGDATE
PROV.                              Alberta : PROVINCE
UWI .                     100101506315W500 : UNIQUE WELL ID
SLAT.WGS84                        54.45235 : SURFACE LATITUDE
SLON.WGS84                        -116.177 : SURFACE LONGITUDE
~Curve Information -----------------------------------------
DEPT  .FT    : Depth Curve
CALSED.IN    : CALIPER FROM SONIC LOG LOG [ADJ. TO RESISTIVITY LOG]
CALWS .IN    : CALIPER [CALSED]
CILDED.MMHO  : CONDUCTIVITY FROM RESISTIVITY LOG
CONDWS.MMHO  : CONDUCTIVITY [1000/DRESWS]
DRESWS.OHMM  : DEEP RESISTIVITY [1000/CILDED IF ILDED < 5, ILDED]
DTED  .US/F  : DELTA T FROM SONIC LOG [ADJ. TO RESISTIVITY LOG]
DTWS  .US/F  : COMPRESSIONAL SONIC [DTED]
GRSED .GAPI  : GAMMA RAY FROM SONIC LOG LOG [ADJ. TO RESISTIVITY LOG]
GRWS  .GAPI  : GAMMA RAY [GRSED]
ILDED .OHMM  : DEEP INDUCTION RESISTIVITY FROM RESISTIVITY LOG
SNED  .OHMM  : SHORT NORMAL FROM RESISTIVITY LOG
SPRED .MV    : SPONTANEOUS POTENTIAL FROM RESISTIVITY LOG
SPWS  .MV    : SPONTANEOUS POTENTIAL [BASELINE 0 MV, SPRED]
SRESWS.OHMM  : SHALLOW RESISTIVITY [SNED]
~Params ----------------------------------------------------
PD  .                    SCF : PERMANENT DATUM
EPD .FT                 3104 : ELEVATION PERMANENT DATUM
LMF .                    SCF : LOG MEASURED FROM
EKB .FT               3117.1 : KELLY BUSHING
EGL .FT                 3103 : GROUND LEVEL
DATE.               03/12/65 : RUN DATE
RUN .                      1 : RUN NUMBER
DD  .FT                10858 : DEPTH DRILLER
DL  .FT                10864 : DEPTH LOGGER
BLI .FT                10863 : BOTTOM LOG INTERVAL
TLI .FT                 9600 : TOP LOG INTERVAL
BS  .IN                 8.75 : BIT SIZE
BSD .FT                10858 : BIT SIZE AT DEPTH
DFT .                    GEL : DRILLING FLUID TYPE
DFD .                    9.8 : DRILLING FLUID DENSITY
DFV .                     73 : DRILLING FLUID VISCOSITY
DFPH.                     10 : DRILLING FLUID PH
DFL .                    7.8 : DRILLING FLUID LOSS
RMS .OHMM               2.32 : RESISTIVITY MUD SAMPLE
MST .DEGF                 52 : MUD SAMPLE TEMPERATURE
RMF .OHMM               1.72 : RESISTIVITY MUD FILTRATE SAMPLE
MFST.DEGF                 52 : MUD FILTRATE SAMPLE TEMPERATURE
RMC .OHMM                2.1 : RESISTIVITY MUD CAKE
MCST.DEGF                 52 : MUD CAKE SAMPLE TEMPERATURE
RMB .OHMM               0.56 : RESISTIVITY MUD AT BHT
TCS .HRS                   2 : TIME CIRCULATED STOPPED
LUN .                   3534 : LOGGING UNIT NUMBER
LUL .                    WCT : LOGGING UNIT LOCATION
ENGI.                  HAYES : RECORDING ENGINEER
WITN.                 FISHER : WITNESSED BY
CLNT.                A2DTECH : CLIENT CODE
ORIG.               5" PRINT : ORIGIN OF DATA
UWI .       100101506315W500 : UNIQUE WELL ID
DICO. A2D Technologies, Inc. : DIGITIZING COMPANY
~Other -----------------------------------------------------
IEL-SONIC-GR LOG RUN
RESISTIVITY CURVES FROM SMALL SCALE SECTION FROM TOP TO 6100'
SONIC CURVES FROM SMALL SCALE SECTION FROM TOP TO 4990'
RESISTIVITY DATA FROM LANE WELLS & SCHLUMBERGER SPLICED TO CREATE SINGLE CURVES
~ASCII -----------------------------------------------------
# ...
 6050.00000    9.70280    9.70280   58.46780   52.03320   19.21850   51.52130   51.52130    8.42530    8.42530   19.21850   53.38990 -108.84800  -78.08280   53.38990
 6100.00000   10.94190   10.94190  189.20970  161.89090    6.17700   61.54520   61.54520   37.58770   37.58770    6.17700   15.41340  -75.80140  -45.65260   15.41340
 6150.00000   10.86980   10.86980  210.28380  176.05010    5.68020   63.27050   63.27050   29.05000   29.05000    5.68020   18.36550  -82.17160  -52.63510   18.36550
 6200.00000   10.12870   10.12870   14.02180    9.65640  103.55830   53.05600   53.05600    8.61720    8.61720  103.55830   74.90700  -88.25740  -59.33730   74.90700
 6250.00000    9.29690    9.29690   62.24630   55.82230   17.91400   55.67990   55.67990    6.91960    6.91960   17.91400   66.24950 -161.25580 -132.94800   66.24950
 6300.00000    9.13800    9.13800   55.40550   49.11490   20.36040   57.38170   57.38170    7.06010    7.06010   20.36040   68.00120 -169.91070 -142.21520   68.00120
 6350.00000   10.91300   10.91300 1280.84290 1280.84290    0.78070   74.50620   74.50620   38.52810   38.52810    1.97080    4.93230  -96.41590  -69.33680    4.93230
 6400.00000   10.59290   10.59290  307.23290  307.23290    3.25490   62.61530   62.61530   31.24180   31.24180    4.16860   12.65110  -74.89690  -48.43020   12.65110
 6450.00000   11.20060   11.20060  502.56460  502.56460    1.98980   65.40530   65.40530   27.77840   27.77840    3.01410   11.98010  -79.81550  -53.96520   11.98010
 6500.00000   10.29830   10.29830   47.23270   42.96790   23.27320   55.54060   55.54060   29.78700   29.78700   23.27320   33.82230  -31.24450   -6.00650   33.82230
 6550.00000    9.42500    9.42500   11.10220    7.35130  136.02960   53.25650   53.25650   11.45030   11.45030  136.02960  131.10330  -46.98650  -21.57340  131.10330
 6600.00000   10.50250   10.50250   23.22210   19.52750   51.20980   51.98510   51.98510    8.61900    8.61900   51.20980   65.03830  -52.16860  -26.47960   65.03830
 6650.00000   10.07100   10.07100   50.58290   43.31850   23.08480   54.41590   54.41590   17.33870   17.33870   23.08480   37.73410  -56.78500  -30.82180   37.73410
 6700.00000    9.24680    9.24680   36.22900   31.49610   31.75000   52.99910   52.99910    7.00570    7.00570   31.75000   57.62920  -96.13760  -69.89840   57.62920
 6750.00000    9.50760    9.50760   20.44010   16.00790   62.46920   53.90510   53.90510   11.27830   11.27830   62.46920   69.24210  -50.47280  -23.95940   69.24210
 6800.00000    9.43320    9.43320   19.94580   15.73650   63.54640   53.91280   53.91280   19.38700   19.38700   63.54640   77.55610  -61.65080  -34.86310   77.55610
 6850.00000    9.50420    9.50420   26.08130   21.77360   45.92720   54.53430   54.53430   22.64440   22.64440   45.92720   58.85500  -51.93080  -24.86720   58.85500
 6900.00000   10.43330   10.43330   45.98710   41.40410   24.15220   80.01200   80.01200   88.31650   88.31650   24.15220   32.78430  -28.05510   -0.71720   32.78430
 6950.00000   10.08380   10.08380   97.44660   89.02740   11.23250   61.94570   61.94570   59.23250   59.23250   11.23250   15.18200  -48.58060  -21.28690   15.18200
 7000.00000   10.06910   10.06910   21.96870   18.40010   54.34750   51.83680   51.83680   19.82340   19.82340   54.34750   60.82830  -67.76560  -40.53790   60.82830
 7050.00000    9.91930    9.91930   17.69530   13.88680   72.01090   51.68270   51.68270    5.39710    5.39710   72.01090   87.69350 -116.57320  -89.41160   87.69350
 7100.00000    9.90080    9.90080   12.50290    9.43090  106.03450   50.97750   50.97750    5.10660    5.10660  106.03450  108.34350 -115.26720  -88.17200  108.34350
 7150.00000   10.18120   10.18120   26.21580   21.60750   46.28020   53.44290   53.44290    4.62410    4.62410   46.28020   71.30320 -138.38320 -111.35410   71.30320
 7200.00000    9.48820    9.48820   23.59990   20.97500   47.67590   50.09230   50.09230    4.97470    4.97470   47.67590   61.25000 -125.26770  -98.30510   61.25000
 7250.00000    9.68190    9.68190   24.60180   19.49220   51.30250   50.81590   50.81590    1.40270    1.40270   51.30250   66.51590 -150.39570 -123.49920   66.51590
 7300.00000    8.11590    8.11590   92.01270   84.36970   11.85260   55.72420   55.72420    0.72060    0.72060   11.85260   68.34700 -179.56470 -152.73420   68.34700
 7350.00000    9.92060    9.92060   31.55510   26.42850   37.83790   50.71100   50.71100    5.48260    5.48260   37.83790   82.68730 -156.59410 -129.83010   82.68730
 7400.00000    9.35660    9.35660   26.47770   23.09840   43.29310   53.66840   53.66840    6.93290    6.93290   43.29310   80.06180 -156.88830 -130.19040   80.06180
 7450.00000    9.95710    9.95710   24.50800   20.15630   49.61230   49.69470   49.69470    6.93740    6.93740   49.61230   79.27160 -130.87070 -104.23920   79.27160
 7500.00000    9.93770    9.93770   30.68660   25.49520   39.22300   51.42630   51.42630    4.33600    4.33600   39.22300   80.68170 -122.61170  -96.04630   80.68170
 7550.00000    9.87920    9.87920   37.78540   32.22720   31.02970   51.27740   51.27740    1.70420    1.70420   31.02970   64.00460 -135.14180 -108.64240   64.00460
 7600.00000    9.82130    9.82130   26.86520   22.56670   44.31300   49.12390   49.12390    4.50730    4.50730   44.31300   80.03100 -135.99000 -109.55720   80.03100
 7650.00000    8.59820    8.59820   63.60520   57.57120   17.36980   53.16750   53.16750    8.39390    8.39390   17.36980   94.23470 -189.51250 -163.14580   94.23470
 7700.00000    9.96870    9.96870   22.74650   18.11110   55.21490   49.10970   49.10970    3.45460    3.45460   55.21490   79.38240 -108.70250  -82.40220   79.38240
 7750.00000   10.13530   10.13530  257.10610  257.10610    3.88940   59.76950   59.76950   32.24030   32.24030    4.76360    8.00490  -66.23030  -39.99600    8.00490
 7800.00000    9.39100    9.39100   20.46970   16.53140   60.49090   49.57390   49.57390    7.13970    7.13970   60.49090   89.85950 -114.42810  -88.25990   89.85950
 7850.00000    9.56330    9.56330   47.56710   42.42750   23.56960   52.40070   52.40070   20.29040   20.29040   23.56960   31.38110  -90.96260  -64.86090   31.38110
 7900.00000    9.46630    9.46630   45.52110   40.62070   24.61800   51.60250   51.60250   14.38960   14.38960   24.61800   32.72840  -82.88860  -56.85300   32.72840
 7950.00000   10.08150   10.08150   24.13480   17.99850   55.56020   54.07310   54.07310   23.35500   23.35500   55.56020   52.53100  -31.80950   -5.84030   52.53100
 8000.00000   10.37990   10.37990   30.93310   26.90200   37.17190   55.69820   55.69820   24.31740   24.31740   37.17190   41.37300  -26.75590   -0.85280   41.37300
 8050.00000   10.08540   10.08540   32.90160   28.19260   35.47030   54.08290   54.08290   28.86060   28.86060   35.47030   39.54880  -38.36550  -14.22680   39.54880
 8100.00000    9.44700    9.44700   33.81890   29.06510   34.40550   56.46150   56.46150   33.73850   33.73850   34.40550   41.80360  -32.60600  -10.37670   41.80360
 8150.00000   10.01560   10.01560   33.62220   27.68990   36.11420   55.24700   55.24700   22.97170   22.97170   36.11420   40.75140  -26.93000   -6.59760   40.75140
 8200.00000   10.49340   10.49340   46.78460   40.30420   24.81130   57.22120   57.22120   22.63630   22.63630   24.81130   29.34240  -21.67050   -3.42170   29.34240
 8250.00000   10.69460   10.69460   51.46050   45.70720   21.87840   56.44760   56.44760   22.98570   22.98570   21.87840   28.17140  -19.82020   -5.23350   28.17140
 8300.00000   11.04280   11.04280   97.50380   90.24130   11.08140   61.65510   61.65510   32.78410   32.78410   11.08140   16.56930  -16.25360   -5.32910   16.56930
 8350.00000   10.57300   10.57300   83.07800   76.96270   12.99330   60.54880   60.54880   31.31770   31.31770   12.99330   17.98580   -9.69280   -2.45450   17.98580
 8400.00000   13.66820   13.66820  152.47350  138.40830    7.22500   67.97670   67.97670   62.26340   62.26340    7.22500    9.62840  -15.53450   -8.34950    9.62840
 8450.00000   11.04000   11.04000  120.27860  111.10490    9.00050   57.28110   57.28110   35.95660   35.95660    9.00050   12.54090  -13.56140   -6.11880   12.54090
