~Version ---------------------------------------------------
VERS.      2.0 : CWLS log ASCII Standard -VERSION 2.0
WRAP.       NO : One line per depth step
CREA. 11/22/17 : LAS Creation Date
~Well ------------------------------------------------------
STRT.FT                      1000.0 : START DEPTH
STOP.FT                      9700.0 : STOP DEPTH
STEP.FT                    50.00000 : STEP LENGTH
NULL.                       -999.25 : NULL VALUE
COMP. HUDSON'S BAY OIL & GAS CO LTD : COMPANY
WELL.         HB MEEKWAP 11-8-66-18 : WELL
FLD .                               : FIELD
LOC .                               : LOCATION
CTRY.                        CANADA : COUNTRY
SRVC.                  Schlumberger : SERVICE COMPANY
DATE.                   20-Feb-1976 : LOGDATE
PROV.                       Alberta : PROVINCE
UWI .              100110806618W500 : UNIQUE WELL ID
SLAT.WGS84                 54.70024 : SURFACE LATITUDE
SLON.WGS84                -116.6871 : SURFACE LONGITUDE
~Curve Information -----------------------------------------
DEPT    .FT    : Depth Curve
CALDED  .IN    : CALIPER FROM DENSITY LOG [ADJ. TO RESISTIVITY LOG]
CALSED  .IN    : CALIPER FROM SONIC LOG [ADJ. TO RESISTIVITY LOG]
CALWS   .IN    : CALIPER [CALSED]
CILDED  .MMHO  : CONDUCTIVITY FROM RESISTIVITY LOG
CONDWS  .MMHO  : CONDUCTIVITY [1000/DRESWS]
DCORWS  .G/C3  : DENSITY CORRECTION [DRHOED]
DENWS   .G/C3  : FORMATION BULK DENSITY [RHOBED]
DPHILSED.V/V   : DENSITY POROSITY LIMESTONE [M=2.71, F=1.00] FROM DENSITY LOG [ADJ. TO RESISTIVITY LOG]
DPHISSED.V/V   : DENSITY POROSITY SANDSTONE [M=2.65, F=1.00] FROM DENSITY LOG [ADJ. TO RESISTIVITY LOG]
DPOLSWS .V/V   : DENSITY POROSITY LIMESTONE [CALC. FROM DENWS M=2.71, F=1.00]
DRESWS  .OHMM  : DEEP RESISTIVITY [FROM START TO 4053' IF ILDED<5;1000/CILDED;ELSE ILDED
DRHOED  .G/C3  : BULK DENSITY CORRECTION FROM DENSITY LOG [ADJ. TO RESISTIVITY LOG/DPHISSED/DPHILSED]
DTED    .US/F  : DELTA-T FROM SONIC LOG [ADJ. TO RESISTIVITY LOG]
DTWS    .US/F  : COMPRESSIONAL SONIC [DTED]
GRDED   .GAPI  : GAMMA RAY FROM DENSITY LOG [ADJ. TO RESISTIVITY LOG]
GRSED   .GAPI  : GAMMA RAY FROM SONIC LOG [ADJ. TO RESISTIVITY LOG]
GRWS    .GAPI  : GAMMA RAY [GRSED]
ILDED   .OHMM  : DEEP INDUCTION FROM RESISTIVITY LOG
ILMED   .OHMM  : MEDIUM INDUCTION FROM RESISTIVITY LOG
LL8ED   .OHMM  : LATEROLOG 8 FROM RESISTIVITY LOG
MRESWS  .OHMM  : MEDIUM RESISTIVITY [ILMED]
NPHILSED.V/V   : NEUTRON POROSITY LIMESTONE FROM DENSITY LOG [ADJ. TO RESISTIVITY LOG]
NPHISSED.V/V   : NEUTRON POROSITY SANDSTONE FROM DENSITY LOG [ADJ. TO RESISTIVITY LOG]
NPOLSWS .V/V   : NEUTRON POROSITY LIMESTONE [NPHISSED MATRIX CONVERSION FOR LIMESTONE FROM SCHLUMBERGER (CNL), SPL. TO NPHILSED @ 5502']
RHOBED  .G/C3  : BULK DENSITY FROM DENSITY LOG [ADJ. TO RESISTIVITY LOG/DPHISSED/DPHILSED]
SPRED   .MV    : SPONTANEOUS POTENTIAL FROM RESISTIVITY LOG
SPWS    .MV    : SPONTANEOUS POTENTIAL [BASELINE 0 MV, SPRED]
SRESWS  .OHMM  : SHALLOW RESISTIVITYV [LL8ED]
~Params ----------------------------------------------------
PD  .                     GL : PERMANENT DATUM
EPD .FT                 2674 : ELEVATION PERMANENT DATUM
LMF .                     KB : LOG MEASURED FROM
DAPD.FT                 16.8 : FEET ABOVE PERMANENT DATUM
EKB .FT               2690.8 : KELLY BUSHING
EGL .FT                 2674 : GROUND LEVEL
DATE.               02/20/76 : RUN DATE
RUN .                      1 : RUN NUMBER
DD  .FT                 9730 : DEPTH DRILLER
DL  .FT                 9732 : DEPTH LOGGER
BLI .FT                 9726 : BOTTOM LOG INTERVAL
TLI .FT                  995 : TOP LOG INTERVAL
CBD .FT                  995 : CASING BOTTOM DRILLER
CBL .FT                  995 : CASING BOTTOM LOGGER
BS  .IN                 8.75 : BIT SIZE
BSD .FT                 9730 : BIT SIZE AT DEPTH
DFT .                    GEL : DRILLING FLUID TYPE
DFD .                    9.6 : DRILLING FLUID DENSITY
DFV .                    120 : DRILLING FLUID VISCOSITY
DFPH.                      9 : DRILLING FLUID PH
DFL .                     10 : DRILLING FLUID LOSS
MSS .               FLOWLINE : MUD SAMPLE SOURCE
RMS .OHMM               0.68 : RESISTIVITY MUD SAMPLE
MST .DEGF                199 : MUD SAMPLE TEMPERATURE
RMF .OHMM                1.9 : RESISTIVITY MUD FILTRATE SAMPLE
MFST.DEGF                 60 : MUD FILTRATE SAMPLE TEMPERATURE
RMB .OHMM               0.57 : RESISTIVITY MUD AT BHT
LUN .                   7800 : LOGGING UNIT NUMBER
LUL .                    EDM : LOGGING UNIT LOCATION
ENGI.               BERNLSKY : RECORDING ENGINEER
WITN.                HARDMAN : WITNESSED BY
CLNT.                A2DTECH : CLIENT CODE
ORIG.            2" 5" PRINT : ORIGIN OF DATA
UWI .       100110806618W500 : UNIQUE WELL ID
DICO. A2D Technologies, Inc. : DIGITIZING COMPANY
~Other -----------------------------------------------------
DIL-CNFD-BHC LOG RUN
ALL DATA FROM DIL LOG VERIFY FROM TOP -4048'FROM 2" SCALE LOG
~ASCII -----------------------------------------------------
# ...
 4750.00000   12.62420   11.34620   11.34620    -999.25   79.47230    0.10960    1.96560    -999.25    0.41030    0.43530   12.58300    0.10960  108.22360  108.22360   62.09670   62.48630   62.48630   12.58300   11.69850   17.10860   11.69850    -999.25    0.44300    0.40110    1.96560 -252.72790  -13.91590   17.10860
 4800.00000   11.84720   11.95060   11.95060    -999.25   97.80910    0.09930    1.89820    -999.25    0.44610    0.47470   10.22400    0.09930  135.42210  135.42210   50.40780   52.72940   52.72940   10.22400    9.72520   21.20140    9.72520    -999.25    0.60780    0.57430    1.89820 -252.63730  -14.48580   21.20140
 4850.00000   11.21220   10.96200   10.96200    -999.25  155.63480    0.05760    2.50720    -999.25    0.08590    0.11860    6.42530    0.05760   78.79370   78.79370   63.37240   65.58320   65.58320    6.42530    6.04410    5.89800    6.04410    -999.25    0.25410    0.21020    2.50720 -245.73880   -8.25220    5.89800
 4900.00000   10.27430    9.50470    9.50470    -999.25  161.99580    0.09740    2.49820    -999.25    0.09800    0.12390    6.17300    0.09740   79.16350   79.16350   64.73800   73.32080   73.32080    6.17300    5.22790    9.96580    5.22790    -999.25    0.25920    0.21530    2.49820 -276.05760  -39.23150    9.96580
 4950.00000   11.37380   11.88980   11.88980    -999.25  178.74700    0.17770    2.54230    -999.25    0.06570    0.09810    5.59450    0.17770   80.61120   80.61120   70.94890   76.31730   76.31730    5.59450    5.05870    6.20030    5.05870    -999.25    0.30140    0.25740    2.54230 -261.12460  -24.96330    6.20030
 5000.00000   10.45450   10.48980   10.48980    -999.25  150.80000    0.11720    2.55030    -999.25    0.05390    0.09340    6.63130    0.11720   80.31250   80.31250   68.55550   72.22350   72.22350    6.63130    5.79250    8.23920    5.79250    -999.25    0.28500    0.24100    2.55030 -265.10720  -29.60640    8.23920
 5050.00000   10.66410   10.37290   10.37290    -999.25  143.51530    0.03250    2.55640    -999.25    0.05610    0.08990    6.96790    0.03250   80.19390   80.19390   79.59400   82.27980   82.27980    6.96790    6.59720    7.19900    6.59720    -999.25    0.27840    0.23440    2.55640 -251.87040  -17.03010    7.19900
 5100.00000   10.80950   10.54920   10.54920    -999.25  133.19660    0.07700    2.60820    -999.25    0.03350    0.05950    7.50770    0.07700   75.99230   75.99230   80.87340   72.18710   72.18710    7.50770    6.98820    8.81050    6.98820    -999.25    0.27570    0.23170    2.60820 -250.86050  -16.68510    8.81050
 5150.00000   10.68260   10.96480   10.96480    -999.25  130.76850    0.03550    2.56170    -999.25    0.05950    0.08680    7.64710    0.03550   82.55590   82.55590   89.07980   97.22830   97.22830    7.64710    7.24580    8.90740    7.24580    -999.25    0.27970    0.23570    2.56170 -243.58370  -10.06880    8.90740
 5200.00000   10.04040   10.80520   10.80520    -999.25  154.83950    0.14470    2.54930    -999.25    0.04870    0.09400    6.45830    0.14470   81.65270   81.65270   78.11580   84.22440   84.22440    6.45830    6.11240    7.20990    6.11240    -999.25    0.37700    0.33370    2.54930 -241.18990   -8.33990    7.20990
 5250.00000   11.54370   12.05610   12.05610    -999.25  265.76660    0.19790    2.21780    -999.25    0.26690    0.28790    3.76270    0.19790  101.01320  101.01320   72.69280   84.51260   84.51260    3.76270    3.47000    4.07930    3.47000    -999.25    0.50390    0.46430    2.21780 -241.68600   -9.49650    4.07930
 5300.00000   10.28720   10.16690   10.16690    -999.25   94.83350    0.08730    2.63800    -999.25    0.01930    0.04210   10.54480    0.08730   74.21380   74.21380   96.94810  115.64470  115.64470   10.54480    9.55880   10.43310    9.55880    -999.25    0.25110    0.20720    2.63800 -240.15650   -8.62750   10.43310
 5350.00000   11.02590   10.11490   10.11490    -999.25  101.58990    0.04990    2.58760    -999.25    0.04320    0.07160    9.84350    0.04990   75.39480   75.39480   75.14120   72.16870   72.16870    9.84350    8.87810   11.15370    8.87810    -999.25    0.25910    0.21520    2.58760 -241.21510  -10.35090   11.15370
 5400.00000   11.73800   10.34360   10.34360    -999.25  221.94600    0.25790    2.44650    -999.25    0.12540    0.15410    4.50560    0.25790   84.54120   84.54120   78.12560   83.13680   83.13680    4.50560    4.36620    4.69830    4.36620    -999.25    0.36500    0.32150    2.44650 -236.69740   -6.49370    4.69830
 5450.00000   13.23540   11.91530   11.91530    -999.25  336.77970    0.22570    2.17650    -999.25    0.29190    0.31200    2.96930    0.22570  102.67440  102.67440   84.85930   86.06180   86.06180    2.96930    2.79590    3.76400    2.79590    -999.25    0.51340    0.47430    2.17650 -235.67930   -6.14050    3.76400
 5500.00000    9.84230    9.50700    9.50700    -999.25   48.72700    0.13050    2.41490    0.16720    -999.25    0.17260   20.52250    0.13050  112.78310  112.78310  152.90570  159.50330  159.50330   20.52250   18.43140   33.32120   18.43140    0.38290    -999.25    0.38290    2.41490 -234.38970   -5.51140   33.32120
 5550.00000   11.75540   11.62370   11.62370    -999.25  130.39680    0.25590    2.10680    0.35990    -999.25    0.35270    7.66890    0.25590  102.42890  102.42890   89.99850   89.30640   89.30640    7.66890    6.99530    9.70890    6.99530    0.39160    -999.25    0.39160    2.10680 -238.01810  -10.90000    9.70890
 5600.00000    9.24200    9.28770    9.28770    -999.25    6.02890    0.02330    2.53780    0.10360    -999.25    0.10070  165.86670    0.02330   70.04370   70.04370  190.38000  205.95620  205.95620  165.86670  209.75150  971.04020  209.75150    0.15860    -999.25    0.15860    2.53780 -287.12610  -67.68380  971.04020
 5650.00000    9.35750    8.91140    8.91140    -999.25  142.90610    0.11400    2.58330    0.08400    -999.25    0.07410    6.99760    0.11400   70.88060   70.88060   72.64940   75.59020   75.59020    6.99760    4.84800   21.50440    4.84800    0.14640    -999.25    0.14640    2.58330 -319.46340 -107.64670   21.50440
 5700.00000   10.09560   10.36470   10.36470    -999.25  138.41980    0.04980    2.63920    0.04450    -999.25    0.04140    7.22440    0.04980   69.15140   69.15140   88.28180   84.36960   84.36960    7.22440    6.84570    9.56220    6.84570    0.14050    -999.25    0.14050    2.63920 -209.68510   -5.54420    9.56220
 5750.00000    8.87930    9.21850    9.21850    -999.25   52.69950    0.12630    2.78610   -0.04240    -999.25   -0.04450   18.97550    0.12630   52.65170   52.65170   37.98670   37.72950   37.72950   18.97550   14.46690   94.44760   14.46690    0.08800    -999.25    0.08800    2.78610 -230.89020  -27.39460   94.44760
 5800.00000    8.46270    8.25180    8.25180    -999.25   50.08920    0.18070    2.83270   -0.07480    -999.25   -0.07180   19.96440    0.18070   49.52560   49.52560   20.84220   20.44080   20.44080   19.96440   14.85650  108.87430   14.85650    0.07130    -999.25    0.07130    2.83270 -254.11940  -49.69300  108.87430
 5850.00000    9.00150    8.03320    8.03320    -999.25   85.45550    0.14320    2.63230    0.05090    -999.25    0.04540   11.70200    0.14320   57.23880   57.23880   27.38840   26.68490   26.68490   11.70200    7.10640   35.90810    7.10640    0.13570    -999.25    0.13570    2.63230 -257.39250  -52.02910   35.90810
 5900.00000    8.93100    8.94400    8.94400    -999.25   45.70950    0.14600    2.60040    0.06930    -999.25    0.06410   21.87730    0.14600   56.06910   56.06910   33.88970   35.97190   35.97190   21.87730   11.00110  186.05180   11.00110    0.14880    -999.25    0.14880    2.60040 -275.78760  -69.49340  186.05180
 5950.00000    9.38250    9.59420    9.59420    -999.25   13.89020    0.03590    2.70160    0.00570    -999.25    0.00490   71.99310    0.03590   51.34300   51.34300   26.21140   29.38860   29.38860   71.99310   54.48010  528.66360   54.48010    0.01740    -999.25    0.01740    2.70160 -202.01700    5.21420  528.66360
