~Version ---------------------------------------------------
VERS.      2.0 : CWLS log ASCII Standard -VERSION 2.0
WRAP.       NO : One line per depth step
CREA. 08/01/17 : LAS Creation Date
~Well ------------------------------------------------------
STRT.FT           1100.0 : START DEPTH
STOP.FT          11400.0 : STOP DEPTH
STEP.FT         50.00000 : STEP LENGTH
NULL.            -999.25 : NULL VALUE
COMP.    SUN OIL COMPANY : COMPANY
WELL. SUN TONY 2-2-63-22 : WELL
FLD .                 WC : FIELD
LOC .                    : LOCATION
CTRY.             CANADA : COUNTRY
SRVC.       Schlumberger : SERVICE COMPANY
DATE.        01-Apr-1963 : LOGDATE
PROV.            Alberta : PROVINCE
UWI .   100020206322W500 : UNIQUE WELL ID
SLAT.WGS84      54.41639 : SURFACE LATITUDE
SLON.WGS84     -117.2104 : SURFACE LONGITUDE
~Curve Information -----------------------------------------
DEPT  .FT    : Depth Curve
CALSED.IN    : CALIPER FROM SL-GR-CAL LOG
CALWS .IN    : CALIPER [CALSED]
CILDED.MMHO  : DEEP INDUCTION CONDUCTIVITY FROM EL LOG
CONDWS.MMHO  : CONDUCTIVITY [CILDED]
DRESWS.OHMM  : DEEP RESISTIVITY [CALCULATED FROM 1000/CILDED, IF ILDED<1, ILDED]
DTED  .US/F  : DELTA-T (INTERVAL TRANSIT TIME) FROM EL LOG
DTWS  .US/F  : COMPRESSIONAL  SONIC [DTED]
GRSED .GAPI  : GAMMA RAY FROM SL-GR-CAL LOG
GRWS  .GAPI  : GAMMA RAY [GRSED]
ILDED .OHMM  : DEEP INDUCTION RESISTIVITY FROM EL LOG
SNED  .OHMM  : SHORT NORMAL RESISTIVITY FROM EL LOG
SPRED .MV    : SPONTANEOUS POTENTIAL FROM RESISTIVITY LOG
SPWS  .MV    : SPONTANEOUS POTENTIAL [BASELINE 0 MV, SPRED]
SRESWS.OHMM  : SHALLOW RESISTIVITY [SNED]
~Params ----------------------------------------------------
PD  .                     GL : PERMANENT DATUM
EPD .FT                 2843 : ELEVATION PERMANENT DATUM
LMF .                     KB : LOG MEASURED FROM
DAPD.FT                   13 : FEET ABOVE PERMANENT DATUM
EKB .FT                 2856 : KELLY BUSHING
EGL .FT                 2843 : GROUND LEVEL
DATE.               04/01/63 : RUN DATE
RUN .                      1 : RUN NUMBER
DD  .FT                11440 : DEPTH DRILLER
DL  .FT                11443 : DEPTH LOGGER
BLI .FT                11442 : BOTTOM LOG INTERVAL
TLI .FT                 1189 : TOP LOG INTERVAL
CBD .FT                 1189 : CASING BOTTOM DRILLER
CBL .FT                 1189 : CASING BOTTOM LOGGER
BS  .IN                 8.75 : BIT SIZE
BSD .FT                11440 : BIT SIZE AT DEPTH
DFT .                    GEL : DRILLING FLUID TYPE
DFD .                    9.8 : DRILLING FLUID DENSITY
DFV .                    135 : DRILLING FLUID VISCOSITY
DFPH.                    9.5 : DRILLING FLUID PH
DFL .                    9.2 : DRILLING FLUID LOSS
RMS .OHMM               2.04 : RESISTIVITY MUD SAMPLE
MST .DEGF                 64 : MUD SAMPLE TEMPERATURE
RMF .OHMM               1.36 : RESISTIVITY MUD FILTRATE SAMPLE
MFST.DEGF                 74 : MUD FILTRATE SAMPLE TEMPERATURE
RMC .OHMM               2.43 : RESISTIVITY MUD CAKE
MCST.DEGF                 74 : MUD CAKE SAMPLE TEMPERATURE
RMB .OHMM                0.7 : RESISTIVITY MUD AT BHT
TCS .HRS                   3 : TIME CIRCULATED STOPPED
LUN .                   1534 : LOGGING UNIT NUMBER
LUL .                     VV : LOGGING UNIT LOCATION
ENGI.                  KEOWN : RECORDING ENGINEER
WITN.                 FENTON : WITNESSED BY
CLNT.                A2DTECH : CLIENT CODE
ORIG.            2" 5" PRINT : ORIGIN OF DATA
UWI .       100020206322W500 : UNIQUE WELL ID
DICO. A2D Technologies, Inc. : DIGITIZING COMPANY
~Other -----------------------------------------------------
ALL CURVES HAVE BEEN TAKEN IN 1"SECTION @CSG. TO 6980'.
~ASCII -----------------------------------------------------
# ...
 8450.00000    9.42510    9.42510   54.02060   54.02060   20.20500   61.33130   61.33130   79.64410   79.64410   20.20500   28.79820  -32.24030   -7.39910   28.79820
 8500.00000    9.36940    9.36940   14.29990   14.29990   94.71430   52.34410   52.34410   42.99640   42.99640   94.71430   75.19710  -43.35960  -18.99790   75.19710
 8550.00000    8.99890    8.99890   13.33790   13.33790  101.06970   54.81500   54.81500   43.15250   43.15250  101.06970   82.90900  -32.99590   -9.11370   82.90900
 8600.00000    9.07070    9.07070   23.48300   23.48300   50.89220   57.40220   57.40220   44.06340   44.06340   50.89220   49.27930  -26.71570   -3.29660   49.27930
 8650.00000    8.90910    8.90910    7.88940    7.88940  241.67350   52.94200   52.94200   28.93850   28.93850  241.67350  138.36720  -42.84660  -19.86510  138.36720
 8700.00000    8.93720    8.93720    8.64070    8.64070  192.75340   55.28240   55.28240   58.24710   58.24710  192.75340  149.25250  -37.53060  -14.98660  149.25250
 8750.00000    9.02050    9.02050   14.52760   14.52760   85.74670   59.30030   59.30030   77.37460   77.37460   85.74670   91.09310  -32.06090   -9.95450   91.09310
 8800.00000    8.89260    8.89260    7.74750    7.74750  186.59610   54.73580   54.73580   51.36970   51.36970  186.59610  128.89620  -37.87600  -16.20710  128.89620
 8850.00000    9.34200    9.34200   46.99450   46.99450   25.96300   81.28810   81.28810  240.09040  240.09040   25.96300   43.22120  -59.09340  -37.86200   43.22120
 8900.00000    9.68120    9.68120    5.82420    5.82420  417.96600   52.62340   52.62340   27.94350   27.94350  417.96600  277.68160 -103.91910  -83.12530  277.68160
 8950.00000    9.04110    9.04110    3.86710    3.86710  446.48330   49.92080   49.92080   26.42040   26.42040  446.48330  241.01570 -123.95830 -103.60200  241.01570
 9000.00000    9.63030    9.63030    4.99650    4.99650  317.36800   53.42570   53.42570   24.45290   24.45290  317.36800  229.12100 -132.80730 -112.88850  229.12100
 9050.00000    9.99420    9.99420    4.62800    4.62800  309.20350   49.44040   49.44040   21.85820   21.85820  309.20350  193.00450 -132.35060 -112.86940  193.00450
 9100.00000   10.26740   10.26740    7.29470    7.29470  251.28040   50.35280   50.35280   24.76990   24.76990  251.28040  172.52630 -118.59860  -99.55490  172.52630
 9150.00000    9.66190    9.66190    5.58030    5.58030  373.36690   49.67960   49.67960   20.31480   20.31480  373.36690  180.45880 -125.83840 -107.23230  180.45880
 9200.00000    9.51950    9.51950    6.07190    6.07190  330.10840   49.83590   49.83590   19.88550   19.88550  330.10840  165.96030 -134.97330 -116.80470  165.96030
 9250.00000    9.70910    9.70910    6.88450    6.88450  408.38780   50.92280   50.92280   21.81940   21.81940  408.38780  219.26540 -124.28190 -106.55080  219.26540
 9300.00000    9.47840    9.47840    7.87650    7.87650  445.89740   50.94360   50.94360   26.15010   26.15010  445.89740  190.93560 -126.85940 -109.56590  190.93560
 9350.00000    9.33430    9.33430    5.30170    5.30170  506.84010   49.38410   49.38410   26.16300   26.16300  506.84010  195.21100 -124.79560 -107.93960  195.21100
 9400.00000    9.20760    9.20760    5.10920    5.10920  390.94980   49.83260   49.83260   25.37580   25.37580  390.94980  193.09840 -128.87820 -112.45980  193.09840
 9450.00000    9.51930    9.51930    6.73170    6.73170  317.20280   52.47300   52.47300   26.32160   26.32160  317.20280  179.78370 -139.83630 -123.85540  179.78370
 9500.00000    9.93400    9.93400    7.38700    7.38700  207.15020   51.96290   51.96290   23.67960   23.67960  207.15020  160.43010 -157.50890 -141.96550  160.43010
 9550.00000    9.00340    9.00340   10.47250   10.47250  126.10960   47.78900   47.78900   22.14350   22.14350  126.10960  102.32340 -166.78350 -151.67770  102.32340
 9600.00000    8.89410    8.89410   22.12840   22.12840   53.19380   51.67900   51.67900   20.54740   20.54740   53.19380   72.23490 -184.80600 -170.13770   72.23490
 9650.00000    8.91930    8.91930    6.72410    6.72410  340.40850   49.66750   49.66750   29.14800   29.14800  340.40850   94.11300 -155.87440 -141.64360   94.11300
 9700.00000    7.44130    7.44130   45.11700   45.11700   24.07270   55.02690   55.02690   24.95840   24.95840   24.07270   65.19620 -215.56580 -201.77260   65.19620
 9750.00000    7.58950    7.58950   89.24170   89.24170   12.91830   55.69060   55.69060   25.74430   25.74430   12.91830   45.68210 -230.16800 -216.81230   45.68210
 9800.00000    9.50790    9.50790   10.71260   10.71260  121.18490   51.74550   51.74550   33.21370   33.21370  121.18490   70.42390 -169.63680 -156.71870   70.42390
 9850.00000    9.07870    9.07870    6.41960    6.41960  410.16530   51.60890   51.60890   41.82720   41.82720  410.16530  259.30270 -114.38470 -101.90410  259.30270
 9900.00000    8.87680    8.87680    6.12510    6.12510  430.03100   50.93510   50.93510   37.78580   37.78580  430.03100  230.39290 -107.42460  -95.38150  230.39290
 9950.00000    8.98850    8.98850    5.15590    5.15590  290.15020   52.26780   52.26780   36.12220   36.12220  290.15020  200.12150 -103.55210  -91.94660  200.12150
 10000.00000    8.82450    8.82450    4.12250    4.12250  268.73930   50.91870   50.91870   36.25240   36.25240  268.73930  181.18730  -73.20090  -62.03290  181.18730
 10050.00000    8.92930    8.92930   13.35990   13.35990   95.94430   52.89490   52.89490   38.91030   38.91030   95.94430   85.74980  -48.90910  -38.17860   85.74980
 10100.00000    8.95540    8.95540    8.83400    8.83400  153.12750   51.51630   51.51630   43.07650   43.07650  153.12750  116.89600  -42.90750  -32.61460  116.89600
 10150.00000    8.95860    8.95860   16.67800   16.67800   70.40520   53.94900   53.94900   40.17670   40.17670   70.40520   74.37170  -29.08400  -19.22860   74.37170
 10200.00000    9.18620    9.18620   47.40940   47.40940   22.32170   59.99310   59.99310   61.14280   61.14280   22.32170   31.22990  -13.55920   -4.14140   31.22990
 10250.00000    9.57180    9.57180  112.82270  112.82270    9.53500   61.76200   61.76200   71.95040   71.95040    9.53500   13.16160  -22.80080  -13.82050   13.16160
 10300.00000    9.51660    9.51660   87.00340   87.00340   11.98700   65.00140   65.00140   65.40240   65.40240   11.98700   24.20880  -26.05460  -17.51180   24.20880
 10350.00000    9.05890    9.05890   38.68540   38.68540   28.42170   75.38330   75.38330   85.25520   85.25520   28.42170   36.76520  -42.58290  -34.47770   36.76520
 10400.00000    9.29710    9.29710  116.10970  116.10970    8.93060   64.72050   64.72050   66.96110   66.96110    8.93060   13.80820  -40.36590  -32.69820   13.80820
 10450.00000   11.14650   11.14650  193.60530  193.60530    5.81070   76.67420   76.67420   87.61600   87.61600    5.81070    7.44650  -59.28930  -52.05920    7.44650
 10500.00000   14.42940   14.42940  248.84280  248.84280    4.81620   80.71120   80.71120   87.18850   87.18850    4.81620    5.52410  -65.68900  -58.89640    5.52410
 10550.00000    9.16140    9.16140   90.50510   90.50510   11.44450   60.61240   60.61240   68.75470   68.75470   11.44450   17.24580  -24.58470  -18.22960   17.24580
 10600.00000    9.16370    9.16370  101.62420  101.62420   10.36010   66.14680   66.14680   85.63470   85.63470   10.36010   14.76510  -23.38430  -17.23050   14.76510
 10650.00000    9.21190    9.21190  108.22160  108.22160    9.70470   66.58420   66.58420   85.10650   85.10650    9.70470   14.11910  -14.65850   -8.50470   14.11910
 10700.00000    9.64900    9.64900  111.00360  111.00360    9.93730   67.47400   67.47400   83.49020   83.49020    9.93730   13.77100  -28.91900  -22.76520   13.77100
 10750.00000    9.87530    9.87530  177.03340  177.03340    6.30550   77.31780   77.31780  107.21460  107.21460    6.30550    9.11750  -41.38790  -35.23410    9.11750
 10800.00000    9.75740    9.75740  167.73820  167.73820    6.54670   77.46140   77.46140  107.33200  107.33200    6.54670    9.62700  -42.27200  -36.11820    9.62700
 10850.00000    9.25360    9.25360  131.55370  131.55370    8.23680   74.14650   74.14650   96.92790   96.92790    8.23680   12.56160  -18.95270  -12.79890   12.56160
