~Version ---------------------------------------------------
VERS.      2.0 : CWLS log ASCII Standard -VERSION 2.0
WRAP.       NO : One line per depth step
CREA. 12/14/17 : LAS Creation Date
~Well ------------------------------------------------------
STRT.FT                                        800.0 : START DEPTH
STOP.FT                                       7700.0 : STOP DEPTH
STEP.FT                                     50.00000 : STEP LENGTH
NULL.                                        -999.25 : NULL VALUE
COMP. GREAT PLAINS DEVELOPMENT COMPANY OF CANADA LTD : COMPANY
WELL.                   GRT PLNS THUNDER LK 2-6-59-4 : WELL
FLD .                                                : FIELD
LOC .                                                : LOCATION
CTRY.                                         CANADA : COUNTRY
SRVC.                                   Schlumberger : SERVICE COMPANY
DATE.                                    23-Jun-1962 : LOGDATE
PROV.                                        Alberta : PROVINCE
UWI .                               100020605904W500 : UNIQUE WELL ID
SLAT.WGS84                                  54.06654 : SURFACE LATITUDE
SLON.WGS84                                 -114.5851 : SURFACE LONGITUDE
~Curve Information -----------------------------------------
DEPT  .FT    : Depth Curve
CALSED.IN    : CALIPER FROM SONIC LOG [ADJ TO ILDED]
CALWS .IN    : CALIPER [CALSED]
CILDED.MMHO  : CONDUCTIVITY FROM IE LOG
CONDWS.MMHO  : CONDUCTIVITY [1000/DRESWS]
DRESWS.OHMM  : DEEP RESISTIVITY [ILDED]
DT1ED .US/F  : DELTA TIME SPACING 3' PICKUP SPAN 1' FROM SONIC LOG [ADJ TO ILDED]
DT2ED .US/F  : DELTA TIME SPACING 3' PICKUP SPAN 3' FROM SONIC LOG [ADJ TO ILDED]
DT3ED .US/F  : DELTA TIME SPACING 3' PICKUP SPAN 1' FROM SONIC LOG [ADJ TO ILDED]
DTED  .US/F  : DELTA TIME SPACING 3' PICKUP SPAN 3' FROM SONIC LOG [ADJ TO ILDED]
DTWS  .US/F  : DELTA TIME [DTED]
GRSED .GAPI  : GAMMA RAY FROM SONIC LOG [ADJ TO ILDED]
GRWS  .GAPI  : GAMMA RAY [GRSED]
ILDED .OHMM  : INDUCTION LOG DEEP RESISTIVITY FROM IE LOG
SNED  .OHMM  : 16 INCH SHORT NORMAL RESISTIVITY FROM IE LOG
SPRED .MV    : SPONTANEOUS POTENTIAL FROM IE LOG
SPWS  .MV    : SPONTANEOUS POTENTIAL [BASELINE 0 MV] [SPRED]
SRESWS.OHMM  : SHALLOW RESISTIVITY [SNED]
~Params ----------------------------------------------------
PD  .                 GROUND : PERMANENT DATUM
EPD .FT                 2131 : ELEVATION PERMANENT DATUM
LMF .                     KB : LOG MEASURED FROM
DAPD.FT                 12.3 : FEET ABOVE PERMANENT DATUM
EKB .FT               2143.3 : KELLY BUSHING
EGL .FT                 2131 : GROUND LEVEL
DATE.             06/23/1962 : RUN DATE
RUN .                      2 : RUN NUMBER
CBD .FT                  804 : CASING BOTTOM DRILLER
BS  .IN                 8.75 : BIT SIZE
DFT .              SALT& GEL : DRILLING FLUID TYPE
DFD .                   10.6 : DRILLING FLUID DENSITY
DFV .                     70 : DRILLING FLUID VISCOSITY
DFPH.                      7 : DRILLING FLUID PH
DFL .                    6.6 : DRILLING FLUID LOSS
RMF .OHMM               1.02 : RESISTIVITY MUD FILTRATE SAMPLE
MFST.DEGF                 69 : MUD FILTRATE SAMPLE TEMPERATURE
RMC .OHMM               1.85 : RESISTIVITY MUD CAKE
MCST.DEGF                 69 : MUD CAKE SAMPLE TEMPERATURE
ENGI.             ARMBRUSTER : RECORDING ENGINEER
WITN.                GOODMAN : WITNESSED BY
CLNT.                A2DTECH : CLIENT CODE
ORIG.           2", 5" PRINT : ORIGIN OF DATA
UWI .       100020605904W500 : UNIQUE WELL ID
DICO. A2D Technologies, Inc. : DIGITIZING COMPANY
~Other -----------------------------------------------------
IE-SONIC LOGS RUN
IE LOG ALL CURVES DATA TOP-2650' FROM 2" SECTION
~ASCII -----------------------------------------------------
# ...
 2850.00000   11.70110   11.70110  146.16610  144.49610    6.92060    -999.25    -999.25    -999.25   95.13320   95.13320   93.97570   93.97570    6.92060    8.56360  -54.96520   -3.74530    8.56360
 2900.00000   11.87580   11.87580  183.47470  184.09630    5.43220    -999.25    -999.25    -999.25  103.45880  103.45880  110.18210  110.18210    5.43220    7.64390  -53.85580   -3.42440    7.64390
 2950.00000    9.85720    9.85720  167.81120  165.56020    6.04010    -999.25    -999.25    -999.25  102.92390  102.92390  109.56010  109.56010    6.04010    8.41340  -54.77780   -5.14280    8.41340
 3000.00000   10.53010   10.53010  400.57950  391.38940    2.55500    -999.25    -999.25    -999.25  113.90980  113.90980   87.45920   87.45920    2.55500    3.73900  -51.89900   -2.85110    3.73900
 3050.00000    9.93410    9.93410  365.38740  372.59130    2.68490    -999.25    -999.25    -999.25  110.87220  110.87220   94.79410   94.79410    2.68490    3.44840  -52.73480   -4.17920    3.44840
 3100.00000   10.88210   10.88210  285.34690  283.14980    3.53170  104.47320    -999.25    -999.25  100.86320  100.86320   88.86550   88.86550    3.53170    4.45200  -54.29340   -6.23500    4.45200
 3150.00000    9.25640    9.25640  114.93320  113.36200    8.82140   79.76200    -999.25   79.55630   81.97990   81.97990   76.13930   76.13930    8.82140   10.40090  -54.27290   -6.70680   10.40090
 3200.00000    8.88070    8.88070  175.12410  173.51770    5.76310   75.02130   80.02690   74.75440   81.11740   81.11740   62.23220   62.23220    5.76310   12.92620  -86.82310  -39.75430   12.92620
 3250.00000   10.65630   10.65630  237.07950  213.21510    4.69010   83.44260    -999.25    -999.25   92.12350   92.12350   79.95480   79.95480    4.69010    7.53590  -59.23800  -12.66390    7.53590
 3300.00000    9.67980    9.67980   81.66570   80.00910   12.50130  138.01930    -999.25    -999.25  129.93580  129.93580   54.76460   54.76460   12.50130   17.92670  -54.92270   -8.84090   17.92670
 3350.00000    8.89810    8.89810  137.88180  137.29850    7.28340   79.24090   80.54000   78.93460   83.84360   83.84360   80.90900   80.90900    7.28340    9.84500  -56.23940  -10.65490    9.84500
 3400.00000    9.22500    9.22500  108.97900  109.33040    9.14680   83.65140    -999.25    -999.25   84.75150   84.75150   75.01660   75.01660    9.14680   11.75390  -59.31330  -14.22100   11.75390
 3450.00000    9.39020    9.39020  136.41870  134.03930    7.46050   78.88000    -999.25   78.16610   83.36970   83.36970   83.51150   83.51150    7.46050   11.27130  -54.40640   -9.81140   11.27130
 3500.00000    9.13490    9.13490   41.53730   40.30490   24.81090   59.14800   58.91940   58.99870   59.48090   59.48090   51.79210   51.79210   24.81090   38.18250  -62.02000  -17.91980   38.18250
 3550.00000    9.56810    9.56810  215.95960  206.56020    4.84170   83.19010    -999.25    -999.25   83.24730   83.24730   72.08170   72.08170    4.84170   10.17220  -78.76940  -35.16150   10.17220
 3600.00000    9.66980    9.66980  149.08440  147.21470    6.79280   83.41460   80.62920    -999.25   80.83950   80.83950   62.86630   62.86630    6.79280   10.11650  -68.70640  -25.59570   10.11650
 3650.00000    9.68870    9.68870  147.90750  142.17670    7.03350   77.33970   78.25750   77.04040   78.55460   78.55460   77.64920   77.64920    7.03350    9.80440  -61.92410  -19.30580    9.80440
 3700.00000    9.31480    9.31480  120.70790  119.72610    8.35240   67.74160   80.23100   67.19600   80.67600   80.67600   70.37510   70.37510    8.35240   11.16650  -63.83180  -21.71060   11.16650
 3750.00000   10.46710   10.46710  135.11560  131.95220    7.57850   81.92070   80.05670   79.39380   84.40420   84.40420   76.92850   76.92850    7.57850   10.23280  -48.45450   -6.82810   10.23280
 3800.00000    9.63940    9.63940   89.25840   88.63470   11.28270   77.78460    -999.25   77.22250   84.16080   84.16080   79.30560   79.30560   11.28270   16.12040  -45.72890   -4.59490   16.12040
 3850.00000    9.75130    9.75130   80.01950   77.95330   12.82820   56.21260   79.95730   60.93680   88.01610   88.01610  105.23890  105.23890   12.82820   13.24560  -55.47340  -14.83660   13.24560
 3900.00000    8.83960    8.83960    9.54680    9.09090  110.00040   51.80220   51.72130   51.36610   52.01630   52.01630   30.81540   30.81540  110.00040  108.02120  -48.16300   -8.01840  108.02120
 3950.00000    8.81200    8.81200    6.86280    6.51680  153.44840   50.00270   51.06520   49.87640   51.27640   51.27640   24.13310   24.13310  153.44840  131.06490  -47.72880   -8.08150  131.06490
 4000.00000    8.96350    8.96350   20.48860   19.52320   51.22100   57.18030   55.95410   56.79530   56.23080   56.23080   29.71920   29.71920   51.22100   53.86460  -55.67370  -16.52120   53.86460
 4050.00000    9.09000    9.09000   29.77430   28.42650   35.17890   57.04440   57.01080   56.58910   57.28360   57.28360   36.70520   36.70520   35.17890   40.04840  -56.49180  -17.83150   40.04840
 4100.00000    9.16080    9.16080   34.41610   32.68950   30.59090   58.02040   58.12350   57.60770   58.38210   58.38210   32.87050   32.87050   30.59090   36.08670  -57.15780  -18.99480   36.08670
 4150.00000    8.96110    8.96110   29.34500   27.33110   36.58850   56.49350   57.40110   56.01220   57.66410   57.66410   40.15950   40.15950   36.58850   43.05400  -52.20540  -14.53470   43.05400
 4200.00000    8.85930    8.85930   27.42130   25.39760   39.37380   57.13050   59.23310   56.96650   59.38240   59.38240   45.69420   45.69420   39.37380   46.42040  -46.46820   -9.29470   46.42040
 4250.00000    8.97460    8.97460   23.19840   22.18360   45.07840   74.19920   73.13210   73.32870   72.53440   72.53440  110.53050  110.53050   45.07840   58.92140  -37.83940   -1.16070   58.92140
 4300.00000    8.70510    8.70510   28.78560   27.52930   36.40810   49.94950   49.76190   49.76590   49.94880   49.94880   19.77150   19.77150   36.40810   99.02310  -81.56010  -44.33600   99.02310
 4350.00000    8.52920    8.52920  513.61560  479.84640    2.08400   62.35260   59.49970   62.85740   59.57750   59.57750   28.37750   28.37750    2.08400   25.55260 -150.97170 -112.88160   25.55260
 4400.00000    8.62650    8.62650  212.15240  202.38360    4.94140   56.88450   53.81650   56.33980   53.97040   53.97040   24.14460   24.14460    4.94140   27.26970 -145.30130 -106.35380   27.26970
 4450.00000    8.53090    8.53090  153.87930  151.42800    6.60380   50.99380   51.56090   50.79520   51.75070   51.75070   18.31470   18.31470    6.60380   34.74200 -137.63890  -97.82540   34.74200
 4500.00000    8.62290    8.62290  294.26120  247.29830    4.04370   55.33750   57.33190   55.08340   57.52360   57.52360   20.77730   20.77730    4.04370   19.06980 -129.08300  -88.40780   19.06980
 4550.00000    8.60960    8.60960   15.72250   14.46180   69.39850   49.28410   48.53970   48.99950   48.70520   48.70520   20.14440   20.14440   69.39850   82.65300 -133.55150  -92.01890   82.65300
 4600.00000    8.68180    8.68180   23.27050   22.49170   44.46080   48.59860   47.97370   48.16370   48.15280   48.15280   16.86350   16.86350   44.46080   89.97910 -125.32020  -82.92160   89.97910
 4650.00000    8.57550    8.57550   27.74140   26.77060   37.37650   49.51030   48.68520   49.21640   48.84890   48.84890   18.97710   18.97710   37.37650   77.83760 -138.86850  -95.61250   77.83760
 4700.00000    8.72350    8.72350    9.44750    9.25200  108.08460   45.38320   47.55400   45.35360   47.77200   47.77200   18.44630   18.44630  108.08460  135.27050 -125.58010  -81.45810  135.27050
 4750.00000    8.70790    8.70790  162.55230  157.21050    6.36090   56.67200   55.99770   55.85200   56.33520   56.33520   17.56470   17.56470    6.36090   20.82150 -115.04800  -70.06430   20.82150
 4800.00000    8.74190    8.74190  281.95540  284.89260    3.56000   53.66320   53.06960   52.98530   53.42390   53.42390   27.17830   27.17830    3.56000   25.78080 -143.80280  -97.96170   25.78080
 4850.00000    8.72380    8.72380  184.71900  174.26460    5.73840   46.90310   51.69780   47.00140   51.78060   51.78060   21.82120   21.82120    5.73840   15.61150 -148.24170 -101.53460   15.61150
