~Version ---------------------------------------------------
VERS.      2.0 : CWLS log ASCII Standard -VERSION 2.0
WRAP.       NO : One line per depth step
CREA. 11/17/17 : LAS Creation Date
~Well ------------------------------------------------------
STRT.FT                  300.0 : START DEPTH
STOP.FT                10400.0 : STOP DEPTH
STEP.FT               50.00000 : STEP LENGTH
NULL.                  -999.25 : NULL VALUE
COMP.    J M HUBER CORPORATION : COMPANY
WELL. HUBER ROSEVEAR 6-5-55-14 : WELL
FLD .                       WC : FIELD
LOC .                          : LOCATION
CTRY.                   CANADA : COUNTRY
SRVC.             Schlumberger : SERVICE COMPANY
DATE.              04-Sep-1976 : LOGDATE
PROV.                  Alberta : PROVINCE
UWI .         100060505514W500 : UNIQUE WELL ID
SLAT.WGS84            53.72293 : SURFACE LATITUDE
SLON.WGS84           -116.0453 : SURFACE LONGITUDE
~Curve Information -----------------------------------------
DEPT    .FT    : Depth Curve
CALDED  .IN    : CALIPER FROM DENSITY LOG [ADJ. TO RESISTIVITY LOG]
CALRED  .MV    : CALIPER FROM FROM DLL
CALSED  .IN    : CALIPER FROM SONIC LOG [ADJ. TO RESISTIVITY LOG]
CALWS   .IN    : CALIPER [CALSED]
CONDWS  .MMHO  : CONDUCTIVITY [1000/DRESWS]
DCORED  .G/C3  : DENSITY CORRECTION FROM DENSITY LOG [ADJ. TO RESISTIVITY LOG]
DCORWS  .G/C3  : DENSITY CORRECTION [DCORED]
DENWS   .G/C3  : FORMATION BULK DENSITY [RHOBED SPL. TO DPHISSED CONVERTED TO LIMESTONE MATRIX, M=2.71, F=1.00 (ASSUMED) FROM 5892'-5905']
DPHILSED.V/V   : DENSITY POROSITY LIMESTONE [M=2.71, F=1.00 (ASSUMED)] FROM DENSITY LOG [ADJ. TO RESISTIVITY LOG]
DPHISSED.V/V   : DENSITY POROSITY SANDSTONE [M=2.65, F=1.00 (ASSUMED)] FROM DENSITY LOG [ADJ. TO RESISTIVITY LOG]
DPOLSWS .V/V   : DENSITY POROSITY LIMESTONE [CALC. FROM DENWS, M=2.71, F=1.00 (ASSUMED)]
DRESWS  .OHMM  : DEEP RESISTIVITY [LLDED]
DTED    .US/F  : DELTA TIME FROM SONIC LOG [ADJ. TO RESISTIVITY LOG]
DTWS    .US/F  : COMPRESSIONAL SONIC [DTED]
GRDED   .GAPI  : GAMMA RAY FROM DENSITY LOG [ADJ. TO RESISTIVITY LOG]
GRSED   .GAPI  : GAMMA RAY FROM SONIC LOG [ADJ. TO RESISTIVITY LOG]
GRWS    .GAPI  : GAMMA RAY [GRSED]
LLDED   .OHMM  : DEEP LATEROLOG RESISTIVITY FROM RESISTIVITY LOG
LLSED   .OHMM  : SHALLOW LATEROLOG RESISTIVITY LOG
NPHILSED.V/V   : NEUTRON POROSITY LIMESTONE FROM DENSITY LOG [ADJ. TO RESISTIVITY LOG]
NPHISSED.V/V   : NEUTRON POROSITY SANDSTONE FROM DENSITY LOG [ADJ. TO RESISTIVITY LOG]
NPOLSWS .V/V   : NEUTRON POROSITY LIMESTONE [NPHISSED MATRIX (SCHLUMBERGER) CONVERSION FOR LIMESTONE, SPL.TO NPHILSED @ 7149']
RHOBED  .G/C3  : BULK DENSITY FROM DENSITY LOG [ADJ. TO RESISTIVITY LOG]
SPRED   .MV    : SPONTANEOUS POTENTIAL FROM RESISTIVITY LOG
SPWS    .MV    : SPONTANEOUS POTENTIAL [BASELINE 0 MV, SPRED*-1]
SRESWS  .OHMM  : SHALLOW RESISTIVITY [LLSED]
~Params ----------------------------------------------------
PD  .                     GL : PERMANENT DATUM
EPD .FT                 2650 : ELEVATION PERMANENT DATUM
LMF .                     KB : LOG MEASURED FROM
DAPD.FT                   16 : FEET ABOVE PERMANENT DATUM
EKB .FT                 2666 : KELLY BUSHING
EGL .FT                 2650 : GROUND LEVEL
DATE.               09/04/76 : RUN DATE
RUN .                      2 : RUN NUMBER
DD  .FT                10450 : DEPTH DRILLER
DL  .FT                10450 : DEPTH LOGGER
BLI .FT                10448 : BOTTOM LOG INTERVAL
TLI .FT                 8400 : TOP LOG INTERVAL
CBD .FT                 1105 : CASING BOTTOM DRILLER
BS  .IN                 8.75 : BIT SIZE
BSD .FT                10450 : BIT SIZE AT DEPTH
DFT .               GEL CHEM : DRILLING FLUID TYPE
DFD .                    9.6 : DRILLING FLUID DENSITY
DFV .                     82 : DRILLING FLUID VISCOSITY
DFPH.                     11 : DRILLING FLUID PH
DFL .                     15 : DRILLING FLUID LOSS
RMS .OHMM               0.28 : RESISTIVITY MUD SAMPLE
MST .DEGF                 62 : MUD SAMPLE TEMPERATURE
RMF .OHMM               0.23 : RESISTIVITY MUD FILTRATE SAMPLE
MFST.DEGF                 62 : MUD FILTRATE SAMPLE TEMPERATURE
RMB .OHMM               0.11 : RESISTIVITY MUD AT BHT
TCS .HRS                   1 : TIME CIRCULATED STOPPED
LUN .                   7730 : LOGGING UNIT NUMBER
LUL .                    EDM : LOGGING UNIT LOCATION
ENGI.         PIMM MACDONALD : RECORDING ENGINEER
WITN.                 TAYLOR : WITNESSED BY
CLNT.                A2DTECH : CLIENT CODE
ORIG.               5" PRINT : ORIGIN OF DATA
UWI .       100060505514W500 : UNIQUE WELL ID
DICO. A2D Technologies, Inc. : DIGITIZING COMPANY
~Other -----------------------------------------------------
DLL-CNFD-BHC TOOLS RUN
~ASCII -----------------------------------------------------
# ...
 7050.00000    9.36160    9.31950    9.51240    9.51240    2.59980    0.07550    0.07550    2.59370    -999.25    0.03160    0.06800  384.63870   56.06460   56.06460   27.84160   28.85870   28.85870  384.63870  278.84630    -999.25    0.05000    0.01600    2.59370  -24.51900  -53.51710  278.84630
 7100.00000    9.33450    9.26820    9.43090    9.43090    1.00690    0.07300    0.07300    2.68390    -999.25   -0.01900    0.01530  993.13670   56.60850   56.60850   43.85020   43.85330   43.85330  993.13670  529.94790    -999.25    0.06360    0.02680    2.68390  -28.75100  -58.28960  529.94790
 7150.00000   12.13910    9.31730   10.15070   10.15070   64.26240    0.24390    0.24390    2.49560    -999.25    0.10450    0.12540   15.56120   57.72760   57.72760   48.29670   54.86000   54.86000   15.56120   12.65940    0.13510    -999.25    0.12760    2.49560  -21.74200  -51.82120   12.65940
 7200.00000   12.17400    9.50320   10.29420   10.29420    0.50000    0.08620    0.08620    2.65570    0.03240    -999.25    0.03170 2000.00000   50.95440   50.95440   29.41990   37.01020   37.01020 2000.00000  341.70770    0.00080    -999.25    0.00080    2.65570  -14.51250  -45.13230  341.70770
 7250.00000   11.03260    8.84120    9.93200    9.93200    5.01760    0.02390    0.02390    2.04300    0.30000    -999.25    0.39010  199.29680   52.75570   52.75570   25.92980   29.18630   29.18630  199.29680  186.26400    0.09620    -999.25    0.09620    2.04300  -25.43090  -56.59140  186.26400
 7300.00000    9.64970    9.37860    9.68560    9.68560   31.77760    0.05620    0.05620    2.72760   -0.02620    -999.25   -0.01030   31.46870   58.20980   58.20980  108.53460  113.47250  113.47250   31.46870   33.87160    0.07970    -999.25    0.07970    2.72760  -21.08700  -52.78800   33.87160
 7350.00000    9.45580    9.67130    9.73780    9.73780   97.54000    0.02740    0.02740    2.69240    0.00690    -999.25    0.01030   10.25220   58.81520   58.81520   80.62880   79.69450   79.69450   10.25220   11.40800    0.16270    -999.25    0.16270    2.69240  -21.68590  -53.92760   11.40800
 7400.00000    9.74520    9.49060    9.93000    9.93000   51.38930    0.06200    0.06200    2.69610    0.00460    -999.25    0.00820   19.45930   57.15900   57.15900   77.55520   82.10460   82.10460   19.45930   20.91930    0.10790    -999.25    0.10790    2.69610  -21.60900  -54.39120   20.91930
 7450.00000    9.80040    9.65090    9.87090    9.87090   37.05050   -0.00150   -0.00150    2.69060    0.00810    -999.25    0.01130   26.99020   58.27640   58.27640   87.48830   93.02050   93.02050   26.99020   28.97480    0.07470    -999.25    0.07470    2.69060  -24.11500  -57.43770   28.97480
 7500.00000   11.36480    9.55420   10.06040   10.06040   27.75570    0.23690    0.23690    2.41640    0.15890    -999.25    0.17170   36.02860   59.12300   59.12300   34.47880   40.07970   40.07970   36.02860   45.15510    0.05590    -999.25    0.05590    2.41640  -25.48090  -59.34430   45.15510
 7550.00000    9.31820    9.40500    9.50280    9.50280    7.26580    0.02890    0.02890    2.72040   -0.00910    -999.25   -0.00610  137.63190   52.85230   52.85230   46.85980   53.68510   53.68510  137.63190  151.63280    0.01880    -999.25    0.01880    2.72040  -26.58900  -60.99290  151.63280
 7600.00000    9.37020    9.50100    9.69770    9.69770   13.10900    0.02310    0.02310    2.69380    0.00730    -999.25    0.00950   76.28370   55.37370   55.37370   46.42160   50.65430   50.65430   76.28370   78.84680    0.03950    -999.25    0.03950    2.69380  -21.57000  -56.51450   78.84680
 7650.00000    9.53980    9.66900    9.77280    9.77280   24.11780    0.02090    0.02090    2.68300    0.01530    -999.25    0.01580   41.46310   56.68630   56.68630   58.57470   60.97530   60.97530   41.46310   43.11930    0.05400    -999.25    0.05400    2.68300  -18.15000  -53.63510   43.11930
 7700.00000    9.57430    9.68900    9.82980    9.82980   44.92040    0.06600    0.06600    2.74460   -0.02780    -999.25   -0.02020   22.26160   59.20790   59.20790   56.67360   57.84720   57.84720   22.26160   23.52540    0.06200    -999.25    0.06200    2.74460   -8.41400  -44.43970   23.52540
 7750.00000    9.20760    9.28800    9.44790    9.44790   13.61780    0.03320    0.03320    2.72120   -0.01250    -999.25   -0.00650   73.43310   54.63140   54.63140   54.04180   61.57370   61.57370   73.43310   82.69540    0.02880    -999.25    0.02880    2.72120  -15.12300  -51.68920   82.69540
 7800.00000   10.05090    9.36010    9.55050    9.55050    1.71700    0.23910    0.23910    2.61590    0.05620    -999.25    0.05500  582.40610   53.79170   53.79170   30.78950   27.29760   27.29760  582.40610  306.19640    0.01100    -999.25    0.01100    2.61590  -14.29800  -51.40480  306.19640
 7850.00000    9.59890    9.13580    9.54870    9.54870    2.77440    0.01530    0.01530    2.71360   -0.00940    -999.25   -0.00210  360.44060   52.27540   52.27540   44.69830   49.88320   49.88320  360.44060  281.60220    0.00660    -999.25    0.00660    2.71360  -12.03590  -49.68340  281.60220
 7900.00000   11.37070    9.02190    9.90330    9.90330    0.50000    0.25330    0.25330    2.55910    0.08490    -999.25    0.08820 2000.00000   48.93700   48.93700   22.11020   27.09550   27.09550 2000.00000  757.67340    0.00000    -999.25    0.00000    2.55910  -22.41500  -60.60300  757.67340
 7950.00000   11.03800    8.91290    9.89950    9.89950    3.68970    0.23630    0.23630    2.54960    0.10220    -999.25    0.09380  271.02590   50.79560   50.79560   20.73560   19.56050   19.56050  271.02590  180.05830    0.00920    -999.25    0.00920    2.54960  -12.41650  -51.14510  180.05830
 8000.00000   11.37930    8.77970    9.88040    9.88040    3.04700    0.24650    0.24650    2.55970    0.08360    -999.25    0.08790  328.19200   48.96040   48.96040   19.03760   19.14300   19.14300  328.19200  216.33390    0.00180    -999.25    0.00180    2.55970  -10.67200  -49.94120  216.33390
 8050.00000   10.79260    9.00550    9.90750    9.90750    4.35090    0.24920    0.24920    2.51960    0.11480    -999.25    0.11130  229.83960   49.55060   49.55060   19.43190   23.42590   23.42590  229.83960  187.45260    0.00200    -999.25    0.00200    2.51960   -2.35700  -42.16670  187.45260
 8100.00000   14.41790    8.48800   10.42110   10.42110    0.50000    0.18320    0.18320    2.30550    0.21830    -999.25    0.23650 2000.00000   51.69400   51.69400   32.85770   35.80830   35.80830 2000.00000  304.76440    0.04460    -999.25    0.04460    2.30550  -13.77700  -54.12730  304.76440
 8150.00000   12.83240    8.97700    9.89340    9.89340    5.50520    0.19370    0.19370    2.47280    0.14100    -999.25    0.13870  181.64580   50.13870   50.13870   16.91430   21.04230   21.04230  181.64580  133.67500    0.00470    -999.25    0.00470    2.47280   -6.55290  -47.44390  133.67500
 8200.00000    9.73460    9.00630    9.49250    9.49250    7.56440    0.15720    0.15720    2.66170    0.02490    -999.25    0.02820  132.19860   48.99360   48.99360   15.30700   18.12880   18.12880  132.19860  119.39240    0.00420    -999.25    0.00420    2.66170  -10.24290  -51.67450  119.39240
 8250.00000   11.47210    8.95090    9.77160    9.77160    5.04670    0.25560    0.25560    2.51000    0.11060    -999.25    0.11700  198.14980   50.48010   50.48010   20.26660   27.91970   27.91970  198.14980  159.46520    0.00470    -999.25    0.00470    2.51000   -6.31000  -48.28210  159.46520
 8300.00000    7.66630    8.64870    9.01130    9.01130   15.68650    0.09180    0.09180    2.49740    0.12870    -999.25    0.12430   63.74910   52.27370   52.27370   21.30740   29.03780   29.03780   63.74910   60.28620    0.04940    -999.25    0.04940    2.49740   -6.85200  -49.36470   60.28620
 8350.00000   12.33880    9.11240   10.13350   10.13350    1.53310    0.19010    0.19010    2.34480    0.24370    -999.25    0.21360  652.25310   49.58360   49.58360   22.98250   33.39860   33.39860  652.25310  362.10100    0.00610    -999.25    0.00610    2.34480   -4.35900  -47.41230  362.10100
