~Version ---------------------------------------------------
VERS.      2.0 : CWLS log ASCII Standard -VERSION 2.0
WRAP.       NO : One line per depth step
CREA. 12/15/17 : LAS Creation Date
~Well ------------------------------------------------------
STRT.FT                  1000.0 : START DEPTH
STOP.FT                  9550.0 : STOP DEPTH
STEP.FT                50.00000 : STEP LENGTH
NULL.                   -999.25 : NULL VALUE
COMP.      THE PURE OIL COMPANY : COMPANY
WELL. PURE SAKWATAMAU 7-7-63-14 : WELL
FLD .                           : FIELD
LOC .                           : LOCATION
CTRY.                    CANADA : COUNTRY
SRVC.              Schlumberger : SERVICE COMPANY
DATE.               26-Dec-1963 : LOGDATE
PROV.                   Alberta : PROVINCE
UWI .          100070706314W500 : UNIQUE WELL ID
SLAT.WGS84              54.4354 : SURFACE LATITUDE
SLON.WGS84            -116.1027 : SURFACE LONGITUDE
~Curve Information -----------------------------------------
DEPT  .FT    : Depth Curve
CALDED.IN    : CALIPER FROM DENSITY LOG
CALWS .IN    : CALIPER [MCALED]
CILDED.MMHO  : CONDUCTIVITY FROM RESISTIVITY LOG
CONDWS.MMHO  : CONDUCTIVITY [1000/DRESWS]
DENED .SCPS  : BULK DENSITY FROM DENSITY LOG
DRESWS.OHMM  : DEEP RESISTIVITY [1000/CILDED IF ILDED<2, ILDED]
DT1ED .US/F  : DELTA TIME [BOTTOM SECTION] SPAN 1 FT [ADJ. TO DTED]
DTED  .US/F  : DELTA TIME 3 FT SPACING 3 FT PICKUP SPAN FROM SONIC LOG
DTWS  .US/F  : COMPRESSIONAL SONIC [DTED]
GRSED .GAPI  : GAMMA RAY FROM SONIC LOG
GRWS  .GAPI  : GAMMA RAY [GRSED]
ILDED .OHMM  : DEEP INDUCTION FROM RESISTIVITY LOG
MCALED.IN    : CALIPER FROM MICROLOG [ADJ. TO RESISTIVITY LOG]
SNED  .OHMM  : 16 INCH SHORT NORMAL RESISTIVITY FROM RESISTIVITY LOG
SPRED .MV    : SPONTANEOUS POTENTIAL FROM RESISTIVITY LOG
SPWS  .MV    : SPONTANEOUS POTENTIAL [BASELINE 0 MV, SPRED]
SRESWS.OHMM  : SHALLOW RESISTIVITY [SNED]
~Params ----------------------------------------------------
PD  .                     GL : PERMANENT DATUM
EPD .FT                  329 : ELEVATION PERMANENT DATUM
LMF .                     KB : LOG MEASURED FROM
DAPD.FT                   15 : FEET ABOVE PERMANENT DATUM
EKB .FT                 3044 : KELLY BUSHING
EGL .FT                 3029 : GROUND LEVEL
DATE.               12/26/63 : RUN DATE
RUN .                      1 : RUN NUMBER
DD  .FT                 9580 : DEPTH DRILLER
DL  .FT                 9563 : DEPTH LOGGER
BLI .FT                 9562 : BOTTOM LOG INTERVAL
TLI .FT                  994 : TOP LOG INTERVAL
CBD .FT                  994 : CASING BOTTOM DRILLER
CBL .FT                  994 : CASING BOTTOM LOGGER
BS  .IN                    9 : BIT SIZE
BSD .FT                 9580 : BIT SIZE AT DEPTH
DFT .               GEL CHEM : DRILLING FLUID TYPE
DFD .                    9.8 : DRILLING FLUID DENSITY
DFV .                    205 : DRILLING FLUID VISCOSITY
DFPH.                    9.5 : DRILLING FLUID PH
DFL .                    3.8 : DRILLING FLUID LOSS
RMS .OHMM               1.37 : RESISTIVITY MUD SAMPLE
MST .DEGF                 79 : MUD SAMPLE TEMPERATURE
RMF .OHMM               0.95 : RESISTIVITY MUD FILTRATE SAMPLE
MFST.DEGF                 73 : MUD FILTRATE SAMPLE TEMPERATURE
RMC .OHMM               1.63 : RESISTIVITY MUD CAKE
MCST.DEGF                 77 : MUD CAKE SAMPLE TEMPERATURE
RMB .OHMM               0.67 : RESISTIVITY MUD AT BHT
TCS .HRS                 2.5 : TIME CIRCULATED STOPPED
LUN .                   3704 : LOGGING UNIT NUMBER
LUL .                     VV : LOGGING UNIT LOCATION
ENGI.                  MILLS : RECORDING ENGINEER
WITN.                  SMITH : WITNESSED BY
CLNT.                A2DTECH : CLIENT CODE
ORIG.            2" 5" PRINT : ORIGIN OF DATA
UWI .       100070706314W500 : UNIQUE WELL ID
DICO. A2D Technologies, Inc. : DIGITIZING COMPANY
~Other -----------------------------------------------------
~ASCII -----------------------------------------------------
# ...
 7150.00000    -999.25    8.68170  106.17440   98.17780    -999.25   10.18560    -999.25   56.15310   56.15310   14.31690   14.31690   10.18560    8.68170   77.08840 -208.34920 -157.63200   77.08840
 7200.00000    -999.25    9.10050   18.75060   16.62320    -999.25   60.15680    -999.25   50.81340   50.81340   13.40780   13.40780   60.15680    9.10050  124.07190 -165.28850 -115.05120  124.07190
 7250.00000    -999.25    9.19460   20.32410   18.39640    -999.25   54.35850    -999.25   50.65200   50.65200   16.82350   16.82350   54.35850    9.19460  120.55500 -171.16330 -121.40590  120.55500
 7300.00000    -999.25    9.28880    3.50680    3.99200    -999.25  250.54570    -999.25   49.59430   49.59430   19.45760   19.45760  250.54570    9.28880  129.60250 -142.18700  -92.90700  129.60250
 7350.00000    -999.25    9.35320   10.20160    9.61430    -999.25  104.01150    -999.25   50.06290   50.06290   16.93250   16.93250  104.01150    9.35320  142.02910 -138.38350  -89.58590  142.02910
 7400.00000    -999.25    8.94400   21.35800   19.30590    -999.25   51.79770    -999.25   52.10690   52.10690   15.34370   15.34370   51.79770    8.94400  133.31050 -188.15470 -139.83700  133.31050
 7450.00000    -999.25    9.09610   15.15260   11.59710    -999.25   86.22820    -999.25   50.82230   50.82230   15.43750   15.43750   86.22820    9.09610  130.86110 -176.76510 -128.92730  130.86110
 7500.00000    -999.25    8.50340   71.71380   69.67620    -999.25   14.35210    -999.25   54.91910   54.91910   13.58600   13.58600   14.35210    8.50340   98.86200 -193.00370 -145.64580   98.86200
 7550.00000    -999.25    9.26230    2.85120    2.42340    -999.25  413.67740    -999.25   48.81190   48.81190   21.69840   21.69840  413.67740    9.26230  133.50680 -125.71130  -78.83090  133.50680
 7600.00000    -999.25    9.27070   75.75390   78.24660    -999.25   12.78010    -999.25   61.06670   61.06670   78.18530   78.18530   12.78010    9.27070   16.14030  -69.05050  -22.65240   16.14030
 7650.00000    -999.25    9.44640    5.98940    6.04870    -999.25  165.32550    -999.25   48.64260   48.64260   25.43010   25.43010  165.32550    9.44640  130.42030 -133.83100  -87.91290  130.42030
 7700.00000    -999.25    9.78300    7.01870    7.12820    -999.25  140.28780    -999.25   48.60800   48.60800   20.88700   20.88700  140.28780    9.78300  106.10990 -118.34560  -72.90740  106.10990
 7750.00000    -999.25    9.17620   80.92780   80.26780    -999.25   12.45830    -999.25   55.16840   55.16840   31.21830   31.21830   12.45830    9.17620   21.74750 -101.58270  -56.62440   21.74750
 7800.00000    -999.25    9.36820   11.93320   10.35400    -999.25   96.58300    -999.25   51.41910   51.41910   28.90700   28.90700   96.58300    9.36820   84.11450  -57.33940  -12.85860   84.11450
 7850.00000    -999.25    9.42640    7.41380    5.63170    -999.25  177.56720    -999.25   52.12730   52.12730   32.02910   32.02910  177.56720    9.42640  115.60340  -48.91530   -4.91680  115.60340
 7900.00000    -999.25    9.34820   21.66820   20.31100    -999.25   49.23430    -999.25   55.51910   55.51910   35.65120   35.65120   49.23430    9.34820   50.21500  -48.43160   -4.91300   50.21500
 7950.00000    -999.25    9.08660   24.23890   23.43330    -999.25   42.67440    -999.25   55.45880   55.45880   47.52860   47.52860   42.67440    9.08660   45.20240  -55.66830  -12.62960   45.20240
 8000.00000    -999.25    9.33350   34.75540   33.75680    -999.25   29.62370    -999.25   57.23200   57.23200   53.56510   53.56510   29.62370    9.33350   33.50070  -47.65110   -5.09230   33.50070
 8050.00000    -999.25    9.51410   55.60300   56.71300    -999.25   17.63530    -999.25   60.31750   60.31750   57.56750   57.56750   17.63530    9.51410   22.16530  -45.27100   -3.18970   22.16530
 8100.00000    -999.25    9.21790   49.45750   49.13740    -999.25   20.35110    -999.25   58.42180   58.42180   45.62420   45.62420   20.35110    9.21790   25.10220  -45.19820   -3.59920   25.10220
 8150.00000    -999.25    9.22620   35.54090   35.47240    -999.25   28.19090    -999.25   56.70260   56.70260   33.96980   33.96980   28.19090    9.22620   35.39830  -44.90400   -3.78490   35.39830
 8200.00000    -999.25    9.22740   78.34390   74.05710    -999.25   13.50310    -999.25   62.93350   62.93350   65.21660   65.21660   13.50310    9.22740   17.69790  -43.98110   -3.34190   17.69790
 8250.00000    -999.25    9.32860  189.99130  182.88560    -999.25    5.46790    -999.25   84.13650   84.13650   71.39260   71.39260    5.46790    9.32860    8.14100  -57.78360  -17.62440    8.14100
 8300.00000    -999.25    9.68840  142.04030  138.62320    -999.25    7.21380    -999.25   74.83170   74.83170   85.89020   85.89020    7.21380    9.68840   11.18310  -44.06130   -4.37960   11.18310
 8350.00000    -999.25    9.60020   73.43900   72.89000    -999.25   13.71930    -999.25   67.36960   67.36960   54.32380   54.32380   13.71930    9.60020   19.20790  -41.51790   -2.31850   19.20790
 8400.00000    -999.25   11.32570  137.45390  136.27320    -999.25    7.33820    -999.25   74.03310   74.03310   62.79310   62.79310    7.33820   11.32570   10.52350  -47.94700   -9.22750   10.52350
 8450.00000    -999.25   15.47640  177.78290  171.11270    -999.25    5.84410    -999.25   84.28410   84.28410   74.81300   74.81300    5.84410   15.47640    7.55530  -52.90930  -14.66970    7.55530
 8500.00000    -999.25    9.68870   66.78310   67.37230    -999.25   14.84290    -999.25   62.63690   62.63690   59.95370   59.95370   14.84290    9.68870   19.25840  -42.03910   -4.27940   19.25840
 8550.00000    -999.25   10.00690  115.00020  110.98880    -999.25    9.01070    -999.25   69.60590   69.60590   80.55340   80.55340    9.01070   10.00690   12.26280  -45.65930   -8.37710   12.26280
 8600.00000    -999.25    9.83640   88.49670   87.46690    -999.25   11.43290    -999.25   67.19090   67.19090   72.84750   72.84750   11.43290    9.83640   15.47620  -42.47420   -4.90170   15.47620
 8650.00000    -999.25    9.39370   70.87750   70.69540    -999.25   14.14520    -999.25   63.09040   63.09040   63.09800   63.09800   14.14520    9.39370   18.86950  -44.48040   -6.61510   18.86950
 8700.00000    -999.25   15.14550  161.57450  156.40890    -999.25    6.39350    -999.25   78.28890   78.28890   84.16310   84.16310    6.39350   15.14550    8.40090  -65.31370  -27.15570    8.40090
 8750.00000    -999.25   14.25190  142.79180  139.33590    -999.25    7.17690    -999.25   81.15100   81.15100   72.74410   72.74410    7.17690   14.25190    9.29230  -64.69280  -26.24200    9.29230
 8800.00000    -999.25   12.63140  137.47440  135.45150    -999.25    7.38330    -999.25   77.72250   77.72250   84.80200   84.80200    7.38330   12.63140   10.69850  -55.38640  -16.64430   10.69850
 8850.00000   12.80160   12.14840   63.70780   63.69430  597.87880   15.70000    -999.25   81.70140   81.70140   80.93060   80.93060   15.70000   12.14840   19.59660  -61.98170  -22.94540   19.59660
 8900.00000   14.05350   15.36420   50.12140   51.62680 1348.92240   19.36980    -999.25   76.30800   76.30800   86.89240   86.89240   19.36980   15.36420   13.07080  -69.80920  -30.48020   13.07080
 8950.00000    9.51950    9.17750    3.73800    4.64330  386.17510  215.36430    -999.25   77.14620   77.14620   99.57090   99.57090  215.36430    9.17750  178.73690  -43.56330   -3.94150  178.73690
 9000.00000    9.53150    9.23350   34.29490   34.04230  320.01890   29.37520    -999.25   60.99390   60.99390   56.09580   56.09580   29.37520    9.23350   35.97030  -51.41260  -11.49810   35.97030
 9050.00000    9.64800    9.30360   65.31230   65.29680  640.69400   15.31490    -999.25   86.37220   86.37220  112.81980  112.81980   15.31490    9.30360   30.11350  -51.93580  -11.73000   30.11350
 9100.00000    9.84890    9.64600   52.75030   52.42220  495.05550   19.07590   76.69500   73.81140   73.81140   89.28400   89.28400   19.07590    9.64600   29.14910  -51.34170  -10.84170   29.14910
 9150.00000    9.55630    9.10090    9.79700    9.54100  374.53010  104.81050   63.40890   61.01270   61.01270   57.83240   57.83240  104.81050    9.10090   90.68920  -42.72600   -1.93320   90.68920
