~Version ---------------------------------------------------
VERS.      2.0 : CWLS log ASCII Standard -VERSION 2.0
WRAP.       NO : One line per depth step
CREA. 11/17/17 : LAS Creation Date
~Well ------------------------------------------------------
STRT.FT                  950.0 : START DEPTH
STOP.FT                 9500.0 : STOP DEPTH
STEP.FT               50.00000 : STEP LENGTH
NULL.                  -999.25 : NULL VALUE
COMP.    CANADIAN FINA OIL LTD : COMPANY
WELL. FINA GOOSE R 11-16-68-19 : WELL
FLD .                          : FIELD
LOC .                          : LOCATION
CTRY.                   CANADA : COUNTRY
SRVC.                  Unknown : SERVICE COMPANY
DATE.              04-Mar-1970 : LOGDATE
PROV.                  Alberta : PROVINCE
UWI .         100111606819W500 : UNIQUE WELL ID
SLAT.WGS84            54.88958 : SURFACE LATITUDE
SLON.WGS84           -116.8394 : SURFACE LONGITUDE
~Curve Information -----------------------------------------
DEPT   .FT    : Depth Curve
CALDED .IN    : CALIPER FROM DENSITY LOG
CALSED .IN    : CALIPER FROM SONIC LOG
CALWS  .IN    : CALIPER [SPIL. CALSED TO CALDED @ 5005']
CONDWS .MMHO  : CONDUCTIVITY [1000/DRESWS]
DCORWS .G/C3  : DENSITY CORRECTION [DRHOED]
DENWS  .G/C3  : FORMATION BULK DENSITY [RHOBED]
DPOLSWS.V/V   : DENSITY POROSITY LIMESTONE [CALC. FROM DENWS, M=2.71, F=1.00]
DRESWS .OHMM  : DEEP RESISTIVITY [ILDED]
DRHOED .G/C3  : DENSITY CORRECTION FROM DENSITY LOG
DTED   .US/F  : DELTA TIME FROM SONIC LOG
DTWS   .US/F  : COMPRESSIONAL SONIC [DTED]
GRDED  .GAPI  : GAMMA RAY FROM DENSITY LOG
GRWS   .GAPI  : GAMMA RAY [GRDED]
ILDED  .OHMM  : DEEP  INDUCTION RESISTIVITY FROM RESISTIVITY LOG
ILMED  .OHMM  : MEDIUM INDUCTION RESISTIVITY FROM RESISTIVITY LOG
LL8ED  .OHMM  : 8 INCH LATEROLOG RESISTIVITY FROM RESISTIVITY LOG
MRESWS .OHMM  : MEDIUM RESISTIVITY [ILMED]
RHOBED .G/C3  : BULK DENSITY FROM DENSITY LOG
SPRED  .MV    : SPONTANEOUS POTENTIAL FROM RESISTIVITY LOG
SPWS   .MV    : SPONTANEOUS POTENTIAL [BASELINE 0 MV, SPRED]
SRESWS .OHMM  : SHALLOW RESISTIVITY [LL8ED]
~Params ----------------------------------------------------
PD  .                     GL : PERMANENT DATUM
EPD .FT                 2553 : ELEVATION PERMANENT DATUM
LMF .                     KB : LOG MEASURED FROM
DAPD.FT                   13 : FEET ABOVE PERMANENT DATUM
EKB .FT                 2566 : KELLY BUSHING
EGL .FT                 2553 : GROUND LEVEL
DATE.               03/04/70 : RUN DATE
RUN .                      1 : RUN NUMBER
DD  .FT                 9523 : DEPTH DRILLER
DL  .FT                 9520 : DEPTH LOGGER
BLI .FT                 9514 : BOTTOM LOG INTERVAL
TLI .FT                  972 : TOP LOG INTERVAL
CBD .FT                  972 : CASING BOTTOM DRILLER
CBL .FT                  972 : CASING BOTTOM LOGGER
BS  .IN                7.875 : BIT SIZE
BSD .FT                 9523 : BIT SIZE AT DEPTH
DFT .               GEL CHEM : DRILLING FLUID TYPE
DFD .                    9.3 : DRILLING FLUID DENSITY
DFV .                    100 : DRILLING FLUID VISCOSITY
DFPH.                    9.5 : DRILLING FLUID PH
DFL .                    6.4 : DRILLING FLUID LOSS
RMS .OHMM               1.46 : RESISTIVITY MUD SAMPLE
MST .DEGF                 82 : MUD SAMPLE TEMPERATURE
RMF .OHMM               1.39 : RESISTIVITY MUD FILTRATE SAMPLE
MFST.DEGF                 65 : MUD FILTRATE SAMPLE TEMPERATURE
RMB .OHMM               0.59 : RESISTIVITY MUD AT BHT
TCS .HRS                   3 : TIME CIRCULATED STOPPED
LUN .                   7003 : LOGGING UNIT NUMBER
LUL .                     RD : LOGGING UNIT LOCATION
ENGI.               ROBINSON : RECORDING ENGINEER
WITN.               MCINTYRE : WITNESSED BY
CLNT.                A2DTECH : CLIENT CODE
ORIG.            2" 5" PRINT : ORIGIN OF DATA
UWI .       100111606819W500 : UNIQUE WELL ID
DICO. A2D Technologies, Inc. : DIGITIZING COMPANY
~Other -----------------------------------------------------
~ASCII -----------------------------------------------------
# ...
 4250.00000    -999.25    8.69710    8.69710  150.91380    -999.25    -999.25    -999.25    6.62630    -999.25   78.04330   78.04330   60.70540   60.70540    6.62630    7.87440   12.71960    7.87440    -999.25   14.59540  -18.95940   12.71960
 4300.00000    -999.25    8.67420    8.67420   81.34070    -999.25    -999.25    -999.25   12.29900    -999.25   79.06590   79.06590   42.18500   42.18500   12.29900   14.94310   36.00300   14.94310    -999.25   16.17050  -17.70150   36.00300
 4350.00000    -999.25   10.00530   10.00530  141.34080    -999.25    -999.25    -999.25    7.07510    -999.25   75.37290   75.37290   53.71930   53.71930    7.07510    6.71460    6.52920    6.71460    -999.25   29.78900   -4.40330    6.52920
 4400.00000    -999.25    8.81340    8.81340  146.46010    -999.25    -999.25    -999.25    6.82780    -999.25   81.87930   81.87930   56.98950   56.98950    6.82780    9.36110   19.25840    9.36110    -999.25   12.16380  -22.34720   19.25840
 4450.00000    -999.25   11.19320   11.19320  121.03460    -999.25    -999.25    -999.25    8.26210    -999.25   95.71640   95.71640   72.38110   72.38110    8.26210    6.96600   11.01750    6.96600    -999.25   19.10860  -15.72110   11.01750
 4500.00000    -999.25    9.05920    9.05920  169.77350    -999.25    -999.25    -999.25    5.89020    -999.25   83.59860   83.59860   51.69200   51.69200    5.89020    9.12720   17.13510    9.12720    -999.25  -34.92150  -70.06990   17.13510
 4550.00000    -999.25    9.56410    9.56410  176.38860    -999.25    -999.25    -999.25    5.66930    -999.25   83.85050   83.85050   75.00920   75.00920    5.66930    5.88960    6.67390    5.88960    -999.25   23.90200  -11.56360    6.67390
 4600.00000    -999.25    8.23790    8.23790  114.35630    -999.25    -999.25    -999.25    8.74460    -999.25   78.28250   78.28250   45.34370   45.34370    8.74460   12.83170   20.26700   12.83170    -999.25  -36.70670  -72.49250   20.26700
 4650.00000    -999.25    9.33900    9.33900  168.27930    -999.25    -999.25    -999.25    5.94250    -999.25   81.22180   81.22180   59.68910   59.68910    5.94250    5.72290    6.90730    5.72290    -999.25   24.98770  -11.11680    6.90730
 4700.00000    -999.25    9.67410    9.67410  171.08930    -999.25    -999.25    -999.25    5.84490    -999.25   83.99160   83.99160   83.73010   83.73010    5.84490    5.62940    6.55560    5.62940    -999.25   33.38530   -3.03790    6.55560
 4750.00000    -999.25    9.80940    9.80940  168.27930    -999.25    -999.25    -999.25    5.94250    -999.25   84.40190   84.40190   95.42030   95.42030    5.94250    5.73540    6.38250    5.73540    -999.25   31.63350   -5.10850    6.38250
 4800.00000    -999.25   11.19690   11.19690  226.27890    -999.25    -999.25    -999.25    4.42320    -999.25   92.61010   92.61010   91.42370   91.42370    4.42320    4.77880    6.23070    4.77880    -999.25   34.63450   -2.45330    6.23070
 4850.00000    -999.25    8.30490    8.30490  103.08320    -999.25    -999.25    -999.25    9.70090    -999.25   78.56790   78.56790   28.41210   28.41210    9.70090   13.51730   19.94140   13.51730    -999.25  -11.62150  -49.85510   19.94140
 4900.00000    -999.25    9.33360    9.33360   71.46990    -999.25    -999.25    -999.25   13.99190    -999.25   73.47320   73.47320   48.97960   48.97960   13.99190   16.08040   18.61220   16.08040    -999.25    7.01230  -32.36130   18.61220
 4950.00000    -999.25    9.37590    9.37590  100.07510    -999.25    -999.25    -999.25    9.99250    -999.25   75.27390   75.27390   73.29540   73.29540    9.99250   10.35800   12.71650   10.35800    -999.25   14.60890  -25.90470   12.71650
 5000.00000    -999.25   11.56350   11.56350  307.96710    -999.25    -999.25    -999.25    3.24710    -999.25  103.68230  103.68230   76.59510   76.59510    3.24710    3.09600    3.59470    3.09600    -999.25   37.61500   -4.03870    3.59470
 5050.00000   13.55550   11.78840   13.55550  347.86470    0.16310    1.88010    0.48540    2.87620    0.16310  110.00410  110.00410   75.04670   75.04670    2.87620    2.64790    3.47370    2.64790    1.88010   41.78770   -2.39730    3.47370
 5100.00000    8.96200    8.88580    8.96200   43.44390    0.02570    2.36040    0.20440   23.01820    0.02570  106.08180  106.08180  113.47710  113.47710   23.01820   23.75890   33.53370   23.75890    2.36040   45.01560   -2.28710   33.53370
 5150.00000    8.36130    8.39800    8.36130    5.15930   -0.00270    2.43350    0.16170  193.82470   -0.00270   74.04240   74.04240  118.55040  118.55040  193.82470  608.82470  830.34640  608.82470    2.43350   36.67980  -14.15320  830.34640
 5200.00000    8.32670    8.44420    8.32670   43.05130   -0.02400    2.24760    0.27040   23.22810   -0.02400  114.16430  114.16430  164.19010  164.19010   23.22810   31.26220   94.32820   31.26220    2.24760   55.18200   -2.23020   94.32820
 5250.00000    8.44440    8.74500    8.44440  232.59060    0.02230    2.44950    0.15230    4.29940    0.02230   76.25050   76.25050   54.04550   54.04550    4.29940    7.22230   22.62250    7.22230    2.44950   14.89480  -47.21660   22.62250
 5300.00000    9.13930    9.00070    9.13930  309.97900    0.02040    2.51220    0.11570    3.22630    0.02040   71.10270   71.10270   63.36720   63.36720    3.22630    4.52250   13.03860    4.52250    2.51220   41.22590  -25.39850   13.03860
 5350.00000    8.22620    8.65210    8.22620  359.59580    0.06490    2.32520    0.22500    2.78090    0.06490   82.37620   82.37620   47.40720   47.40720    2.78090    4.98570   15.88360    4.98570    2.32520   10.47600  -56.63800   15.88360
 5400.00000    7.64090    8.20180    7.64090  450.51130    0.08240    2.26450    0.26050    2.21970    0.08240   88.29710   88.29710   14.45400   14.45400    2.21970    3.85450   10.94410    3.85450    2.26450  -47.29760 -110.29020   10.94410
 5450.00000    8.04250    8.24660    8.04250   73.40690    0.04660    2.60910    0.05900   13.62270    0.04660   56.56450   56.56450   19.84640   19.84640   13.62270   24.55450  103.28400   24.55450    2.60910  -59.78470 -118.65590  103.28400
 5500.00000    9.09210    8.69460    9.09210   80.17320    0.06990    2.70630    0.00220   12.47300    0.06990   61.64460   61.64460   55.01670   55.01670   12.47300   12.27580   14.85640   12.27580    2.70630   28.72390  -26.02590   14.85640
 5550.00000    8.34930    8.55220    8.34930   42.51580    0.08050    2.68960    0.01190   23.55690    0.08050   47.91270   47.91270   17.84550   17.84550   23.55690   50.43320  278.61430   50.43320    2.68960  -18.95000  -69.59900  278.61430
 5600.00000    8.69670    8.81210    8.69670   31.54800    0.03650    2.73750   -0.01610   31.69770    0.03650   52.39900   52.39900   25.13520   25.13520   31.69770   81.78970  279.63240   81.78970    2.73750  -22.05490  -68.56180  279.63240
 5650.00000    8.17400    8.77410    8.17400  145.01160    0.08720    2.47830    0.13550    6.89600    0.08720   68.02900   68.02900   24.99260   24.99260    6.89600   11.44320   27.89030   11.44320    2.47830 -101.78100 -144.16650   27.89030
 5700.00000    8.67250    8.77230    8.67250   71.38060    0.04500    2.62360    0.05050   14.00940    0.04500   63.46400   63.46400   68.12460   68.12460   14.00940   16.91260   37.04910   16.91260    2.62360  -98.63980 -136.90390   37.04910
 5750.00000    8.88840    8.87610    8.88840   33.13970    0.02060    2.70750    0.00150   30.17530    0.02060   57.40800   57.40800   49.13360   49.13360   30.17530   32.03780   49.06340   32.03780    2.70750  -72.28840 -106.43110   49.06340
 5800.00000    8.37850    8.57940    8.37850   24.89800    0.00600    2.63590    0.04330   40.24680    0.00600   54.85030   54.85030   17.75030   17.75030   40.24680   61.18150  204.17850   61.18150    2.63590 -122.36270 -152.40460  204.17850
 5850.00000    9.69350    9.60290    9.69350  346.94510    0.05320    2.65230    0.03370    2.88230    0.05320   68.00140   68.00140   39.49460   39.49460    2.88230    3.96760    9.91670    3.96760    2.65230 -111.51480 -137.41470    9.91670
