~Version ---------------------------------------------------
VERS.      2.0 : CWLS log ASCII Standard -VERSION 2.0
WRAP.       NO : One line per depth step
CREA. 07/17/14 : LAS Creation Date
~Well ------------------------------------------------------
STRT.M                              650.0 : START DEPTH
STOP.M                             3900.0 : STOP DEPTH
STEP.M                           50.00000 : STEP LENGTH
NULL.                             -999.25 : NULL VALUE
COMP. UNION OIL COMPANY OF CANADA LIMITED : COMPANY
WELL.     UNION ET AL WESTPEM 11-16-49-14 : WELL
FLD .                                     : FIELD
LOC .                                     : LOCATION
CTRY.                              CANADA : COUNTRY
SRVC.                             Unknown : SERVICE COMPANY
DATE.                         14-Apr-1979 : LOGDATE
PROV.                             Alberta : PROVINCE
UWI .                    100111604914W500 : UNIQUE WELL ID
SLAT.WGS84                       53.22947 : SURFACE LATITUDE
SLON.WGS84                      -115.9887 : SURFACE LONGITUDE
~Curve Information -----------------------------------------
DEPT    .M      : DEPTH METER
CALDED  .MM     : CALIPER FROM DENSITY LOG [ADJ. TO DLL-DISFL LOG]
CALSED  .MM     : CALIPER FROM SONIC LOG [ADJ. TO DLL-DISFL LOG]
CALWS   .MM     : CALIPER [CALSED SPL. TO CALDED @ 2731M -2738M & 3910.3 M]
CONDWS  .MMHO   : CONDUCTIVITY [1000/DRESWS]
DCORED  .KG/M3  : DENSITY CORRECTION FROM DENSITY LOG [ADJ. TO DLL-DISFL LOG]
DCORWS  .KG/M3  : DENSITY CORRECTION [DCORED]
DENWS   .KG/M3  : FORMATION BULK DENSITY [CALC. FROM DPOLSWS,M=2710,F=1000]
DPHILSED.V/V    : DENSITY POROSITY LIMESTONE [M=2710,F=1000] FROM DENSITY LOG [ADJ. TO DLL-DISFL LOG]
DPHISSED.V/V    : DENSITY POROSITY SANDSTONE [M=2650,F=1000] FROM DENSITY LOG [ADJ. TO DLL-DISFL LOG]
DPOLSWS .V/V    : DENSITY POROSITY LIMESTONE [DPHISSED CONVERTED TO LIMESTONE MATRIX SPL. TO DPHILSED @2831.6 M & SPL. TO CALC. FROM RHOBED M=2710,F=1000, AT SEVERAL INTERVAL ]
DRESWS  .OHMM   : DEEP RESISTIVITY [LLDED]
DTED    .US/M   : DELTA-T FROM SONIC LOG [ADJ. TO DLL-DISFL LOG]
DTWS    .US/M   : COMPRESSIONAL SONIC [DTED]
GRDED   .GAPI   : GAMMA RAY FROM DENSITY LOG [ADJ. TO DLL-DISFL LOG]
GRSED   .GAPI   : GAMMA RAY FROM SONIC LOG [ADJ. TO DLL-DISFL LOG]
GRWS    .GAPI   : GAMMA RAY [GRSED SP. TO GRDED @ 3902.7M] GRWS (+5 API) IN CSG. FROM 3270M - 3323M
ILDED   .OHMM   : DEEP INDUCTION RESISTIVITY FROM DISFL LOG
ILMED   .OHMM   : MEDIUM  INDUCTION RESISTIVITY FROM DISFL LOG
LLDED   .OHMM   : DEEP  LATEROLOG RESISTIVITY FROM DLL LOG [ADJ. TO DISFL LOG]
LLSED   .OHMM   : SHALLOW LATEROLOG  RESISTIVITY FROM DLL LOG [ADJ. TO DISFL LOG]
MRESWS  .OHMM   : MEDIUM RESISTIVITY [ILMED]
NPHILSED.V/V    : NEUTRON POROSITY LIMESTONE FROM DENSITY LOG [ADJ. TO DLL-DISFL LOG]
NPHISSED.V/V    : NEUTRON POROSITY SANDSTONE FROM DENSITY LOG [ADJ. TO DLL-DISFL LOG]
NPOLSWS .V/V    : NEUTRON POROSITY LIMESTONE [NPHISSED CONVERTED TO LIMESTONE MATRIX SPL. TO NPHILSED @2771.6 M USE SCHLUMBERGER (NPHI)]
RHOBED  .KG/M3  : BULK DENSITY FROM DENSITY LOG [ADJ. TO DLL-DISFL LOG]
SFLED   .OHMM   : SPHERICALLY FOCUSED RESISTIVITY FROM DISFL LOG
SPR1ED  .MV     : SPONTANEOUS POTENTIAL FROM DISFL LOG
SPRED   .MV     : SPONTANEOUS POTENTIAL FROM DLL LOG [ADJ. TO DISFL LOG]
SPWS    .MV     : SPONTANEOUS POTENTIAL [BASELINE 0 MV,(SPRED SPL. TO SPR1ED 3324.1M- 3347.1M & 3899.9M -BORROM)*-1]
SRESWS  .OHMM   : SHALLOW RESISTIVITY [LLSED SPL. TO SFLED @ 3895 M]
~Params ----------------------------------------------------
PD  .                         GL : PERMANENT DATUM
EPD .M                      1081 : ELEVATION PERMANENT DATUM
LMF .                         KB : LOG MEASURED FROM
DAPD.M                      9.75 : FEET ABOVE PERMANENT DATUM
DMF .                         KB : DRILLING MEASURED FROM
EKB .M                   1090.75 : KELLY BUSHING
EGL .M                      1081 : GROUND LEVEL
DATE.                   04/14/79 : RUN DATE
RUN .                          1 : RUN NUMBER
DD  .M                      3327 : DEPTH DRILLER
DL  .M                    3280.4 : DEPTH LOGGER
BLI .M                    3275.5 : BOTTOM LOG INTERVAL
TLI .M                     644.5 : TOP LOG INTERVAL
CS  .MM                      320 : CASING SIZE
CBD .M                       644 : CASING BOTTOM DRILLER
CBL .M                     644.5 : CASING BOTTOM LOGGER
BS  .MM                    311.2 : BIT SIZE
BSD .M                      3327 : BIT SIZE AT DEPTH
DFT .                        KCL : DRILLING FLUID TYPE
DFD .                       1265 : DRILLING FLUID DENSITY
DFV .                         59 : DRILLING FLUID VISCOSITY
DFPH.                       10.5 : DRILLING FLUID PH
DFL .                         18 : DRILLING FLUID LOSS
MSS .                       CIRC : MUD SAMPLE SOURCE
RMS .OHMM                 0.0927 : RESISTIVITY MUD SAMPLE
MST .DEGC                   16.6 : MUD SAMPLE TEMPERATURE
RMF .OHMM                 0.0137 : RESISTIVITY MUD FILTRATE SAMPLE
MFST.DEGC                   15.5 : MUD FILTRATE SAMPLE TEMPERATURE
MFSS.                      WATER : MUD FILTRATE SAMPLE SOURCE
MCSS.                       LOSS : MUD CAKE SAMPLE SOURCE
TCS .HRS                    1400 : TIME CIRCULATED STOPPED
TLAB.HRS                     100 : TIME LOGGER AT BOTTOM
LUN .                       7800 : LOGGING UNIT NUMBER
LUL .                        EDM : LOGGING UNIT LOCATION
ENGI.         WESOLOWSKY ROVELLI : RECORDING ENGINEER
WITN.                      MCRAF : WITNESSED BY
CLNT.                    A2DTECH : CLIENT CODE
ORIG. 6.5"/100M 16.5"/100M PRINT : ORIGIN OF DATA
UWI .           100111604914W500 : UNIQUE WELL ID
DICO.     A2D Technologies, Inc. : DIGITIZING COMPANY
~Other -----------------------------------------------------
DLL-DISFL-CNFD-BCS LOG RAN
RHOB,DCOR FROM TOP TO BOTTOM FROM SMALL SECTION
~ASCII -----------------------------------------------------
# ...
 1850.00000    -999.25  328.72420  328.72420   67.50830    -999.25    -999.25    -999.25    -999.25    -999.25    -999.25   14.81300  237.64900  237.64900    -999.25   89.88120   89.88120    -999.25    -999.25   14.81300   11.29040    -999.25    -999.25    -999.25    -999.25    -999.25    -999.25    -999.25    0.21990    5.85550   11.29040
 1900.00000    -999.25  321.05550  321.05550   78.45230    -999.25    -999.25    -999.25    -999.25    -999.25    -999.25   12.74660  258.65950  258.65950    -999.25  107.13000  107.13000    -999.25    -999.25   12.74660   10.46160    -999.25    -999.25    -999.25    -999.25    -999.25    -999.25    -999.25   -0.06350    4.83410   10.46160
 1950.00000    -999.25  321.61570  321.61570   69.23670    -999.25    -999.25    -999.25    -999.25    -999.25    -999.25   14.44320  257.12580  257.12580    -999.25  114.78060  114.78060    -999.25    -999.25   14.44320   13.04920    -999.25    -999.25    -999.25    -999.25    -999.25    -999.25    -999.25    1.17730    5.33690   13.04920
 2000.00000    -999.25  330.02740  330.02740  123.78540    -999.25    -999.25    -999.25    -999.25    -999.25    -999.25    8.07850  256.81480  256.81480    -999.25  109.95110  109.95110    -999.25    -999.25    8.07850    7.10160    -999.25    -999.25    -999.25    -999.25    -999.25    -999.25    -999.25    2.13230    5.55390    7.10160
 2050.00000    -999.25  316.31580  316.31580   68.44440    -999.25    -999.25    -999.25    -999.25    -999.25    -999.25   14.61040  215.64430  215.64430    -999.25   92.57080   92.57080    -999.25    -999.25   14.61040   11.34120    -999.25    -999.25    -999.25    -999.25    -999.25    -999.25    -999.25    3.43950    6.12300   11.34120
 2100.00000  385.90840  325.96610  325.96610  131.32670  152.19710  152.19710 2424.77500    -999.25    0.13650    0.16680    7.61460  263.54480  263.54480  106.52110  111.78620  111.78620    -999.25    -999.25    7.61460    6.63440    -999.25    -999.25    0.31530    0.27140 2410.60400    -999.25    -999.25    0.81290    2.75840    6.63440
 2150.00000  312.69170  305.50080  305.50080   55.08090   11.69820   11.69820 2585.98000    -999.25    0.03880    0.07250   18.15510  234.08110  234.08110   91.31200  101.51940  101.51940    -999.25    -999.25   18.15510   17.06280    -999.25    -999.25    0.22460    0.18090 2580.22680    -999.25    -999.25    3.22530    4.43280   17.06280
 2200.00000    -999.25  327.33240  327.33240   98.80740    -999.25    -999.25    -999.25    -999.25    -999.25    -999.25   10.12070  253.65750  253.65750    -999.25  116.80860  116.80860    -999.25    -999.25   10.12070    9.35710    -999.25    -999.25    -999.25    -999.25    -999.25    -999.25    -999.25    3.27150    3.78160    9.35710
 2250.00000    -999.25  314.50610  314.50610   91.41350    -999.25    -999.25    -999.25    -999.25    -999.25    -999.25   10.93930  270.54820  270.54820    -999.25  121.21500  121.21500    -999.25    -999.25   10.93930   10.56120    -999.25    -999.25    -999.25    -999.25    -999.25    -999.25    -999.25    5.49960    5.34740   10.56120
 2300.00000    -999.25  310.94480  310.94480   67.45680    -999.25    -999.25    -999.25    -999.25    -999.25    -999.25   14.82430  281.29150  281.29150    -999.25  123.42990  123.42990    -999.25    -999.25   14.82430   14.28440    -999.25    -999.25    -999.25    -999.25    -999.25    -999.25    -999.25    4.59830    3.78380   14.28440
 2350.00000    -999.25  314.93950  314.93950   57.71510    -999.25    -999.25    -999.25    -999.25    -999.25    -999.25   17.32650  266.92730  266.92730    -999.25  108.31490  108.31490    -999.25    -999.25   17.32650   15.99240    -999.25    -999.25    -999.25    -999.25    -999.25    -999.25    -999.25    5.51750    4.04070   15.99240
 2400.00000    -999.25  321.98160  321.98160  123.29540    -999.25    -999.25    -999.25    -999.25    -999.25    -999.25    8.11060  270.58580  270.58580    -999.25  112.58280  112.58280    -999.25    -999.25    8.11060    7.50500    -999.25    -999.25    -999.25    -999.25    -999.25    -999.25    -999.25    6.47660    4.33750    7.50500
 2450.00000    -999.25  309.65130  309.65130  123.30910    -999.25    -999.25    -999.25    -999.25    -999.25    -999.25    8.10970  265.78930  265.78930    -999.25  115.30060  115.30060    -999.25    -999.25    8.10970    7.81140    -999.25    -999.25    -999.25    -999.25    -999.25    -999.25    -999.25    6.21940   -3.72080    7.81140
 2500.00000  355.09630  322.44010  322.44010  168.48920  148.93290  148.93290 2408.27500    -999.25    0.14650    0.17640    5.93510  276.53800  276.53800  106.98040  108.33580  108.33580    -999.25    -999.25    5.93510    6.33030    -999.25    -999.25    0.31880    0.27490 2412.11500    -999.25    -999.25    1.62690   -9.34430    6.33030
 2550.00000  326.63390  319.83040  319.83040  175.04860   20.58040   20.58040 2626.73500    -999.25    0.01410    0.04870    5.71270  258.96210  258.96210   89.41570   96.62260   96.62260    -999.25    -999.25    5.71270    4.91700    -999.25    -999.25    0.40440    0.36160 2638.73950    -999.25    -999.25    3.43830   -8.56400    4.91700
 2600.00000  320.35070  313.20420  313.20420   75.74380   21.67910   21.67910 2664.19000    -999.25   -0.00860    0.02680   13.20240  243.79820  243.79820   79.21030   79.98070   79.98070    -999.25    -999.25   13.20240   10.05340    -999.25    -999.25    0.27520    0.23120 2646.51810    -999.25    -999.25    1.96600  -11.06730   10.05340
 2650.00000  310.76570  309.57440  309.57440   22.38910   32.61850   32.61850 2600.00500    -999.25    0.03030    0.06430   44.66460  211.88040  211.88040   66.50010   73.17430   73.17430    -999.25    -999.25   44.66460   28.60800    -999.25    -999.25    0.13200    0.08960 2593.83010    -999.25    -999.25   -2.19870  -16.26300   28.60800
 2700.00000  305.43660  306.09870  306.09870   22.30200   53.96480   53.96480 2543.90500    -999.25    0.06430    0.09710   44.83910  211.67660  211.67660   53.96410   60.30680   60.30680    -999.25    -999.25   44.83910   29.33530    -999.25    -999.25    0.10210    0.06060 2537.21950    -999.25    -999.25   -2.31850  -17.41390   29.33530
 2750.00000  354.98410  319.47880  319.47880   13.37210   38.38320   38.38320 2517.34000    -999.25    0.08040    0.11270   74.78260  228.13270  228.13270   55.67510   58.68560   58.68560    -999.25    -999.25   74.78260   17.67430    -999.25    -999.25    0.12580    0.08350 2515.99220    -999.25    -999.25    4.94970  -11.17670   17.67430
 2800.00000  307.17900  306.86980  306.86980   11.99950   17.11930   17.11930 2624.34350    -999.25    0.00840    0.05010   83.33700  203.22270  203.22270   61.16180   63.74200   63.74200    -999.25    -999.25   83.33700   34.55470    -999.25    0.11400    0.16130    0.11400 2624.34350    -999.25    -999.25    8.70030   -7.71010   34.55470
 2850.00000  300.29120  304.54610  304.54610    0.33490   20.28110   20.28110 2624.84200    0.04980    -999.25    0.04980 2985.56710  175.74780  175.74780   37.98100   43.83240   43.83240    -999.25    -999.25 2985.56710  127.43320    -999.25    0.02250    -999.25    0.02250 2620.22580    -999.25    -999.25  -14.03570  -12.80040  127.43320
 2900.00000  309.62330  307.12930  307.12930   29.53990   23.11570   23.11570 2738.72800   -0.01680    -999.25   -0.01680   33.85250  196.97520  196.97520   81.07950   88.66300   88.66300    -999.25    -999.25   33.85250   33.93650    -999.25    0.18490    -999.25    0.18490 2737.34200    -999.25    -999.25  -55.70560  -36.82470   33.93650
 2950.00000  305.21040  316.92470  316.92470   26.42240    6.63730    6.63730 2756.85400   -0.02740    -999.25   -0.02740   37.84670  179.76820  179.76820   79.97770   84.15660   84.15660    -999.25    -999.25   37.84670   30.01350    -999.25    0.12110    -999.25    0.12110 2747.47140    -999.25    -999.25  -66.34490  -29.81840   30.01350
 3000.00000  313.76220  303.40280  303.40280   38.37030    8.89410    8.89410 2706.23800    0.00220    -999.25    0.00220   26.06180  185.02460  185.02460   58.76380   61.68300   61.68300    -999.25    -999.25   26.06180   16.81920    -999.25    0.10240    -999.25    0.10240 2700.62570    -999.25    -999.25  -67.62410  -13.45190   16.81920
