~Version ---------------------------------------------------
VERS.      2.0 : CWLS log ASCII Standard -VERSION 2.0
WRAP.       NO : One line per depth step
CREA. 11/17/17 : LAS Creation Date
~Well ------------------------------------------------------
STRT.FT                             900.0 : START DEPTH
STOP.FT                            9050.0 : STOP DEPTH
STEP.FT                          50.00000 : STEP LENGTH
NULL.                             -999.25 : NULL VALUE
COMP. EDWIN L. COX SOUTHERN DRILLING INC. : COMPANY
WELL.               COX AZTEC 11-30-69-19 : WELL
FLD .                                     : FIELD
LOC .                                     : LOCATION
CTRY.                              CANADA : COUNTRY
SRVC.                       Dresser Atlas : SERVICE COMPANY
DATE.                         18-Dec-1971 : LOGDATE
PROV.                             Alberta : PROVINCE
UWI .                    100113006919W500 : UNIQUE WELL ID
SLAT.WGS84                       55.00587 : SURFACE LATITUDE
SLON.WGS84                      -116.8901 : SURFACE LONGITUDE
~Curve Information -----------------------------------------
DEPT  .FT    : Depth Curve
CALSED.IN    : CALIPER FROM SONIC LOG [ADJ TO RESISTIVITY LOG]
CALWS .IN    : CALIPER [CASED]
CILDED.MMHO  : DEEP INDUCTION CONDUCTIVITY FROM RESSITIVITY LOG
CONDWS.MMHO  : CONDUCTIVITY [1000/DRESWS]
DRESWS.OHMM  : DEEP RESISTIVITY [1000/CILDED IF ILDED <1, ILDED & SPL. TO ILDED @ 3160']
DTED  .US/F  : DELTA-TIME FROM SONIC LOG [ADJ TO RESISTIVITY LOG]
DTWS  .US/F  : COMPRESSIONAL SONIC [DTED]
GRSED .GAPI  : GAMMA RAY FROM SONIC LOG [ADJ TO RESISTIVITY LOG]
GRWS  .GAPI  : GAMMA RAY [GRSED]
ILDED .OHMM  : DEEP INDUCTION RESISTIVITY FROM RESISTIVITY LOG
ILMED .OHMM  : MEDIUM INDUCTION  RESISTIVITY FROM RESISTIVITY LOG
MRESWS.OHMM  : MEDIUM RESISTIVITY [ILMED]
SFLED .OHMM  : SPHERICALLY FOCUSED LOG FROM RESISTIVITY LOG
SPRED .MV    : SPONTANEOUS POTENTIAL FROM RESISTIVITY LOG
SPWS  .MV    : SPONTANEOUS POTENTIAL [BASELINE 0 MV, SPRED]
SRESWS.OHMM  : SHALLOW RESISTIVITY [SFLED]
~Params ----------------------------------------------------
PD  .                     GL : PERMANENT DATUM
EPD .FT               2315.7 : ELEVATION PERMANENT DATUM
LMF .                     KB : LOG MEASURED FROM
DAPD.FT                 15.4 : FEET ABOVE PERMANENT DATUM
DMF .                     KB : DRILLING MEASURED FROM
EKB .FT               2331.1 : KELLY BUSHING
EGL .FT               2315.7 : GROUND LEVEL
DATE.               12/18/71 : RUN DATE
RUN .                      1 : RUN NUMBER
DD  .FT                 9106 : DEPTH DRILLER
DL  .FT                 9087 : DEPTH LOGGER
BLI .FT                 9085 : BOTTOM LOG INTERVAL
TLI .FT                  935 : TOP LOG INTERVAL
CS  .IN                8.625 : CASING SIZE
CBD .FT                  930 : CASING BOTTOM DRILLER
CBL .FT                  935 : CASING BOTTOM LOGGER
BS  .IN                7.875 : BIT SIZE
BSD .FT                 9106 : BIT SIZE AT DEPTH
DFT .                MUD GEL : DRILLING FLUID TYPE
DFD .                    9.2 : DRILLING FLUID DENSITY
DFV .                    135 : DRILLING FLUID VISCOSITY
DFPH.                    9.5 : DRILLING FLUID PH
DFL .                    7.6 : DRILLING FLUID LOSS
MSS .                   CIRC : MUD SAMPLE SOURCE
RMS .OHMM                  2 : RESISTIVITY MUD SAMPLE
MST .DEGF                 60 : MUD SAMPLE TEMPERATURE
RMF .OHMM                1.9 : RESISTIVITY MUD FILTRATE SAMPLE
MFST.DEGF                 61 : MUD FILTRATE SAMPLE TEMPERATURE
RMC .OHMM                2.7 : RESISTIVITY MUD CAKE
MCST.DEGF                 61 : MUD CAKE SAMPLE TEMPERATURE
MFSS.                   MEAS : MUD FILTRATE SAMPLE SOURCE
MCSS.                   MEAS : MUD CAKE SAMPLE SOURCE
RMB .OHMM               0.63 : RESISTIVITY MUD AT BHT
TCS .HRS                 3.5 : TIME CIRCULATED STOPPED
LUN .                   6091 : LOGGING UNIT NUMBER
LUL .                     VV : LOGGING UNIT LOCATION
ENGI.          CLARK GISTERN : RECORDING ENGINEER
WITN.                 MACKEY : WITNESSED BY
CLNT.                A2DTECH : CLIENT CODE
ORIG.            2" 5" PRINT : ORIGIN OF DATA
UWI .       100113006919W500 : UNIQUE WELL ID
DICO. A2D Technologies, Inc. : DIGITIZING COMPANY
~Other -----------------------------------------------------
DIFL-SONIC LOG RUN
ALL DATA UP TO THE TOP TO 3160' VARIFIED FROM 2 INCH SCALE SECTION
~ASCII -----------------------------------------------------
# ...
 5200.00000    8.30520    8.30520    -999.25   38.59410   25.91070   53.07700   53.07700   38.54500   38.54500   25.91070   49.43200   49.43200   86.91610  -98.34970  -64.84840   86.91610
 5250.00000    8.21560    8.21560    -999.25   16.95650   58.97430   50.96630   50.96630   26.06950   26.06950   58.97430  109.82900  109.82900  206.04530 -130.37660  -93.74270  206.04530
 5300.00000    9.17330    9.17330    -999.25   61.79220   16.18370   56.05170   56.05170   60.33530   60.33530   16.18370   24.69010   24.69010   44.83560  -78.31300  -38.56210   44.83560
 5350.00000    9.20440    9.20440    -999.25   42.46340   23.54970   58.52270   58.52270   57.73610   57.73610   23.54970   29.01050   29.01050   36.45600  -67.99590  -25.09670   36.45600
 5400.00000    9.16820    9.16820    -999.25   87.26610   11.45920   61.59780   61.59780   86.56110   86.56110   11.45920   13.60940   13.60940   20.79480  -56.50170  -10.46980   20.79480
 5450.00000    9.01490    9.01490    -999.25  122.85010    8.14000   57.77830   57.77830   45.87830   45.87830    8.14000    9.81150    9.81150   11.00740  -97.71950  -48.55500   11.00740
 5500.00000    8.89390    8.89390    -999.25  398.59690    2.50880   67.19410   67.19410   35.42720   35.42720    2.50880    3.04950    3.04950   11.33330 -131.11050  -78.81340   11.33330
 5550.00000    9.07300    9.07300    -999.25   56.98910   17.54740   54.53840   54.53840   46.81750   46.81750   17.54740   22.37630   22.37630   39.64400  -86.03360  -30.61940   39.64400
 5600.00000    9.38670    9.38670    -999.25  181.68600    5.50400   84.07290   84.07290   82.92380   82.92380    5.50400    6.57020    6.57020   15.36360  -64.85630   -6.29390   15.36360
 5650.00000    8.62570    8.62570    -999.25  211.03720    4.73850   59.31090   59.31090   23.91310   23.91310    4.73850    7.91740    7.91740   44.87250 -155.43650 -100.57050   44.87250
 5700.00000    8.26980    8.26980    -999.25  120.50810    8.29820   60.37450   60.37450   18.65810   18.65810    8.29820   14.42650   14.42650   44.17560 -163.75380 -113.02010   44.17560
 5750.00000    8.18790    8.18790    -999.25  116.03890    8.61780   56.64150   56.64150   17.67670   17.67670    8.61780   16.57500   16.57500  104.66750 -142.71190  -96.11050  104.66750
 5800.00000    8.98280    8.98280    -999.25  105.99760    9.53940   57.62510   57.62510   47.98750   47.98750    9.53940   15.88280   15.88280   50.34840  -91.45160  -48.96180   50.34840
 5850.00000    9.01640    9.01640    -999.25  440.37340    2.27080   66.64900   66.64900   79.43580   79.43580    2.27080    2.85100    2.85100    4.31100  -80.92090  -42.58410    4.31100
 5900.00000    8.82870    8.82870    -999.25  229.84280    4.35080   62.72710   62.72710   77.89010   77.89010    4.35080    5.64340    5.64340    8.47080  -64.01410  -29.80960    8.47080
 5950.00000    9.71720    9.71720    -999.25  201.37740    4.96580   66.74710   66.74710   79.34610   79.34610    4.96580    6.39980    6.39980    8.99480  -40.69410  -10.62190    8.99480
 6000.00000    9.05420    9.05420    -999.25  101.16130    9.88520   60.55720   60.55720   47.89770   47.89770    9.88520   12.20260   12.20260   20.35770  -29.75090   -3.44040   20.35770
 6050.00000    8.97550    8.97550    -999.25   17.31280   57.76980   51.64550   51.64550   41.44210   41.44210   57.76980   70.71550   70.71550   80.33060  -49.63150  -26.06690   80.33060
 6100.00000    8.83850    8.83850    -999.25   34.98690   28.58210   55.43000   55.43000   57.89380   57.89380   28.58210   39.37770   39.37770   57.16930  -45.78790  -24.99670   57.16930
 6150.00000    8.76830    8.76830    -999.25   44.70610   22.36830   55.52490   55.52490   50.85540   50.85540   22.36830   29.84520   29.84520   35.50960  -24.01090   -5.97930   35.50960
 6200.00000    8.60340    8.60340    -999.25   50.03500   19.98600   56.29520   56.29520   51.26680   51.26680   19.98600   27.42460   27.42460   32.32540  -55.26030  -39.98830   32.32540
 6250.00000    8.31680    8.31680    -999.25   21.00720   47.60270   52.83830   52.83830   31.75170   31.75170   47.60270   63.45620   63.45620   81.28220  -74.27610  -61.76380   81.28220
 6300.00000    8.12330    8.12330    -999.25   59.27600   16.87020   61.31610   61.31610   57.86050   57.86050   16.87020   21.54050   21.54050   29.73560  -56.50070  -46.73420   29.73560
 6350.00000    8.19120    8.19120    -999.25   21.11500   47.35960   53.50120   53.50120   35.79500   35.79500   47.35960   65.39040   65.39040   91.49580  -58.81140  -51.81830   91.49580
 6400.00000    8.99860    8.99860    -999.25   76.42630   13.08450   63.89320   63.89320   79.27170   79.27170   13.08450   16.85120   16.85120   23.21670  -61.89760  -57.66420   23.21670
 6450.00000   13.11660   13.11660    -999.25  177.95180    5.61950   89.18780   89.18780  175.99150  175.99150    5.61950    6.93410    6.93410   10.98230  -45.64800  -44.17420   10.98230
 6500.00000    8.81590    8.81590    -999.25   16.00040   62.49850  125.59380  125.59380  290.50160  290.50160   62.49850   94.22610   94.22610  105.34230  -13.69540  -14.59140  105.34230
 6550.00000    7.99020    7.99020    -999.25    6.61170  151.51430   49.58840   49.58840   20.10780   20.10780  151.51430  217.04630  217.04630  276.98130  -37.30970  -38.18110  276.98130
 6600.00000    9.05320    9.05320    -999.25    7.66780  130.41620   50.30350   50.30350   35.36220   35.36220  130.41620  148.99310  148.99310  169.89380    0.00000   -0.84670  169.89380
 6650.00000    8.91810    8.91810    -999.25   11.57210   86.41460   49.44710   49.44710   25.16520   25.16520   86.41460  120.05960  120.05960  221.65590    0.00000   -0.84410  221.65590
 6700.00000    9.36820    9.36820    -999.25   10.65420   93.85970   49.48820   49.48820   23.64480   23.64480   93.85970  111.20500  111.20500  155.70830  -49.35570  -48.05330  155.70830
 6750.00000    8.89730    8.89730    -999.25    8.57780  116.57970   49.31050   49.31050   15.00970   15.00970  116.57970  160.33140  160.33140  296.61070  -44.63220  -40.50090  296.61070
 6800.00000    8.47160    8.47160    -999.25   63.19370   15.82550   54.45110   54.45110   17.03900   17.03900   15.82550   29.65250   29.65250  110.75260  -69.35440  -62.40820  110.75260
 6850.00000    8.95420    8.95420    -999.25   73.33150   13.63670   52.63490   52.63490   18.15190   18.15190   13.63670   22.31080   22.31080   95.30180  -83.97350  -74.18420   95.30180
 6900.00000    8.62410    8.62410    -999.25   46.13780   21.67420   51.77050   51.77050   17.69000   17.69000   21.67420   33.70630   33.70630   43.77840  -76.53610  -63.91780   43.77840
 6950.00000    8.40240    8.40240    -999.25    8.09930  123.46720   49.93430   49.93430   11.55980   11.55980  123.46720  150.86990  150.86990  307.87880 -125.05700 -109.60970  307.87880
 7000.00000    8.09800    8.09800    -999.25   16.72810   59.77950   50.84200   50.84200    9.73440    9.73440   59.77950   78.52570   78.52570  143.55590 -158.00080 -139.72450  143.55590
 7050.00000    7.46810    7.46810    -999.25    8.23330  121.45770   47.36120   47.36120   13.83380   13.83380  121.45770  146.10570  146.10570  165.27990 -164.13710 -143.04600  165.27990
 7100.00000    7.56080    7.56080    -999.25    6.90730  144.77340   46.80720   46.80720   17.35790   17.35790  144.77340  172.75430  172.75430  295.61130 -164.79080 -140.85660  295.61130
 7150.00000    8.17840    8.17840    -999.25    7.23200  138.27370   48.04050   48.04050   19.72050   19.72050  138.27370  143.44020  143.44020  196.79370 -159.81750 -133.05430  196.79370
 7200.00000    8.03640    8.03640    -999.25   50.90020   19.64630   49.51430   49.51430   35.57610   35.57610   19.64630   35.03900   35.03900  133.77100 -146.46860 -116.87640  133.77100
 7250.00000    8.85160    8.85160    -999.25   11.29040   88.57060   46.44660   46.44660   28.03200   28.03200   88.57060  107.99190  107.99190  153.18830 -136.17830 -103.75710  153.18830
 7300.00000    8.96790    8.96790    -999.25   12.38550   80.80480   45.50190   45.50190   33.05750   33.05750   80.80480  111.69620  111.69620  186.99310  -92.18380  -56.94780  186.99310
