~Version ---------------------------------------------------
VERS.      2.0 : CWLS log ASCII Standard -VERSION 2.0
WRAP.       NO : One line per depth step
CREA. 01/28/16 : LAS Creation Date
~Well ------------------------------------------------------
STRT.FT                          1500.0 : START DEPTH
STOP.FT                         13000.0 : STOP DEPTH
STEP.FT                        50.00000 : STEP LENGTH
NULL.                           -999.25 : NULL VALUE
COMP.  AMOCO CANADA PETROLEUM CO., LTD. : COMPANY
WELL. AMOCO ET AL BERLAND D-1 6-7-60-22 : WELL
FLD .                                   : FIELD
LOC .                                   : LOCATION
CTRY.                            CANADA : COUNTRY
SRVC.                      Schlumberger : SERVICE COMPANY
DATE.                       10-Dec-1976 : LOGDATE
PROV.                           Alberta : PROVINCE
UWI .                  100060706022W500 : UNIQUE WELL ID
SLAT.WGS84                     54.17117 : SURFACE LATITUDE
SLON.WGS84                    -117.2921 : SURFACE LONGITUDE
~Curve Information -----------------------------------------
DEPT   .FT    : Depth Curve
CALD   .IN    : CALIPER FROM DENSITY LOG
CALS   .IN    : CALIPER FROM SONIC LOG
DCOR   .G/C3  : DENSITY CORRECTION FROM DENSITY LOG
DPHI_LS.DEC   : DENSITY POROSITY LIMESTONE
DPHI_SS.DEC   : DENSITY POROSITY SANDSTONE
DT     .US/F  : DELTA TIME FROM SONIC LOG
GRD    .GAPI  : GAMMA RAY FROM DENSITY LOG
GRS    .GAPI  : GAMMA RAY FROM SONIC LOG
ILD    .OHMM  : INDUCTION LOG DEEP RESISTIVITY
ILM    .OHMM  : INDUCTION LOG MEDIUM RESISTIVITY
LL8    .OHMM  : LATEROLOG-8 RESISTIVITY
NPHI_LS.DEC   : NEUTRON POROSITY LIMESTONE FROM DENSITY LOG
NPHI_SS.DEC   : NEUTRON POROSITY SANDSTONE FROM DENSITY LOG
RHOB   .G/C3  : BULK DENSITY FROM DENSITY LOG
SPR    .MV    : SPONTANEOUS POTENTIAL FROM DIL LOG
~Params ----------------------------------------------------
PD  .                     GL : PERMANENT DATUM
EPD .M                  3639 : ELEVATION PERMANENT DATUM
LMF .                     KB : LOG MEASURED FROM
DAPD.M                    16 : FEET ABOVE PERMANENT DATUM
EKB .M                  3655 : KELLY BUSHING
EGL .M                  3639 : GROUND LEVEL
DATE.             12/10/1976 : RUN DATE
RUN .                      2 : RUN NUMBER
DD  .M                 12990 : DEPTH DRILLER
DL  .M                 13000 : DEPTH LOGGER
BLI .M                 12994 : BOTTOM LOG INTERVAL
TLI .M                  7504 : TOP LOG INTERVAL
CBD .M                  7499 : CASING BOTTOM DRILLER
CBL .M                  7504 : CASING BOTTOM LOGGER
BS  .MM                  8.5 : BIT SIZE
BSD .M                 13000 : BIT SIZE AT DEPTH
DFT .             GEL BARITE : DRILLING FLUID TYPE
DFD .                    9.1 : DRILLING FLUID DENSITY
DFV .                     73 : DRILLING FLUID VISCOSITY
DFPH.                    9.5 : DRILLING FLUID PH
DFL .                    8.9 : DRILLING FLUID LOSS
MSS .               FLOWLINE : MUD SAMPLE SOURCE
RMS .OHMM               1.44 : RESISTIVITY MUD SAMPLE
MST .DEGC                 60 : MUD SAMPLE TEMPERATURE
RMF .OHMM               1.12 : RESISTIVITY MUD FILTRATE SAMPLE
MFST.DEGC                 55 : MUD FILTRATE SAMPLE TEMPERATURE
RMB .OHMM               0.26 : RESISTIVITY MUD AT BHT
TCS .HRS                 6.5 : TIME CIRCULATED STOPPED
LUN .                   7635 : LOGGING UNIT NUMBER
LUL .                    EDM : LOGGING UNIT LOCATION
ENGI.                 MACKAY : RECORDING ENGINEER
WITN.                SHIRLEY : WITNESSED BY
CLNT.                A2DTECH : CLIENT CODE
ORIG.            2" 5" PRINT : ORIGIN OF DATA
UWI .       100060706022W500 : UNIQUE WELL ID
DICO. A2D Technologies, Inc. : DIGITIZING COMPANY
~Other -----------------------------------------------------
~ASCII -----------------------------------------------------
# ...
 8400.00000    9.17840    9.99900    0.00560    -999.25    0.00970   69.29000  112.11690  108.66040   24.66910   20.59570   39.62310    -999.25    0.15490    2.62320  -81.94110
 8450.00000    9.98830   10.71700    0.11130    -999.25    0.05780   67.62900  134.69950  132.96170   11.98160   17.96330   29.65200    -999.25    0.33450    2.54390  -78.76440
 8500.00000    8.72850   11.26900   -0.01880    -999.25    0.08250   72.32150  133.11080  142.30960   17.99700   19.88920   27.16890    -999.25    0.25100    2.48980  -77.02860
 8550.00000    9.39770   10.35900    0.11670    -999.25    0.20490   70.31610  122.68740  125.63050   18.70890   22.75730   26.79370    -999.25    0.24470    2.32870  -85.60580
 8600.00000    9.78970   10.14700    0.20160    -999.25    0.29360   66.43990  108.26470  105.65490   19.73420   24.10270   23.15020    -999.25    0.22860    2.19020  -82.57230
 8650.00000   11.80300   10.14000    0.17710    -999.25    0.34430   80.77570  109.90650  107.04140   13.52070   11.80380   15.97810    -999.25    0.26400    2.10170  -81.01860
 8700.00000    7.39220    7.99000    0.03650    -999.25    0.13850   67.69200   42.38000   37.49150   20.54270   25.04310   37.60720    -999.25    0.14180    2.42330 -142.09570
 8750.00000   13.26770   12.88900    0.04960   -0.01060    0.18030   79.81170  118.13650  116.97790    7.17870    8.26700    9.95520    0.29770    0.40530    2.51510  -81.27040
 8800.00000   10.42690   13.59700    0.11880    0.37230    -999.25   89.43820  106.67050  117.69060    4.03800    5.18100    5.90620    0.44500    -999.25    2.08830  -82.62790
 8850.00000    8.28480    9.12000    0.00090    0.15280    -999.25   71.80910  210.25370  250.08960  468.61890  794.61100 1389.35030    0.21990    -999.25    2.45740  -41.49280
 8900.00000    8.26660    9.14500    0.01080    0.03190    -999.25   83.13700  108.87850  133.65970   85.45320   94.32900  128.14990    0.06060    -999.25    2.64820  -64.16810
 8950.00000    8.15660    9.34200   -0.00220    0.07480    -999.25   61.55780  105.17900  106.89900   72.12630   75.87700  112.75570    0.08440    -999.25    2.58900  -71.44130
 9000.00000    7.96240    9.18500    0.02410    0.00280    -999.25   59.47070  105.85790  118.13200   48.60790   50.94320   70.96130    0.07240    -999.25    2.70730  -74.25000
 9050.00000    7.94800    9.11900    0.00730    0.01490    -999.25   57.52390   90.90480   92.16840   77.71640   82.47510  104.10600    0.04050    -999.25    2.68180  -76.35550
 9100.00000    7.97230    8.94400    0.00330    0.03000    -999.25   58.85680  112.53920  110.37520   71.45990   75.50890  107.24310    0.07470    -999.25    2.65180  -66.47970
 9150.00000    7.83220    8.72900    0.01690   -0.01130    -999.25   56.50250  115.26480  112.28750   99.50390  122.13400  174.43890    0.06460    -999.25    2.72690  -68.29690
 9200.00000   13.97990   15.05100    0.08550    0.29540    -999.25   54.18990   24.89510   27.54410   72.11050   54.58080   99.72530    0.11040    -999.25    2.21260  -92.15660
 9250.00000   13.56780   10.35100    0.16150    0.38840    -999.25   51.19480   33.72960   30.04640   67.92200   38.31680  168.67410    0.11340    -999.25    2.08510  -89.89300
 9300.00000    8.71940   10.15000    0.22610    0.16840    -999.25   57.17540   43.81240   47.81040   20.88690   27.95110   32.00050    0.13260    -999.25    2.48070 -130.60160
 9350.00000   11.35110    9.68600    0.24200    0.19430    -999.25   58.01980   38.65430   35.61900   24.42890   37.78590   45.11440    0.05490    -999.25    2.35240  -92.25880
 9400.00000    8.32610    9.45300    0.00210    0.02140    -999.25   57.41900   90.17180   86.61590   73.16820   92.23540  147.29410    0.05690    -999.25    2.67310  -57.30680
 9450.00000   14.98660   13.78000    0.05770    0.44960    -999.25   51.80990   20.99290   20.20640   11.38720   36.33380  144.38550    0.20580    -999.25    2.00020  -99.41980
 9500.00000   12.64040   10.41900    0.18650    0.19810    -999.25   56.37920   56.51670   45.49980   19.17090   35.53610   36.93550    0.06670    -999.25    2.39460 -107.50110
 9550.00000    8.70810    9.03400    0.12430   -0.02730    -999.25   52.99270   67.21120   67.91070   33.16960   36.50480   54.61550    0.06630    -999.25    2.75330  -84.32930
 9600.00000    8.24500    9.41700    0.00460    0.09960    -999.25   52.70120   41.64590   46.49140   38.82500   45.04700   52.02140    0.04590    -999.25    2.53310  -81.94840
 9650.00000    8.11320    9.49700    0.00030   -0.12370    -999.25   51.57730   11.94950    9.93340  906.86050 1048.71460 1398.91330   -0.00480    -999.25    2.91230  -55.13790
 9700.00000    7.63350    8.57300    0.06240    0.01920    -999.25   49.57620   15.02440   12.98980    8.17420   16.09920   95.64620    0.07870    -999.25    2.67690 -171.25020
 9750.00000   10.40520    9.76900    0.21180    0.14960    -999.25   50.60980   15.65580   15.12230  106.01800  146.59350 1335.39760   -0.00700    -999.25    2.46170  -72.74580
 9800.00000    7.92620    9.13300    0.01340   -0.00200    -999.25   57.82220   76.35990   87.59720    9.38140   10.20460   14.65090    0.12930    -999.25    2.71390  -76.85210
 9850.00000    8.23680    9.13100    0.01500   -0.00810    -999.25   57.98270   94.63620   97.08670   16.45070   18.80220   26.44470    0.09920    -999.25    2.72060  -55.10540
 9900.00000    9.86430    9.53400    0.20230    0.04210    -999.25   55.08640   60.30440   54.85530   43.26890   51.36410  128.86250    0.04150    -999.25    2.62650  -45.57400
 9950.00000    8.26540    9.16200    0.01430   -0.01440    -999.25   56.79860   25.89060   27.47380   34.61040   40.60220   80.71280    0.03430    -999.25    2.73530  -45.49110
 10000.00000    7.93980    9.05300    0.03250   -0.00240    -999.25   56.98750   53.71720   52.46220   22.08140   24.19960   30.83920    0.06060    -999.25    2.70580  -46.72090
 10050.00000    7.93390    8.93600    0.01700    0.00090    -999.25   56.51390   52.99050   58.74590   34.46270   38.88810   58.85920    0.04400    -999.25    2.70970  -51.97740
 10100.00000    7.95460    8.92000    0.01350    0.02100    -999.25   58.51090   65.66310   64.88870   21.43430   24.44110   33.75740    0.06790    -999.25    2.67330  -53.43050
 10150.00000    7.81990    8.78000    0.01400    0.04460    -999.25   57.53610   66.93600   61.39170   27.54660   31.42190   44.35140    0.05720    -999.25    2.63120  -56.19210
 10200.00000    7.90860    8.82800   -0.01000    0.00410    -999.25   54.22130   44.96860   41.47300   74.05140   84.12580  146.53810    0.02130    -999.25    2.68730  -56.39090
 10250.00000    7.94630    9.00500    0.00170    0.02260    -999.25   56.18930   46.86190   48.49390   61.64330   68.94760  105.18140    0.03620    -999.25    2.67660  -56.45670
 10300.00000    7.97310    8.76800    0.00670    0.02400    -999.25   55.30280   71.99940   64.03100   55.93070   62.75560  110.50400    0.03730    -999.25    2.66990  -47.77880
 10350.00000    8.23580    9.04000    0.04060    0.06800    -999.25   61.21570  293.13000  270.01290   13.16500   14.12350   15.44760    0.15160    -999.25    2.60040  -57.19070
 10400.00000    8.84510    9.25200    0.03020    0.01830    -999.25   49.96220   17.45640   16.99040  407.66050  429.24070 1378.36120    0.00160    -999.25    2.67800  -45.35580
 10450.00000    9.46180    9.21100    0.16580    0.01730    -999.25   49.21940   19.98360   19.59120  514.77450  409.66930 1372.27950   -0.00040    -999.25    2.68180  -45.18270
 10500.00000    9.58430    9.46900    0.17760    0.06210    -999.25   49.22980   16.64920   15.61100  576.79550  392.48060 1391.69310   -0.00240    -999.25    2.60440  -71.30490
 10550.00000   10.49700    9.59500    0.22640    0.13420    -999.25   48.95280   11.20940    8.94930  477.80480  266.07800 1378.01860   -0.00260    -999.25    2.48510  -78.53950
 10600.00000    8.38610    9.21000    0.07060    0.08240    -999.25   49.88760   15.31460   14.76900  360.88890  422.40640 1369.95360    0.00320    -999.25    2.57290  -98.53130
 10650.00000    8.66770    8.95900    0.15410    0.11760    -999.25   49.63140   11.63120   10.48640  888.41580  432.01940 1374.50600   -0.00120    -999.25    2.53790 -129.75780
