~Version ---------------------------------------------------
VERS.      2.0 : CWLS log ASCII Standard -VERSION 2.0
WRAP.       NO : One line per depth step
CREA. 01/03/18 : LAS Creation Date
~Well ------------------------------------------------------
STRT.FT                              300.0 : START DEPTH
STOP.FT                             8350.0 : STOP DEPTH
STEP.FT                           50.00000 : STEP LENGTH
NULL.                              -999.25 : NULL VALUE
COMP.             HOME OIL COMPANY LIMITED : COMPANY
WELL. HOME FPC ET AL MORSE RIVER 4-31-65-9 : WELL
FLD .                                      : FIELD
LOC .                                      : LOCATION
CTRY.                               CANADA : COUNTRY
SRVC.                         Schlumberger : SERVICE COMPANY
DATE.                          23-Jan-1960 : LOGDATE
PROV.                              Alberta : PROVINCE
UWI .                     100043106509W500 : UNIQUE WELL ID
SLAT.WGS84                        54.66358 : SURFACE LATITUDE
SLON.WGS84                       -115.3583 : SURFACE LONGITUDE
~Curve Information -----------------------------------------
DEPT  .FT     : Depth Curve
CALWS .IN     : CALIPER [MCALED]
CILDED.MMHO   : CONDUCTIVITY FROM RESISTIVITY LOG
CONDWS.MMHO   : CONDUCTIVITY [1000/DRESWS]
DRESWS.OHMM   : DEEP RESISTIVITY [ILDED] IF ILDED<1;1000/CILDED;ELSE ILDED
GRNED .UR/HR  : GAMMA RAY FROM NEUTRON LOG
GRWS  .GAPI   : GAMMA RAY [GRNED] CONVERTED SCALES McCULLOUGH *10.4API
ILDED .OHMM   : INDUCTION LOG DEEP RESISTIVITY
LLED  .OHMM   : LATEROLOG RESISTIVITY FROM LATEROLOG
MCALED.IN     : MICROCALIPER
NEUTED.CU     : NEUTRON FROM NEUTRON LOG [DEPTH ADJ TO ILD]
NEUTWS.CU     : NEUTRON [NEUTED]
SNED  .OHMM   : 16 INCH SHORT NORMAL RESISTIVITY FROM IEL
SPRED .MV     : SPONTANEOUS POTENTIAL FROM RESISTIVITY LOG
SPWS  .MV     : SPONTANEOUS POTENTIAL [BASELINE 0 MV] [SPRED]
SRESWS.OHMM   : SHALLOW RESISTIVITY [SNED]
~Params ----------------------------------------------------
LMF .                     KB : LOG MEASURED FROM
DMF .                     KB : DRILLING MEASURED FROM
EKB .FT                 3359 : KELLY BUSHING
EGL .FT               3345.4 : GROUND LEVEL
DATE.               01/23/60 : RUN DATE
RUN .                      2 : RUN NUMBER
DD  .FT                 8361 : DEPTH DRILLER
DL  .FT                 8359 : DEPTH LOGGER
BLI .FT                 8354 : BOTTOM LOG INTERVAL
TLI .FT                 5178 : TOP LOG INTERVAL
CBD .FT                  847 : CASING BOTTOM DRILLER
CBL .FT                  847 : CASING BOTTOM LOGGER
BSD .FT                 8361 : BIT SIZE AT DEPTH
DFT .                    GEL : DRILLING FLUID TYPE
DFD .                     10 : DRILLING FLUID DENSITY
DFV .                    106 : DRILLING FLUID VISCOSITY
DFPH.                     10 : DRILLING FLUID PH
DFL .                    4.6 : DRILLING FLUID LOSS
RMS .OHMM                2.5 : RESISTIVITY MUD SAMPLE
MST .DEGF                 62 : MUD SAMPLE TEMPERATURE
RMF .OHMM                1.6 : RESISTIVITY MUD FILTRATE SAMPLE
MFST.DEGF                 62 : MUD FILTRATE SAMPLE TEMPERATURE
RMC .OHMM                2.8 : RESISTIVITY MUD CAKE
MCST.DEGF                 62 : MUD CAKE SAMPLE TEMPERATURE
RMB .OHMM                0.9 : RESISTIVITY MUD AT BHT
TCS .HRS                   2 : TIME CIRCULATED STOPPED
LUN .                   2786 : LOGGING UNIT NUMBER
ENGI.             ARMBRUSTER : RECORDING ENGINEER
WITN.                  SZABO : WITNESSED BY
CLNT.                A2DTECH : CLIENT CODE
ORIG.            2" 5" PRINT : ORIGIN OF DATA
UWI .       100043106509W500 : UNIQUE WELL ID
DICO. A2D Technologies, Inc. : DIGITIZING COMPANY
~Other -----------------------------------------------------
IEL-LL-GRN-MICRO LOG RUN
~ASCII -----------------------------------------------------
# ...
 2600.00000    -999.25  180.90370  180.90370    5.52780    4.99360   51.93340    4.73090    -999.25    -999.25  260.16240  260.16240    5.38810  -89.78970   -7.01070    5.38810
 2650.00000    -999.25  167.81940  185.55970    5.38910    5.23050   54.39720    5.38910    -999.25    -999.25  275.20370  275.20370    5.69000  -94.20280  -11.24210    5.69000
 2700.00000    -999.25  168.97760  191.65830    5.21800    5.80440   60.36580    5.21800    -999.25    -999.25  272.99150  272.99150    5.63240  -94.98780  -11.52580    5.63240
 2750.00000    -999.25  205.47400  205.47400    4.86680    6.44260   67.00300    3.78110    -999.25    -999.25  289.24980  289.24980    4.48470  -93.21120   -9.25300    4.48470
 2800.00000    -999.25  118.73800  125.98900    7.93720    6.96340   72.41940    7.93720    -999.25    -999.25  346.96080  346.96080    9.64800  -91.45100   -6.99410    9.64800
 2850.00000    -999.25  141.81950  156.88000    6.37430    6.01970   62.60490    6.37430    -999.25    -999.25  267.58370  267.58370    6.86820  -92.15590   -7.20030    6.86820
 2900.00000    -999.25  158.94580  181.09710    5.52190    5.11150   53.15960    5.52190    -999.25    -999.25  243.84600  243.84600    6.01490  -92.47710   -7.02270    6.01490
 2950.00000    -999.25  166.63200  183.37660    5.45390    4.96770   51.66460    5.45390    -999.25    -999.25  280.83310  280.83310    6.16910  -94.37500   -8.41940    6.16910
 3000.00000    -999.25  134.94550  143.14960    6.98570    5.65120   58.77250    6.98570    -999.25    -999.25  308.13510  308.13510    7.47330  -88.74900   -2.29720    7.47330
 3050.00000    -999.25  147.09410  166.63610    6.00110    5.65390   58.80060    6.00110    -999.25    -999.25  337.98040  337.98040    6.29710  -91.49460   -4.54410    6.29710
 3100.00000    -999.25  162.97360  186.31340    5.36730    5.40310   56.19220    5.36730    -999.25    -999.25  238.16690  238.16690    5.85500  -92.55190   -5.10260    5.85500
 3150.00000    -999.25  186.40860  186.40860    5.36460    5.84280   60.76510    4.49810    -999.25    -999.25  204.82200  204.82200    4.93990  -93.51050   -5.74190    4.93990
 3200.00000    -999.25  118.87060  128.70430    7.76970    4.66610   48.52740    7.76970    -999.25    -999.25  318.79910  318.79910    8.11800  -96.86100   -8.91900    8.11800
 3250.00000    -999.25  141.28080  149.99700    6.66680    5.32050   55.33320    6.66680    -999.25    -999.25  309.88340  309.88340    6.95400  -97.43120   -9.31750    6.95400
 3300.00000    -999.25  153.84710  173.43050    5.76600    5.76850   59.99240    5.76600    -999.25    -999.25  315.86890  315.86890    6.29020  -97.52810   -9.24180    6.29020
 3350.00000    -999.25  195.18710  195.18710    5.12330    6.23330   64.82630    4.24740    -999.25    -999.25  254.11870  254.11870    4.87570  -93.37530   -4.91650    4.87570
 3400.00000    -999.25  166.50270  190.68320    5.24430    6.14700   63.92880    5.24430    -999.25    -999.25  201.98160  201.98160    6.27510  -91.85070   -3.21930    6.27510
 3450.00000    -999.25  160.43610  185.34440    5.39550    6.68620   69.53650    5.39550    -999.25    -999.25  272.14710  272.14710    6.98990  -91.43770   -2.63290    6.98990
 3500.00000    -999.25  110.26430  116.69700    8.56920    8.94440   93.02180    8.56920    -999.25    -999.25  275.07650  275.07650   12.69600  -89.21240   -0.23590   12.69600
 3550.00000    -999.25  189.72310  189.72310    5.27080    5.47820   56.97330    4.37450    -999.25    -999.25  276.93950  276.93950    5.08120  -93.90780   -4.75880    5.08120
 3600.00000    -999.25  194.48990  194.48990    5.14170    6.02370   62.64650    4.46320    -999.25    -999.25  255.59310  255.59310    5.28740  -92.06280   -2.74120    5.28740
 3650.00000    -999.25  193.56650  193.56650    5.16620    5.71510   59.43700    4.40200    -999.25    -999.25  272.42720  272.42720    5.24840  -91.45430   -1.97910    5.24840
 3700.00000    -999.25  201.88370  201.88370    4.95340    6.43760   66.95100    4.23100    -999.25    -999.25  288.50870  288.50870    4.84180  -92.69820   -3.07350    4.84180
 3750.00000    -999.25  234.08530  234.08530    4.27190    5.91990   61.56700    3.44650    -999.25    -999.25  217.40540  217.40540    4.24610  -95.85360   -6.08080    4.24610
 3800.00000    -999.25  233.86510  233.86510    4.27600    5.67180   58.98670    3.43100    -999.25    -999.25  258.36500  258.36500    4.15620  -97.60460   -7.68300    4.15620
 3850.00000    -999.25  319.99330  319.99330    3.12510    7.37010   76.64900    2.26290    -999.25    -999.25  268.95130  268.95130    2.75240  -93.16730   -3.09690    2.75240
 3900.00000    -999.25  434.63520  434.63520    2.30080    5.41870   56.35450    1.45030    -999.25    -999.25  297.48140  297.48140    1.87920  -92.09340   -1.87420    1.87920
 3950.00000   10.82430  265.95890  265.95890    3.76010    4.98540   51.84760    2.90210    -999.25   10.82430  212.67960  212.67960    3.22890  -93.07280   -2.70410    3.22890
 4000.00000    9.56680  190.93570  190.93570    5.23740    6.27980   65.30990    4.30410    -999.25    9.56680  278.04990  278.04990    4.89240  -96.19500   -5.67810    4.89240
 4050.00000    8.69030  260.90280  260.90280    3.83280    2.89250   30.08200    2.84590    -999.25    8.69030  533.22890  533.22890    5.32650 -142.43140  -51.76570    5.32650
 4100.00000   10.19060  141.99820  157.30440    6.35710    3.89930   40.55270    6.35710    -999.25   10.19060  357.13570  357.13570    6.67970  -98.36220   -7.54770    6.67970
 4150.00000    9.87650  234.79130  234.79130    4.25910    4.23120   44.00450    3.24710    -999.25    9.87650  201.37330  201.37330    4.66360  -98.95760   -7.99430    4.66360
 4200.00000    8.71220  271.45460  271.45460    3.68390    3.44330   35.81030    2.70570    -999.25    8.71220  445.60510  445.60510   13.70530 -179.62340  -88.51060   13.70530
 4250.00000    8.71680  315.40440  315.40440    3.17050    2.73620   28.45650    2.24660    -999.25    8.71680  471.88350  471.88350   14.30660 -197.93130 -106.67040   14.30660
 4300.00000    9.30110  205.99230  205.99230    4.85460    3.75410   39.04260    3.77610    -999.25    9.30110  362.43290  362.43290    4.24850  -95.62530   -4.21560    4.24850
 4350.00000    9.36320  179.54300  179.54300    5.56970    3.65910   38.05460    4.72320    -999.25    9.36320  389.52220  389.52220    5.53690 -112.60740  -21.04880    5.53690
 4400.00000    9.36980  160.33200  179.79140    5.56200    4.47750   46.56600    5.56200    -999.25    9.36980  316.89610  316.89610    7.78890 -105.55270  -13.84530    7.78890
 4450.00000    8.84770  288.72050  288.72050    3.46360    3.96620   41.24850    2.56770    -999.25    8.84770  414.20790  414.20790   12.72890 -178.13950  -86.28250   12.72890
 4500.00000    9.08620  186.83290  186.83290    5.35240    5.35830   55.72580    4.39540    -999.25    9.08620  300.56320  300.56320    5.04630  -89.99210    2.01290    5.04630
 4550.00000    8.76450  312.25290  312.25290    3.20250    3.88420   40.39570    2.36420    -999.25    8.76450  430.16700  430.16700    9.59280 -172.95830  -80.80450    9.59280
 4600.00000    9.14310  144.76000  158.68990    6.30160    4.17670   43.43770    6.30160    -999.25    9.14310  377.27800  377.27800    7.23050 -101.97610   -9.67350    7.23050
 4650.00000    9.21170  191.68650  191.68650    5.21690    5.21960   54.28380    4.31480    -999.25    9.21170  301.56120  301.56120    5.06190  -97.75670   -5.30530    5.06190
 4700.00000    9.88690  327.94490  327.94490    3.04940    4.91850   51.15190    2.01030    -999.25    9.88690  137.39110  137.39110    2.40480  -96.00380   -3.40280    2.40480
 4750.00000    9.51870  211.52420  211.52420    4.72760    5.18840   53.95990    3.82920    -999.25    9.51870  200.94810  200.94810    5.38900  -95.54770   -2.87540    5.38900
 4800.00000    9.10360  120.89780  125.14080    7.99100    5.48330   57.02630    7.99100    -999.25    9.10360  277.81760  277.81760   10.74060  -95.31380   -2.89660   10.74060
 4850.00000    8.98230  105.96810  108.60590    9.20760    5.13710   53.42580    9.20760    -999.25    8.98230  356.29600  356.29600   11.30130 -105.13690  -12.97480   11.30130
