~Version ---------------------------------------------------
VERS.      2.0 : CWLS log ASCII Standard -VERSION 2.0
WRAP.       NO : One line per depth step
CREA. 08/01/17 : LAS Creation Date
~Well ------------------------------------------------------
STRT.FT                           1450.0 : START DEPTH
STOP.FT                          10150.0 : STOP DEPTH
STEP.FT                         50.00000 : STEP LENGTH
NULL.                            -999.25 : NULL VALUE
COMP.               CHEVRON STANDARD LTD : COMPANY
WELL. CHEVRON GULF PASS CREEK 6-10-61-17 : WELL
FLD .                                    : FIELD
LOC .                                    : LOCATION
CTRY.                             CANADA : COUNTRY
SRVC.                       Schlumberger : SERVICE COMPANY
DATE.                        29-Nov-1977 : LOGDATE
PROV.                            Alberta : PROVINCE
UWI .                   100061006117W500 : UNIQUE WELL ID
SLAT.WGS84                      54.25885 : SURFACE LATITUDE
SLON.WGS84                     -116.4678 : SURFACE LONGITUDE
~Curve Information -----------------------------------------
DEPT    .FT    : Depth Curve
CALDED  .IN    : CALIPER FROM DENSITY LOG [ADJ TO GRSED]
CALSED  .IN    : CALIPER FROM SONIC LOG
CALWS   .IN    : CALIPER [CALSED]
CONDWS  .MMHO  : CONDUCTIVITY [1000/DRESWS]
DCORWS  .G/C3  : DENSITY CORRECTION [DRHOED]
DENWS   .G/C3  : BULK DENSITY RHOBED]
DPHILSED.V/V   : DENSITY POROSITY [M=2.71, F=1.00] FROM DENSITY LOG [ADJ TO GRSED]
DPHISSED.V/V   : DENSITY POROSITY [M=2.65, F=1.00] FROM DENSITY LOG [ADJ TO GRSED]
DPOLSWS .V/V   : DENSITY POROSITY [M=2.71, F=1.00] [CALCULATED FROM DENWS]
DRESWS  .OHMM  : DEEP RESISTIVITY [ILDED]
DRHOED  .G/C3  : DENSITY CORRECTION FROM DENSITY LOG[ADJ TO GRSED]
DTED    .US/F  : DELTA TIME FROM SONIC LOG
DTWS    .US/F  : DELTA TIME [DTED]
GRDED   .GAPI  : GAMMA RAY FROM DENSITY LOG[ADJ TO GRSED]
GRSED   .GAPI  : GAMMA RAY FROM SONIC LOG
GRWS    .GAPI  : GAMMA RAY [GRSED, CSG <1537']
ILDED   .OHMM  : INDUCTION LOG DEEP RESISTIVITY
ILMED   .OHMM  : INDUCTION LOG MEDIUM RESISTIVITY
LL8ED   .OHMM  : 8 INCH LATEROLOG RESISTIVITY
MRESWS  .OHMM  : MEDIUM RESISTIVITY [ILMED]
NPHILSED.V/V   : NEUTRON POROSITY LIMESTONE FROM DENSITY LOG [ADJ TO GRSED]
NPHISSED.V/V   : NEUTRON POROSITY SANDSTONE FROM DENSITY LOG [ADJ TO GRSED]
NPOLSWS .V/V   : NEUTRON POROSITY LIMESTONE [CONVERTED NPHISSED TO LIMESTONE SPL WITH NPHILSED @9598']
RHOBED  .G/C3  : BULK DENSITY FROM DENSITY LOG [ADJ TO GRSED]
SPRED   .MV    : SPONTANEOUS POTENTIAL FROM RESISTIVITY LOG
SPWS    .MV    : SPONTANEOUS POTENTIAL [BASELINE 0 MV] [SPRED]
SRESWS  .OHMM  : SHALLOW RESISTIVITY [LL8ED]
TENDED  .LBF   : TENSION FROM DENSITY LOG [ADJ TO GRSED]
TENSED  .LBF   : TENSION FROM SONIC LOG
~Params ----------------------------------------------------
PD  .                     GL : PERMANENT DATUM
LMF .                     GL : LOG MEASURED FROM
EKB .FT                 2726 : KELLY BUSHING
DATE.               11/29/77 : RUN DATE
RUN .                      1 : RUN NUMBER
DFD .                    9.7 : DRILLING FLUID DENSITY
DFV .                    145 : DRILLING FLUID VISCOSITY
DFPH.                    9.5 : DRILLING FLUID PH
DFL .                    7.6 : DRILLING FLUID LOSS
MSS .               FLOWLINE : MUD SAMPLE SOURCE
TCS .HRS                 7.5 : TIME CIRCULATED STOPPED
ENGI.              BIGG GUNN : RECORDING ENGINEER
WITN.               WILLIAMS : WITNESSED BY
CLNT.                A2DTECH : CLIENT CODE
ORIG.            2" 5" PRINT : ORIGIN OF DATA
UWI .       100061006117W500 : UNIQUE WELL ID
DICO. A2D Technologies, Inc. : DIGITIZING COMPANY
~Other -----------------------------------------------------
~ASCII -----------------------------------------------------
# ...
 2700.00000    -999.25   10.75200   10.75200  244.55670    -999.25    -999.25    -999.25    -999.25    -999.25    4.08920    -999.25  111.01210  111.01210    -999.25   78.53430   78.53430    4.08920    4.45520    3.90360    4.45520    -999.25    -999.25    -999.25    -999.25  -48.53720   -2.36850    3.90360    -999.25 1788.72320
 2750.00000    -999.25   14.10940   14.10940  269.98570    -999.25    -999.25    -999.25    -999.25    -999.25    3.70390    -999.25  112.19170  112.19170    -999.25   56.87500   56.87500    3.70390    4.02090    3.79400    4.02090    -999.25    -999.25    -999.25    -999.25  -49.66020   -3.67340    3.79400    -999.25 1934.61630
 2800.00000    -999.25   12.24360   12.24360  217.52840    -999.25    -999.25    -999.25    -999.25    -999.25    4.59710    -999.25  103.57940  103.57940    -999.25   64.83280   64.83280    4.59710    4.95450    4.20690    4.95450    -999.25    -999.25    -999.25    -999.25  -48.91340   -3.10940    4.20690    -999.25 1975.14890
 2850.00000    -999.25    9.56190    9.56190   82.23680    -999.25    -999.25    -999.25    -999.25    -999.25   12.16000    -999.25   80.11340   80.11340    -999.25   55.24760   55.24760   12.16000   14.13040   16.36340   14.13040    -999.25    -999.25    -999.25    -999.25  -49.93150   -4.31030   16.36340    -999.25 1983.82760
 2900.00000    -999.25    9.98200    9.98200  215.05380    -999.25    -999.25    -999.25    -999.25    -999.25    4.65000    -999.25   71.49970   71.49970    -999.25   65.88430   65.88430    4.65000    5.09320    5.50080    5.09320    -999.25    -999.25    -999.25    -999.25  -46.14240   -0.70400    5.50080    -999.25 2048.61770
 2950.00000    -999.25   11.34310   11.34310  200.02790    -999.25    -999.25    -999.25    -999.25    -999.25    5.00080    -999.25   86.55530   86.55530    -999.25   65.63520   65.63520    5.00080    5.31680    5.76350    5.31680    -999.25    -999.25    -999.25    -999.25  -45.55020   -0.29550    5.76350    -999.25 2016.18860
 3000.00000    -999.25    9.13160    9.13160   54.25380    -999.25    -999.25    -999.25    -999.25    -999.25   18.43190    -999.25   79.28430   79.28430    -999.25   49.72950   49.72950   18.43190   20.32590   34.50400   20.32590    -999.25    -999.25    -999.25    -999.25  -60.16640  -15.09370   34.50400    -999.25 1934.64110
 3050.00000    -999.25    9.45410    9.45410  147.01770    -999.25    -999.25    -999.25    -999.25    -999.25    6.80190    -999.25   82.00280   82.00280    -999.25   65.92080   65.92080    6.80190    7.87540    8.56600    7.87540    -999.25    -999.25    -999.25    -999.25  -46.93970   -2.04980    8.56600    -999.25 2181.96420
 3100.00000    -999.25   13.76490   13.76490  219.58720    -999.25    -999.25    -999.25    -999.25    -999.25    4.55400    -999.25   90.68510   90.68510    -999.25   59.28170   59.28170    4.55400    4.97960    6.44140    4.97960    -999.25    -999.25    -999.25    -999.25  -46.09500   -1.38790    6.44140    -999.25 2010.30460
 3150.00000    -999.25   14.20800   14.20800  297.64560    -999.25    -999.25    -999.25    -999.25    -999.25    3.35970    -999.25  150.07550  150.07550    -999.25   58.67720   58.67720    3.35970    3.67250    5.61150    3.67250    -999.25    -999.25    -999.25    -999.25  -47.70440   -3.18010    5.61150    -999.25 2185.43690
 3200.00000    -999.25    9.52570    9.52570  178.77050    -999.25    -999.25    -999.25    -999.25    -999.25    5.59380    -999.25   89.26890   89.26890    -999.25   69.02960   69.02960    5.59380    6.32100    6.93410    6.32100    -999.25    -999.25    -999.25    -999.25  -47.55130   -3.21080    6.93410    -999.25 2431.43200
 3250.00000    -999.25    9.18380    9.18380   55.34460    -999.25    -999.25    -999.25    -999.25    -999.25   18.06860    -999.25   80.25840   80.25840    -999.25   44.44190   44.44190   18.06860   23.34350   23.79370   23.34350    -999.25    -999.25    -999.25    -999.25  -68.60200  -24.44330   23.79370    -999.25 2261.41950
 3300.00000    -999.25   10.03390   10.03390  184.42700    -999.25    -999.25    -999.25    -999.25    -999.25    5.42220    -999.25   89.63860   89.63860    -999.25   82.30470   82.30470    5.42220    5.85700    6.32930    5.85700    -999.25    -999.25    -999.25    -999.25  -46.69360   -2.71780    6.32930    -999.25 2632.42820
 3350.00000    -999.25    9.91870    9.91870  202.13860    -999.25    -999.25    -999.25    -999.25    -999.25    4.94710    -999.25   93.61060   93.61060    -999.25   90.90170   90.90170    4.94710    5.60930    5.79260    5.60930    -999.25    -999.25    -999.25    -999.25  -46.89650   -3.10350    5.79260    -999.25 2543.81820
 3400.00000    -999.25   10.03030   10.03030  149.20700    -999.25    -999.25    -999.25    -999.25    -999.25    6.70210    -999.25   89.56860   89.56860    -999.25  107.45040  107.45040    6.70210    7.06990    7.21650    7.06990    -999.25    -999.25    -999.25    -999.25  -49.88050   -6.27030    7.21650    -999.25 2523.83600
 3450.00000    -999.25    9.62640    9.62640  148.84650    -999.25    -999.25    -999.25    -999.25    -999.25    6.71910    -999.25   88.46900   88.46900    -999.25  107.60240  107.60240    6.71910    7.25660    7.46950    7.25660    -999.25    -999.25    -999.25    -999.25  -48.43140   -5.00490    7.46950    -999.25 2607.77160
 3500.00000    -999.25    9.68840    9.68840  152.67640    -999.25    -999.25    -999.25    -999.25    -999.25    6.54980    -999.25   89.90080   89.90080    -999.25  116.34350  116.34350    6.54980    7.17070    7.56330    7.17070    -999.25    -999.25    -999.25    -999.25  -48.32840   -5.08380    7.56330    -999.25 1009.14140
 3550.00000    -999.25    9.65370    9.65370  162.95670    -999.25    -999.25    -999.25    -999.25    -999.25    6.13660    -999.25   93.59730   93.59730    -999.25  129.14960  129.14960    6.13660    6.87810    8.03210    6.87810    -999.25    -999.25    -999.25    -999.25  -46.12710   -3.06530    8.03210    -999.25 1068.61300
 3600.00000    -999.25    9.71490    9.71490   94.30940    -999.25    -999.25    -999.25    -999.25    -999.25   10.60340    -999.25   81.67060   81.67060    -999.25  111.43650  111.43650   10.60340   12.18360   14.08330   12.18360    -999.25    -999.25    -999.25    -999.25  -48.08070   -5.20170   14.08330    -999.25 1267.14190
 3650.00000    -999.25    9.98010    9.98010  130.15410    -999.25    -999.25    -999.25    -999.25    -999.25    7.68320    -999.25   88.79620   88.79620    -999.25  113.51780  113.51780    7.68320    8.73600    9.66710    8.73600    -999.25    -999.25    -999.25    -999.25  -46.43210   -3.73600    9.66710    -999.25 1245.31890
 3700.00000    -999.25   10.47280   10.47280  121.75780    -999.25    -999.25    -999.25    -999.25    -999.25    8.21680    -999.25   82.65260   82.65260    -999.25   97.03680   97.03680    8.21680    8.56170   11.17490    8.56170    -999.25    -999.25    -999.25    -999.25  -48.84020   -6.32770   11.17490    -999.25 1378.63530
 3750.00000    -999.25   12.91240   12.91240  165.71110    -999.25    -999.25    -999.25    -999.25    -999.25    6.03460    -999.25   90.24100   90.24100    -999.25  104.86200  104.86200    6.03460    6.46440    7.74160    6.46440    -999.25    -999.25    -999.25    -999.25  -48.66900   -6.33850    7.74160    -999.25 1300.89920
 3800.00000    -999.25   11.48550   11.48550  109.32310    -999.25    -999.25    -999.25    -999.25    -999.25    9.14720    -999.25   83.28750   83.28750    -999.25   94.17840   94.17840    9.14720    9.40240    9.22120    9.40240    -999.25    -999.25    -999.25    -999.25  -50.05510   -7.90740    9.22120    -999.25 1414.43780
 3850.00000    -999.25   11.75250   11.75250  115.72470    -999.25    -999.25    -999.25    -999.25    -999.25    8.64120    -999.25   83.13310   83.13310    -999.25   96.02670   96.02670    8.64120    9.37860    9.83280    9.37860    -999.25    -999.25    -999.25    -999.25  -46.26210   -4.29720    9.83280    -999.25 1475.74600
 3900.00000    -999.25   11.80780   11.80780  125.79880    -999.25    -999.25    -999.25    -999.25    -999.25    7.94920    -999.25   84.35450   84.35450    -999.25   99.79390   99.79390    7.94920    9.01660    9.90190    9.01660    -999.25    -999.25    -999.25    -999.25  -44.66950   -2.88740    9.90190    -999.25 1492.62850
