~Version ---------------------------------------------------
VERS.      2.0 : CWLS log ASCII Standard -VERSION 2.0
WRAP.       NO : One line per depth step
CREA. 08/02/17 : LAS Creation Date
~Well ------------------------------------------------------
STRT.FT                        1050.0 : START DEPTH
STOP.FT                       10700.0 : STOP DEPTH
STEP.FT                      50.00000 : STEP LENGTH
NULL.                         -999.25 : NULL VALUE
COMP.            CHEVRON STANDARD LTD : COMPANY
WELL. CHEVRON GULF KAYBOBS 13-8-63-20 : WELL
FLD .                                 : FIELD
LOC .                                 : LOCATION
CTRY.                          CANADA : COUNTRY
SRVC.                    Schlumberger : SERVICE COMPANY
DATE.                     07-Dec-1977 : LOGDATE
PROV.                         Alberta : PROVINCE
UWI .                100130806320W500 : UNIQUE WELL ID
SLAT.WGS84                   54.44033 : SURFACE LATITUDE
SLON.WGS84                   -116.995 : SURFACE LONGITUDE
~Curve Information -----------------------------------------
DEPT    .FT    : Depth Curve
C13ED   .IN    : CALIPER 1-3 PAD ELECTRODE
C24ED   .IN    : CALIPER 2-4 PAD ELECTRODE
CALDED  .IN    : CALIPER FROM DENSITY LOG
CALSED  .IN    : CALIPER FROM SONIC LOG
CALWS   .IN    : CALIPER [CALSED]
CONDWS  .MMHO  : CONDUCTIVITY [1000/DRESWS]
DCORWS  .G/C3  : DENSITY CORRECTION [DRHOED]
DENWS   .G/C3  : BULK DENSITY [RHOBED]
DPHILSED.V/V   : DENSITY POROSITY [M=2.71 F=1.00] FROM DENSITY LOG
DPHISSED.V/V   : DENSITY POROSITY [M=2.65 F=1.00] FROM DENSITY LOG
DPOLSWS .V/V   : DENSITY POROSITY LIMESTONE  {CALCUKLATED FROM RHOBED]
DRESWS  .OHMM  : DEEP RESISTIVITY [ILDED]
DRHOED  .G/C3  : DENSITY CORRECTION FROM DENSITY LOG
DTED    .US/F  : DELTA TIME FROM SONIC LOG
DTWS    .US/F  : DELTA TIME [DTED]
GRDED   .GAPI  : GAMMA RAY FROM DENSITY LOG
GRSED   .GAPI  : GAMMA RAY FROM SONIC LOG
GRWS    .GAPI  : GAMMA RAY [GRSED]
ILDED   .OHMM  : INDUCTION LOG DEEP RESISTIVITY
ILMED   .OHMM  : INDUCTION LOG MEDIUM RESISTIVITY
LL8ED   .OHMM  : 8 INCH LATEROLOG RESISTIVITY
MRESWS  .OHMM  : MEDIUM RESISTIVITY [ILMED]
NPHILSED.V/V   : NEUTRON POROSITY LIMESTONE FROM DENSITY LOG
NPHISSED.V/V   : NEUTRON POROSITY SANDSTONE FROM DENSITY LOG
NPOLSWS .V/V   : NEUTRON POROSITY LIMESTONE [NPHILSED], SPLICED WITH CONVERTED MATRIX FROM SANDSTONE TO LIMESTONE FROM 2180'-6857'
RHOBED  .G/C3  : BULK DENSITY FROM DENSITY LOG
SPRED   .MV    : SPONTANEOUS POTENTIAL FROM RESISTIVITY LOG
SPWS    .MV    : SPONTANEOUS POTENTIAL [BASELINE 0 MV] [SPRED]
SRESWS  .OHMM  : SHALLOW RESISTIVITY [LL8ED]
TENDED  .LBF   : TENSION FROM DENSITY LOG
TENSED  .LBF   : TENSION FROM SONIC LOG
~Params ----------------------------------------------------
PD  .                     GL : PERMANENT DATUM
EPD .FT               2595.6 : ELEVATION PERMANENT DATUM
LMF .                     KB : LOG MEASURED FROM
DAPD.FT                 17.4 : FEET ABOVE PERMANENT DATUM
EKB .FT                 2613 : KELLY BUSHING
EGL .FT               2595.6 : GROUND LEVEL
DATE.               01/05/77 : RUN DATE
RUN .                      2 : RUN NUMBER
DD  .FT                10720 : DEPTH DRILLER
DL  .FT                10709 : DEPTH LOGGER
BLI .FT                10706 : BOTTOM LOG INTERVAL
TLI .FT                 6500 : TOP LOG INTERVAL
CBD .FT                 1090 : CASING BOTTOM DRILLER
CBL .FT                 1091 : CASING BOTTOM LOGGER
BS  .IN                 8.75 : BIT SIZE
BSD .FT                10720 : BIT SIZE AT DEPTH
DFT .         FGM MLGARD OIL : DRILLING FLUID TYPE
DFD .                    9.2 : DRILLING FLUID DENSITY
DFV .                     80 : DRILLING FLUID VISCOSITY
DFPH.                   10.5 : DRILLING FLUID PH
MSS .               FLOWLINE : MUD SAMPLE SOURCE
RMS .OHMM               1.43 : RESISTIVITY MUD SAMPLE
MST .DEGF                 70 : MUD SAMPLE TEMPERATURE
RMF .OHMM               1.08 : RESISTIVITY MUD FILTRATE SAMPLE
MFST.DEGF                 74 : MUD FILTRATE SAMPLE TEMPERATURE
LUN .                   7800 : LOGGING UNIT NUMBER
LUL .                    EDM : LOGGING UNIT LOCATION
ENGI.               FEINGOLD : RECORDING ENGINEER
WITN.             RICHARDSON : WITNESSED BY
CLNT.                A2DTECH : CLIENT CODE
ORIG.            2" 5" PRINT : ORIGIN OF DATA
UWI .       100130806320W500 : UNIQUE WELL ID
DICO. A2D Technologies, Inc. : DIGITIZING COMPANY
~Other -----------------------------------------------------
~ASCII -----------------------------------------------------
# ...
 4500.00000    -999.25    -999.25    -999.25    9.72450    9.72450  107.92140    -999.25    -999.25    -999.25    -999.25    -999.25    9.26600    -999.25   90.63440   90.63440    -999.25  113.03950  113.03950    9.26600   10.08770   12.43950   10.08770    -999.25    -999.25    -999.25    -999.25   -8.88970  -18.56140   12.43950    -999.25 4489.69520
 4550.00000    -999.25    -999.25    -999.25    9.25970    9.25970   79.34300    -999.25    -999.25    -999.25    -999.25    -999.25   12.60350    -999.25   94.58550   94.58550    -999.25  135.12460  135.12460   12.60350   13.47620   18.44920   13.47620    -999.25    -999.25    -999.25    -999.25   -4.45260  -15.36460   18.44920    -999.25 4612.46820
 4600.00000    -999.25    -999.25    -999.25    9.99740    9.99740  113.58390    -999.25    -999.25    -999.25    -999.25    -999.25    8.80410    -999.25   93.23330   93.23330    -999.25  115.38690  115.38690    8.80410    9.09010   11.36550    9.09010    -999.25    -999.25    -999.25    -999.25   -9.10310  -20.57820   11.36550    -999.25 4966.70040
 4650.00000    -999.25    -999.25    -999.25   10.16540   10.16540   76.24450    -999.25    -999.25    -999.25    -999.25    -999.25   13.11570    -999.25   88.32410   88.32410    -999.25  111.43520  111.43520   13.11570   14.63370   19.87380   14.63370    -999.25    -999.25    -999.25    -999.25   -9.18940  -19.98310   19.87380    -999.25 5077.87860
 4700.00000    -999.25    -999.25    -999.25   10.78350   10.78350  139.02500    -999.25    -999.25    -999.25    -999.25    -999.25    7.19310    -999.25   84.18010   84.18010    -999.25   93.29490   93.29490    7.19310    7.53930    9.04180    7.53930    -999.25    -999.25    -999.25    -999.25   -5.03970  -15.14510    9.04180    -999.25 5126.96730
 4750.00000    -999.25    -999.25    -999.25   10.80680   10.80680  141.41670    -999.25    -999.25    -999.25    -999.25    -999.25    7.07130    -999.25   90.23720   90.23720    -999.25  108.01960  108.01960    7.07130    7.30320    9.25350    7.30320    -999.25    -999.25    -999.25    -999.25    1.55250   -7.87150    9.25350    -999.25 5230.68630
 4800.00000    -999.25    -999.25    -999.25   10.37210   10.37210  101.29760    -999.25    -999.25    -999.25    -999.25    -999.25    9.87190    -999.25   81.67120   81.67120    -999.25  105.12970  105.12970    9.87190   10.37440   11.97130   10.37440    -999.25    -999.25    -999.25    -999.25    3.52340   -5.21570   11.97130    -999.25 5362.33480
 4850.00000    -999.25    -999.25    -999.25   10.26460   10.26460  155.52530    -999.25    -999.25    -999.25    -999.25    -999.25    6.43120    -999.25   83.51880   83.51880    -999.25  107.75400  107.75400    6.43120    6.67550    7.66430    6.67550    -999.25    -999.25    -999.25    -999.25   -2.06930  -10.12020    7.66430    -999.25 5880.78780
 4900.00000    -999.25    -999.25    -999.25   10.08770   10.08770  117.62220    -999.25    -999.25    -999.25    -999.25    -999.25    8.50180    -999.25   81.39950   81.39950    -999.25  108.31720  108.31720    8.50180    8.78380   10.54120    8.78380    -999.25    -999.25    -999.25    -999.25   -5.44990  -12.81940   10.54120    -999.25 5994.17980
 4950.00000    -999.25    -999.25    -999.25   11.44310   11.44310  169.05370    -999.25    -999.25    -999.25    -999.25    -999.25    5.91540    -999.25   86.15090   86.15090    -999.25  100.47310  100.47310    5.91540    6.38560    8.63910    6.38560    -999.25    -999.25    -999.25    -999.25   -3.30760   -9.98880    8.63910    -999.25 6081.00090
 5000.00000    -999.25    -999.25    -999.25    9.81000    9.81000  182.05320    -999.25    -999.25    -999.25    -999.25    -999.25    5.49290    -999.25   81.93650   81.93650    -999.25  109.40730  109.40730    5.49290    5.78560    7.02870    5.78560    -999.25    -999.25    -999.25    -999.25   -2.71140   -8.71120    7.02870    -999.25 4145.30800
 5050.00000    -999.25    -999.25    -999.25   11.48080   11.48080  147.90270    -999.25    -999.25    -999.25    -999.25    -999.25    6.76120    -999.25   86.85800   86.85800    -999.25  106.80840  106.80840    6.76120    7.17340    8.62530    7.17340    -999.25    -999.25    -999.25    -999.25   -2.29320   -7.60810    8.62530    -999.25 4702.21960
 5100.00000   12.27780   10.14080   13.47760   12.76260   12.76260  215.26820    0.21270    2.32740    -999.25    0.21120    0.22380    4.64540    0.21270   96.47590   96.47590  119.43840  118.52830  118.52830    4.64540    4.89200    6.74150    4.89200    -999.25    -999.25    -999.25    2.32740   -0.57640   -5.20310    6.74150 1232.91400 4376.23390
 5150.00000   15.18140   11.28890    -999.25   13.72840   13.72840  288.25090    0.15440    1.83400    -999.25    0.44950    0.51230    3.46920    0.15440  102.73740  102.73740   91.52780   70.92340   70.92340    3.46920    3.58220    5.22190    3.58220    -999.25    -999.25    -999.25    1.83400    -999.25    -999.25    5.22190 1937.35410 4068.77240
 5200.00000   13.39470   10.82490   14.28550   12.52850   12.52850  194.28970    0.18290    1.93970    -999.25    0.39800    0.45050    5.14750    0.18290   94.91600   94.91600   93.44880   95.38450   95.38450    5.14750    5.34540    6.30010    5.34540    -999.25    0.44840    0.40910    1.93970  -52.32570   -5.96620    6.30010 1565.50520 4524.27190
 5250.00000   11.30920   10.27370   12.49240   10.75730   10.75730  165.03010    0.24930    2.40530    -999.25    0.15500    0.17820    6.05950    0.24930   89.67790   89.67790  113.11970  101.44150  101.44150    6.05950    6.44020    8.05220    6.44020    -999.25    0.31240    0.27320    2.40530  -53.42000   -4.11910    8.05220 1897.81320 4515.56850
 5300.00000    9.75150    9.52280   10.78030    9.53150    9.53150   72.24290    0.16270    2.47910    -999.25    0.14710    0.13500   13.84220    0.16270   72.01480   72.01480  104.78090   90.66710   90.66710   13.84220   15.58360   20.13950   15.58360    -999.25    0.20070    0.16160    2.47910  -55.87800   -8.71820   20.13950 2125.83720 4877.22860
 5350.00000   13.05390   10.80640   14.05750   10.95150   10.95150  109.55780    0.21050    2.53790    -999.25    0.08830    0.10060    9.12760    0.21050   77.18370   77.18370   92.15040   86.09990   86.09990    9.12760    9.46080   10.89520    9.46080    -999.25    0.21400    0.17480    2.53790  -54.01940  -10.21280   10.89520 2363.36060 5099.40620
 5400.00000   17.96170   14.46950   11.83290   13.10770   13.10770  221.42510    0.10010    1.47400    -999.25    0.45070    0.72280    4.51620    0.10010  123.05660  123.05660   82.28930   57.37800   57.37800    4.51620    5.08400    5.44120    5.08400    -999.25    0.44930    0.41000    1.47400  -59.53350  -19.04690    5.44120 2382.54050 4641.57260
 5450.00000   13.21670   11.57470   12.61180   12.25330   12.25330  145.58850    0.07120    1.53300    -999.25    0.45040    0.68830    6.86890    0.07120  134.68700  134.68700   52.83330   51.20220   51.20220    6.86890    9.69150   10.92240    9.69150    -999.25    0.44950    0.41020    1.53300  -50.23580  -13.10260   10.92240 2536.73180 5159.34850
 5500.00000   10.68310    9.89870   11.66160   10.63770   10.63770   46.98120    0.01510    2.61510    -999.25    0.03380    0.05550   21.28510    0.01510   62.61840   62.61840   53.25950   52.12630   52.12630   21.28510   23.92610   35.27690   23.92610    -999.25    0.16670    0.12760    2.61510  -56.28910  -22.47570   35.27690 2754.02200 5506.10680
 5550.00000    -999.25    -999.25   11.95020   10.50590   10.50590   70.22620    0.02390    2.57140    -999.25    0.05030    0.08110   14.23970    0.02390   67.81010   67.81010   86.44670   70.90430   70.90430   14.23970   15.15650   18.50690   15.15650    -999.25    0.22450    0.18540    2.57140  -47.69820  -17.22150   18.50690 2662.32300 5625.41710
 5600.00000    -999.25    -999.25   11.00610   10.64510   10.64510   53.47510    0.05750    2.59450    -999.25    0.02370    0.06750   18.70030    0.05750   81.84260   81.84260   70.01680   58.26630   58.26630   18.70030   19.89620   24.26190   19.89620    -999.25    0.23270    0.19360    2.59450  -54.09060  -26.96720   24.26190 2873.24560 5820.96540
