~Version ---------------------------------------------------
VERS.      2.0 : CWLS log ASCII Standard -VERSION 2.0
WRAP.       NO : One line per depth step
CREA. 10/21/19 : LAS Creation Date
~Well ------------------------------------------------------
STRT.FT                              300.0 : START DEPTH
STOP.FT                             9200.0 : STOP DEPTH
STEP.FT                           50.00000 : STEP LENGTH
NULL.                              -999.25 : NULL VALUE
COMP.          CANADA-CITIES SERVICE, LTD. : COMPANY
WELL. C.S. PAN AM GOODWIN LAKE 10-22-59-13 : WELL
FLD .                                      : FIELD
LOC .                                      : LOCATION
CTRY.                               CANADA : COUNTRY
SRVC.                         Schlumberger : SERVICE COMPANY
DATE.                          03-Aug-1963 : LOGDATE
PROV.                              Alberta : PROVINCE
UWI .                     100102205913W500 : UNIQUE WELL ID
SLAT.WGS84                        54.11761 : SURFACE LATITUDE
SLON.WGS84                       -115.8598 : SURFACE LONGITUDE
~Curve Information -----------------------------------------
DEPT  .FT    : Depth Curve
CALWS .IN    : CALIPER [MCALED]
CILDED.MMHO  : CONDUCTIVITY FROM RESISTIVITY LOG
CONDWS.MMHO  : CONDUCTIVITY [1000/DRESWS]
DRESWS.OHMM  : DEEP RESISTIVITY [1000/CILDED, IF ILDED < 2, ILDED]
DTED  .US/F  : DELTA-TIME 3' SPACING FROM SONIC LOG
DTWS  .US/F  : COMPRESSIONAL SONIC [DTED]
GRED  .GAPI  : GAMMA RAY FROM GR LOG
GRSED .GAPI  : GAMMA RAY FROM SONIC LOG
GRWS  .GAPI  : GAMMA RAY [GRED SPL. TO GRSED @ 3107']
ILDED .OHMM  : DEEP INDUCTION LOG RESISTIVITY FROM RESISTIVITY LOG
MCALED.IN    : MLT (MICROLOG) CALIPER FROM MICROLATEROLOG
SNED  .OHMM  : 16 INCH SHORT NORMAL RESISTIVITY FROM RESISTIVITY LOG
SPRED .MV    : SPONTANEOUS POTENTIAL FROM RESISTIVITY LOG
SPWS  .MV    : SPONTANEOUS POTENTIAL [BASELINE 0 MV] [SPRED]
SRESWS.OHMM  : SHALLOW RESISTIVITY [SNED]
~Params ----------------------------------------------------
PD  .                     GL : PERMANENT DATUM
EPD .FT                 2562 : ELEVATION PERMANENT DATUM
LMF .                     KB : LOG MEASURED FROM
DAPD.FT                   18 : FEET ABOVE PERMANENT DATUM
EKB .FT                 2580 : KELLY BUSHING
EGL .FT                 2562 : GROUND LEVEL
DATE.               08/03/63 : RUN DATE
RUN .                      2 : RUN NUMBER
DD  .FT                 9232 : DEPTH DRILLER
DL  .FT                 9224 : DEPTH LOGGER
BLI .FT                 9223 : BOTTOM LOG INTERVAL
TLI .FT                 5650 : TOP LOG INTERVAL
CBD .FT               946.76 : CASING BOTTOM DRILLER
BS  .IN                7.875 : BIT SIZE
BSD .FT                 9232 : BIT SIZE AT DEPTH
DFT .           GEL OIL CHEM : DRILLING FLUID TYPE
DFD .                    9.7 : DRILLING FLUID DENSITY
DFV .                    135 : DRILLING FLUID VISCOSITY
DFPH.                    9.5 : DRILLING FLUID PH
DFL .                    4.3 : DRILLING FLUID LOSS
RMS .OHMM               1.64 : RESISTIVITY MUD SAMPLE
MST .DEGF                 72 : MUD SAMPLE TEMPERATURE
RMF .OHMM               0.85 : RESISTIVITY MUD FILTRATE SAMPLE
MFST.DEGF                 84 : MUD FILTRATE SAMPLE TEMPERATURE
RMC .OHMM               1.75 : RESISTIVITY MUD CAKE
MCST.DEGF                 83 : MUD CAKE SAMPLE TEMPERATURE
RMB .OHMM               0.66 : RESISTIVITY MUD AT BHT
TCS .HRS                 2.5 : TIME CIRCULATED STOPPED
LUN .                   3232 : LOGGING UNIT NUMBER
LUL .                     WC : LOGGING UNIT LOCATION
ENGI.               HATLELID : RECORDING ENGINEER
WITN.              ABERNATHY : WITNESSED BY
CLNT.                A2DTECH : CLIENT CODE
ORIG.            2" 5" PRINT : ORIGIN OF DATA
UWI .       100102205913W500 : UNIQUE WELL ID
DICO. A2D Technologies, Inc. : DIGITIZING COMPANY
~Other -----------------------------------------------------
~ASCII -----------------------------------------------------
# ...
 4900.00000   10.42910  206.90250  201.27610    4.96830   84.40630   84.40630    -999.25   68.26120   68.26120    4.96830   10.42910    6.98450  -61.60450   -8.12390    6.98450
 4950.00000    9.23590   88.77060   84.21900   11.87380   86.42470   86.42470    -999.25   85.18290   85.18290   11.87380    9.23590   19.53280  -62.67580  -10.23280   19.53280
 5000.00000   11.76250   89.21850   88.49870   11.29960  102.15290  102.15290    -999.25   74.26120   74.26120   11.29960   11.76250   17.88410  -59.35650   -7.95110   17.88410
 5050.00000   14.37130   20.02330   20.46870   48.85520  131.87690  131.87690    -999.25   29.95530   29.95530   48.85520   14.37130   49.00210  -62.10200  -11.73430   49.00210
 5100.00000    9.77970   75.52030   80.28070   12.45630   89.40430   89.40430    -999.25   90.20270   90.20270   12.45630    9.77970   23.10250  -55.91240   -6.58230   23.10250
 5150.00000    9.15160   92.16310   95.45540   10.47610   72.27870   72.27870    -999.25   88.47950   88.47950   10.47610    9.15160   17.17740  -56.52290   -8.23040   17.17740
 5200.00000   11.06530  157.70300  167.20170    5.98080   74.35640   74.35640    -999.25   46.93740   46.93740    5.98080   11.06530   21.60800 -103.92820  -56.67340   21.60800
 5250.00000   10.39500  129.88910  133.23740    7.50540   76.64650   76.64650    -999.25   53.74280   53.74280    7.50540   10.39500   23.86240  -98.97690  -52.75970   23.86240
 5300.00000   11.03880  158.25040  158.73270    6.29990   80.95450   80.95450    -999.25   64.16840   64.16840    6.29990   11.03880   10.78710  -67.10950  -21.92990   10.78710
 5350.00000    8.64650  166.67100  169.13320    5.91250   72.11920   72.11920    -999.25   56.22270   56.22270    5.91250    8.64650   10.36730  -64.48850  -20.18690   10.36730
 5400.00000    9.04700  155.15600  162.68890    6.14670   79.04100   79.04100    -999.25   90.97950   90.97950    6.14670    9.04700   11.13870  -52.75510   -8.61420   11.13870
 5450.00000    8.87560   95.42740   91.06720   10.98090   68.65610   68.65610    -999.25   94.97540   94.97540   10.98090    8.87560   15.45210  -48.84700   -4.86680   15.45210
 5500.00000    8.77920  138.34680  143.34660    6.97610   83.42090   83.42090    -999.25  106.34050  106.34050    6.97610    8.77920   11.35570  -45.38680   -1.56730   11.35570
 5550.00000    8.14350   20.64310   19.94020   50.15000   60.25680   60.25680    -999.25   45.07910   45.07910   50.15000    8.14350   73.62200  -47.91220   -4.25340   73.62200
 5600.00000    8.68550   67.09910   65.12370   15.35540   71.52560   71.52560    -999.25  106.30330  106.30330   15.35540    8.68550   32.44100  -46.30210   -2.80400   32.44100
 5650.00000    9.21120  108.44170  107.26740    9.32250   98.39350   98.39350    -999.25  128.09700  128.09700    9.32250    9.21120   19.03920  -43.98520   -0.64780   19.03920
 5700.00000    7.94980  280.99190  290.79910    3.43880   85.07570   85.07570    -999.25   49.30330   49.30330    3.43880    7.94980   26.09030 -117.99760  -74.82090   26.09030
 5750.00000    7.77450    3.66270    2.12750  470.04440   58.54660   58.54660    -999.25   32.21600   32.21600  470.04440    7.77450  315.79100  -72.98070  -29.96470  315.79100
 5800.00000    7.79210    6.76970   11.96280   83.59240   59.17110   59.17110    -999.25   34.47190   34.47190   83.59240    7.79210  108.38560  -75.49250  -32.63720  108.38560
 5850.00000    8.06740   25.74830   22.55330   44.33950   63.64730   63.64730    -999.25  103.42990  103.42990   44.33950    8.06740   82.40050  -55.38410  -12.68950   82.40050
 5900.00000    7.48130  210.52600  196.20540    5.09670   54.93000   54.93000    -999.25   13.92720   13.92720    5.09670    7.48130   79.55810 -164.87430 -122.34040   79.55810
 5950.00000    7.57030   39.25930   35.46840   28.19410   52.65060   52.65060    -999.25   13.08330   13.08330   28.19410    7.57030  106.03870 -168.15380 -125.78050  106.03870
 6000.00000    7.82140  155.33450  172.33360    5.80270   66.73400   66.73400    -999.25  107.45890  107.45890    5.80270    7.82140   16.52070  -54.87020  -12.65760   16.52070
 6050.00000    8.66090   71.88840   69.83290   14.31990   48.93330   48.93330    -999.25   86.20130   86.20130   14.31990    8.66090   20.51120  -75.22820  -33.17630   20.51120
 6100.00000    8.66220  134.43870  124.01870    8.06330   48.84700   48.84700    -999.25   43.94570   43.94570    8.06330    8.66220   15.30160  -95.23860  -53.34740   15.30160
 6150.00000    8.36800  108.55660   97.37000   10.27010   48.00180   48.00180    -999.25   33.96250   33.96250   10.27010    8.36800   34.08670 -119.80080  -78.07030   34.08670
 6200.00000    8.23700   34.05600   35.70040   28.01090   46.90650   46.90650    -999.25   42.10230   42.10230   28.01090    8.23700   49.56800  -76.80800  -35.23820   49.56800
 6250.00000    8.06070   26.36910   29.11100   34.35130   45.59540   45.59540    -999.25   25.63780   25.63780   34.35130    8.06070   66.71280 -121.50390  -80.09480   66.71280
 6300.00000    8.07670   22.06830   24.37370   41.02790   45.67450   45.67450    -999.25   32.30150   32.30150   41.02790    8.07670   56.00870  -85.62500  -44.37660   56.00870
 6350.00000    8.16050   19.97830   21.94070   45.57740   45.74270   45.74270    -999.25   26.92760   26.92760   45.57740    8.16050   57.42360  -91.82540  -50.73770   57.42360
 6400.00000    8.14030   15.94070   17.61000   56.78590   45.78910   45.78910    -999.25   32.66380   32.66380   56.78590    8.14030   67.77850  -76.68720  -35.76020   67.77850
 6450.00000    8.08930   15.52100   17.18020   58.20660   45.73640   45.73640    -999.25   36.01790   36.01790   58.20660    8.08930   63.26890  -72.12480  -31.35850   63.26890
 6500.00000    8.08230   10.03270   10.94850   91.33650   48.92100   48.92100    -999.25   62.75400   62.75400   91.33650    8.08230   86.64950  -55.60100  -14.99540   86.64950
 6550.00000    8.15020   77.86070   74.64970   13.39590   48.00610   48.00610    -999.25   81.48780   81.48780   13.39590    8.15020   19.02900  -85.47020  -45.02520   19.02900
 6600.00000    8.14120   13.55600   14.44160   69.24420   44.79840   44.79840    -999.25   42.35830   42.35830   69.24420    8.14120   95.35170  -82.18240  -41.89810   95.35170
 6650.00000    8.33390    1.74490    3.26500  306.27780   44.03670   44.03670    -999.25   21.70290   21.70290  306.27780    8.33390  165.55210 -114.17520  -74.05160  165.55210
 6700.00000    8.04990    8.04030    9.05090  110.48660   43.92190   43.92190    -999.25   14.48580   14.48580  110.48660    8.04990  136.24210 -136.67630  -96.71340  136.24210
 6750.00000    8.43640    0.62680    2.33890  427.55940   43.81060   43.81060    -999.25   17.10920   17.10920  427.55940    8.43640  166.70790 -135.50150  -95.69930  166.70790
 6800.00000    8.29190    3.89590    5.33400  187.47500   43.76630   43.76630    -999.25   20.61970   20.61970  187.47500    8.29190  137.90440 -143.88150 -104.24000  137.90440
 6850.00000    9.55810    2.00780    2.79140  358.24170   43.75610   43.75610    -999.25   17.98200   17.98200  358.24170    9.55810  157.25850 -132.95870  -93.47790  157.25850
 6900.00000    8.18050   10.64570   11.71450   85.36400   43.71670   43.71670    -999.25   16.55660   16.55660   85.36400    8.18050  143.51980 -169.76520 -130.44510  143.51980
 6950.00000    8.14890   13.38270   14.32820   69.79260   43.68230   43.68230    -999.25   17.31900   17.31900   69.79260    8.14890  121.85270 -142.85040 -103.69100  121.85270
 7000.00000    8.12550    1.79720    3.29400  303.57820   43.59380   43.59380    -999.25   18.22450   18.22450  303.57820    8.12550  170.25640 -134.03390  -95.03520  170.25640
 7050.00000    8.24080    0.98930    2.00000  500.00000   43.59290   43.59290    -999.25   21.04080   21.04080  500.00000    8.24080  205.75530 -121.38930  -82.55130  205.75530
 7100.00000    8.75290    0.81550    2.00000  500.00000   43.86420   43.86420    -999.25   17.85270   17.85270  500.00000    8.75290  228.67760 -136.16190  -97.48460  228.67760
 7150.00000    8.27840    0.56560    2.00000  500.00000   42.69150   42.69150    -999.25   18.20100   18.20100  500.00000    8.27840  217.78480 -142.20920 -103.69260  217.78480
