~Version ---------------------------------------------------
VERS.      2.0 : CWLS log ASCII Standard -VERSION 2.0
WRAP.       NO : One line per depth step
CREA. 01/05/18 : LAS Creation Date
~Well ------------------------------------------------------
STRT.FT                         300.0 : START DEPTH
STOP.FT                       11250.0 : STOP DEPTH
STEP.FT                      50.00000 : STEP LENGTH
NULL.                         -999.25 : NULL VALUE
COMP.            MOBIL OIL CANADA LTD : COMPANY
WELL. MOBIL ET AL ROSEVEAR 10-4-54-15 : WELL
FLD .                              WC : FIELD
LOC .                                 : LOCATION
CTRY.                          CANADA : COUNTRY
SRVC.                    Schlumberger : SERVICE COMPANY
DATE.                     09-Jul-1971 : LOGDATE
PROV.                         Alberta : PROVINCE
UWI .                100100405415W500 : UNIQUE WELL ID
SLAT.WGS84                   53.63557 : SURFACE LATITUDE
SLON.WGS84                  -116.1457 : SURFACE LONGITUDE
~Curve Information -----------------------------------------
DEPT    .FT    : Depth Curve
CALDED  .IN    : CALIPER FROM DENSITY LOG [ADJ. TO RESISTIVITY LOG]
CALNED  .IN    : CALIPER FROM NEUTRON LOG [ADJ. TO RESISTIVITY LOG]
CALSED  .IN    : CALIPER FROM SONIC LOG [ADJ. TO RESISTIVITY LOG]
CALWS   .IN    : CALIPER [CALSED]
CILDED  .MMHO  : CONDUCTIVITY FROM RESISTIVITY LOG
CONDWS  .MMHO  : CONDUCTIVITY [1000/DRESWS]
DCORWS  .G/C3  : DENSITY CORRECTION [DRHOED]
DENWS   .G/C3  : FORMATION BULK DENSITY [RHOBED]
DPHILSED.V/V   : DENSITY POROSITY LIMESTONE [M=2.71 F=1.00] FROM DENSITY LOG [ADJ. TO RESISTIVITY LOG]
DPOLSWS .V/V   : DENSITY POROSITY LIMESTONE [CALC FROM DENWS, M=2.71 F=1.00]
DRESWS  .OHMM  : DEEP RESISTIVITY [1000/CILDED IF ILDED <=1, ILDED]
DRHOED  .G/C3  : DENSITY CORRECTION FROM DENSITY LOG [ADJ. TO RESISTIVITY LOG]
DTED    .US/F  : DELTA-T FROM SONIC LOG [ADJ. TO RESISTIVITY LOG]
DTWS    .US/F  : COMPRESSIONAL SONIC [DTED]
GRDED   .GAPI  : GAMMA RAY FROM DENSITY LOG [ADJ. TO RESISTIVITY LOG]
GRNED   .GAPI  : GAMMA RAY NEUTRON LOG [ADJ. TO RESISTIVITY LOG]
GRSED   .GAPI  : GAMMA RAY FROM SONIC LOG [ADJ. TO RESISTIVITY LOG]
GRWS    .GAPI  : GAMMA RAY [GRSED]
ILDED   .OHMM  : DEEP INDUCTION FROM RERSISTIVITY LOG
MCALED  .IN    : CALIPER FROM MICROLOG
NPOLSWS .V/V   : NEUTRON POROSITY LIMESTONE [SNPLSED]
RHOBED  .G/C3  : BULK DENSITY FROM DENSITY LOG  [ADJ. TO RESISTIVITY LOG]
SNED    .OHMM  : SHORT NORMAL RESISTIVITY FROM RESISTIVITY LOG
SNPLSED .V/V   : SIDE WALL NEUTRON POROSITY FROM DENSITY LOG [ADJ. TO RESISTIVITY LOG]
SPRED   .MV    : SPONTANEOUS POTENTIAL FROM RESISTIVITY LOG
SPWS    .MV    : SPONTANEOUS POTENTIAL [BASELINE 0 MV, SPRED]
SRESWS  .OHMM  : SHALLOW RESISTIVITY [SNED]
~Params ----------------------------------------------------
PD  .                     GL : PERMANENT DATUM
EPD .FT                 2903 : ELEVATION PERMANENT DATUM
LMF .                     KB : LOG MEASURED FROM
DAPD.FT                   13 : FEET ABOVE PERMANENT DATUM
EKB .FT                 2916 : KELLY BUSHING
EGL .FT                 2903 : GROUND LEVEL
DATE.               07/09/71 : RUN DATE
RUN .                      1 : RUN NUMBER
DD  .FT                11300 : DEPTH DRILLER
DL  .FT                11289 : DEPTH LOGGER
BLI .FT                11288 : BOTTOM LOG INTERVAL
TLI .FT                 1176 : TOP LOG INTERVAL
CBD .FT                 1176 : CASING BOTTOM DRILLER
CBL .FT                 1176 : CASING BOTTOM LOGGER
BS  .IN                 8.75 : BIT SIZE
BSD .FT                11300 : BIT SIZE AT DEPTH
DFT .                    GEL : DRILLING FLUID TYPE
DFD .                    9.1 : DRILLING FLUID DENSITY
DFV .                    100 : DRILLING FLUID VISCOSITY
DFPH.                     11 : DRILLING FLUID PH
DFL .                    8.2 : DRILLING FLUID LOSS
RMS .OHMM               2.46 : RESISTIVITY MUD SAMPLE
MST .DEGF                 71 : MUD SAMPLE TEMPERATURE
RMF .OHMM               2.36 : RESISTIVITY MUD FILTRATE SAMPLE
MFST.DEGF                 72 : MUD FILTRATE SAMPLE TEMPERATURE
RMC .OHMM               2.22 : RESISTIVITY MUD CAKE
MCST.DEGF                 72 : MUD CAKE SAMPLE TEMPERATURE
TCS .HRS                   5 : TIME CIRCULATED STOPPED
LUN .                   7501 : LOGGING UNIT NUMBER
LUL .                    EDM : LOGGING UNIT LOCATION
ENGI.                  PLUNE : RECORDING ENGINEER
WITN.                   DOAN : WITNESSED BY
CLNT.                A2DTECH : CLIENT CODE
ORIG.            2" 5" PRINT : ORIGIN OF DATA
UWI .       100100405415W500 : UNIQUE WELL ID
DICO. A2D Technologies, Inc. : DIGITIZING COMPANY
~Other -----------------------------------------------------
~ASCII -----------------------------------------------------
# ...
 2900.00000    -999.25    -999.25   10.44090   10.44090   84.15000   83.89750    -999.25    -999.25    -999.25    -999.25   11.91930    -999.25   81.82490   81.82490    -999.25    -999.25   75.23560   75.23560   11.91930    -999.25    -999.25    -999.25   12.44310    -999.25 -134.27820   -2.99530   12.44310
 2950.00000    -999.25    -999.25   10.38030   10.38030  172.25840  171.89790    -999.25    -999.25    -999.25    -999.25    5.81750    -999.25   98.50720   98.50720    -999.25    -999.25   77.08450   77.08450    5.81750    -999.25    -999.25    -999.25    5.65890    -999.25 -133.31270   -2.34720    5.65890
 3000.00000    -999.25    -999.25    9.92310    9.92310  116.19880  110.61090    -999.25    -999.25    -999.25    -999.25    9.04070    -999.25   74.76310   74.76310    -999.25    -999.25   61.71820   61.71820    9.04070    -999.25    -999.25    -999.25    8.38150    -999.25 -132.64150   -1.99020    8.38150
 3050.00000    -999.25    -999.25   10.41530   10.41530  164.16420  164.10930    -999.25    -999.25    -999.25    -999.25    6.09350    -999.25   98.61110   98.61110    -999.25    -999.25   93.13510   93.13510    6.09350    -999.25    -999.25    -999.25    5.74040    -999.25 -132.63520   -2.29970    5.74040
 3100.00000    -999.25    -999.25    9.66470    9.66470  233.83570  232.80750    -999.25    -999.25    -999.25    -999.25    4.37590    -999.25   91.38280   91.38280    -999.25    -999.25   84.59510   84.59510    4.37590    -999.25    -999.25    -999.25    4.85610    -999.25 -133.22480   -3.20680    4.85610
 3150.00000    -999.25    -999.25   10.27410   10.27410   78.26080   74.97710    -999.25    -999.25    -999.25    -999.25   13.33740    -999.25   76.99620   76.99620    -999.25    -999.25   74.78910   74.78910   13.33740    -999.25    -999.25    -999.25   12.41900    -999.25 -132.14430   -2.44050   12.41900
 3200.00000    -999.25    -999.25   10.61080   10.61080  182.48190  183.84210    -999.25    -999.25    -999.25    -999.25    5.44010    -999.25   93.03370   93.03370    -999.25    -999.25   88.15810   88.15810    5.44010    -999.25    -999.25    -999.25    4.95850    -999.25 -132.29140   -2.90500    4.95850
 3250.00000    -999.25    -999.25   10.80900   10.80900  324.38240  339.10950    -999.25    -999.25    -999.25    -999.25    2.94890    -999.25  133.99140  133.99140    -999.25    -999.25   95.64150   95.64150    2.94890    -999.25    -999.25    -999.25    3.51650    -999.25 -132.27690   -3.20470    3.51650
 3300.00000    -999.25    -999.25   10.90560   10.90560  164.44680  160.62450    -999.25    -999.25    -999.25    -999.25    6.22570    -999.25   85.27810   85.27810    -999.25    -999.25   63.00460   63.00460    6.22570    -999.25    -999.25    -999.25    6.34880    -999.25 -131.63250   -2.87620    6.34880
 3350.00000    -999.25    -999.25   10.77820   10.77820  235.02380  235.41510    -999.25    -999.25    -999.25    -999.25    4.24960    -999.25   95.65100   95.65100    -999.25    -999.25   99.94200   99.94200    4.24960    -999.25    -999.25    -999.25    4.13610    -999.25 -131.79010   -3.35120    4.13610
 3400.00000    -999.25    -999.25   11.01690   11.01690  112.56730  112.46320    -999.25    -999.25    -999.25    -999.25    8.89180    -999.25   85.43430   85.43430    -999.25    -999.25   81.94880   81.94880    8.89180    -999.25    -999.25    -999.25    8.72180    -999.25 -131.28690   -3.16220    8.72180
 3450.00000    -999.25    -999.25   10.84490   10.84490  133.14880  132.17610    -999.25    -999.25    -999.25    -999.25    7.56700    -999.25   95.47420   95.47420    -999.25    -999.25   74.90250   74.90250    7.56700    -999.25    -999.25    -999.25    7.22690    -999.25 -130.61090   -2.80360    7.22690
 3500.00000    -999.25    -999.25   10.95190   10.95190   66.37490   65.22010    -999.25    -999.25    -999.25    -999.25   15.33270    -999.25   83.21720   83.21720    -999.25    -999.25   47.15280   47.15280   15.33270    -999.25    -999.25    -999.25   13.33540    -999.25 -140.86720  -13.37420   13.33540
 3550.00000    -999.25    -999.25   10.21820   10.21820   49.60450   49.59040    -999.25    -999.25    -999.25    -999.25   20.16520    -999.25   82.29780   82.29780    -999.25    -999.25   47.37450   47.37450   20.16520    -999.25    -999.25    -999.25   19.25570    -999.25 -138.95730  -11.78010   19.25570
 3600.00000    -999.25    -999.25   12.13760   12.13760  145.10980  148.03380    -999.25    -999.25    -999.25    -999.25    6.76030    -999.25   84.61020   84.61020    -999.25    -999.25   69.31430   69.31430    6.76030    -999.25    -999.25    -999.25    7.66440    -999.25 -130.57760   -3.69590    7.66440
 3650.00000    -999.25    -999.25   12.60410   12.60410  167.33350  173.43050    -999.25    -999.25    -999.25    -999.25    5.76600    -999.25   92.55040   92.55040    -999.25    -999.25   72.74930   72.74930    5.76600    -999.25    -999.25    -999.25    5.46750    -999.25 -129.79790   -3.09830    5.46750
 3700.00000    -999.25    -999.25   11.36410   11.36410  131.39850  131.72960    -999.25    -999.25    -999.25    -999.25    7.61780    -999.25   84.08190   84.08190    -999.25    -999.25   60.43220   60.43220    7.61780    -999.25    -999.25    -999.25    7.96090    -999.25 -129.44510   -2.92950    7.96090
 3750.00000    -999.25    -999.25   10.73240   10.73240   84.22030   83.90180    -999.25    -999.25    -999.25    -999.25   11.91870    -999.25   77.68320   77.68320    -999.25    -999.25   45.94590   45.94590   11.91870    -999.25    -999.25    -999.25   14.37320    -999.25 -129.89950   -3.56610   14.37320
 3800.00000    -999.25    -999.25   10.83000   10.83000  163.07300  169.39100    -999.25    -999.25    -999.25    -999.25    5.90350    -999.25   88.54150   88.54150    -999.25    -999.25   61.73380   61.73380    5.90350    -999.25    -999.25    -999.25    7.40900    -999.25 -128.90130   -2.75100    7.40900
 3850.00000    -999.25    -999.25   10.69090   10.69090  161.25310  162.00270    -999.25    -999.25    -999.25    -999.25    6.17290    -999.25   95.71130   95.71130    -999.25    -999.25   63.73300   63.73300    6.17290    -999.25    -999.25    -999.25    7.54010    -999.25 -129.74840   -3.78210    7.54010
 3900.00000    -999.25    -999.25   10.84600   10.84600  107.75750  107.77720    -999.25    -999.25    -999.25    -999.25    9.27840    -999.25   82.30600   82.30600    -999.25    -999.25   54.97650   54.97650    9.27840    -999.25    -999.25    -999.25    9.00600    -999.25 -127.22540   -1.44120    9.00600
 3950.00000    -999.25    -999.25   10.59450   10.59450  182.78600  186.37820    -999.25    -999.25    -999.25    -999.25    5.36550    -999.25   83.04570   83.04570    -999.25    -999.25   66.73380   66.73380    5.36550    -999.25    -999.25    -999.25    6.00510    -999.25 -127.70800   -2.10770    6.00510
 4000.00000    -999.25    -999.25   10.54390   10.54390  112.16930  112.17550    -999.25    -999.25    -999.25    -999.25    8.91460    -999.25   80.54490   80.54490    -999.25    -999.25   63.94210   63.94210    8.91460    -999.25    -999.25    -999.25    9.86590    -999.25 -127.13490   -1.71680    9.86590
 4050.00000    -999.25    -999.25   10.60600   10.60600  108.12210  108.10110    -999.25    -999.25    -999.25    -999.25    9.25060    -999.25   83.38500   83.38500    -999.25    -999.25   56.47460   56.47460    9.25060    -999.25    -999.25    -999.25    8.32070    -999.25 -126.99740   -1.76240    8.32070
 4100.00000    -999.25    -999.25   10.71750   10.71750  140.26980  140.89920    -999.25    -999.25    -999.25    -999.25    7.10170    -999.25   91.92010   91.92010    -999.25    -999.25   57.18480   57.18480    7.10170    -999.25    -999.25    -999.25    8.68850    -999.25 -127.83470   -2.78360    8.68850
 4150.00000    -999.25    -999.25    9.15880    9.15880   35.79000   35.75120    -999.25    -999.25    -999.25    -999.25   27.97110    -999.25   76.86800   76.86800    -999.25    -999.25   28.33910   28.33910   27.97110    -999.25    -999.25    -999.25   32.59560    -999.25 -170.75780  -45.88890   32.59560
