~Version ---------------------------------------------------
VERS.      2.0 : CWLS log ASCII Standard -VERSION 2.0
WRAP.       NO : One line per depth step
CREA. 06/05/13 : LAS Creation Date
~Well ------------------------------------------------------
STRT.M                   300.0 : START DEPTH
STOP.M                  3000.0 : STOP DEPTH
STEP.M                50.00000 : STEP LENGTH
NULL.                  -999.25 : NULL VALUE
COMP. PARAMOUNT RESOURCES LTD. : COMPANY
WELL.   PARA KAYBOB 7-27-63-18 : WELL
FLD .                   KAYBOB : FIELD
LOC .                          : LOCATION
CTRY.                   CANADA : COUNTRY
SRVC.               Computalog : SERVICE COMPANY
DATE.              26-Jul-1998 : LOGDATE
PROV.                  Alberta : PROVINCE
UWI .         100072706318W500 : UNIQUE WELL ID
SLAT.WGS84       54.4775665089 : SURFACE LATITUDE
SLON.WGS84     -116.6347462801 : SURFACE LONGITUDE
~Curve Information -----------------------------------------
DEPT    .M      : DEPTH METER
CALWS   .MM     : CALIPER [CALXDED]
CALXDED .MM     : CALIPER X FROM DENSITY LOG [ADJ. TO RESISTIVITY LOG]
CALYDED .MM     : CALIPER Y FROM DENSITY LOG [ADJ. TO RESISTIVITY LOG]
CALYSED .MM     : CALIPER Y FROM SONIC LOG [ADJ. TO RESISTIVITY LOG]
CONDWS  .MMHO   : CONDUCTIVITY [1000/DRESWS]
DCORED  .KG/M3  : DENSITY CORRECTION FROM DENSITY LOG [ADJ. TO RESISTIVITY LOG]
DCORWS  .KG/M3  : DENSITY CORRECTION [DRHOED SPL. TO DCORED @1907.5M]
DENWS   .KG/M3  : FORMATION BULK DENSITY [CALC. FROM DPOLSWS M=2710,F=1000]
DPOLSWS .V/V    : DENSITY POROSITY LIMESTONE [DPORSSED CONVERTED TO LIMESTONE MATRIX, SPL. TO DPORLSED @ 1815M]
DPORLSED.V/V    : DENSITY POROSITY LIMESTONE [M=2710,F=1000] FROM DENSITY LOG [ADJ. TO RESISTIVITY LOG]
DPORSSED.V/V    : DENSITY POROSITY SANDSTONE [M=2650,F=1000] FROM DENSITY LOG [ADJ. TO RESISTIVITY LOG]
DRESWS  .OHMM   : DEEP RESISTIVITY [STIDED]
DRHOED  .KG/M3  : BULK DENSITY CORRECTION FROM DENSITY LOG [ADJ. TO RESISTIVITY LOG]
DTED    .US/M   : DELTA-T FROM SONIC LOG [ADJ. TO RESISTIVITY LOG]
DTWS    .US/M   : COMPRESSIONAL SONIC [DTED]
GRDED   .GAPI   : GAMMA RAY FROM DENSITY LOG [ADJ. TO RESISTIVITY LOG]
GRRED   .GAPI   : GAMMA RAY FROM RESISTIVITY LOG
GRSED   .GAPI   : GAMMA RAY FROM SONIC LOG [ADJ. TO RESISTIVITY LOG]
GRWS    .GAPI   : GAMMA RAY [GRSED SPL. TO GRDED @3028.2M]
MRESWS  .OHMM   : MEDIUM RESISTIVITY [STIMED]
NPOLSWS .V/V    : NEUTRON POROSITY LIMESTONE [NPORSSED MATRIX CONVERSION FOR LIMESTONE, SPL. TO NPORLSED @1815M]
NPORLSED.V/V    : NEUTRON POROSITY LIMESTONE FROM DENSITY LOG [ADJ. TO RESISTIVITY LOG]
NPORSSED.V/V    : NEUTRON POROSITY SANDSTONE FROM DENSITY LOG [ADJ. TO RESISTIVITY LOG]
PEED    .B/E    : PHOTO ELECTRIC CROSS SECTION FROM DENSITY LOG [ADJ. TO RESISTIVITY LOG]
PEFWS   .B/E    : PHOTOELECTRIC FACTOR [PEED]
RHOBED  .KG/M3  : BULK DENSITY FROM DENSITY LOG [ADJ. TO RESISTIVITY LOG/DPORSSED]
SFLED   .OHMM   : SPHERICALLY FOCUSED FROM RESISTIVITY LOG
SPRED   .MV     : SPONTANEOUS POTENTIAL FROM RESISTIVITY LOG
SPWS    .MV     : SPONTANEOUS POTENTIAL [BASELINE 0 MV, SPRED]
SRESWS  .OHMM   : SHALLOW RESISTIVITY [SFLED]
STIDED  .OHMM   : SIMULTANEOUS TRIPLE DEEP INDUCTION FROM RESISTIVITY LOG
STIMED  .OHMM   : SIMULTANEOUS TRIPLE MEDIUM INDUCTION FROM RESISTIVITY LOG
TENDED  .N      : TENSION FROM DENSITY LOG [ADJ. TO RESISTIVITY LOG]
TENRED  .N      : TENSION FROM RESISTIVITY LOG
TENSED  .N      : TENSION FROM SONIC LOG [ADJ. TO RESISTIVITY LOG]
~Params ----------------------------------------------------
PD  .                         GL : PERMANENT DATUM
EPD .FT                      782 : ELEVATION PERMANENT DATUM
LMF .                         KB : LOG MEASURED FROM
DAPD.FT                      5.4 : FEET ABOVE PERMANENT DATUM
EKB .FT                    787.4 : KELLY BUSHING
EGL .FT                      782 : GROUND LEVEL
DATE.                   07/26/98 : RUN DATE
RUN .                          2 : RUN NUMBER
DD  .FT                     3040 : DEPTH DRILLER
DL  .FT                   3040.2 : DEPTH LOGGER
BLI .FT                   3038.1 : BOTTOM LOG INTERVAL
TLI .FT                     1906 : TOP LOG INTERVAL
CBD .FT                     1910 : CASING BOTTOM DRILLER
CBL .FT                   1906.8 : CASING BOTTOM LOGGER
BS  .IN                      155 : BIT SIZE
BSD .MM                     3040 : BIT SIZE AT DEPTH
DFT .               GEL CHEMICAL : DRILLING FLUID TYPE
DFD .                      11100 : DRILLING FLUID DENSITY
DFV .                         70 : DRILLING FLUID VISCOSITY
DFPH.                         10 : DRILLING FLUID PH
DFL .                          7 : DRILLING FLUID LOSS
MSS .                   FLOWLINE : MUD SAMPLE SOURCE
RMS .OHMM                    1.3 : RESISTIVITY MUD SAMPLE
MST .DEGC                     23 : MUD SAMPLE TEMPERATURE
RMF .OHMM                    1.2 : RESISTIVITY MUD FILTRATE SAMPLE
MFST.DEGC                     23 : MUD FILTRATE SAMPLE TEMPERATURE
RMC .OHMM                    1.3 : RESISTIVITY MUD CAKE
MCST.DEGC                     23 : MUD CAKE SAMPLE TEMPERATURE
RMB .OHMM                    0.5 : RESISTIVITY MUD AT BHT
TCS .HRS                       6 : TIME CIRCULATED STOPPED
LUN .                        361 : LOGGING UNIT NUMBER
LUL .                     GRANDE : LOGGING UNIT LOCATION
ENGI.                       BAST : RECORDING ENGINEER
WITN.                  CZYPIANKA : WITNESSED BY
CLNT.                    A2DTECH : CLIENT CODE
ORIG. 6.5"/100M 16.5"/100M PRINT : ORIGIN OF DATA
UWI .           100072706318W500 : UNIQUE WELL ID
DICO.     A2D Technologies, Inc. : DIGITIZING COMPANY
~Other -----------------------------------------------------
RUN #1 : STI-SP-SPED-CNT-GR RUN IN COMBO & BHC LOG RUN
RUN #2 : STI-BHC RUN IN COMBO & CNT LOG RUN
RHOB FROM SMALL SCALE SECTION
~ASCII -----------------------------------------------------
# ...
 2350.00000  152.94230  152.94230  154.51770  156.45570    8.60580  112.87690  112.87690 2733.76900   -0.01390   -0.01390    -999.25  116.20020    -999.25  164.51080  164.51080   12.46940   10.33990   10.43200   10.43200  122.75030    0.02140    0.02140    -999.25    4.67370    4.67370 2741.57890  202.67650 -214.54240  -94.83760  202.67650  116.20020  122.75030 17881.47730 15547.81300 15779.17660
 2400.00000  155.77600  155.77600  180.08750  161.04500    4.43520   70.38870   70.38870 2739.58300   -0.01730   -0.01730    -999.25  225.47090    -999.25  161.91910  161.91910   12.81130    9.60220    9.93500    9.93500  641.57000    0.01430    0.01430    -999.25    4.85410    4.85410 2747.81180 1824.14370 -227.95570 -106.67100 1824.14370  225.47090  641.57000 18144.10160 16022.08590 16162.51010
 2450.00000  152.70220  152.70220  150.81300  157.20380  146.78470   60.29130   60.29130 2643.13900    0.03910    0.03910    -999.25    6.81270    -999.25  178.14330  178.14330    8.64070    7.23990    6.57940    6.57940    7.13260    0.17020    0.17020    -999.25    2.85320    2.85320 2680.62650   17.65770 -255.76580 -132.90120   17.65770    6.81270    7.13260 18768.27650 16539.43590 16517.55020
 2500.00000  154.58880  154.58880  153.79800  160.77840   39.45410   38.05440   38.05440 2789.85700   -0.04670   -0.04670    -999.25   25.34590    -999.25  171.71120  171.71120   29.15980   28.88660   28.33280   28.33280   30.02160    0.07700    0.07700    -999.25    3.00040    3.00040 2778.21630   51.37190 -180.86430  -56.41980   51.37190   25.34590   30.02160 18545.40500 16619.62800 16746.64740
 2550.00000  158.97970  158.97970  154.53940  158.70590   34.48730   75.68690   75.68690 2730.17800   -0.01180   -0.01180    -999.25   28.99620    -999.25  188.47780  188.47780   49.16540   48.23430   48.15420   48.15420   32.96400    0.08400    0.08400    -999.25    4.26090    4.26090 2734.21580   46.72600 -131.34090   -3.00210   46.72600   28.99620   32.96400 19719.24450 16873.51740 17032.95500
 2600.00000  150.93030  150.93030  153.77480  158.63950   64.49120   63.21440   63.21440 2728.46800   -0.01080   -0.01080    -999.25   15.50600    -999.25  200.83300  200.83300   62.09090   59.66700   59.91250   59.91250   17.42900    0.12790    0.12790    -999.25    4.25850    4.25850 2730.59450   22.93290 -125.28500   -7.62010   22.93290   15.50600   17.42900 20140.86340 17609.05750 17588.03920
 2650.00000  166.13930  166.13930  158.25130  165.29290  114.09530  181.83680  181.83680 2728.81000   -0.01100   -0.01100    -999.25    8.76460    -999.25  215.67620  215.67620   70.02770   62.52550   62.36190   62.36190    9.70190    0.13550    0.13550    -999.25    4.06880    4.06880 2721.34790   13.38760 -118.00870   -3.36170   13.38760    8.76460    9.70190 20659.35700 17910.05530 17377.19620
 2700.00000  286.46000  286.46000  327.09900  251.03110  231.02160  222.77710  222.77710 2612.18800    0.05720    0.05720    -999.25    4.32860    -999.25  271.48380  271.48380  106.81100   96.18620   95.80260   95.80260    4.39020    0.32530    0.32530    -999.25    2.61620    2.61620 2609.86990    5.05270 -153.13860  -33.27140    5.05270    4.32860    4.39020 20447.43660 17907.48160 17709.05750
 2750.00000  160.73390  160.73390  159.97950  159.19240  101.35000   49.11380   49.11380 2733.94000   -0.01400   -0.01400    -999.25    9.86680    -999.25  218.63710  218.63710   95.51800   81.46250   81.27410   81.27410   10.77530    0.16930    0.16930    -999.25    4.03450    4.03450 2733.58620   14.74470 -120.17620   -3.07750   14.74470    9.86680   10.77530 20663.67710 17936.69660 17721.26740
 2800.00000  164.53500  164.53500  170.49320  164.75220  125.34000   56.91720   56.91720 2729.83600   -0.01160   -0.01160    -999.25    7.97830    -999.25  229.04900  229.04900   90.22720   81.22480   81.67150   81.67150    9.23130    0.14110    0.14110    -999.25    3.87170    3.87170 2733.11100   12.13260 -119.01960   -3.34440   12.13260    7.97830    9.23130 20735.70670 18299.61680 18102.01300
 2850.00000  156.47720  156.47720  155.05220  158.24500    8.74660   51.63090   51.63090 2677.51000    0.01900    0.01900    -999.25  114.33060    -999.25  198.66980  198.66980   68.07790   68.23530   68.00910   68.00910  132.05570    0.08070    0.08070    -999.25    4.52210    4.52210 2683.50880  251.51590 -126.80090   -6.08540  251.51590  114.33060  132.05570 20900.07110 18196.99140 18515.72690
 2900.00000  165.45480  165.45480  157.06940  158.22330    2.44500   56.38720   56.38720 2722.14100   -0.00710   -0.00710    -999.25  409.00440    -999.25  160.21270  160.21270   13.69750   10.44680   10.99450   10.99450  861.03430   -0.01400   -0.01400    -999.25    5.10640    5.10640 2727.83790 2026.78650 -206.61320  -88.50000 2026.78650  409.00440  861.03430 21583.08400 18720.34510 18578.97090
 2950.00000  165.91340  165.91340  157.68930  160.19010    1.91400   63.92280   63.92280 2728.81000   -0.01100   -0.01100    -999.25  522.47440    -999.25  159.27580  159.27580    9.66860    7.48250    7.96910    7.96910  800.46970   -0.01490   -0.01490    -999.25    5.04580    5.04580 2729.53860 1992.46550 -234.34230 -113.95830 1992.46550  522.47440  800.46970 21098.67760 19015.78270 18861.51750
 3000.00000  157.62460  157.62460  155.03970  158.97740   44.03850   49.33250   49.33250 2721.45700   -0.00670   -0.00670   -0.04240   22.70740    -999.25  224.06830  224.06830  182.76380  178.37630  178.42860  178.42860   19.28130    0.17200    0.17200    0.22780    3.54020    3.54020 2764.63210    1.58120 -134.22090  -11.56620    1.58120   22.70740   19.28130 21241.26620 19040.51700 18955.00170
