~Version ---------------------------------------------------
VERS.      2.0 : CWLS log ASCII Standard -VERSION 2.0
WRAP.       NO : One line per depth step
CREA. 08/31/17 : LAS Creation Date
~Well ------------------------------------------------------
STRT.FT                           950.0 : START DEPTH
STOP.FT                         10350.0 : STOP DEPTH
STEP.FT                        50.00000 : STEP LENGTH
NULL.                           -999.25 : NULL VALUE
COMP.     THE ATLANTIC REFINING COMPANY : COMPANY
WELL. ATLANTIC SOUTH KAYBOB 10-18-63-19 : WELL
FLD .                                wc : FIELD
LOC .                                   : LOCATION
CTRY.                            CANADA : COUNTRY
SRVC.                      Schlumberger : SERVICE COMPANY
DATE.                       29-Oct-1962 : LOGDATE
PROV.                           Alberta : PROVINCE
UWI .                  100101806319W500 : UNIQUE WELL ID
SLAT.WGS84                     54.45213 : SURFACE LATITUDE
SLON.WGS84                    -116.8583 : SURFACE LONGITUDE
~Curve Information -----------------------------------------
DEPT  .FT    : Depth Curve
CALSED.IN    : CALIPER FROM SL-GR-CAL LOG
CALWS .IN    : CALIPER [CALSED]
CILDED.MMHO  : DEEP INDUCTION CONDUCTIVITY FROM IEL LOG
CONDWS.OHMM  : CONDUCTIVITY [1000/DRESWS]
DRESWS.OHMM  : DEEP RESISTIVITY [ILDED]
DTED  .US/F  : DELTA-T (INTERVAL TRANSIT TIME)
DTWS  .US/F  : COMPRESSIONAL SONIC [DTED]
GRSED .GAPI  : GAMMA RAY FROM SL-GR-CAL LOG
GRWS  .GAPI  : GAMMA RAY [GRSED]
ILDED .OHMM  : DEEP INDUCTION RESISTIVITY FROM IEL LOG
SNED  .OHMM  : SHORT NORMAL RESISTIVITY FROM IEL LOG
SPRED .MV    : SPONTANEOUS POTENTIAL FROM IEL LOG
SPWS  .MV    : SPONTANEOUS POTENTIAL [SPRED]
SRESWS.OHMM  : SHALLOW RESISTIVITY [SNED]
~Params ----------------------------------------------------
PD  .                     GL : PERMANENT DATUM
LMF .                     KB : LOG MEASURED FROM
EKB .FT                 2596 : KELLY BUSHING
DATE.               10/29/62 : RUN DATE
RUN .                      1 : RUN NUMBER
DD  .FT                10362 : DEPTH DRILLER
DL  .FT                10367 : DEPTH LOGGER
BLI .FT                10366 : BOTTOM LOG INTERVAL
TLI .FT                 1039 : TOP LOG INTERVAL
CBD .FT                 1037 : CASING BOTTOM DRILLER
CBL .FT                 1039 : CASING BOTTOM LOGGER
BS  .IN                 8.75 : BIT SIZE
BSD .FT                10362 : BIT SIZE AT DEPTH
DFT .                    GEL : DRILLING FLUID TYPE
DFD .                   10.1 : DRILLING FLUID DENSITY
DFV .                     95 : DRILLING FLUID VISCOSITY
DFPH.                    9.8 : DRILLING FLUID PH
DFL .                    6.6 : DRILLING FLUID LOSS
RMS .OHMM               1.43 : RESISTIVITY MUD SAMPLE
MST .DEGF                 97 : MUD SAMPLE TEMPERATURE
RMF .OHMM               1.25 : RESISTIVITY MUD FILTRATE SAMPLE
MFST.DEGF                 70 : MUD FILTRATE SAMPLE TEMPERATURE
RMC .OHMM               2.43 : RESISTIVITY MUD CAKE
MCST.DEGF                 70 : MUD CAKE SAMPLE TEMPERATURE
RMB .OHMM               0.74 : RESISTIVITY MUD AT BHT
TCS .HRS                 3.5 : TIME CIRCULATED STOPPED
LUN .                   3534 : LOGGING UNIT NUMBER
LUL .                    WCT : LOGGING UNIT LOCATION
ENGI.              HAUSEGGER : RECORDING ENGINEER
WITN.                 STRACK : WITNESSED BY
CLNT.                A2DTECH : CLIENT CODE
ORIG.            2" 5" PRINT : ORIGIN OF DATA
UWI .       100101806319W500 : UNIQUE WELL ID
DICO. A2D Technologies, Inc. : DIGITIZING COMPANY
~Other -----------------------------------------------------
~ASCII -----------------------------------------------------
# ...
 5850.00000   12.29340   12.29340   78.30810   79.21730   12.62350   73.55540   73.55540   83.28390   83.28390   12.62350   15.22940  -93.20320   -5.44760   15.22940
 5900.00000   12.68530   12.68530   86.57330   92.42740   10.81930   78.11700   78.11700   73.57320   73.57320   10.81930   12.18790  -90.11860   -5.35300   12.18790
 5950.00000   12.55070   12.55070   56.36270   59.60290   16.77770   68.29870   68.29870   75.59700   75.59700   16.77770   19.09270  -92.07010   -5.91020   19.09270
 6000.00000   11.52730   11.52730   67.52570   62.43090   16.01770   71.09790   71.09790   90.63160   90.63160   16.01770   20.03780  -90.34220   -2.55560   20.03780
 6050.00000   11.99310   11.99310   93.93900   86.30980   11.58870   69.46640   69.46640   93.47730   93.47730   11.58870   14.64200 -110.54000  -21.12670   14.64200
 6100.00000   12.08580   12.08580   85.53900   75.55100   13.23610   74.00310   74.00310   71.45480   71.45480   13.23610   16.80970 -149.32000  -58.26940   16.80970
 6150.00000   14.89260   14.89260  189.46310  199.60080    5.01000   89.46910   89.46910   93.98080   93.98080    5.01000    6.38030 -107.98400  -15.30670    6.38030
 6200.00000   14.14720   14.14720  350.20540  414.52500    2.41240   92.22090   92.22090  102.87050  102.87050    2.41240    3.39570 -102.88560   -8.57100    3.39570
 6250.00000   15.00000   15.00000  280.18440  301.74100    3.31410   86.20280   86.20280   80.47570   80.47570    3.31410    3.86680 -101.23740   -6.44120    3.86680
 6300.00000   11.35300   11.35300   19.26280   26.74790   37.39020  100.20340  100.20340  131.21860  131.21860   37.39020   46.76600 -100.07930   -5.28310   46.76600
 6350.00000   10.71160   10.71160    0.00040    6.51040  153.60050   73.36250   73.36250  180.26690  180.26690  153.60050   69.22250  -97.89800   -3.10180   69.22250
 6400.00000   12.35550   12.35550   59.42430   68.70820   14.55430   63.81350   63.81350   65.35080   65.35080   14.55430   17.34740 -120.83300  -26.09950   17.34740
 6450.00000   11.77920   11.77920   36.90310   43.78710   22.83780   64.08840   64.08840   69.87870   69.87870   22.83780   23.20160 -116.97620  -22.51690   23.20160
 6500.00000   11.51540   11.51540   46.29220   54.38150   18.38860   62.88090   62.88090   74.03120   74.03120   18.38860   19.14510 -125.70750  -31.52060   19.14510
 6550.00000   11.95290   11.95290   70.54560   80.23160   12.46440   63.58660   63.58660   70.43400   70.43400   12.46440   13.99800 -118.08940  -24.17490   13.99800
 6600.00000   11.22650   11.22650   13.28790   12.42160   80.50520   59.15440   59.15440   36.70100   36.70100   80.50520   57.56830 -168.88480  -75.24450   57.56830
 6650.00000   10.54990   10.54990   10.07050    9.68610  103.24020   50.24850   50.24850   32.39380   32.39380  103.24020   62.64800 -138.01300  -44.64510   62.64800
 6700.00000   10.15910   10.15910   40.13180   50.51630   19.79560   60.48640   60.48640   59.87710   59.87710   19.79560   34.83130 -133.57280  -40.47910   34.83130
 6750.00000   10.07620   10.07620    8.46520    7.24880  137.95350   53.94710   53.94710   47.25730   47.25730  137.95350   88.06000 -110.80140  -17.98010   88.06000
 6800.00000   10.58330   10.58330   30.21790   33.49670   29.87420   56.05880   56.05880   83.22900   83.22900   29.87420   48.96390 -100.73970  -11.74360   48.96390
 6850.00000   10.56820   10.56820   54.49670   63.32560   15.79140   50.23210   50.23210   28.16590   28.16590   15.79140   26.59410 -151.30630  -67.23040   26.59410
 6900.00000   10.73200   10.73200   41.88020   49.42180   20.23400   56.21830   56.21830   41.54480   41.54480   20.23400   33.29420 -133.13940  -53.95150   33.29420
 6950.00000   10.87380   10.87380   64.37780   62.99050   15.87540   57.26040   57.26040   50.74650   50.74650   15.87540   36.72460 -128.73270  -54.46500   36.72460
 7000.00000   10.59500   10.59500    9.27970   16.42400   60.88640   53.68920   53.68920   33.42600   33.42600   60.88640   84.02810 -152.54530  -83.16560   84.02810
 7050.00000   10.11020   10.11020   36.88730   46.46390   21.56330   52.08040   52.08040   25.72670   25.72670   21.56330   57.60180 -170.29670 -105.80500   57.60180
 7100.00000   10.41650   10.41650   23.82420   29.35010   34.07140   55.02420   55.02420   22.72730   22.72730   34.07140   70.42090 -158.31020  -98.73870   70.42090
 7150.00000   10.61770   10.61770  118.45110  136.49270    7.32640   63.91050   63.91050   84.45350   84.45350    7.32640   12.18390  -67.66860  -12.98510   12.18390
 7200.00000   10.19470   10.19470  222.95280  237.32680    4.21360   63.55510   63.55510   69.05340   69.05340    4.21360   12.11530 -109.11900  -59.35570   12.11530
 7250.00000   10.74290   10.74290  143.19030  146.00880    6.84890   56.19690   56.19690   55.57430   55.57430    6.84890   10.09650  -91.93830  -47.06300   10.09650
 7300.00000   10.76880   10.76880   14.65570   22.56770   44.41180   63.28460   63.28460   58.95610   58.95610   44.41180   35.32850  -58.86880  -18.88150   35.32850
 7350.00000   10.68710   10.68710    9.75400   16.29570   61.36600   55.36900   55.36900   45.51620   45.51620   61.36600   59.49320  -64.20370  -29.13660   59.49320
 7400.00000   10.06640   10.06640   15.75200   20.01660   49.95850   56.30330   56.30330   42.29000   42.29000   49.95850   49.18100  -66.33770  -36.15860   49.18100
 7450.00000    9.73340    9.73340   12.02130   16.63530   60.11310   55.08560   55.08560   39.78930   39.78930   60.11310   65.04170  -71.78290  -46.52400   65.04170
 7500.00000    9.30320    9.30320    3.99650    7.18410  139.19710   53.17380   53.17380   33.23830   33.23830  139.19710  107.54980  -79.80310  -59.43220  107.54980
 7550.00000    9.39440    9.39440   18.99140   24.73790   40.42410   57.10630   57.10630   57.05570   57.05570   40.42410   45.88690  -37.00950  -21.52660   45.88690
 7600.00000    9.36890    9.36890    0.61240    4.15300  240.78780   53.07980   53.07980   34.19680   34.19680  240.78780  170.69370  -29.07590  -18.51320  170.69370
 7650.00000   10.04420   10.04420   16.87030   22.08150   45.28680   60.94000   60.94000   82.65770   82.65770   45.28680   61.88060   -6.43530   -0.76060   61.88060
 7700.00000    9.39330    9.39330   16.93160   21.82540   45.81810   57.78790   57.78790   59.20170   59.20170   45.81810   57.37750   -5.53370   -4.77920   57.37750
 7750.00000    9.69470    9.69470   30.44180   38.93970   25.68070   57.31300   57.31300   68.87060   68.87060   25.68070   37.91620  -35.38370  -34.73060   37.91620
 7800.00000    9.55590    9.55590    1.85260    7.87280  127.10180   50.97680   50.97680   35.99750   35.99750  127.10180  143.60330  -59.91960  -58.55790  143.60330
 7850.00000    9.71980    9.71980    0.55060    2.72990  366.31390   52.78730   52.78730   21.27550   21.27550  366.31390  131.07150 -118.08470 -116.00960  131.07150
 7900.00000    9.73490    9.73490    1.09370    2.91710  342.81080   50.33030   50.33030   18.25340   18.25340  342.81080  176.85700 -125.82760 -123.04390  176.85700
 7950.00000    9.67830    9.67830    1.02010    3.21010  311.51310   49.68920   49.68920   20.01460   20.01460  311.51310  147.76270 -147.24850 -143.75150  147.76270
 8000.00000    9.60730    9.60730    0.96160    5.04720  198.13080   49.41010   49.41010   22.65560   22.65560  198.13080  120.66670 -156.25070 -152.04500  120.66670
 8050.00000   10.74480   10.74480    2.23370    5.33920  187.44940   50.09450   50.09450   20.36040   20.36040  187.44940  153.29500 -167.56640 -162.65210  153.29500
 8100.00000    9.56400    9.56400    3.43740    8.57070  116.67670   51.40350   51.40350   19.81990   19.81990  116.67670   64.16590 -167.40580 -161.77820   64.16590
 8150.00000    9.55080    9.55080    0.21590    4.55650  219.46480   50.89770   50.89770   21.01850   21.01850  219.46480  131.40500 -159.65620 -153.31990  131.40500
 8200.00000    9.40130    9.40130    0.19220    3.56580  280.44120   53.55120   53.55120   24.87310   24.87310  280.44120  151.96820 -148.26640 -141.21680  151.96820
 8250.00000    9.19110    9.19110    0.79930    8.37250  119.43880   50.42950   50.42950   20.66740   20.66740  119.43880  102.79380 -148.73460 -140.97630  102.79380
