~Version ---------------------------------------------------
VERS.      2.0 : CWLS log ASCII Standard -VERSION 2.0
WRAP.       NO : One line per depth step
CREA. 09/27/17 : LAS Creation Date
~Well ------------------------------------------------------
STRT.FT                    300.0 : START DEPTH
STOP.FT                  13950.0 : STOP DEPTH
STEP.FT                 50.00000 : STEP LENGTH
NULL.                    -999.25 : NULL VALUE
COMP.   PENN WEST PETROLEUM LTD. : COMPANY
WELL. CONOCO WEB PECO 6-26-47-15 : WELL
FLD .                       PECO : FIELD
LOC .                            : LOCATION
CTRY.                     CANADA : COUNTRY
SRVC.     Schlumberger of Canada : SERVICE COMPANY
DATE.                03-May-1960 : LOGDATE
PROV.                    Alberta : PROVINCE
UWI .           100062604715W500 : UNIQUE WELL ID
SLAT.WGS84         53.0817985535 : SURFACE LATITUDE
SLON.WGS84       -116.0888900757 : SURFACE LONGITUDE
~Curve Information -----------------------------------------
DEPT  .FT         : Depth Curve
CALMED.IN         : CALIPER FROM MICRO LOG [ADJ. TO EL LOG]
CALWS .IN         : CALIPER [MCALED SPL. TO CALMED @ 9383']
CILDED.MMHO       : CONDUCTIVITY FROM IL LOG
CONDWS.MMHO       : CONDUCTIVITY [1000/DRESWS]
DRESWS.OHMM       : DEEP RESISTIVITY [LNED]
DT1ED .US/F       : DELTA-T 1 FEET SPACING FROM SONIC LOG [ADJ. TO EL LOG/DTED]
DTED  .US/F       : DELTA-T 3 FEET SPACING FROM SONIC LOG [ADJ. TO EL LOG]
DTWS  .US/F       : COMPRESSIONAL SONIC [DTED]
GRSED .UgRa-Eq/T  : GAMMA RAY FROM SONIC LOG [ADJ. TO EL LOG]
GRWS  .GAPI       : GAMMA RAY [GRSED*16.50, GRWS (CSG+15) @ 9354'-9407']
ILDED .OHMM       : DEEP INDUCTION FROM IL LOG
LNED  .OHMM       : LONG NORMAL FROM EL LOG
LT18ED.OHMM       : LATERAL 18 FROM EL LOG
MCALED.IN         : CALIPER FROM MICRO LOG [ADJ. TO EL LOG]
MLLED .OHMM       : CALIPER FROM MICRO LOG [ADJ. TO EL LOG]
SNED  .OHMM       : SHORT NORMAL FROM EL LOG
SPR1ED.MV         : SPONTANEOUS POTENTIAL FROM IL LOG
SPRED .MV         : SPONTANEOUS POTENTIAL FROM EL LOG
SPWS  .MV         : SPONTANEOUS POTENTIAL [SPRED SPL. TO SPR1ED @ 9383', BASELINE 0 MV]
SRESWS.OHMM       : SHALLOW RESISTIVITY [SNED]
~Params ----------------------------------------------------
PD  .                    GND : PERMANENT DATUM
LMF .                    GND : LOG MEASURED FROM
DMF .                    GND : DRILLING MEASURED FROM
EGL .FT                 3857 : GROUND LEVEL
DATE.               05/03/60 : RUN DATE
RUN .                      2 : RUN NUMBER
DD  .FT                13975 : DEPTH DRILLER
DL  .FT                13965 : DEPTH LOGGER
BLI .FT                13960 : BOTTOM LOG INTERVAL
TLI .FT                 9389 : TOP LOG INTERVAL
CBD .FT                 9386 : CASING BOTTOM DRILLER
CBL .FT                 9389 : CASING BOTTOM LOGGER
BS  .IN                8.875 : BIT SIZE
BSD .FT                13975 : BIT SIZE AT DEPTH
DFT .                   LIME : DRILLING FLUID TYPE
DFD .                     10 : DRILLING FLUID DENSITY
DFV .                     96 : DRILLING FLUID VISCOSITY
DFPH.                     13 : DRILLING FLUID PH
RMS .OHMM               0.69 : RESISTIVITY MUD SAMPLE
MST .DEGF                 58 : MUD SAMPLE TEMPERATURE
RMF .OHMM                0.4 : RESISTIVITY MUD FILTRATE SAMPLE
MFST.DEGF                 70 : MUD FILTRATE SAMPLE TEMPERATURE
RMC .OHMM                0.7 : RESISTIVITY MUD CAKE
MCST.DEGF                 70 : MUD CAKE SAMPLE TEMPERATURE
RMB .OHMM               0.16 : RESISTIVITY MUD AT BHT
TCS .HRS                   5 : TIME CIRCULATED STOPPED
LUN .               DSU C 72 : LOGGING UNIT NUMBER
ENGI.                  JAMES : RECORDING ENGINEER
WITN.               SHERRIFF : WITNESSED BY
CLNT.                A2DTECH : CLIENT CODE
ORIG.            2" 5" PRINT : ORIGIN OF DATA
UWI .       100062604715W500 : UNIQUE WELL ID
DICO. A2D Technologies, Inc. : DIGITIZING COMPANY
~Other -----------------------------------------------------
TOOL RAN: IL-EL-SONIC-ML-MLL LOG RAN.
EL LOG ARE FROM SMALL SECTION @FR-5350'& 680'0-7600',8200'-8900'
SONIC LOG ARE FROM SMALL SECTION @ FR-5000'& 6800'-7900',8200'-9000'
~ASCII -----------------------------------------------------
# ...
 2050.00000    -999.25   16.54490    -999.25   54.13780   18.47760    -999.25  103.79960  103.79960    4.87010   80.35660    -999.25   18.47760   31.30440   16.54490    -999.25    7.94150    -999.25  -35.22070   -1.34180    7.94150
 2100.00000    -999.25   16.53850    -999.25   23.16810   43.16280    -999.25   72.01280   72.01280    4.41930   72.91840    -999.25   43.16280   37.79190   16.53850    -999.25   16.96760    -999.25  -45.84990  -11.72780   16.96760
 2150.00000    -999.25   16.53070    -999.25   21.39270   46.74490    -999.25   71.65670   71.65670    4.12970   68.14090    -999.25   46.74490   92.71600   16.53070    -999.25   16.14200    -999.25  -47.07340  -12.70960   16.14200
 2200.00000    -999.25   16.54890    -999.25   42.79010   23.36990    -999.25   79.12680   79.12680    4.81040   79.37160    -999.25   23.36990   34.74100   16.54890    -999.25    8.76540    -999.25  -41.74120   -7.13410    8.76540
 2250.00000    -999.25   16.55550    -999.25   21.19210   47.18730    -999.25   70.06310   70.06310    3.78130   62.39140    -999.25   47.18730  118.20670   16.55550    -999.25   17.21730    -999.25  -44.76350   -9.91470   17.21730
 2300.00000    -999.25   16.56260    -999.25   21.47410   46.56910    -999.25   79.15990   79.15990    3.89940   64.34090    -999.25   46.56910   21.68110   16.56260    -999.25   18.76400    -999.25  -48.41460  -13.32420   18.76400
 2350.00000    -999.25   16.54880    -999.25   21.19510   47.18080    -999.25   71.20490   71.20490    3.29140   54.30810    -999.25   47.18080  107.76090   16.54880    -999.25   17.40460    -999.25  -50.97200  -15.63830   17.40460
 2400.00000    -999.25   13.92590    -999.25   55.31630   18.07800    -999.25  136.68630  136.68630    6.20300  102.35030    -999.25   18.07800   17.74440   13.92590    -999.25    7.75000    -999.25  -42.15710   -6.58170    7.75000
 2450.00000    -999.25   16.62830    -999.25   54.87720   18.22250    -999.25   76.85140   76.85140    4.86400   80.25600    -999.25   18.22250   44.23810   16.62830    -999.25    9.21450    -999.25  -44.31730   -8.49870    9.21450
 2500.00000    -999.25   14.47140    -999.25   57.62460   17.35370    -999.25  106.57940  106.57940    5.19770   85.76210    -999.25   17.35370   20.08470   14.47140    -999.25    8.46400    -999.25  -42.07280   -6.01250    8.46400
 2550.00000    -999.25   16.21350    -999.25   27.89670   35.86300    -999.25   75.56650   75.56650    5.20200   85.83300    -999.25   35.86300   65.98910   16.21350    -999.25   19.37890    -999.25  -46.03970   -9.73770   19.37890
 2600.00000    -999.25   16.56920    -999.25   42.41310   23.57760    -999.25   93.84780   93.84780    4.93860   81.48690    -999.25   23.57760   25.10590   16.56920    -999.25    9.31430    -999.25  -46.77710  -10.23180    9.31430
 2650.00000    -999.25   16.58880    -999.25   21.05690   47.49060    -999.25   96.64900   96.64900    3.42080   56.44320    -999.25   47.49060  154.72560   16.58880    -999.25   15.15800    -999.25  -51.21530  -14.42830   15.15800
 2700.00000    -999.25   16.57810    -999.25   15.26000   65.53060    -999.25  103.90810  103.90810    3.64080   60.07320    -999.25   65.53060  172.43040   16.57810    -999.25   16.77940    -999.25  -40.88140   -3.85120   16.77940
 2750.00000    -999.25   16.59030    -999.25   12.88150   77.63100    -999.25  123.22390  123.22390    4.40120   72.61980    -999.25   77.63100  207.31450   16.59030    -999.25   24.80980    -999.25  -40.78260   -3.51070   24.80980
 2800.00000    -999.25   16.57830    -999.25   28.10940   35.58890    -999.25   77.22230   77.22230    5.23410   86.36270    -999.25   35.58890   73.52050   16.57830    -999.25   14.94230    -999.25  -48.36670  -10.83890   14.94230
 2850.00000    -999.25   15.18600    -999.25   99.00010   10.10100    -999.25  101.39600  101.39600    5.13430   84.71590    -999.25   10.10100    4.68880   15.18600    -999.25    3.90200    -999.25  -48.43560  -10.64980    3.90200
 2900.00000    -999.25   16.59870    -999.25   41.93930   23.84600    -999.25  105.76190  105.76190    5.22340   86.18610    -999.25   23.84600   19.78990   16.59870    -999.25   11.38020    -999.25  -49.60670  -11.56460   11.38020
 2950.00000    -999.25   16.59490    -999.25   62.46410   16.00920    -999.25  136.41230  136.41230    4.43990   73.25830    -999.25   16.00920   30.61000   16.59490    -999.25    7.61840    -999.25  -46.15050   -7.85030    7.61840
 3000.00000    -999.25   16.61660    -999.25   60.42300   16.55000    -999.25  103.23370  103.23370    4.33340   71.50110    -999.25   16.55000   66.40230   16.61660    -999.25    8.02810    -999.25  -45.59850   -7.04200    8.02810
 3050.00000    -999.25   15.54840    -999.25   24.72810   40.44000    -999.25   72.18260   72.18260    3.04750   50.28460    -999.25   40.44000   70.11620   15.54840    -999.25   17.00160    -999.25  -54.25100  -15.43820   17.00160
 3100.00000    -999.25   12.96160    -999.25   37.68830   26.53340    -999.25   76.75600   76.75600    3.04110   50.17820    -999.25   26.53340   47.62170   12.96160    -999.25   14.49630    -999.25  -56.95100  -17.88010   14.49630
 3150.00000    -999.25   14.31320    -999.25   44.12220   22.66540    -999.25   74.66260   74.66260    3.58000   59.07000    -999.25   22.66540   21.37320   14.31320    -999.25   13.54690    -999.25  -52.88270  -13.70510   13.54690
 3200.00000    -999.25   15.01730    -999.25   81.48900   12.27160    -999.25   84.50220   84.50220    4.74700   78.32550    -999.25   12.27160    8.39720   15.01730    -999.25    7.80320    -999.25  -45.11930   -5.98090    7.80320
 3250.00000    -999.25   14.91860    -999.25   75.23320   13.29200    -999.25   79.84250   79.84250    5.21370   86.02600    -999.25   13.29200   10.62840   14.91860    -999.25    8.23540    -999.25  -46.99930   -7.89990    8.23540
 3300.00000    -999.25   16.16610    -999.25   78.79300   12.69150    -999.25   85.13510   85.13510    4.55530   75.16330    -999.25   12.69150   15.51300   16.16610    -999.25    6.97100    -999.25  -44.31280   -5.25240    6.97100
 3350.00000    -999.25   14.74420    -999.25   91.93630   10.87710    -999.25   95.24430   95.24430    4.55840   75.21360    -999.25   10.87710   13.85860   14.74420    -999.25    6.03090    -999.25  -42.83230   -3.81110    6.03090
 3400.00000    -999.25   14.54490    -999.25   77.88580   12.83940    -999.25   91.46250   91.46250    4.90120   80.86900    -999.25   12.83940   15.11020   14.54490    -999.25    6.81310    -999.25  -43.43610   -4.45390    6.81310
 3450.00000    -999.25   13.42980    -999.25  182.06980    5.49240    -999.25  104.95030  104.95030    4.76640   78.64560    -999.25    5.49240    4.10610   13.42980    -999.25    3.09630    -999.25  -43.73670   -4.79370    3.09630
 3500.00000    -999.25   13.73550    -999.25   29.41020   34.00180    -999.25   70.99020   70.99020    2.92870   48.32360    -999.25   34.00180  158.01650   13.73550    -999.25   15.44110    -999.25  -49.95350  -11.04950   15.44110
 3550.00000    -999.25   14.26640    -999.25   41.25770   24.24040    -999.25   76.71380   76.71380    3.28610   54.21980    -999.25   24.24040   17.76450   14.26640    -999.25   12.51160    -999.25  -53.09080  -14.22580   12.51160
 3600.00000    -999.25   13.38230    -999.25   75.41930   13.25920    -999.25   88.62360   88.62360    4.06460   67.06590    -999.25   13.25920   21.43680   13.38230    -999.25    6.91870    -999.25  -45.37350   -6.54770    6.91870
 3650.00000    -999.25   14.09330    -999.25   74.69850   13.38890    -999.25   85.50050   85.50050    4.73170   78.07390    -999.25   13.38890   17.31180   14.09330    -999.25    5.99190    -999.25  -43.98750   -5.20070    5.99190
 3700.00000    -999.25   14.81020    -999.25   59.69220   16.75260    -999.25   77.14040   77.14040    3.87390   63.91940    -999.25   16.75260   13.81990   14.81020    -999.25    8.34020    -999.25  -47.56940   -8.82180    8.34020
 3750.00000    -999.25   15.35280    -999.25   53.30180   18.76110    -999.25  100.34220  100.34220    4.53840   74.88360    -999.25   18.76110   35.51620   15.35280    -999.25   10.34220    -999.25  -46.04160   -7.33300   10.34220
