~Version ---------------------------------------------------
VERS.      2.0 : CWLS log ASCII Standard -VERSION 2.0
WRAP.       NO : One line per depth step
CREA. 08/31/13 : LAS Creation Date
~Well ------------------------------------------------------
STRT.M                         300.0 : START DEPTH
STOP.M                        2800.0 : STOP DEPTH
STEP.M                      50.00000 : STEP LENGTH
NULL.                        -999.25 : NULL VALUE
COMP.                ORBIT OIL & GAS : COMPANY
WELL. ORBIT ET AL SAKWATAMAU 5-31-62 : WELL
FLD .                                : FIELD
LOC .                                : LOCATION
CTRY.                         CANADA : COUNTRY
SRVC.                        Unknown : SERVICE COMPANY
DATE.                    11-Mar-1981 : LOGDATE
PROV.                        Alberta : PROVINCE
UWI .               100053106213W500 : UNIQUE WELL ID
SLAT.WGS84                  54.40451 : SURFACE LATITUDE
SLON.WGS84                 -115.9449 : SURFACE LONGITUDE
~Curve Information -----------------------------------------
DEPT    .M      : DEPTH METER
CALDED  .MM     : CALIPER FROM DENSITY LOG [ADJ. TO RESISTIVITY LOG]
CALSED  .MM     : CALIPER FROM SONIC LOG [ADJ. TO RESISTIVITY LOG]
CALWS   .MM     : CALIPER [CALDED]
CONDWS  .MMHO   : CONDUCTIVITY [1000/DRESWS]
DCORED  .KG/M3  : DENSITY CORRECTION FROM DENSITY LOG [ADJ. TO DPHILSED/DPHISSED/RESISTIVITY LOG]
DCORWS  .KG/M3  : DENSITY CORRECTION [DCORED]
DENWS   .KG/M3  : FORMATION BULK DENSITY [CALC. FROM DPOLSWS, M=2710, F=1000]
DPHILSED.V/V    : DENSITY POROSITY LIMESTONE [M=2710, F=1000] FROM DENSITY LOG [ADJ. TO RESISTIVITY LOG]
DPHISSED.V/V    : DENSITY POROSITY SANDSTONE [M=2650, F=1000] FROM DENSITY LOG [ADJ. TO RESISTIVITY LOG]
DPOLSWS .V/V    : DENSITY POROSITY LIMESTONE [DPHISSED CONVERTED INTO LIMESTONE MATRIX, SPL. TO DPHILSED @ 1705 M]
DRESWS  .OHMM   : DEEP RESISTIVITY [ILDED]
DTED    .US/M   : DELTA-T FROM SONIC LOG [ADJ. TO RESISTIVITY LOG]
DTWS    .US/M   : COMPRESSIONAL SONIC [DTED]
GRDED   .GAPI   : GAMMA RAY FROM DENSITY LOG [ADJ. TO RESISTIVITY LOG]
GRSED   .GAPI   : GAMMA RAY FROM SONIC LOG [ADJ. TO RESISTIVITY LOG]
GRWS    .GAPI   : GAMMA RAY [GRDED]
ILDED   .OHMM   : DEEP INDUCTION RESISTIVITY FROM RESISTIVITY LOG
ILMED   .OHMM   : MEDIUM INDUCTION RESISTIVITY FROM RESISTIVITY LOG
MRESWS  .OHMM   : MEDIUM RESISTIVITY [ILMED]
NPHILSED.V/V    : NEUTRON POROSITY LIMESTONE FROM DENSITY LOG [ADJ. TO RESISTIVITY LOG]
NPHISSED.V/V    : NEUTRON POROSITY SANDSTONE FROM DENSITY LOG [ADJ. TO RESISTIVITY LOG]
NPOLSWS .V/V    : NEUTRON POROSITY LIMESTONE [NPHISSED CONVERTED INTO LIMESTONE MATRIX, SPL. TO NPHILSED @ 1705 M]
RHOBED  .KG/M3  : BULK DENSITY FROM DENSITY LOG [ADJ. TO DPHILSED/DPHISSED/RESISTIVITY LOG]
SFLED   .OHMM   : SPHERICALLY FOCUSED FROM RESISTIVITY LOG
SPRED   .MV     : SPONTANEOUS POTENTIAL FROM RESISTIVITY LOG
SPWS    .MV     : SPONTANEOUS POTENTIAL [BASELINE 0 MV, SPRED]
SRESWS  .OHMM   : SHALLOW RESISTIVITY [SFLUED]
~Params ----------------------------------------------------
PD  .                         GL : PERMANENT DATUM
EPD .M                     885.5 : ELEVATION PERMANENT DATUM
LMF .                         KB : LOG MEASURED FROM
DAPD.M                       4.5 : FEET ABOVE PERMANENT DATUM
DMF .                         KB : DRILLING MEASURED FROM
EKB .M                       890 : KELLY BUSHING
EDF .M                     889.7 : DRILLING FLOOR
EGL .M                     885.5 : GROUND LEVEL
DATE.                   03/11/81 : RUN DATE
RUN .                          2 : RUN NUMBER
DD  .M                      2818 : DEPTH DRILLER
DL  .M                    2818.2 : DEPTH LOGGER
BLI .M                    2817.2 : BOTTOM LOG INTERVAL
TLI .M                      1825 : TOP LOG INTERVAL
CS  .MM                      244 : CASING SIZE
CBD .M                       282 : CASING BOTTOM DRILLER
CBL .M                     282.2 : CASING BOTTOM LOGGER
BS  .MM                    222.2 : BIT SIZE
BSD .M                      2818 : BIT SIZE AT DEPTH
DFT .                   GEL CHEM : DRILLING FLUID TYPE
DFD .                       1085 : DRILLING FLUID DENSITY
DFV .                        210 : DRILLING FLUID VISCOSITY
DFPH.                         12 : DRILLING FLUID PH
DFL .                         11 : DRILLING FLUID LOSS
MSS .                CIRCULATION : MUD SAMPLE SOURCE
RMS .OHMM                   0.96 : RESISTIVITY MUD SAMPLE
MST .DEGC                     22 : MUD SAMPLE TEMPERATURE
RMF .OHMM                   0.79 : RESISTIVITY MUD FILTRATE SAMPLE
MFST.DEGC                     20 : MUD FILTRATE SAMPLE TEMPERATURE
MFSS.                      WATER : MUD FILTRATE SAMPLE SOURCE
MCSS.                       LOSS : MUD CAKE SAMPLE SOURCE
RMB .OHMM                   0.45 : RESISTIVITY MUD AT BHT
TCS .HRS                    1330 : TIME CIRCULATED STOPPED
TLAB.HRS                    1930 : TIME LOGGER AT BOTTOM
LUN .                       8211 : LOGGING UNIT NUMBER
LUL .                        EDM : LOGGING UNIT LOCATION
ENGI.                   MISSIUNA : RECORDING ENGINEER
WITN.                CHRISTENSEN : WITNESSED BY
CLNT.                    A2DTECH : CLIENT CODE
ORIG. 6.5"/100M 16.5"/100M PRINT : ORIGIN OF DATA
UWI .           100053106213W500 : UNIQUE WELL ID
DICO.     A2D Technologies, Inc. : DIGITIZING COMPANY
~Other -----------------------------------------------------
CNFD-DILSFL-BCS LOG RAN.
RHOB & DCOR FROM SMALL SCALE.
~ASCII -----------------------------------------------------
  300.00000  269.28450    -999.25  269.28450  237.24790   32.08520   52.51660 2288.48500    -999.25    0.21910    0.24650    4.21500    -999.25    -999.25   88.48370    -999.25   88.48370    4.21500    3.67230    3.67230    -999.25    0.43270    0.39060 2292.10110    2.78980  -78.01150   -2.52650    2.78980
  350.00000  271.40550    -999.25  271.40550  129.35940    -999.25    -999.25 2154.01000    -999.25    0.30060    0.32510    7.73040    -999.25    -999.25   63.60350    -999.25   63.60350    7.73040    6.36040    6.36040    -999.25    0.36810    0.32470 2181.80910    4.72510  -76.66230   -3.25500    4.72510
  400.00000  279.51070    -999.25  279.51070  169.00740    -999.25    -999.25 2075.96500    -999.25    0.34790    0.37080    5.91690    -999.25    -999.25   92.97250    -999.25   92.97250    5.91690    5.17100    5.17100    -999.25    0.38360    0.34040 2074.53910    4.32130  -74.24370   -2.72820    4.32130
  450.00000  249.61450    -999.25  249.61450  139.78780    -999.25    -999.25 2228.75500    -999.25    0.25530    0.28140    7.15370    -999.25    -999.25   88.99910    -999.25   88.99910    7.15370    6.42750    6.42750    -999.25    0.33760    0.29380 2224.23050    5.84460  -73.06990   -3.07820    5.84460
  500.00000  242.06160    -999.25  242.06160  167.40040   18.25550   16.01060 2287.33000    -999.25    0.21980    0.24720    5.97370    -999.25    -999.25   69.67760    -999.25   69.67760    5.97370    5.56740    5.56740    -999.25    0.35530    0.31170 2288.21020    5.18110  -70.79170   -2.32370    5.18110
  550.00000  270.76320    -999.25  270.76320  334.66080    -999.25    -999.25 1878.95500    -999.25    0.46730    0.48600    2.98810    -999.25    -999.25   79.54140    -999.25   79.54140    2.98810    2.57170    2.57170    -999.25    0.49360    0.45190 1856.04440    1.82030  -69.16080   -2.21660    1.82030
  600.00000  225.95520    -999.25  225.95520   87.03980   16.80210    6.07110 2320.16500    -999.25    0.19990    0.22800   11.48900    -999.25    -999.25   54.51300    -999.25   54.51300   11.48900   11.03680   11.03680    -999.25    0.36190    0.31840 2332.86520   10.77920  -75.41740   -9.99690   10.77920
  650.00000  302.75670    -999.25  302.75670  238.64640    -999.25    -999.25 1745.47000    -999.25    0.54820    0.56410    4.19030    -999.25    -999.25   65.21170    -999.25   65.21170    4.19030    3.55600    3.55600    -999.25    0.50960    0.46790 1693.81570    2.81060  -66.40900   -2.51230    2.81060
  700.00000  262.82660    -999.25  262.82660  198.76760    -999.25    -999.25 1934.89000    -999.25    0.43340    0.45330    5.03100    -999.25    -999.25   59.57080    -999.25   59.57080    5.03100    4.57120    4.57120    -999.25    0.46840    0.42670 1933.63060    3.72690  -64.82300   -2.45000    3.72690
  750.00000  239.91610    -999.25  239.91610  138.48110   87.89140   76.41440 1810.48000    -999.25    0.50880    0.52600    7.22120    -999.25    -999.25   46.08740    -999.25   46.08740    7.22120    6.97260    6.97260    -999.25    0.57960    0.53790 1763.41940    8.54820  -63.00960   -2.16040    8.54820
  800.00000  239.77660    -999.25  239.77660  208.63320    -999.25    -999.25 2055.34000    -999.25    0.36040    0.38280    4.79310    -999.25    -999.25   55.97760    -999.25   55.97760    4.79310    4.33250    4.33250    -999.25    0.42790    0.38560 2074.02390    3.50930  -65.95760   -6.63210    3.50930
  850.00000  241.67660    -999.25  241.67660  248.89240   50.58310   50.58310 2378.24500    -999.25    0.16470    0.19400    4.01780    -999.25    -999.25   62.33490    -999.25   62.33490    4.01780    3.77460    3.77460    -999.25    0.41140    0.36880 2392.63230    3.40580  -60.62390   -2.82220    3.40580
  900.00000  337.42080    -999.25  337.42080  153.55320  108.24390   90.99120 1791.17500    -999.25    0.52050    0.53730    6.51240    -999.25    -999.25   73.68900    -999.25   73.68900    6.51240    5.80500    5.80500    -999.25    0.44730    0.40550 1760.25660    4.92660  -63.90570   -8.03630    4.92660
  950.00000  246.29300    -999.25  246.29300  101.18900    -999.25    -999.25 2402.50000    -999.25    0.15000    0.17980    9.88250    -999.25    -999.25   92.78060    -999.25   92.78060    9.88250    9.27300    9.27300    -999.25    0.35070    0.30710 2412.95610   10.32150  -61.93290   -8.15780   10.32150
 1000.00000  388.00010    -999.25  388.00010  142.21110  119.22420  112.02590 1813.78000    -999.25    0.50680    0.52410    7.03180    -999.25    -999.25   83.78640    -999.25   83.78640    7.03180    6.44460    6.44460    -999.25    0.46360    0.42190 1771.22070    5.73470  -62.53800  -10.85730    5.73470
 1050.00000  373.49750    -999.25  373.49750  136.95440  149.84050  149.84050 1870.87000    -999.25    0.47220    0.49070    7.30170    -999.25    -999.25   87.22230    -999.25   87.22230    7.30170    6.82160    6.82160    -999.25    0.43250    0.39040 1842.64670    5.91200  -62.64790  -13.06150    5.91200
 1100.00000  327.55890    -999.25  327.55890  111.06550    -999.25    -999.25 1961.95000    -999.25    0.41700    0.43750    9.00370    -999.25    -999.25   88.47420    -999.25   88.47420    9.00370    8.24060    8.24060    -999.25    0.38100    0.33780 1944.44460    7.44060  -60.44770  -12.95570    7.44060
 1150.00000  324.06830    -999.25  324.06830  158.45100    -999.25    -999.25 2074.97500    -999.25    0.34850    0.37140    6.31110    -999.25    -999.25  105.79490    -999.25  105.79490    6.31110    6.03580    6.03580    -999.25    0.40400    0.36120 2064.66380    5.80900  -54.89660   -9.49890    5.80900
 1200.00000  250.85490    -999.25  250.85490  134.98010    -999.25    -999.25 2367.35500    -999.25    0.17130    0.20040    7.40850    -999.25    -999.25  117.41030    -999.25  117.41030    7.40850    7.08710    7.08710    -999.25    0.40350    0.36070 2384.23490    8.38730  -49.65320   -6.34990    8.38730
 1250.00000  253.88260    -999.25  253.88260  180.69130   99.43450   99.13410 2510.57500    -999.25    0.08450    0.11660    5.53430    -999.25    -999.25   96.08900    -999.25   96.08900    5.53430    5.45230    5.45230    -999.25    0.33760    0.29380 2515.04470    5.71630  -49.01190   -7.80290    5.71630
 1300.00000  251.65680  236.58040  251.65680  212.03510    -999.25    -999.25 2333.69500    -999.25    0.19170    0.22010    4.71620  307.11450  307.11450  116.99890  118.57370  116.99890    4.71620    4.89840    4.89840    -999.25    0.37980    0.33660 2344.49780    5.25720  -45.89190   -6.77730    5.25720
 1350.00000  290.13830  232.26880  290.13830  305.86650   84.35620   53.43990 2384.68000    -999.25    0.16080    0.19020    3.26940  353.95420  353.95420  152.98710  147.93130  152.98710    3.26940    3.46490    3.46490    -999.25    0.39610    0.35320 2391.38890    3.91500  -41.12020   -4.10000    3.91500
 1400.00000  228.34450  229.23660  228.34450  113.63510   36.84580    6.88180 2515.03000    -999.25    0.08180    0.11400    8.80010  258.28490  258.28490   81.45070   81.59830   81.45070    8.80010    9.18550    9.18550    -999.25    0.21810    0.17450 2521.44800   11.48730  -41.72780   -6.85920   11.48730
 1450.00000  268.21280  244.58330  268.21280  148.56850   98.75290   42.41340 2122.49500    -999.25    0.31970    0.34360    6.73090  379.86260  379.86260   89.98630   98.10380   89.98630    6.73090    6.21570    6.21570    -999.25    0.46950    0.42780 2151.95750    6.69020  -39.15350   -7.19720    6.69020
 1500.00000  237.84810  243.91550  237.84810   84.85360   -8.80270   -7.02900 2621.45500    -999.25    0.01730    0.05180   11.78500  197.71080  197.71080   47.14080   44.41760   47.14080   11.78500   16.36070   16.36070    -999.25    0.14470    0.10220 2631.02830   35.37780  -35.40840   -6.36430   35.37780
 1550.00000  263.68500  253.89180  263.68500  157.24750   -0.69950   -0.95670 2491.43500    -999.25    0.09610    0.12780    6.35940  255.47830  255.47830   70.87270   72.41940   70.87270    6.35940    6.52880    6.52880    -999.25    0.25580    0.21190 2533.52170    6.88890  -28.07590   -1.94410    6.88890
