~Version ---------------------------------------------------
VERS.      2.0 : CWLS log ASCII Standard -VERSION 2.0
WRAP.       NO : One line per depth step
CREA. 07/10/13 : LAS Creation Date
~Well ------------------------------------------------------
STRT.FT                         55.3 : START DEPTH
STOP.FT                      11119.8 : STOP DEPTH
STEP.FT                      0.50000 : STEP LENGTH
NULL.                        -999.25 : NULL VALUE
COMP.         PACIFIC PETROLEUMS LTD : COMPANY
WELL. PACIFIC ET AL TONY 10-18-63-21 : WELL
FLD .                     TONY TOWER : FIELD
LOC .                                : LOCATION
CTRY.                         CANADA : COUNTRY
SRVC.                   Schlumberger : SERVICE COMPANY
DATE.                    24-Sep-1975 : LOGDATE
PROV.                        Alberta : PROVINCE
UWI .               100101806321W500 : UNIQUE WELL ID
SLAT.WGS84                  54.45338 : SURFACE LATITUDE
SLON.WGS84                 -117.1585 : SURFACE LONGITUDE
~Curve Information -----------------------------------------
DEPT   .FT    : DEPTH FEET
CALD   .IN    : CALIPER FROM DENSITY LOG
DCOR   .G/C3  : DENSITY CORRECTION FROM DENSITY LOG
DPHI_LS.DEC   : DENSITY POROSITY LIMESTONE [M=2.71,F=1.0] FROM DENSITY LOG
DPHI_SS.DEC   : DENSITY POROSITY SANDSTONE [M=2.65,F=1.0] FROM DENSITY LOG
GRD    .GAPI  : GAMMA RAY FROM DENSITY LOG
ILD    .OHMM  : DEEP INDUCTION FROM RESISTIVITY LOG
ILM    .OHMM  : MEDIUM INDUCTION FROM RESISTIVITY LOG
LL8    .OHMM  : LATEROLOG FROM RESISTIVITY LOG
NPHI_LS.DEC   : NEUTRON POROSITY LIMESTONE FROM DENSITY LOG
NPHI_SS.DEC   : NEUTRON POROSITY SANDSTONE FROM DENSITY LOG
RHOB   .G/C3  : BULK DENSITY FROM DENSITY LOG
SPR    .MV    : SPONTANEOUS POTENTIAL FROM RESISTIVITY LOG
~Params ----------------------------------------------------
PD  .                     GL : PERMANENT DATUM
EPD .FT                 2714 : ELEVATION PERMANENT DATUM
LMF .                     KB : LOG MEASURED FROM
DAPD.FT                 13.7 : FEET ABOVE PERMANENT DATUM
EKB .FT               2727.7 : KELLY BUSHING
EGL .FT                 2714 : GROUND LEVEL
DATE.               09/24/75 : RUN DATE
RUN .                      1 : RUN NUMBER
DD  .FT                11125 : DEPTH DRILLER
DL  .FT                11121 : DEPTH LOGGER
BLI .FT                11115 : BOTTOM LOG INTERVAL
TLI .FT                 1125 : TOP LOG INTERVAL
CBD .FT                 1125 : CASING BOTTOM DRILLER
CBL .FT                 1125 : CASING BOTTOM LOGGER
BS  .IN                 8.75 : BIT SIZE
BSD .FT                11125 : BIT SIZE AT DEPTH
DFT .               GEL CHEM : DRILLING FLUID TYPE
DFD .                    9.3 : DRILLING FLUID DENSITY
DFV .                    147 : DRILLING FLUID VISCOSITY
DFPH.                    9.5 : DRILLING FLUID PH
DFL .                    9.2 : DRILLING FLUID LOSS
MSS .               FLOWLINE : MUD SAMPLE SOURCE
RMS .OHMM               1.62 : RESISTIVITY MUD SAMPLE
MST .DEGF                 72 : MUD SAMPLE TEMPERATURE
RMF .OHMM               1.26 : RESISTIVITY MUD FILTRATE SAMPLE
MFST.DEGF                 68 : MUD FILTRATE SAMPLE TEMPERATURE
RMB .OHMM               0.41 : RESISTIVITY MUD AT BHT
TCS .HRS                 3.5 : TIME CIRCULATED STOPPED
LUN .                   7691 : LOGGING UNIT NUMBER
LUL .                    EDM : LOGGING UNIT LOCATION
ENGI.              CROCKFORD : RECORDING ENGINEER
WITN.                   ROSS : WITNESSED BY
CLNT.                A2DTECH : CLIENT CODE
ORIG.            2" 5" PRINT : ORIGIN OF DATA
UWI .       100101806321W500 : UNIQUE WELL ID
DICO. A2D Technologies, Inc. : DIGITIZING COMPANY
~Other -----------------------------------------------------
~ASCII -----------------------------------------------------
# ...
 5095.30000   10.73930    0.10200    -999.25    0.04860  114.80620    6.66910    6.00420    7.52660    -999.25    0.27730    2.61760  -85.28560
 5095.80000   10.75180    0.08730    -999.25    0.04400  114.21260    6.61470    5.93980    7.33290    -999.25    0.27970    2.57150  -85.89210
 5096.30000   10.74980    0.07450    -999.25    0.03150  114.97850    6.54520    5.87330    7.11190    -999.25    0.28150    2.59600  -86.26460
 5096.80000   10.66060    0.07840    -999.25    0.03920  116.48860    6.45990    5.79090    7.21090    -999.25    0.28080    2.60140  -86.20940
 5097.30000   10.72390    0.06800    -999.25    0.04890  117.99860    6.37560    5.70970    7.27150    -999.25    0.28290    2.59150  -85.97610
 5097.80000   10.78930    0.06010    -999.25    0.05620  118.51610    6.29870    5.62960    7.12640    -999.25    0.28590    2.57040  -85.96800
 5098.30000   10.80370    0.06560    -999.25    0.04920  117.43680    6.22190    5.55060    6.96400    -999.25    0.29140    2.56590  -85.97650
 5098.80000   10.81040    0.06990    -999.25    0.04310  115.74830    6.12360    5.49540    6.80540    -999.25    0.29720    2.57200  -85.99450
 5099.30000   10.82050    0.09020    -999.25    0.04020  114.05980    6.08870    5.46120    6.65260    -999.25    0.30260    2.57810  -86.01240
 5099.80000   10.80540    0.11250    -999.25    0.03460  112.58950    6.08770    5.50060    6.53580    -999.25    0.30730    2.58870  -85.96100
 5100.30000   10.76730    0.13490    -999.25    0.02530  111.97510    6.14220    5.55350    6.53330    -999.25    0.31350    2.59930  -86.06600
 5100.80000   10.76060    0.14780    -999.25    0.02800  111.87020    6.30440    5.69020    6.76430    -999.25    0.31490    2.60620  -86.17110
 5101.30000   10.86860    0.15130    -999.25    0.02350  112.12910    6.48840    5.90380    7.09220    -999.25    0.30720    2.61320  -86.27610
 5101.80000   10.85810    0.12370    -999.25    0.03140  112.06480    6.67480    6.15320    7.45820    -999.25    0.29520    2.61540  -86.38110
 5102.30000   10.81980    0.10110    -999.25    0.03040  111.21970    6.86660    6.41690    7.84500    -999.25    0.28370    2.60860  -86.48620
 5102.80000   10.78270    0.09760    -999.25    0.03320  110.40220    7.06390    6.69190    8.13130    -999.25    0.27750    2.60310  -86.59120
 5103.30000   10.75080    0.08650    -999.25    0.02630  109.67960    7.26680    6.96230    8.39460    -999.25    0.27090    2.60100  -86.70870
 5103.80000   10.71420    0.07450    -999.25    0.03340  108.34870    7.47560    7.16750    8.94220    -999.25    0.26350    2.60010  -86.83630
 5104.30000   10.66840    0.07570    -999.25    0.01670  107.04800    7.69040    7.37880    9.63110    -999.25    0.25770    2.60410  -86.96390
 5104.80000   10.63430    0.05490    -999.25    0.01720  106.32520    7.91130    7.58910    9.87040    -999.25    0.25200    2.62030  -87.09160
 5105.30000   10.62530    0.04840    -999.25    0.01770  106.51890    8.13860    7.74290    9.70010    -999.25    0.24670    2.62920  -86.98310
 5105.80000   10.62720    0.04020    -999.25    0.01240  106.37250    8.37240    7.89990    9.43320    -999.25    0.24620    2.62990  -86.67710
 5106.30000   10.60390    0.05090    -999.25    0.03920  105.39040    8.51940    7.96700    9.71360    -999.25    0.24770    2.62740  -86.37120
 5106.80000   10.59130    0.03950    -999.25    0.02630  104.68780    8.65060    7.99750   10.22420    -999.25    0.24930    2.59150  -86.11530
 5107.30000   10.58120    0.02410    -999.25    0.02500  104.42650    8.78390    8.02820   10.29570    -999.25    0.24660    2.59780  -86.11730
 5107.80000   10.57010    0.03820    -999.25    0.01060  103.87670    8.91920    8.14230    9.65760    -999.25    0.24270    2.61750  -86.11930
 5108.30000   10.55520    0.07010    -999.25   -0.00280  103.15910    9.05660    8.34130    9.33320    -999.25    0.24130    2.63340  -86.14090
 5108.80000   10.54320    0.09810    -999.25    0.00310  102.15170    9.17330    8.55660    9.95730    -999.25    0.24510    2.65230  -86.35140
 5109.30000   10.52830    0.10450    -999.25    0.01750  100.82490    9.28880    8.77160   12.67830    -999.25    0.24960    2.64670  -86.56190
 5109.80000   10.48480    0.09250    -999.25    0.03510   99.79580    9.36800    8.93390   13.14550    -999.25    0.23690    2.62290  -86.66850
 5110.30000   10.43870    0.06060    -999.25    0.03520  100.80750    9.36020    8.96530   12.02850    -999.25    0.21690    2.58460  -86.71660
 5110.80000   10.40430    0.03810    -999.25    0.02590  103.64340    9.35330    8.95630   10.72760    -999.25    0.20200    2.59200  -86.76480
 5111.30000   10.39650    0.03720    -999.25    0.01900  107.01480    9.35010    8.87640   10.78690    -999.25    0.21030    2.61280  -86.81290
 5111.80000   10.38670    0.05630    -999.25    0.00930  108.82290    9.33340    8.67950   11.16120    -999.25    0.21940    2.62370  -86.86110
 5112.30000   10.38180    0.07430    -999.25    0.00660  109.14800    9.16990    8.41820   11.05570    -999.25    0.22580    2.63700  -86.90930
 5112.80000   10.38580    0.07950    -999.25    0.02460  108.90290    9.01950    8.16390   10.31020    -999.25    0.22930    2.63980  -86.95740
 5113.30000   10.39860    0.06830    -999.25    0.01890  108.65490    8.90870    7.98150    9.58660    -999.25    0.23260    2.61510  -87.00560
 5113.80000   10.40700    0.07600    -999.25    0.01260  107.68630    8.79940    7.91500    9.23860    -999.25    0.23640    2.62110  -87.05370
 5114.30000   10.40890    0.07270    -999.25    0.02110  106.11660    8.69140    7.91790    9.58250    -999.25    0.24050    2.63180  -87.10190
 5114.80000   10.41850    0.04500    -999.25    0.02450  104.83200    8.64670    7.92450    9.88470    -999.25    0.24180    2.61950  -87.15000
 5115.30000   10.43250    0.04600    -999.25    0.03050  104.42710    8.62750    8.03630    9.68110    -999.25    0.24130    2.60920  -87.19820
 5115.80000   10.44650    0.05000    -999.25    0.03380  104.41900    8.60840    8.14970    9.58020    -999.25    0.24050    2.59820  -87.24640
 5116.30000   10.46050    0.04820    -999.25    0.02860  105.13140    8.58920    8.21460   10.03530    -999.25    0.23850    2.60340  -87.26200
 5116.80000   10.47450    0.04020    -999.25    0.03100  105.80990    8.57010    8.09660   10.55600    -999.25    0.23540    2.60880  -87.07310
 5117.30000   10.47800    0.02600    -999.25    0.03960  106.12780    8.48830    7.80630   10.49840    -999.25    0.23160    2.59990  -86.88430
 5117.80000   10.49690    0.03500    -999.25    0.02640  107.24100    8.39720    7.54260    9.61920    -999.25    0.22960    2.59040  -86.83820
 5118.30000   10.52960    0.05260    -999.25    0.02480  108.73270    8.30710    7.50720    8.81370    -999.25    0.23490    2.61040  -86.85820
 5118.80000   10.56100    0.05770    -999.25    0.01750  110.72960    8.21160    7.47190    8.45330    -999.25    0.24200    2.61610  -86.87810
 5119.30000   10.57130    0.07820    -999.25    0.00620  112.33730    8.11610    7.43970    8.50060    -999.25    0.25650    2.62150  -86.48280
 5119.80000   10.58160    0.09930    -999.25    0.00680  112.33730    8.04870    7.41070    8.78920    -999.25    0.26780    2.64310  -85.83470
 5120.30000   10.59190    0.10040    -999.25    0.02370  111.66280    8.01170    7.38180    9.08750    -999.25    0.27210    2.64200  -85.18810
 5120.80000   10.60220    0.08090    -999.25    0.03750  109.91620    7.97500    7.35300    9.25190    -999.25    0.26450    2.60610  -84.90510
 5121.30000   10.61250    0.04760    -999.25    0.04820  108.13110    7.93840    7.32430    9.28310    -999.25    0.25580    2.59390  -84.91710
 5121.80000   10.63040    0.02060    -999.25    0.05190  106.53890    7.90190    7.29570    9.14800    -999.25    0.24770    2.56390  -85.19230
 5122.30000   10.61070    0.01850    -999.25    0.03560  106.99670    7.86570    7.26720    8.86700    -999.25    0.24600    2.56190  -85.57260
 5122.80000   10.61860    0.05770    -999.25    0.03000  108.02910    7.84170    7.23890    8.84920    -999.25    0.25330    2.60290  -85.87070
