~Version ---------------------------------------------------
VERS.      2.0 : CWLS log ASCII Standard -VERSION 2.0
WRAP.       NO : One line per depth step
CREA. 12/12/17 : LAS Creation Date
~Well ------------------------------------------------------
STRT.FT                      1000.0 : START DEPTH
STOP.FT                      9550.0 : STOP DEPTH
STEP.FT                    50.00000 : STEP LENGTH
NULL.                       -999.25 : NULL VALUE
COMP.    TEXACO EXPLORATION COMPANY : COMPANY
WELL. TEXACO SAKWATAMAU 10-24-61-14 : WELL
FLD .                               : FIELD
LOC .                               : LOCATION
CTRY.                        CANADA : COUNTRY
SRVC.                  Schlumberger : SERVICE COMPANY
DATE.                   24-May-1968 : LOGDATE
PROV.                       Alberta : PROVINCE
UWI .              100102406114W500 : UNIQUE WELL ID
SLAT.WGS84                 54.29276 : SURFACE LATITUDE
SLON.WGS84                -115.9587 : SURFACE LONGITUDE
~Curve Information -----------------------------------------
DEPT   .FT    : Depth Curve
CALDED .IN    : CALIPER FROM DENSITY LOG
CALWS  .IN    : CALIPER [CALDED]
CILDED .MMHO  : DEEP INDUCTION CONDUCTIVITY FROM RESISTIVITY LOG
CONDWS .MMHO  : CONDUCTIVITY [CILDED]
DCORWS .G/C3  : DENSITY CORRECTION [DRHOED]
DENWS  .G/C3  : FORMATION BULK DENSITY [RHOBED]
DPOLSWS.V/V   : DENSITY POROSITY LIMESTONE [CALC FROM DENWS,M=2.71, F=1.00 ASSUMED]
DRESWS .OHMM  : DEEP RESISTIVITY [1000/CILDED]
DRHOED .G/C3  : DENSITY CORRECTION FROM DENSITY LOG
GRDED  .GAPI  : GAMA RAY FROM DENSITY LOG
GRWS   .GAPI  : GAMMA RAY [GRDED]
ILDED  .OHMM  : DEEP INDUCTION LOG RESISTIVITY FROM RESISTIVITY LOG
RHOBED .G/C3  : BULK DENSITY FROM DENSITY LOG
SNED   .OHMM  : SHORT NORMAL 16" RESISTIVITY FROM RESISTIVITY LOG
SPRED  .MV    : SELF POTENTIAL FROM RESISTIVITY LOG
SPWS   .MV    : SPONTANEOUS POTENTIAL [BASELINE 0 MV,SPRED]
SRESWS .OHMM  : SHALLOW RESISTIVITY [SNED]
~Params ----------------------------------------------------
PD  .                     GL : PERMANENT DATUM
EPD .FT               3060.2 : ELEVATION PERMANENT DATUM
LMF .                     KB : LOG MEASURED FROM
DAPD.FT                 14.3 : FEET ABOVE PERMANENT DATUM
EKB .FT               3074.5 : KELLY BUSHING
EGL .FT               3060.2 : GROUND LEVEL
DATE.               05/24/68 : RUN DATE
RUN .                      1 : RUN NUMBER
DD  .FT                 9585 : DEPTH DRILLER
DL  .FT                 9586 : DEPTH LOGGER
BLI .FT                 9585 : BOTTOM LOG INTERVAL
TLI .FT                  977 : TOP LOG INTERVAL
CBD .FT                  977 : CASING BOTTOM DRILLER
CBL .FT                  977 : CASING BOTTOM LOGGER
BS  .IN                7.625 : BIT SIZE
BSD .FT                 9585 : BIT SIZE AT DEPTH
DFT .                    GEL : DRILLING FLUID TYPE
DFD .                    9.6 : DRILLING FLUID DENSITY
DFV .                    157 : DRILLING FLUID VISCOSITY
DFPH.                    9.1 : DRILLING FLUID PH
DFL .                    7.8 : DRILLING FLUID LOSS
TCS .HRS                   3 : TIME CIRCULATED STOPPED
LUN .                 DSU A9 : LOGGING UNIT NUMBER
LUL .                    EDM : LOGGING UNIT LOCATION
ENGI.               STUEHMER : RECORDING ENGINEER
WITN.                   GUNN : WITNESSED BY
CLNT.                A2DTECH : CLIENT CODE
ORIG.            2" 5" PRINT : ORIGIN OF DATA
UWI .       100102406114W500 : UNIQUE WELL ID
DICO. A2D Technologies, Inc. : DIGITIZING COMPANY
~Other -----------------------------------------------------
~ASCII -----------------------------------------------------
# ...
 7150.00000    7.97080    7.97080   30.43820   30.43820    0.06980    2.60610    0.06080   32.85350    0.06980   13.32000   13.32000   34.16560    2.60610  132.94360 -127.31320 -130.76010  132.94360
 7200.00000    8.74240    8.74240   14.79920   14.79920    0.06100    2.71590   -0.00350   67.57120    0.06100   10.03500   10.03500   79.96330    2.71590  133.54270 -119.20070 -121.50130  133.54270
 7250.00000    8.48110    8.48110   14.60010   14.60010    0.00350    2.70240    0.00440   68.49270    0.00350   11.13000   11.13000   85.06280    2.70240  128.14080  -95.06990  -96.23170  128.14080
 7300.00000    8.57590    8.57590   10.95840   10.95840    0.01270    2.69130    0.01090   91.25420    0.01270   12.34500   12.34500  119.32510    2.69130  137.82570  -80.40260  -80.42560  137.82570
 7350.00000    8.68080    8.68080    4.74060    4.74060    0.01340    2.73210   -0.01290  210.94380    0.01340   15.94500   15.94500  551.94010    2.73210  181.65560  -72.64010  -71.51680  181.65560
 7400.00000    8.69430    8.69430   17.39410   17.39410    0.04100    2.69450    0.00910   57.49080    0.04100   11.79000   11.79000   61.76950    2.69450  142.52780 -121.31110 -119.04900  142.52780
 7450.00000    9.03300    9.03300   26.48370   26.48370    0.03120    2.69900    0.00640   37.75910    0.03120   12.07500   12.07500   38.62150    2.69900  118.54100 -200.00000 -196.59160  118.54100
 7500.00000    8.23840    8.23840    5.10580    5.10580    0.01390    2.73290   -0.01340  195.85570    0.01390   11.95500   11.95500  491.77060    2.73290  157.19230 -136.54690 -131.99960  157.19230
 7550.00000    8.24460    8.24460    8.14770    8.14770    0.07180    2.88010   -0.09950  122.73400    0.07180   15.96000   15.96000  232.84310    2.88010  165.23210 -143.32210 -137.63600  165.23210
 7600.00000    9.70600    9.70600  111.88870  111.88870    0.04170    2.64810    0.03620    8.93750    0.04170   73.42500   73.42500    8.34990    2.64810   10.25940  -64.11210  -57.27970   10.25940
 7650.00000    7.96830    7.96830   20.90110   20.90110    0.06440    2.78550   -0.04420   47.84440    0.06440   14.97000   14.97000   46.70340    2.78550   89.92550 -129.55520 -121.58400   89.92550
 7700.00000    8.23040    8.23040   48.88680   48.88680    0.03810    2.86180   -0.08880   20.45540    0.03810   26.44500   26.44500   21.31860    2.86180   95.46220 -158.09810 -148.98060   95.46220
 7750.00000    8.34160    8.34160   66.77000   66.77000    0.00700    2.73250   -0.01320   14.97680    0.00700   37.26000   37.26000   14.12650    2.73250   35.15260 -109.92000  -99.66370   35.15260
 7800.00000    8.24420    8.24420    8.76430    8.76430    0.04380    2.75350   -0.02540  114.09920    0.04380   26.20500   26.20500  156.77400    2.75350  104.07400  -49.92400  -38.52890  104.07400
 7850.00000    8.37670    8.37670   10.55720   10.55720    0.02410    2.75980   -0.02910   94.72210    0.02410   26.91000   26.91000  119.74510    2.75980   92.43700  -37.86080  -25.31940   92.43700
 7900.00000    8.35360    8.35360   14.62300   14.62300    0.00330    2.74500   -0.02050   68.38540    0.00330   26.46000   26.46000   77.15390    2.74500   68.90360  -31.65650  -17.97620   68.90360
 7950.00000    8.38140    8.38140   28.95290   28.95290    0.01440    2.75460   -0.02610   34.53890    0.01440   32.44500   32.44500   35.12660    2.75460   41.57290  -37.23760  -22.41100   41.57290
 8000.00000    8.53600    8.53600   55.63140   55.63140    0.01860    2.75520   -0.02640   17.97550    0.01860   38.79000   38.79000   18.71330    2.75520   23.23960  -36.24990  -20.98840   23.23960
 8050.00000    8.88780    8.88780  128.23410  128.23410    0.03070    2.70430    0.00330    7.79820    0.03070   48.96000   48.96000    7.59430    2.70430   10.32440  -38.73980  -23.24610   10.32440
 8100.00000    8.96070    8.96070  106.69580  106.69580    0.02220    2.72200   -0.00700    9.37240    0.02220   60.82500   60.82500    8.67090    2.72200   12.60260  -38.84210  -23.11470   12.60260
 8150.00000    8.58450    8.58450  101.80730  101.80730    0.00910    2.71520   -0.00300    9.82250    0.00910   53.08500   53.08500    9.07340    2.71520   13.29910  -26.47260  -10.51300   13.29910
 8200.00000   15.01830   15.01830  225.51250  225.51250    0.24220    2.26540    0.26000    4.43430    0.24220   74.38500   74.38500    4.23850    2.26540    5.26760  -46.87530  -30.68200    5.26760
 8250.00000    8.33230    8.33230   56.59710   56.59710    0.02220    2.69540    0.00850   17.66870    0.02220   71.02500   71.02500   18.18220    2.69540   25.60820  -42.23380  -25.80830   25.60820
 8300.00000    8.77220    8.77220  111.34710  111.34710    0.24550    2.54580    0.09600    8.98090    0.24550   66.87000   66.87000    8.41580    2.54580   12.83190  -41.11420  -24.45650   12.83190
 8350.00000   11.47320   11.47320  171.57410  171.57410    0.24180    2.25120    0.26830    5.82840    0.24180   64.96500   64.96500    5.98720    2.25120    7.24770  -46.02100  -29.12960    7.24770
 8400.00000   13.14570   13.14570  175.62330  175.62330    0.22590    2.13290    0.33750    5.69400    0.22590   64.80000   64.80000    5.83740    2.13290    7.48510  -44.83370  -27.71010    7.48510
 8450.00000    8.91130    8.91130   73.05530   73.05530    0.22490    2.57500    0.07890   13.68830    0.22490   58.47000   58.47000   13.75350    2.57500   18.89940  -27.16490   -9.80760   18.89940
 8500.00000    9.51390    9.51390  126.45010  126.45010    0.20510    2.59640    0.06640    7.90830    0.20510   72.60000   72.60000    7.42340    2.59640   10.70120  -41.67010  -24.08060   10.70120
 8550.00000    8.70430    8.70430  100.41220  100.41220    0.00910    2.74950   -0.02310    9.95890    0.00910   74.94000   74.94000    9.30820    2.74950   13.83350  -35.63910  -17.81740   13.83350
 8600.00000    8.80570    8.80570  107.05490  107.05490    0.04140    2.64100    0.04040    9.34100    0.04140   60.46500   60.46500    9.20010    2.64100   13.24230  -36.20760  -18.15220   13.24230
 8650.00000   11.68190   11.68190  173.07560  173.07560    0.23100    2.63170    0.04580    5.77780    0.23100   84.67500   84.67500    5.90290    2.63170    7.89710  -47.55020  -29.26260    7.89710
 8700.00000   10.37020   10.37020  143.06020  143.06020    0.18610    2.70500    0.00290    6.99010    0.18610   98.50500   98.50500    6.91020    2.70500    9.73030  -39.95260  -21.43130    9.73030
 8750.00000    9.42010    9.42010  141.33230  141.33230    0.20320    2.72930   -0.01130    7.07550    0.20320   88.84500   88.84500    6.95200    2.72930    9.96690  -35.37880  -16.62530    9.96690
 8800.00000   10.31070   10.31070  198.07600  198.07600    0.14910    2.64060    0.04060    5.04860    0.14910   89.37000   89.37000    4.69390    2.64060    7.29500  -43.91190  -24.92630    7.29500
 8850.00000    9.74570    9.74570  171.26280  171.26280    0.25000    2.71380   -0.00220    5.83900    0.25000  101.67000  101.67000    5.94780    2.71380    8.54650  -50.62630  -31.40700    8.54650
 8900.00000    9.71880    9.71880  201.85050  201.85050    0.16940    2.58340    0.07400    4.95420    0.16940  112.24500  112.24500    4.85390    2.58340    7.50060  -49.31340  -29.86190    7.50060
 8950.00000    7.85580    7.85580   11.66320   11.66320    0.01910    2.58310    0.07420   85.73980    0.01910  111.19500  111.19500   86.40020    2.58310  104.75010  -36.17730  -16.49210  104.75010
 9000.00000    7.92610    7.92610   36.79310   36.79310    0.02880    2.73350   -0.01370   27.17900    0.02880   44.35500   44.35500   26.92960    2.73350   40.71090  -31.26740  -11.35000   40.71090
 9050.00000    8.35430    8.35430  132.65050  132.65050    0.23990    2.68440    0.01500    7.53860    0.23990   85.09500   85.09500    7.41110    2.68440   13.74900  -40.89520  -20.74560   13.74900
 9100.00000    7.92080    7.92080   26.85340   26.85340    0.01840    2.72630   -0.00950   37.23920    0.01840   39.43500   39.43500   36.33330    2.72630   49.09100  -25.18600   -4.80270   49.09100
 9150.00000    7.63900    7.63900    5.72460    5.72460    0.00010    2.75490   -0.02630  174.68470    0.00010   15.12000   15.12000  558.02120    2.75490  276.05440  -28.88000   -8.26450  276.05440
