~Version ---------------------------------------------------
VERS. 2.0 : CWLS log ASCII Standard -VERSION 2.0
WRAP.  NO : ONE LINE PER DEPTH STEP
~Well ------------------------------------------------------
STRT.M                    600.0 : START DEPTH
STOP.M                   4000.0 : STOP DEPTH
STEP.M                 50.00000 : STEP LENGTH
NULL.                   -999.25 : NULL VALUE
COMP. GULF CANADA RESOURCES INC : COMPANY
WELL.   GULF AEC KARR 3-22-66-3 : WELL
FLD .                        WC : FIELD
LOC .                           : LOCATION
CTRY.                    CANADA : COUNTRY
SRVC.              Schlumberger : SERVICE COMPANY
DATE.               26-Oct-1983 : LOGDATE
PROV.                   Alberta : PROVINCE
UWI .          100032206603W600 : UNIQUE WELL ID
SLAT.WGS84             54.72326 : SURFACE LATITUDE
SLON.WGS84            -118.3689 : SURFACE LONGITUDE
~Curve Information -----------------------------------------
DEPT    .M      : DEPTH METERS
C1ED    .MM     : CALIPER 1 FROM DENSITY LOG
C2ED    .MM     : CALIPER 2 FROM DENSITY LOG
CALDED  .MM     : CALIPER FROM DENSITY LOG
CALSED  .MM     : CALIPER FROM SONIC LOG
CALWS   .MM     : CALIPER [CALSED]
CONDWS  .MMHO   : CONDUCTIVITY [1000/DRESWS]
DCORWS  .KG/M3  : DENSITY CORRECTION [DRHOED]
DENWS   .KG/M3  : BULK DENSITY [M=2650/2710 AT 2400 F=1000] [CALCULATED FROM DPHISSED/DPHILSED]
DPHILSED.V/V    : DENSITY POROSITY [M=2710 F=1000] FROM DENSITY LOG
DPHISSED.V/V    : DENSITY POROSITY [M=2650 F=1000] FROM DENSITY LOG
DPOLSWS .V/V    : DENSITY POROSITY [M=2710 F=1000] [CALCULATED FROM DENWS]
DRESWS  .OHMM   : DEEP RESISTIVITY [ILDED]
DRHOED  .KG/M3  : DENSITY CORRECTION FROM DENSITY LOG
DTED    .US/M   : DELTA TIME FROM SONIC LOG
DTWS    .US/M   : DELTA TIME [DTED]
GRDED   .GAPI   : GAMMA RAY FROM DENSITY LOG
GRRED   .GAPI   : GAMMA RAY FROM RESISTIVITY LOG
GRSED   .GAPI   : GAMMA RAY FROM SONIC LOG
GRWS    .GAPI   : GAMMA RAY [GRSED] BULK SHIFTED +20API IN CASED HOLE @616m
ILDED   .OHMM   : INDUCTION LOG DEEP RESISTIVITY
ILMED   .OHMM   : INDUCTION LOG MEDIUM RESISTIVITY
MRESWS  .OHMM   : MEDIUM RESISTIVITY [ILMED]
NPHILSED.V/V    : NEUTRON POROSITY LIMESTONE FROM DENSITY LOG
NPHISSED.V/V    : NEUTRON POROSITY SANDSTONE FROM DENSITY LOG
NPOLSWS .V/V    : NEUTON POROSITY LIMESTONE [NPHISSED CONVERTED TO LIMESTONE FROM POWER LOG FROM START TO 2400, THEN NPHILSED TO END]
RHOBED  .KG/M3  : BULK DENSITY FROM DENSITY LOG
SFLUED  .OHMM   : SPHERICALLY FOCUSED LOG RESISTIVITY
SPRED   .MV     : SPONTANEOUS POTENTIAL FROM RESISTIVITY LOG SHIFTED
SPWS    .MV     : SPONTANEOUS POTENTIAL [BASELINE 0 MV] [SPRED] REVERSED IN SOME AREAS
SRESWS  .OHMM   : SHALLOW RESISTIVITY [SFLUED]
TENDED  .N      : TENSION FROM DENSITY LOG
TENRED  .N      : TENSION FROM RESISTIVITY LOG
TENSED  .N      : TENSION FROM SONIC LOG
~Params ----------------------------------------------------
PD  .                         GL : PERMANENT DATUM
EPD .M                       778 : ELEVATION PERMANENT DATUM
LMF .                         KB : LOG MEASURED FROM
DAPD.M                       7.5 : FEET ABOVE PERMANENT DATUM
DMF .                         KB : DRILLING MEASURED FROM
EKB .M                     785.5 : KELLY BUSHING
EDF .M                     785.1 : DRILLING FLOOR
EGL .M                       778 : GROUND LEVEL
DATE.                   10/26/83 : RUN DATE
RUN .                          2 : RUN NUMBER
DD  .M                      4035 : DEPTH DRILLER
DL  .M                      4034 : DEPTH LOGGER
BLI .M                      4033 : BOTTOM LOG INTERVAL
TLI .M                      2722 : TOP LOG INTERVAL
CS  .MM                      244 : CASING SIZE
CBD .M                      2723 : CASING BOTTOM DRILLER
CBL .M                      2722 : CASING BOTTOM LOGGER
BS  .MM                      216 : BIT SIZE
BSD .M                      4035 : BIT SIZE AT DEPTH
DFT .                    POLYMER : DRILLING FLUID TYPE
DFD .                       1120 : DRILLING FLUID DENSITY
DFV .                         45 : DRILLING FLUID VISCOSITY
DFPH.                        9.5 : DRILLING FLUID PH
DFL .                         13 : DRILLING FLUID LOSS
MSS .                CIRCULATION : MUD SAMPLE SOURCE
RMS .OHMM                  0.895 : RESISTIVITY MUD SAMPLE
MST .DEGC                     15 : MUD SAMPLE TEMPERATURE
RMF .OHMM                   0.83 : RESISTIVITY MUD FILTRATE SAMPLE
MFST.DEGC                     15 : MUD FILTRATE SAMPLE TEMPERATURE
MFSS.                     FILTER : MUD FILTRATE SAMPLE SOURCE
RMB .OHMM                  0.223 : RESISTIVITY MUD AT BHT
TCS .HRS                     800 : TIME CIRCULATED STOPPED
TLAB.HRS                    1700 : TIME LOGGER AT BOTTOM
LUN .                       8155 : LOGGING UNIT NUMBER
LUL .                         GP : LOGGING UNIT LOCATION
ENGI.                     MURRAY : RECORDING ENGINEER
WITN.                      KUPER : WITNESSED BY
CLNT.                    A2DTECH : CLIENT CODE
ORIG. 6.5"/100M 16.5"/100M PRINT : ORIGIN OF DATA
UWI .           100032206603W600 : UNIQUE WELL ID
DICO.     A2D Technologies, Inc. : DIGITIZING COMPANY
~Other -----------------------------------------------------
~ASCII -----------------------------------------------------
# ...
 1700.00000  351.69600  374.03900    -999.25  356.55300  356.55300  195.82880   58.49060 2469.49000    -999.25    0.10940    0.14060    5.10650   58.49060  313.32740  313.32740   84.55670   84.67120   85.05230   85.05230    5.10650    4.83120    4.83120    -999.25    0.44940    0.40770 2477.36910    5.54700  -19.67340   -1.35180    5.54700 13950.27930 12798.05760 12953.49610
 1750.00000  365.03320  363.25840    -999.25  359.87500  359.87500  121.35480   39.28150 2585.32010    -999.25    0.03920    0.07290    8.24030   39.28150  258.77200  258.77200   76.55280   73.38900   73.54730   73.54730    8.24030    7.94860    7.94860    -999.25    0.36070    0.31720 2577.35790    8.64220  -19.67270   -2.85010    8.64220 13797.42680 12962.43160 13205.38180
 1800.00000  299.90340  305.15520    -999.25  307.68720  307.68720   58.07610  120.33710 2415.20510    -999.25    0.14230    0.17240   17.21880  120.33710  243.18580  243.18580   21.22580   18.81220   18.93250   18.93250   17.21880   24.20720   24.20720    -999.25    0.18160    0.13840 2416.25050   25.95420  -59.86120  -42.29010   25.95420 14165.87110 13222.04000 13090.88770
 1850.00000  354.97810  336.61970    -999.25  344.82750  344.82750   53.63370  104.79830 2671.45000    -999.25   -0.01300    0.02250   18.64500  104.79830  216.03340  216.03340   58.29660   56.49570   54.92650   54.92650   18.64500   17.05410   17.05410    -999.25    0.26690    0.22290 2667.62790   18.77610  -36.99730  -17.84650   18.77610 14375.66020 13711.31150 13729.74020
 1900.00000  350.73280  384.17680    -999.25  362.95560  362.95560   63.94800    4.42030 2484.66990    -999.25    0.10020    0.13180   15.63770    4.42030  252.60750  252.60750   61.74820   64.91210   66.15790   66.15790   15.63770   16.50370   16.50370    -999.25    0.37060    0.32720 2525.34400   18.77610  -33.45400  -16.91290   18.77610 14613.97750 13772.13570 14035.72850
 1950.00000  339.44750  363.53850    -999.25  350.38170  350.38170   33.50590   20.12850 2620.30000    -999.25    0.01800    0.05250   29.84550   20.12850  216.64320  216.64320   55.01850   53.81160   54.29510   54.29510   29.84550   26.83740   26.83740    -999.25    0.22080    0.17710 2626.22140   30.89010  -32.80900  -20.49070   30.89010 14526.58200 14057.39840 14090.71000
 2000.00000  339.04220  348.61760    -999.25  344.31310  344.31310   12.07150   23.28750 2684.48510    -999.25   -0.02090    0.01490   82.83970   23.28750  188.76370  188.76370   25.41350   26.28870   28.11610   28.11610   82.83970   74.32420   74.32420    -999.25    0.13590    0.09350 2672.59200  301.43630  -51.52080  -43.42530  301.43630 19501.43950 14267.20800 14232.89160
 2050.00000  349.61080  384.39980    -999.25  363.56860  363.56860   41.26960   81.34480 2573.27490    -999.25    0.04650    0.08000   24.23090   81.34480  234.82070  234.82070   71.19530   68.64750   68.74420   68.74420   24.23090   18.74670   18.74670    -999.25    0.30730    0.26330 2562.63350   21.21750  -16.49860  -12.62590   21.21750 15225.22750 14654.88380 14768.87990
 2100.00000  343.05060  365.19780    -999.25  353.58450  353.58450   30.15840   54.28470 2650.33010    -999.25   -0.00020    0.03490   33.15830   54.28470  215.13260  215.13260   58.81740   62.83940   62.20240   62.20240   33.15830   28.76860   28.76860    -999.25    0.23130    0.18750 2639.15720   39.61510  -11.73850  -12.08870   39.61510 15649.04790 15113.43750 14890.83890
 2150.00000  331.07200  378.56290    -999.25  343.29420  343.29420   20.75270   14.31120 2603.30490    -999.25    0.02830    0.06240   48.18640   14.31120  220.86710  220.86710   68.07780   67.58000   68.26570   68.26570   48.18640   40.65910   40.65910    -999.25    0.25150    0.20760 2604.61770   56.80580  -20.45870  -25.36110   56.80580 16104.93460 15287.35250 15318.26560
 2200.00000  330.40660  384.99680    -999.25  344.31450  344.31450   39.31680   16.78850 2536.48000    -999.25    0.06880    0.10150   25.43440   16.78850  222.70080  222.70080   70.62540   72.30830   67.55570   67.55570   25.43440   42.71360   42.71360    -999.25    0.31640    0.27250 2547.81470   70.80890    0.45270   -9.24230   70.80890 16197.62890 15527.46000 15542.44430
 2250.00000  330.32800  381.07320    -999.25  343.30710  343.30710   42.01660   11.63020 2664.18990    -999.25   -0.00860    0.02680   23.80010   11.63020  226.26950  226.26950   79.98050   74.90060   87.09870   87.09870   23.80010   26.21520   26.21520    -999.25    0.24500    0.20110 2663.29250   20.45180    9.31650   -5.17120   20.45180 16502.99410 15779.38380 15702.83980
 2300.00000  320.23850  383.24080    -999.25  347.83360  347.83360   28.91200  108.88830 2538.62500    -999.25    0.06750    0.10020   34.58770  108.88830  233.88080  233.88080   69.15910   57.14530   57.37900   57.37900   34.58770   27.30910   27.30910    -999.25    0.25240    0.20850 2560.97290   42.66820   14.15890   -5.12150   42.66820 16533.06050 16176.70900 15994.17970
 2350.00000  456.10480  385.65890    -999.25  379.23390  379.23390  226.02960  165.35690 2126.29000    -999.25    0.31740    0.34140    4.42420  165.35690  265.53820  265.53820   71.15810   63.23230   62.85650   62.85650    4.42420    3.22710    3.22710    -999.25    0.44410    0.40230 2155.13400    4.87020   16.91100    4.36560    4.87020 16566.55660 16096.51170 15989.42680
 2400.00000  325.88840  328.62320    -999.25  327.93180  327.93180   31.51200   10.87710 2666.73710    0.02530   -0.01400    0.02530   31.73390   10.87710  188.62810  188.62810   84.61700   77.75880   77.66230   77.66230   31.73390   34.33930   34.33930    0.10150    0.13840    0.10150 2669.81540   49.02080  -26.86080   -4.09790   49.02080 17158.42380 16741.96480 16630.79100
 2450.00000  329.64170  327.49710    -999.25  325.29400  325.29400   13.25620   27.86340 2638.00900    0.04210    -999.25    0.04210   75.43630   27.86340  192.28250  192.28250   69.85030   77.00920   74.90670   74.90670   75.43630   76.87550   76.87550    0.07910    -999.25    0.07910 2636.43360   96.98140  -42.65270  -23.82480   96.98140 17469.73830 16809.81450 17002.83980
 2500.00000  321.47710  323.52540    -999.25  319.53590  319.53590    6.86700    1.55790 2634.76000    0.04400    -999.25    0.04400  145.62380    1.55790  195.96660  195.96660   73.92640   75.08100   75.68480   75.68480  145.62380  167.21050  167.21050    0.09290    -999.25    0.09290 2636.10690  232.43920  -27.59300  -12.70010  232.43920 18014.56640 17342.93750 17351.95120
 2550.00000  333.72030  331.67610    -999.25  329.83380  329.83380   17.31390   11.81040 2662.63310    0.02770    -999.25    0.02770   57.75700   11.81040  200.08670  200.08670   76.54230   74.14120   73.48390   73.48390   57.75700   53.95050   53.95050    0.10710    -999.25    0.10710 2657.25240   64.05590   -8.46890   -7.20990   64.05590 18286.32230 17454.17190 17465.96680
 2600.00000  333.49070  329.73570    -999.25  332.81770  332.81770    5.39300    3.01850 2632.19510    0.04550    -999.25    0.04550  185.42490    3.01850  204.12620  204.12620   87.19970   81.73670   81.73690   81.73690  185.42490  140.72480  140.72480    0.15200    -999.25    0.15200 2632.82590  216.25930  -38.76900  -40.53960  216.25930 18608.60550 17781.55080 17909.16600
 2650.00000  310.73240  308.63750    -999.25  308.89290  308.89290  118.94570  102.43440 2539.51290    0.09970    -999.25    0.09970    8.40720  102.43440  208.47220  208.47220   27.69050   21.38700   21.52550   21.52550    8.40720   10.07820   10.07820    0.08760    -999.25    0.08760 2535.20750   20.12960  -96.72890  -98.72120   20.12960 18770.84180 17948.14650 18080.27150
 2700.00000  308.49390  321.13030    -999.25  318.49570  318.49570    2.71220   33.48010 2763.52290   -0.03130    -999.25   -0.03130  368.70620   33.48010  164.89570  164.89570   11.91580   13.38240   14.29580   14.29580  368.70620  262.53780  262.53780    0.06250    -999.25    0.06250 2733.87450 1603.71080  -49.71180  -51.92580 1603.71080 19523.28910 18486.40430 18575.16410
 2750.00000    -999.25    -999.25  235.59140  243.97670  243.97670    2.65410   27.35510 2852.61400   -0.08340    -999.25   -0.08340  376.77780   27.35510  146.28190  146.28190   26.30170   34.74460   34.14040   34.14040  376.77780 1974.81540 1974.81540    0.00910    -999.25    0.00910 2857.60160  487.56560  -13.14830  -15.58410  487.56560 16749.66800 17792.63090    -999.25
