~Version ---------------------------------------------------
VERS.      2.0 : CWLS log ASCII Standard -VERSION 2.0
WRAP.       NO : One line per depth step
CREA. 12/14/17 : LAS Creation Date
~Well ------------------------------------------------------
STRT.FT                          1300.0 : START DEPTH
STOP.FT                         13000.0 : STOP DEPTH
STEP.FT                        50.00000 : STEP LENGTH
NULL.                           -999.25 : NULL VALUE
COMP.            AMERADA PETROLEUM CORP : COMPANY
WELL. AMERADA HB CR DR SUNDRE 4-16-33-5 : WELL
FLD .                           WILDCAL : FIELD
LOC .                                   : LOCATION
CTRY.                            CANADA : COUNTRY
SRVC.                      Schlumberger : SERVICE COMPANY
DATE.                       14-Sep-1963 : LOGDATE
PROV.                           Alberta : PROVINCE
UWI .                  100041603305W500 : UNIQUE WELL ID
SLAT.WGS84                     51.82557 : SURFACE LATITUDE
SLON.WGS84                    -114.6593 : SURFACE LONGITUDE
~Curve Information -----------------------------------------
DEPT  .FT    : Depth Curve
CALSED.IN    : CALIPER FROM SONIC LOG, DEPTH ADJUSTED WITH [ILDED]
CALWS .IN    : CALIPER [CALSED]
CILDED.MMHO  : CONDUCTIVITY FROM RESISTIVITY LOG
CONDWS.MMHO  : CONDUCTIVITY [1000/DRESWS]
DRESWS.OHMM  : DEEP RESISTIVITY [ILDED] IF DRESWS<1;1000/CONDWS
DTED  .US/F  : DELTA TIME FROM SONIC LOG, DEPTH ADJUSTED WITH [ILDED]
DTWS  .US/F  : DELTA TIME [DTED]
GRSED .GAPI  : GAMMA RAY FROM SONIC LOG, DEPTH ADJUSTED WITH [ILDED]
GRWS  .GAPI  : GAMMA RAY [GRSED]
ILDED .OHMM  : INDUCTION LOG DEEP RESISTIVITY
SNED  .OHMM  : 16 INCH SHORT NORMAL RESISTIVITY FROM IEL
SPRED .MV    : SPONTANEOUS POTENTIAL FROM RESISTIVITY LOG
SPWS  .MV    : SPONTANEOUS POTENTIAL [BASELINE 0 MV] [SPRED]
SRESWS.OHMM  : SHALLOW RESISTIVITY [SNED]
~Params ----------------------------------------------------
PD  .                     GL : PERMANENT DATUM
EPD .FT                 3748 : ELEVATION PERMANENT DATUM
LMF .                     KB : LOG MEASURED FROM
DAPD.FT                   15 : FEET ABOVE PERMANENT DATUM
EKB .FT                 3763 : KELLY BUSHING
EGL .FT                 3748 : GROUND LEVEL
DATE.               09/14/63 : RUN DATE
RUN .                      3 : RUN NUMBER
DD  .FT                13033 : DEPTH DRILLER
DL  .FT                13033 : DEPTH LOGGER
BLI .FT                13032 : BOTTOM LOG INTERVAL
TLI .FT                12190 : TOP LOG INTERVAL
BS  .IN                 8.75 : BIT SIZE
BSD .FT                13033 : BIT SIZE AT DEPTH
DFT .                    GEL : DRILLING FLUID TYPE
DFD .                     10 : DRILLING FLUID DENSITY
DFV .                    255 : DRILLING FLUID VISCOSITY
DFPH.                     11 : DRILLING FLUID PH
DFL .                    5.8 : DRILLING FLUID LOSS
RMS .OHMM               1.42 : RESISTIVITY MUD SAMPLE
MST .DEGF                 56 : MUD SAMPLE TEMPERATURE
RMF .OHMM               0.91 : RESISTIVITY MUD FILTRATE SAMPLE
MFST.DEGF                 57 : MUD FILTRATE SAMPLE TEMPERATURE
RMC .OHMM               1.56 : RESISTIVITY MUD CAKE
MCST.DEGF                 58 : MUD CAKE SAMPLE TEMPERATURE
RMB .OHMM               0.42 : RESISTIVITY MUD AT BHT
TCS .HRS                   2 : TIME CIRCULATED STOPPED
LUN .                   4508 : LOGGING UNIT NUMBER
LUL .                     RD : LOGGING UNIT LOCATION
ENGI.                   LYNN : RECORDING ENGINEER
WITN.                MERRETT : WITNESSED BY
CLNT.                A2DTECH : CLIENT CODE
ORIG.            2" 5" PRINT : ORIGIN OF DATA
UWI .       100041603305W500 : UNIQUE WELL ID
DICO. A2D Technologies, Inc. : DIGITIZING COMPANY
~Other -----------------------------------------------------
~ASCII -----------------------------------------------------
 1300.00000    -999.25    -999.25   73.42150   70.24300   14.23630    -999.25    -999.25    -999.25    -999.25   14.23630   12.94900  -34.76490   -7.34420   12.94900
 1350.00000    -999.25    -999.25   73.45810   64.57110   15.48680    -999.25    -999.25    -999.25    -999.25   15.48680   14.25900  -33.99480   -6.72270   14.25900
 1400.00000    -999.25    -999.25   68.72830   70.79450   14.12540    -999.25    -999.25    -999.25    -999.25   14.12540   17.32400  -35.27660   -8.15310   17.32400
 1450.00000    -999.25    -999.25   75.03220   77.71460   12.86760    -999.25    -999.25    -999.25    -999.25   12.86760   14.29770  -32.87140   -5.89650   14.29770
 1500.00000    -999.25    -999.25   49.94590   44.97960   22.23230    -999.25    -999.25    -999.25    -999.25   22.23230   16.86170  -32.93790   -6.11160   16.86170
 1550.00000    -999.25    -999.25   63.01910   66.41870   15.05600    -999.25    -999.25    -999.25    -999.25   15.05600   17.78460  -32.68000   -6.00230   17.78460
 1600.00000    -999.25    -999.25  107.46100  107.51070    9.30140    -999.25    -999.25    -999.25    -999.25    9.30140   12.27390  -34.43720   -7.90810   12.27390
 1650.00000    -999.25    -999.25   34.72460   28.62430   34.93540    -999.25    -999.25    -999.25    -999.25   34.93540   23.69390  -36.76300  -10.38240   23.69390
 1700.00000    -999.25    -999.25   46.55830   42.50360   23.52740    -999.25    -999.25    -999.25    -999.25   23.52740   20.01880  -34.76100   -8.52900   20.01880
 1750.00000    -999.25    -999.25   13.73270    9.62260  103.92210    -999.25    -999.25    -999.25    -999.25  103.92210   53.22290  -41.69180  -15.60840   53.22290
 1800.00000    -999.25    -999.25   70.20030   69.75110   14.33670    -999.25    -999.25    -999.25    -999.25   14.33670   18.14250  -30.91520   -4.98040   18.14250
 1850.00000    -999.25    -999.25   54.23210   54.32070   18.40920    -999.25    -999.25    -999.25    -999.25   18.40920   20.34590  -29.78000   -3.99380   20.34590
 1900.00000    -999.25    -999.25   60.37460   61.74520   16.19560    -999.25    -999.25    -999.25    -999.25   16.19560   15.01190  -30.27730   -4.63970   15.01190
 1950.00000    -999.25    -999.25  100.63590   98.03060   10.20090    -999.25    -999.25    -999.25    -999.25   10.20090    9.50610  -28.26360   -2.77460    9.50610
 2000.00000    -999.25    -999.25   50.61960   47.81690   20.91310    -999.25    -999.25    -999.25    -999.25   20.91310   18.99410  -29.74680   -4.40630   18.99410
 2050.00000    -999.25    -999.25   73.04460   68.90370   14.51300    -999.25    -999.25    -999.25    -999.25   14.51300   10.91820  -28.42940   -3.23750   10.91820
 2100.00000    -999.25    -999.25  115.23090  110.29130    9.06690    -999.25    -999.25    -999.25    -999.25    9.06690   11.58880  -29.19330   -4.15000   11.58880
 2150.00000    -999.25    -999.25   91.34240   90.76960   11.01690    -999.25    -999.25    -999.25    -999.25   11.01690   14.50670  -28.08940   -3.19470   14.50670
 2200.00000    -999.25    -999.25   90.00700   82.83490   12.07220    -999.25    -999.25    -999.25    -999.25   12.07220   10.79730  -27.43130   -2.68520   10.79730
 2250.00000    -999.25    -999.25   28.12680   28.99770   34.48550    -999.25    -999.25    -999.25    -999.25   34.48550   26.43190  -30.37730   -5.77980   26.43190
 2300.00000    -999.25    -999.25  120.93290  104.96040    9.52740    -999.25    -999.25    -999.25    -999.25    9.52740   14.13550  -27.51870   -3.06980   14.13550
 2350.00000    -999.25    -999.25  122.34370  115.11060    8.68730    -999.25    -999.25    -999.25    -999.25    8.68730   11.65190  -27.55130   -3.25090   11.65190
 2400.00000    -999.25    -999.25   58.07270   57.05910   17.52570    -999.25    -999.25    -999.25    -999.25   17.52570   19.18220  -27.54330   -3.39150   19.18220
 2450.00000    -999.25    -999.25   91.89180   90.04550   11.10550    -999.25    -999.25    -999.25    -999.25   11.10550   11.18260  -26.79040   -2.78720   11.18260
 2500.00000    -999.25    -999.25  262.95790  238.50980    4.19270    -999.25    -999.25    -999.25    -999.25    4.19270    5.95090  -27.32420   -3.46960    5.95090
 2550.00000    -999.25    -999.25   64.25690   64.29010   15.55450    -999.25    -999.25    -999.25    -999.25   15.55450   14.99900  -28.52200   -4.81600   14.99900
 2600.00000    -999.25    -999.25   78.93580   78.65780   12.71330    -999.25    -999.25    -999.25    -999.25   12.71330   14.68020  -29.21480   -5.65740   14.68020
 2650.00000    -999.25    -999.25  115.92570  115.86410    8.63080    -999.25    -999.25    -999.25    -999.25    8.63080    8.86410  -27.64780   -4.23900    8.86410
 2700.00000    -999.25    -999.25   77.48820   74.02800   13.50840    -999.25    -999.25    -999.25    -999.25   13.50840   11.88820  -27.65800   -4.39770   11.88820
 2750.00000    -999.25    -999.25  102.85980  103.33780    9.67700    -999.25    -999.25    -999.25    -999.25    9.67700    8.78110  -27.53250   -4.42080    8.78110
 2800.00000    -999.25    -999.25  151.41450  140.75190    7.10470    -999.25    -999.25    -999.25    -999.25    7.10470    8.49010  -26.04540   -3.08230    8.49010
 2850.00000    -999.25    -999.25  294.73870  278.46620    3.59110    -999.25    -999.25    -999.25    -999.25    3.59110    4.95320  -24.57250   -1.75800    4.95320
 2900.00000    -999.25    -999.25   69.74210   69.95600   14.29470    -999.25    -999.25    -999.25    -999.25   14.29470   12.72550  -24.93610   -2.27020   12.72550
 2950.00000    -999.25    -999.25   81.30280   81.45180   12.27720    -999.25    -999.25    -999.25    -999.25   12.27720   10.83720  -24.08070   -1.56340   10.83720
 3000.00000    -999.25    -999.25  102.36080  101.89530    9.81400    -999.25    -999.25    -999.25    -999.25    9.81400   13.77170  -31.31490   -8.94620   13.77170
 3050.00000    -999.25    -999.25   31.21630   35.15570   28.44490    -999.25    -999.25    -999.25    -999.25   28.44490   19.27850  -39.51470  -17.29450   19.27850
 3100.00000    -999.25    -999.25   32.56860   34.56940   28.92730    -999.25    -999.25    -999.25    -999.25   28.92730   21.77510  -37.76130  -15.68970   21.77510
 3150.00000    -999.25    -999.25  182.63480  182.60170    5.47640    -999.25    -999.25    -999.25    -999.25    5.47640    6.99150  -26.15630   -4.23330    6.99150
 3200.00000    -999.25    -999.25  175.53310  176.14320    5.67720    -999.25    -999.25    -999.25    -999.25    5.67720    7.91920  -25.38810   -3.61370    7.91920
 3250.00000    -999.25    -999.25  165.23660  167.34440    5.97570    -999.25    -999.25    -999.25    -999.25    5.97570    6.31170  -25.52190   -3.89610    6.31170
 3300.00000    -999.25    -999.25   50.03960   50.13230   19.94720    -999.25    -999.25    -999.25    -999.25   19.94720   18.20500  -36.66120  -15.18400   18.20500
 3350.00000    -999.25    -999.25  105.55540  100.26870    9.97320    -999.25    -999.25    -999.25    -999.25    9.97320   12.55160  -27.56110   -6.23250   12.55160
 3400.00000    -999.25    -999.25  166.69300  166.19580    6.01700    -999.25    -999.25    -999.25    -999.25    6.01700    8.46020  -28.38210   -7.20200    8.46020
 3450.00000    -999.25    -999.25  138.81430  128.69680    7.77020    -999.25    -999.25    -999.25    -999.25    7.77020    7.73000  -28.85050   -7.81900    7.73000
 3500.00000    -999.25    -999.25   63.69330   62.02320   16.12300    -999.25    -999.25    -999.25    -999.25   16.12300   14.06630  -33.60900  -12.72610   14.06630
 3550.00000    -999.25    -999.25   87.03910   86.16900   11.60510    -999.25    -999.25    -999.25    -999.25   11.60510   11.21870  -28.99120   -8.25690   11.21870
 3600.00000    -999.25    -999.25   97.56640   93.50250   10.69490    -999.25    -999.25    -999.25    -999.25   10.69490   10.97520  -30.05320   -9.46750   10.97520
 3650.00000    -999.25    -999.25   83.71240   79.14340   12.63530    -999.25    -999.25    -999.25    -999.25   12.63530    9.06730  -27.43000   -6.99290    9.06730
 3700.00000    -999.25    -999.25   65.82610   68.72470   14.55080    -999.25    -999.25    -999.25    -999.25   14.55080   13.33180  -29.50160   -9.21300   13.33180
