~Version ---------------------------------------------------
VERS.      2.0 : CWLS log ASCII Standard -VERSION 2.0
WRAP.       NO : One line per depth step
CREA. 09/16/13 : LAS Creation Date
~Well ------------------------------------------------------
STRT.M                       400.0 : START DEPTH
STOP.M                      3150.0 : STOP DEPTH
STEP.M                    50.00000 : STEP LENGTH
NULL.                      -999.25 : NULL VALUE
COMP.    GULF CANADA RESOURCES INC : COMPANY
WELL. GULF AEC LIGNITE 10-21-70-26 : WELL
FLD .                      LIGNITE : FIELD
LOC .                              : LOCATION
CTRY.                       CANADA : COUNTRY
SRVC.                 Schlumberger : SERVICE COMPANY
DATE.                  11-Jan-1986 : LOGDATE
PROV.                      Alberta : PROVINCE
UWI .             100102107026W500 : UNIQUE WELL ID
SLAT.WGS84                55.07789 : SURFACE LATITUDE
SLON.WGS84               -117.9009 : SURFACE LONGITUDE
~Curve Information -----------------------------------------
DEPT    .M      : DEPTH METER
C2ED    .MM     : C2 FROM DENSITY LOG [ADJ. TO RESISTIVITY LOG]
CALDED  .MM     : CALIPER FROM DENSITY LOG [ADJ. TO RESISTIVITY LOG]
CALSED  .MM     : CALIPER FROM SONIC LOG
CALWS   .MM     : CALIPER [CALDED]
CONDWS  .MMHO   : CONDUCTIVITY [1000/DRESWS]
DCORWS  .KG/M3  : DENSITY CORRECTION [DRHOED]
DENWS   .KG/M3  : FORMATION BULK DENSITY [CALC. FROM DPOLSWS,M=27100,F=1000]
DPHILSED.V/V    : DENSITY POROSITY LIMESTONE [M=2710,F=1000] FROM DENSITY LOG [ADJ. TO RESISTIVITY LOG]
DPHISSED.V/V    : DENSITY DENSITY POROSITY SANDSTONE [M=2650,F=1000] FROM DENSITY LOG [ADJ. TO RESISTIVITY LOG]
DPOLSWS .V/V    : DENSITY POROSITY LIMESTONE [DPHISSED CONVERTED TO LIMESTONE MATRIX SPL. TO DPHILSED @ 1577 M]
DRESWS  .OHMM   : DEEP RESISTIVITY [ILDED]
DRHOED  .KG/M3  : DENSITY CORRECTION FROM DENSITY LOG [ADJ. TO RESISTIVITY LOG]
DTED    .US/M   : DELTA TIME FROM SONIC LOG
DTWS    .US/M   : COMPRESSIONAL SONIC [DTED]
GRDED   .GAPI   : GAMMA RAY FROM DENSITY LOG [ADJ. TO RESISTIVITY LOG]
GRSED   .GAPI   : GAMMA RAY FROM SONIC LOG
GRWS    .GAPI   : GAMMA RAY [GRSED SPOL. TO GRDED @ 3174 M]
ILDED   .OHMM   : DEEP INDUCTION RESISTIVITY FROM RESISTIVITY LOG
ILMED   .OHMM   : MEDIUM INDUCTION RESISTIVITY FROM RESISTIVITY LOG
MRESWS  .OHMM   : MEDIUM RESISTIVITY [ILMED]
NPHILSED.V/V    : NEUTRON POROSITY LIMESTONE FROM DENSITY LOG [ADJ. TO RESISTIVITY LOG]
NPHISSED.V/V    : NEUTRON POROSITY SANDSTONE FROM DENSITY LOG [ADJ. TO RESISTIVITY LOG]
NPOLSWS .V/V    : NEUTRON POROSITY LIMESTONE [NPHISSED CONVERTED TO LIMESTONE MATRIX,SPL. TO NPHILSED @1569 M]
RHOBED  .KG/M3  : FORMATION BULK DENSITY FROM DENSITY LOG [ADJ. TO RESISTIVITY LOG]
SFLUED  .OHMM   : SPHERICALLY FOCUSED RESISTIVITY FROM RESISTIVITY LOG
SPRED   .MV     : SPONTANEOUS POTENTIAL FROM RESISTIVITY LOG
SPWS    .MV     : SPONTANEOUS POTENTIAL [BASELINE 0 MV,SPRED]
SRESWS  .OHMM   : SHALLOW RESISTIVITY [SFLUED]
TENDED  .N      : TENSION FROM DENSITY LOG [ADJ. TO RESISTIVITY LOG]
TENSED  .N      : TENSION FROM SONIC LOG
~Params ----------------------------------------------------
PD  .                       GL : PERMANENT DATUM
EPD .M                   633.8 : ELEVATION PERMANENT DATUM
LMF .                       KB : LOG MEASURED FROM
DAPD.M                     6.1 : FEET ABOVE PERMANENT DATUM
DMF .                       KB : DRILLING MEASURED FROM
EKB .M                   639.9 : KELLY BUSHING
EDF .M                   639.6 : DRILLING FLOOR
EGL .M                   633.8 : GROUND LEVEL
DATE.                 01/11/86 : RUN DATE
RUN .                        1 : RUN NUMBER
DD  .M                    3195 : DEPTH DRILLER
DL  .M                    3194 : DEPTH LOGGER
BLI .M                    3193 : BOTTOM LOG INTERVAL
TLI .M                   434.7 : TOP LOG INTERVAL
CS  .MM                  244.5 : CASING SIZE
CBD .M                     435 : CASING BOTTOM DRILLER
CBL .M                     434 : CASING BOTTOM LOGGER
BS  .MM                    222 : BIT SIZE
BSD .M                    3195 : BIT SIZE AT DEPTH
DFT .                 GEL CHEM : DRILLING FLUID TYPE
DFD .                     1100 : DRILLING FLUID DENSITY
DFV .                       65 : DRILLING FLUID VISCOSITY
DFPH.                       10 : DRILLING FLUID PH
DFL .                      9.4 : DRILLING FLUID LOSS
MSS .                 FLOWLINE : MUD SAMPLE SOURCE
RMS .OHMM                 2.56 : RESISTIVITY MUD SAMPLE
MST .DEGC                   21 : MUD SAMPLE TEMPERATURE
RMF .OHMM                 2.09 : RESISTIVITY MUD FILTRATE SAMPLE
MFST.DEGC                   21 : MUD FILTRATE SAMPLE TEMPERATURE
RMC .OHMM                 0.86 : RESISTIVITY MUD CAKE
MCST.DEGC                   82 : MUD CAKE SAMPLE TEMPERATURE
MFSS.                     MEAS : MUD FILTRATE SAMPLE SOURCE
MCSS.                     MEAS : MUD CAKE SAMPLE SOURCE
RMB .OHMM                1.053 : RESISTIVITY MUD AT BHT
TCS .HRS                   700 : TIME CIRCULATED STOPPED
TLAB.HRS                   530 : TIME LOGGER AT BOTTOM
LUN .                     8157 : LOGGING UNIT NUMBER
LUL .                       GP : LOGGING UNIT LOCATION
ENGI.              CHABOT GUNN : RECORDING ENGINEER
WITN.                    ZADEH : WITNESSED BY
CLNT.                  A2DTECH : CLIENT CODE
ORIG. 6"/100M 16.5"/100M PRINT : ORIGIN OF DATA
UWI .         100102107026W500 : UNIQUE WELL ID
DICO.   A2D Technologies, Inc. : DIGITIZING COMPANY
~Other -----------------------------------------------------
DIL-SFL-SONIC-CNFD LOG RAN
~ASCII -----------------------------------------------------
# ...
 1600.00000  248.95160  251.43140  248.07010  251.43140   29.40420    5.31850 2257.02100    0.26490    -999.25    0.26490   34.00880    5.31850  312.61460  312.61460   96.98130   94.15810   94.15810   34.00880   37.68750   37.68750    0.32860    -999.25    0.32860 2255.91940   47.57150  -27.61440   -8.12560   47.57150 13296.17970 55793.60920
 1650.00000  268.64740  261.93050  271.83080  261.93050  408.49670   85.00380 2555.24500    0.09050    -999.25    0.09050    2.44800   85.00380  229.47230  229.47230   77.39470   73.94180   73.94180    2.44800    3.30290    3.30290    0.19250    -999.25    0.19250 2557.17970    4.45060  -79.57640  -57.74270    4.45060 13340.42300 57286.09650
 1700.00000  276.45350  277.54080  289.15680  277.54080  154.41150   19.29260 2597.65300    0.06570    -999.25    0.06570    6.47620   19.29260  221.02300  221.02300   84.81120   82.34690   82.34690    6.47620    6.75210    6.75210    0.16200    -999.25    0.16200 2597.34990    7.53520  -51.76090  -27.58240    7.53520 13899.12770 57883.65240
 1750.00000  269.69120  278.00870  281.32860  278.00870   76.59310    5.53990 2708.46100    0.00090    -999.25    0.00090   13.05600    5.53990  216.65150  216.65150   78.99890   76.43520   76.43520   13.05600   13.97910   13.97910    0.12390    -999.25    0.12390 2704.61670   15.45870  -37.46860  -10.94530   15.45870 14133.16110 59811.50900
 1800.00000  247.25610  240.26350  244.31310  240.26350   56.98590  110.34570 2645.53300    0.03770    -999.25    0.03770   17.54820  110.34570  195.90060  195.90060   37.75160   42.18640   42.18640   17.54820   28.47650   28.47650    0.06500    -999.25    0.06500 2643.53390   71.75300  -84.58800  -55.31160   71.75300 14336.56850 61473.16310
 1850.00000  224.67570  222.69220  231.65980  222.69220   87.95930   21.89360 2550.97000    0.09300    -999.25    0.09300   11.36890   21.89360  194.58790  194.58790   20.64030   20.66320   20.66320   11.36890   21.42770   21.42770    0.05980    -999.25    0.05980 2542.73440  105.00410 -143.82080 -111.48060  105.00410 14058.46960 61829.45090
 1900.00000  248.11610  242.20770  249.67690  242.20770    8.89220    3.56430 2866.63600   -0.09160    -999.25   -0.09160  112.45770    3.56430  158.97540  158.97540   26.92800   29.23790   29.23790  112.45770  146.06870  146.06870    0.04710    -999.25    0.04710 2850.80570  405.27820  -88.16690  -58.81660  405.27820 14976.28370 63196.26270
 1950.00000  257.49450  254.77230  266.85440  254.77230  176.78460    4.28290 2615.60800    0.05520    -999.25    0.05520    5.65660    4.28290  196.83590  196.83590   32.25190   33.90070   33.90070    5.65660    6.88460    6.88460    0.21750    -999.25    0.21750 2612.80520    7.41840 -118.24270  -93.47880    7.41840 15150.21490 65173.82720
 2000.00000  253.15990  246.67710  254.85730  246.67710  463.88640   99.95190 2383.73200    0.19080    -999.25    0.19080    2.15570   99.95190  238.14480  238.14480   26.97950   27.78470   27.78470    2.15570    3.23580    3.23580    0.30300    -999.25    0.30300 2390.96040    9.25750 -135.35310 -113.87370    9.25750 15315.53750 65783.34660
 2050.00000  268.73530  252.38520  269.07860  252.38520  108.27430    6.27600 2610.30700    0.05830    -999.25    0.05830    9.23580    6.27600  186.83620  186.83620   16.95510   18.14250   18.14250    9.23580   10.02110   10.02110    0.11520    -999.25    0.11520 2601.29170   27.16860 -101.75470  -83.55990   27.16860 15390.03540 66635.28060
 2100.00000  262.31330  279.12020  269.96610  279.12020   13.87030  172.49010 2757.02500   -0.02750    -999.25   -0.02750   72.09660  172.49010  175.68310  175.68310   40.24570   37.49810   37.49810   72.09660   92.66350   92.66350    0.04410    -999.25    0.04410 2758.07590  121.21280  -40.22420  -25.31400  121.21280 16063.76840 69471.38710
 2150.00000  275.56130  267.51960  289.47200  267.51960  364.11300    1.64910 2659.21300    0.02970    -999.25    0.02970    2.74640    1.64910  217.75410  217.75410   46.35950   46.44500   46.44500    2.74640    2.93160    2.93160    0.18600    -999.25    0.18600 2656.32450    5.13640  -90.96710  -70.33980    5.13640 16259.82690 70266.57170
 2200.00000  256.01420  265.93330  270.56370  265.93330    7.95710    5.38640 2684.86300    0.01470    -999.25    0.01470  125.67400    5.38640  169.75220  169.75220   19.92420   17.45380   17.45380  125.67400  206.28330  206.28330    0.03070    -999.25    0.03070 2683.04760  302.02260 -118.85600  -97.44820  302.02260 16495.05820 71675.82390
 2250.00000  318.23260  276.19680  301.75940  276.19680  125.39500   65.75310 2515.23100    0.11390    -999.25    0.11390    7.97480   65.75310  226.72810  226.72810   74.49850   77.99900   77.99900    7.97480    7.44760    7.44760    0.20330    -999.25    0.20330 2450.57890   10.27500  -22.38710  -11.15170   10.27500 16565.50650 73182.02070
 2300.00000  375.02210  376.17350  289.15780  376.17350   77.13790  248.61120 2380.31200    0.19280    -999.25    0.19280   12.96380  248.61120  207.73390  207.73390   40.80110   36.88160   36.88160   12.96380   13.96790   13.96790    0.15370    -999.25    0.15370 2366.53520   16.98170  -13.56520  -10.35030   16.98170 17102.33170 75103.08750
 2350.00000  339.43940  244.54770  268.96940  244.54770   14.09240   22.66550 2725.21900   -0.00890    -999.25   -0.00890   70.96030   22.66550  171.32670  171.32670   20.36630   17.63870   17.63870   70.96030   81.39310   81.39310    0.02530    -999.25    0.02530 2722.15260  282.69590  -45.41780  -47.21700  282.69590 17316.28800 75107.16200
 2400.00000  241.83400  237.50000  245.66330  237.50000    9.47490   19.46740 2721.62800   -0.00680    -999.25   -0.00680  105.54250   19.46740  175.42780  175.42780   30.83750   29.37080   29.37080  105.54250  111.65260  111.65260    0.02600    -999.25    0.02600 2729.47580  133.23240  -30.70130  -36.41360  133.23240 17502.67380 76794.08070
 2450.00000  261.86270  252.68810  262.62480  252.68810   23.27670    3.47700 2621.76400    0.05160    -999.25    0.05160   42.96140    3.47700  233.04680  233.04680   73.16860   76.10920   76.10920   42.96140   54.27040   54.27040    0.17140    -999.25    0.17140 2619.85380   79.64790  -20.06620  -20.64020   79.64790 18002.29940 78324.39040
 2500.00000  284.64000  225.46430  252.48050  225.46430    0.72060   -3.88770 2706.23800    0.00220    -999.25    0.00220 1387.72830   -3.88770  159.08910  159.08910   13.10740   16.20490   16.20490 1387.72830 2014.75220 2014.75220    0.00890    -999.25    0.00890 2701.85180 1679.34840 -148.92130 -147.83230 1679.34840 17799.50540 79872.24120
 2550.00000  344.86810  222.07750  255.53850  222.07750    0.60710    2.15190 2687.25700    0.01330    -999.25    0.01330 1647.12940    2.15190  165.61430  165.61430   12.20850   13.99440   13.99440 1647.12940 1696.11010 1696.11010    0.01240    -999.25    0.01240 2686.78690 1390.13460 -184.41350 -186.37590 1390.13460 18064.31830 80586.72830
 2600.00000  367.65000  231.59390  284.20320  231.59390    0.78590   24.11170 2664.51400    0.02660    -999.25    0.02660 1272.38780   24.11170  164.99430  164.99430   10.10620   14.07830   14.07830 1272.38780  316.57570  316.57570    0.01320    -999.25    0.01320 2656.97000 1927.45750 -241.41710 -246.43100 1927.45750 18459.43340 83136.93200
 2650.00000  353.66250  221.14910  260.08930  221.14910    1.05050    8.88920 2693.58400    0.00960    -999.25    0.00960  951.97030    8.88920  166.63880  166.63880   13.21460   14.63740   14.63740  951.97030  728.56970  728.56970    0.01680    -999.25    0.01680 2693.12990 1922.84750 -206.70760 -214.77290 1922.84750 18472.94970 84021.77180
 2700.00000  272.01820  224.42450  243.30050  224.42450   20.52330   12.62790 2689.99300    0.01170    -999.25    0.01170   48.72510   12.62790  163.88240  163.88240   12.38120   12.69500   12.69500   48.72510   63.64460   63.64460    0.01630    -999.25    0.01630 2688.08570   72.11370 -116.64620 -127.76290   72.11370 18656.01940 85577.31140
 2750.00000  303.26970  229.34160  261.18540  229.34160    0.72030   18.28500 2707.60600    0.00140    -999.25    0.00140 1388.34550   18.28500  164.62900  164.62900   14.19610   14.88950   14.88950 1388.34550  653.40930  653.40930    0.01180    -999.25    0.01180 2711.14060 1897.70740 -148.72670 -162.89490 1897.70740 19067.76010 84488.52240
