~Version ---------------------------------------------------
VERS.      2.0 : CWLS log ASCII Standard -VERSION 2.0
WRAP.       NO : One line per depth step
CREA. 09/21/17 : LAS Creation Date
~Well ------------------------------------------------------
STRT.FT                           650.0 : START DEPTH
STOP.FT                          7250.0 : STOP DEPTH
STEP.FT                        50.00000 : STEP LENGTH
NULL.                           -999.25 : NULL VALUE
COMP.          BP CANADA ENERGY COMPANY : COMPANY
WELL. MIC MAC CALSTAN MCKEE 11-36-32-20 : WELL
FLD .                                   : FIELD
LOC .                                   : LOCATION
CTRY.                            CANADA : COUNTRY
SRVC.            Schlumberger of Canada : SERVICE COMPANY
DATE.                       21-Feb-1958 : LOGDATE
PROV.                           Alberta : PROVINCE
UWI .                  100113603220W400 : UNIQUE WELL ID
SLAT.WGS84                     51.78864 : SURFACE LATITUDE
SLON.WGS84                    -112.7113 : SURFACE LONGITUDE
~Curve Information -----------------------------------------
DEPT  .FT         : Depth Curve
CALWS .IN         : CALIPER [MCALED]
CONDWS.MMHO       : CONDUCTIVITY [1000/DRESWS]
DRESWS.OHMM       : DEEP RESISTIVITY [LNED SPL. TO LLED @ 4920']
GRNED .UgRa-Eq/T  : GAMMA RAY FROM GRN LOG
GRWS  .GAPI       : GAMMA RAY [GRNED*16.5 TO CONVERT UgRa-Eq/T TO GAPI]
LLED  .OHMM       : LATEROLOG RESISTIVITY FROM LATEROLOG
LNED  .OHMM       : LONG NORMAL RESISTIVITY FROM EL LOG
LT18ED.OHMM       : 18' LATARAL LOG RESISTIVITY FROM EL LOG
MCALED.IN         : CALIPER FROM MICROLOG
NEUTED.CPS        : NEUTRON FROM GRN LOG
NEUTWS.CPS        : NEUTRON [NEUTED]
SNED  .OHMM       : 16 INCH SHORT NORMAL RESISTIVITY FROM EL LOG
SPRED .MV         : SPONTANEOUS POTENTIAL FROM RESISTIVITY LOG
SPWS  .MV         : SPONTANEOUS POTENTIAL [BASELINE 0 MV, SPRED]
SRESWS.OHMM       : SHALLOW RESISTIVITY [SNED]
~Params ----------------------------------------------------
LMF .                     KB : LOG MEASURED FROM
DMF .                     KB : DRILLING MEASURED FROM
EKB .FT                 2808 : KELLY BUSHING
EGL .FT                 2796 : GROUND LEVEL
DATE.               02/21/58 : RUN DATE
RUN .                      1 : RUN NUMBER
DD  .FT                 7280 : DEPTH DRILLER
DL  .FT                 7281 : DEPTH LOGGER
BLI .FT                 7277 : BOTTOM LOG INTERVAL
TLI .FT                 4925 : TOP LOG INTERVAL
CBD .FT                  609 : CASING BOTTOM DRILLER
CBL .FT                  608 : CASING BOTTOM LOGGER
BS  .IN                    9 : BIT SIZE
BSD .FT                 7280 : BIT SIZE AT DEPTH
DFT .              SALT BASE : DRILLING FLUID TYPE
DFD .                   11.4 : DRILLING FLUID DENSITY
DFV .                     78 : DRILLING FLUID VISCOSITY
DFPH.                   10.0 : DRILLING FLUID PH
DFL .                      4 : DRILLING FLUID LOSS
TCS .HRS                   2 : TIME CIRCULATED STOPPED
LUN .                   2714 : LOGGING UNIT NUMBER
LUL .                    STE : LOGGING UNIT LOCATION
ENGI.               MCALPINE : RECORDING ENGINEER
WITN.                WOODMAN : WITNESSED BY
CLNT.                A2DTECH : CLIENT CODE
ORIG.            2" 5" PRINT : ORIGIN OF DATA
UWI .       100113603220W400 : UNIQUE WELL ID
DICO. A2D Technologies, Inc. : DIGITIZING COMPANY
~Other -----------------------------------------------------
~ASCII -----------------------------------------------------
# ...
 5250.00000   10.48020    2.07240  482.53770    1.02900   16.97850  482.53770    -999.25    -999.25   10.48020  398.20940  398.20940    -999.25 -122.04300 -149.04720    -999.25
 5300.00000   14.92140    0.67300 1485.97850    1.68560   27.81240 1485.97850    -999.25    -999.25   14.92140  442.12030  442.12030    -999.25  -70.25310 -100.61160    -999.25
 5350.00000    9.79730    1.87290  584.72640    1.16400   19.20520  584.72640    -999.25    -999.25    9.79730  429.50550  429.50550    -999.25 -141.42140 -175.15620    -999.25
 5400.00000   12.14980    6.68070  149.68570    1.25660   20.73390  149.68570    -999.25    -999.25   12.14980  387.11970  387.11970    -999.25 -190.57820 -227.66730    -999.25
 5450.00000   14.30840    1.71840  592.75230    1.61040   26.57240  592.75230    -999.25    -999.25   14.30840  372.32860  372.32860    -999.25 -198.24230 -238.70770    -999.25
 5500.00000   10.40310    5.78340  172.90800    1.97140   32.52810  172.90800    -999.25    -999.25   10.40310  465.20880  465.20880    -999.25 -133.29930 -177.11900    -999.25
 5550.00000    9.79710   14.64470   68.28400    3.73160   61.57140   68.28400    -999.25    -999.25    9.79710  434.18770  434.18770    -999.25 -165.61520 -212.78920    -999.25
 5600.00000    9.63260    1.06960  938.13940    1.87220   30.89050  938.13940    -999.25    -999.25    9.63260  479.21070  479.21070    -999.25  -32.97350  -83.52380    -999.25
 5650.00000    9.01080   38.06570   26.27040    1.35490   22.35590   26.27040    -999.25    -999.25    9.01080  367.25700  367.25700    -999.25   50.34780   -3.55680    -999.25
 5700.00000    8.75100  112.28320    8.90620    1.08850   17.96030    8.90620    -999.25    -999.25    8.75100  363.13300  363.13300    -999.25  -89.02590 -144.95500    -999.25
 5750.00000    9.60240   21.29460   46.96020    3.45030   56.92990   46.96020    -999.25    -999.25    9.60240  378.22650  378.22650    -999.25 -137.93760 -195.37300    -999.25
 5800.00000    9.93400   41.59110   24.04360    7.00850  115.64020   24.04360    -999.25    -999.25    9.93400  276.86150  276.86150    -999.25    2.68200  -56.25980    -999.25
 5850.00000    9.95450   33.13390   30.19370    4.93970   81.50590   30.19370    -999.25    -999.25    9.95450  321.84590  321.84590    -999.25 -183.42500 -243.88300    -999.25
 5900.00000    9.70380   23.27270   42.96880    4.36760   72.06540   42.96880    -999.25    -999.25    9.70380  378.87800  378.87800    -999.25 -122.66750 -184.63190    -999.25
 5950.00000    9.76480    9.21970  109.62770    1.99840   32.97440  109.62770    -999.25    -999.25    9.76480  488.34690  488.34690    -999.25 -140.12440 -203.60510    -999.25
 6000.00000   10.31560   34.41720   29.05520    6.45560  106.51740   29.05520    -999.25    -999.25   10.31560  339.57260  339.57260    -999.25 -125.63120 -190.61820    -999.25
 6050.00000   10.99470   35.30760   28.32250    6.89800  113.81700   28.32250    -999.25    -999.25   10.99470  319.66720  319.66720    -999.25 -213.95200 -280.44540    -999.25
 6100.00000   10.25700    8.89420  114.37140    4.58970   75.73000  114.37140    -999.25    -999.25   10.25700  381.59940  381.59940    -999.25   17.80410  -50.20550    -999.25
 6150.00000   10.39290    2.10420  475.24890    1.59370   26.29600  475.24890    -999.25    -999.25   10.39290  519.59410  519.59410    -999.25 -103.82540 -173.34140    -999.25
 6200.00000   10.08230    0.51270 1950.51280    1.28260   21.16210 1950.51280    -999.25    -999.25   10.08230  531.56470  531.56470    -999.25 -224.74110 -295.77340    -999.25
 6250.00000    9.72990    0.81320 1229.74770    5.45980   90.08670 1229.74770    -999.25    -999.25    9.72990  342.71720  342.71720    -999.25 -132.04960 -204.58820    -999.25
 6300.00000   10.24090    0.26230 3811.72950    2.04150   33.68480 3811.72950    -999.25    -999.25   10.24090  514.72970  514.72970    -999.25 -148.82210 -222.86710    -999.25
 6350.00000   10.18910    2.28720  438.57180    1.69550   27.97570  438.57180    -999.25    -999.25   10.18910  477.10610  477.10610    -999.25 -142.26860 -217.82980    -999.25
 6400.00000   10.31830    2.59740  385.00160    1.95350   32.23280  385.00160    -999.25    -999.25   10.31830  435.32440  435.32440    -999.25 -224.98630 -302.05390    -999.25
 6450.00000    9.77540    4.84300  206.83020    1.07740   17.77710  206.83020    -999.25    -999.25    9.77540  492.77150  492.77150    -999.25  -25.03940 -103.62330    -999.25
 6500.00000    9.47310    0.42140 2373.26830    1.36580   22.53570 2373.26830    -999.25    -999.25    9.47310  539.34100  539.34100    -999.25 -230.22760 -310.31780    -999.25
 6550.00000    9.16050   18.31050   54.61340    1.14700   18.92550   54.61340    -999.25    -999.25    9.16050  440.09860  440.09860    -999.25  -34.84580 -116.44240    -999.25
 6600.00000    9.57580   10.45020   95.69180    4.57060   75.41410   95.69180    -999.25    -999.25    9.57580  352.07510  352.07510    -999.25   -8.90200  -92.01490    -999.25
 6650.00000    9.69330   10.00360   99.96450    3.11870   51.45860   99.96450    -999.25    -999.25    9.69330  371.97600  371.97600    -999.25   15.79580  -68.86960    -999.25
 6700.00000    9.11700   23.31990   43.09190    1.06780   17.61870   43.09190    -999.25    -999.25    9.11700  429.95810  429.95810    -999.25   27.45070  -59.07910    -999.25
 6750.00000    9.25750    1.53310  652.25460    2.21630   36.56900  652.25460    -999.25    -999.25    9.25750  522.60610  522.60610    -999.25 -226.56080 -314.94280    -999.25
 6800.00000    9.31180    1.80450  554.17300    1.27150   20.97980  554.17300    -999.25    -999.25    9.31180  538.93870  538.93870    -999.25 -105.13620 -195.37030    -999.25
 6850.00000    9.30890    6.56830  152.43550    1.56090   25.75480  152.43550    -999.25    -999.25    9.30890  495.94720  495.94720    -999.25  -63.14400 -152.88320    -999.25
 6900.00000    9.24810    5.76900  173.34160    1.33330   21.99950  173.34160    -999.25    -999.25    9.24810  528.19630  528.19630    -999.25   53.50500  -32.02460    -999.25
 6950.00000    9.22000    4.23540  236.12420    1.90470   31.42760  236.12420    -999.25    -999.25    9.22000  481.50030  481.50030    -999.25 -225.30660 -306.59900    -999.25
 7000.00000    9.11720    5.55670  179.96410    1.29260   21.32790  179.96410    -999.25    -999.25    9.11720  491.45390  491.45390    -999.25 -152.18620 -229.26900    -999.25
 7050.00000    8.96600    2.60980  383.16930    1.40180   23.12970  383.16930    -999.25    -999.25    8.96600  429.91130  429.91130    -999.25   54.20470  -19.96910    -999.25
 7100.00000    8.98070   15.47530   64.61950    5.35610   88.37570   64.61950    -999.25    -999.25    8.98070  307.92980  307.92980    -999.25 -111.44150 -183.99630    -999.25
 7150.00000    8.97020    2.39130  418.18770    1.75930   29.02850  418.18770    -999.25    -999.25    8.97020  417.12440  417.12440    -999.25 -201.51900 -272.46540    -999.25
 7200.00000    8.96490   33.57080   29.79100    5.03000   82.99500   29.79100    -999.25    -999.25    8.96490  299.65290  299.65290    -999.25 -121.20320 -190.53060    -999.25
 7250.00000    8.98340    0.22570 4429.81840    0.86220   14.22630 4429.81840    -999.25    -999.25    8.98340  509.85960  509.85960    -999.25    0.54960  -67.16940    -999.25
