~Version ---------------------------------------------------
VERS.      2.0 : CWLS log ASCII Standard -VERSION 2.0
WRAP.       NO : One line per depth step
CREA. 01/05/18 : LAS Creation Date
~Well ------------------------------------------------------
STRT.FT                      650.0 : START DEPTH
STOP.FT                    10650.0 : STOP DEPTH
STEP.FT                   50.00000 : STEP LENGTH
NULL.                      -999.25 : NULL VALUE
COMP.              SUN OIL COMPANY : COMPANY
WELL. SUN SHELL ROSEVEAR 6-6-55-14 : WELL
FLD .                              : FIELD
LOC .                              : LOCATION
CTRY.                       CANADA : COUNTRY
SRVC.       Schlumberger of Canada : SERVICE COMPANY
DATE.                  23-Jun-1971 : LOGDATE
PROV.                      Alberta : PROVINCE
UWI .             100060605514W500 : UNIQUE WELL ID
SLAT.WGS84                53.72017 : SURFACE LATITUDE
SLON.WGS84                -116.074 : SURFACE LONGITUDE
~Curve Information -----------------------------------------
DEPT    .FT    : Depth Curve
CALDED  .IN    : CALIPER FROM DENSITY LOG [ADJ. TO RESISTIVITY LOG]
CALNED  .IN    : CALIPER FROM SNP LOG [ADJ. TO RESISTIVITY LOG]
CALSED  .IN    : CALIPER FROM SONIC LOG [ADJ. TO RESISTIVITY LOG]
CALWS   .IN    : CALIPER [CALSED SPL. TO CALDED @ 10676']
CILDED  .MMHO  : CONDUCTIVITY FROM RESISTIVITY LOG
CONDWS  .MMHO  : CONDUCTIVITY [1000/DRESWS]
CORRED  .G/C3  : DENSITY CORRECTION FROM DENSITY LOG [ADJ. TO RESISTIVITY LOG]
DCORWS  .G/C3  : DENSITY CORRECTION [CORRED]
DENWS   .G/C3  : FORMATION BULK DENSITY  [RHOBED]
DPHILSED.V/V   : DENSITY POROSITY LIMESTONE [M=2.71 F=1.00] FROM DENSITY LOG [ADJ. TO RESISTIVITY LOG]
DPHISSED.V/V   : DENSITY POROSITY SANDSTONE [M=2.65 F=1.00] FROM DENSITY LOG [ADJ. TO RESISTIVITY LOG]
DPOLSWS .V/V   : DENSITY POROSITY LIMESTONE [CALC. FROM DENWS, M=2.71 F=1.00]
DRESWS  .OHMM  : DEEP RESISTIVITY [1000/CILDED IF ILDED<4, ILDED & SPL. TO ILDED @ 664'-3750' & 5083'-6070']
DTED    .US/F  : DELTA TIME FROM SONIC LOG [ADJ. TO RESISTIVITY LOG]
DTWS    .US/F  : COMPRESSIONAL SONIC [DTED]
GRNED   .GAPI  : GAMMA RAY FROM SNP LOG [ADJ. TO RESISTIVITY LOG]
GRSED   .GAPI  : GAMMA RAY FROM SONIC LOG [ADJ. TO RESISTIVITY LOG]
GRWS    .GAPI  : GAMMA RAY [GRSED SPL. TO GRNED @ 10658'] GRWS IN CSG. FROM 5023'-5078' ADDED 40 API
ILDED   .OHMM  : DEEP INDUCTIONRESISTIVITY FROM RESISTIVITY LOG
ILMED   .OHMM  : MEDIUM INDUCTIONRESISTIVITY FROM RESISTIVITY LOG
LL8ED   .OHMM  : 8 INCH LATEROLOG RESISTIVITY FROM RESISTIVITY LOG
MRESWS  .OHMM  : MEDIUM RESISTIVITY [ILMED]
NPOLSWS .V/V   : SIDEWALL NEUTRON POROSITY LIMESTONE [SNPLSED]
RHOBED  .G/C3  : FORMATION BULK DENSITY FROM DENSITY LOG [ADJ. TO RESISTIVITY LOG]
SNP1LSED.V/V   : SIDEWALL NEUTRON POROSITY FROM SNP LOG [ADJ. TO RESISTIVITY LOG]
SNPLSED .V/V   : SIDEWALL NEUTRON POROSITY LIMESTONE FROM SNP LOG [ADJ. TO RESISTIVITY LOG]
SPRED   .MV    : SPONTANEOUS POTENTIAL FROM RESISTIVITY LOG
SPWS    .MV    : SPONTANEOUS POTENTIAL  [BASELINE 0 MV. SPRED]
SRESWS  .OHMM  : SHALLOW RESISTIVITY [LL8ED]
~Params ----------------------------------------------------
PD  .                     GL : PERMANENT DATUM
EPD .FT                 2803 : ELEVATION PERMANENT DATUM
LMF .                     KB : LOG MEASURED FROM
DAPD.FT                   13 : FEET ABOVE PERMANENT DATUM
EKB .FT                 2816 : KELLY BUSHING
EGL .FT                 2803 : GROUND LEVEL
DATE.               07/14/71 : RUN DATE
RUN .                      2 : RUN NUMBER
DD  .FT                10687 : DEPTH DRILLER
DL  .FT                10692 : DEPTH LOGGER
BLI .FT                10686 : BOTTOM LOG INTERVAL
TLI .FT                 5078 : TOP LOG INTERVAL
CBD .FT                 5077 : CASING BOTTOM DRILLER
CBL .FT                 5078 : CASING BOTTOM LOGGER
BS  .IN                 8.75 : BIT SIZE
BSD .FT                10687 : BIT SIZE AT DEPTH
DFT .               GEL CHEM : DRILLING FLUID TYPE
DFD .                    9.8 : DRILLING FLUID DENSITY
DFV .                     80 : DRILLING FLUID VISCOSITY
DFPH.                     10 : DRILLING FLUID PH
DFL .                   10.2 : DRILLING FLUID LOSS
MSS .               FLOWLINE : MUD SAMPLE SOURCE
RMS .OHMM               2.12 : RESISTIVITY MUD SAMPLE
MST .DEGF                 76 : MUD SAMPLE TEMPERATURE
RMF .OHMM               1.66 : RESISTIVITY MUD FILTRATE SAMPLE
MFST.DEGF                 76 : MUD FILTRATE SAMPLE TEMPERATURE
RMB .OHMM               0.62 : RESISTIVITY MUD AT BHT
TCS .HRS                 3.5 : TIME CIRCULATED STOPPED
LUN .                   5628 : LOGGING UNIT NUMBER
LUL .                    EDM : LOGGING UNIT LOCATION
ENGI.                 HUTZAL : RECORDING ENGINEER
WITN.                   HERB : WITNESSED BY
CLNT.                A2DTECH : CLIENT CODE
ORIG.            2" 5" PRINT : ORIGIN OF DATA
UWI .       100060605514W500 : UNIQUE WELL ID
DICO. A2D Technologies, Inc. : DIGITIZING COMPANY
~Other -----------------------------------------------------
~ASCII -----------------------------------------------------
# ...
 9400.00000    9.00890    9.28170    8.91330    8.91330    -999.25   22.74720    0.02360    0.02360    2.76390   -0.03070    -999.25   -0.03150   43.96140   54.86050   54.86050   40.78400   38.19840   38.19840   43.96140   60.33100   77.87760   60.33100    0.03760    2.76390   -0.08070    0.03760  -23.23150   -6.92890   77.87760
 9450.00000    9.07420   10.40040    9.33570    9.33570    -999.25  103.37840    0.03900    0.03900    2.76620   -0.03280    -999.25   -0.03290    9.67320   68.50650   68.50650   77.47220   70.95670   70.95670    9.67320   10.58850   13.54740   10.58850    0.20100    2.76620    0.08340    0.20100  -22.29100   -6.76810   13.54740
 9500.00000    9.14890    9.28900    8.95300    8.95300    -999.25   77.75020    0.03800    0.03800    2.80420   -0.05510    -999.25   -0.05510   12.86170   65.69200   65.69200   76.45200   75.60620   75.60620   12.86170   14.53090   18.83870   14.53090    0.09740    2.80420   -0.01770    0.09740  -19.15500   -4.40670   18.83870
 9550.00000    8.94810    9.14630    8.90010    8.90010    -999.25   63.67640    0.05220    0.05220    2.74460   -0.02010    -999.25   -0.02020   15.70440   63.59650   63.59650   63.29120   57.66230   57.66230   15.70440   18.30070   24.05450   18.30070    0.09370    2.74460   -0.02110    0.09370  -20.77050   -6.79670   24.05450
 9600.00000    9.02770    9.42050    8.92500    8.92500    -999.25  102.46640    0.08420    0.08420    2.81260   -0.06430    -999.25   -0.06000    9.75930   66.61510   66.61510   69.75570   65.11780   65.11780    9.75930   10.54410   12.61010   10.54410    0.12560    2.81260    0.01550    0.12560  -24.28740  -11.09330   12.61010
 9650.00000    9.01240    9.86340    9.21270    9.21270    -999.25  114.44790    0.02840    0.02840    2.74970   -0.02290    -999.25   -0.02320    8.73760   70.87120   70.87120   75.90900   82.45800   82.45800    8.73760    9.85590   13.37850    9.85590    0.20950    2.74970    0.08930    0.20950  -21.84590   -9.42640   13.37850
 9700.00000    9.02230    9.15190    9.01420    9.01420    -999.25  103.38590    0.01290    0.01290    2.73970   -0.01910    -999.25   -0.01740    9.67250   70.15660   70.15660   91.63620   86.44450   86.44450    9.67250   10.76600   14.12090   10.76600    0.13680    2.73970    0.02150    0.13680  -21.00850   -9.36860   14.12090
 9750.00000    8.94160   10.05900    9.02490    9.02490    -999.25  115.58820    0.04450    0.04450    2.75270   -0.02720    -999.25   -0.02500    8.65140   71.84030   71.84030   78.84490   84.45600   84.45600    8.65140    9.97330   13.49720    9.97330    0.14220    2.75270    0.02700    0.14220  -19.96110   -9.09580   13.49720
 9800.00000    8.94060    9.05610    8.78270    8.78270    -999.25   95.97390    0.03410    0.03410    2.75800   -0.03270    -999.25   -0.02810   10.41950   67.74050   67.74050   78.81510   78.85390   78.85390   10.41950   11.97690   15.81330   11.97690    0.12830    2.75800    0.01280    0.12830  -16.48330   -6.39260   15.81330
 9850.00000    8.94140    9.11540    8.86220    8.86220    -999.25   94.63690    0.03650    0.03650    2.76990   -0.03570    -999.25   -0.03510   10.56670   70.50190   70.50190   84.51130   85.45030   85.45030   10.56670   12.42370   16.42290   12.42370    0.11860    2.76990    0.00320    0.11860  -15.23210   -5.92100   16.42290
 9900.00000    8.93870    8.97320    8.75800    8.75800    -999.25   37.78880    0.03090    0.03090    2.73510   -0.01500    -999.25   -0.01470   26.46290   57.97960   57.97960   43.70300   47.65960   47.65960   26.46290   34.11670   46.58920   34.11670    0.05280    2.73510   -0.06380    0.05280  -13.31710   -4.55180   46.58920
 9950.00000    9.00300    9.09840    8.76690    8.76690    -999.25   77.85490    0.01280    0.01280    2.73540   -0.01620    -999.25   -0.01490   12.84440   67.18600   67.18600   73.42180   78.43750   78.43750   12.84440   14.89780   20.24540   14.89780    0.09460    2.73540   -0.02070    0.09460  -13.50770   -5.28060   20.24540
 10000.00000    8.81550    9.04060    8.73740    8.73740    -999.25    3.57790    0.03790    0.03790    2.61740    0.05240    -999.25    0.05420  279.49650   65.79190   65.79190   59.71490   59.33830   59.33830  279.49650 1653.60740 1428.65770 1653.60740    0.07540    2.61740   -0.03880    0.07540  -20.45790  -12.78110 1428.65770
 10050.00000    8.96910    9.00740    8.76280    8.76280    -999.25   49.63490    0.04720    0.04720    2.53200    0.10500    -999.25    0.10410   20.14710   82.97300   82.97300  138.64940  133.14460  133.14460   20.14710   23.79400   30.93740   23.79400    0.16090    2.53200    0.04460    0.16090  -25.35890  -18.27910   30.93740
 10100.00000    9.81060    9.98690    8.98240    8.98240    -999.25   66.73960    0.15690    0.15690    2.57570    0.07660    -999.25    0.07860   14.98360   73.85790   73.85790   94.71450   99.57950   99.57950   14.98360   16.28500   22.64710   16.28500    0.19150    2.57570    0.07460    0.19150    -999.25    -999.25   22.64710
 10150.00000    8.81820    8.96750    8.78300    8.78300    -999.25    0.65440    0.06030    0.06030    2.78950   -0.03790    -999.25   -0.04650 1528.22380   49.13440   49.13440    9.95890   10.71160   10.71160 1528.22380 1702.76860 1386.23430 1702.76860    0.00910    2.78950   -0.10000    0.00910 -108.99810 -102.09320 1386.23430
 10200.00000    8.78780   10.22080    8.88530    8.88530    -999.25    0.63820    0.04410    0.04410    2.78170   -0.04250    -999.25   -0.04190 1567.00360   48.78310   48.78310   10.32390   11.15200   11.15200 1567.00360 1723.04450 1419.85330 1723.04450    0.04440    2.78170   -0.07230    0.04440 -119.76590 -112.21960 1419.85330
 10250.00000    8.80280    8.96330    8.83680    8.83680    -999.25    0.62600    0.02410    0.02410    2.75330   -0.02590    -999.25   -0.02530 1597.40450   49.32910   49.32910    9.88770    8.90440    8.90440 1597.40450 1729.89290 1417.13990 1729.89290    0.00930    2.75330   -0.10000    0.00930  -81.69550  -73.51210 1417.13990
 10300.00000    9.04500    9.21770    8.79780    8.79780    -999.25    5.45020    0.09430    0.09430    2.67860    0.01670    -999.25    0.01840  183.47990   49.98720   49.98720    9.38430   11.86350   11.86350  183.47990  185.96250  352.99520  185.96250    0.01350    2.67860   -0.10390    0.01350  -71.35450  -62.53390  352.99520
 10350.00000    8.94010    9.01260    8.85290    8.85290    -999.25    9.92380    0.04150    0.04150    2.74770   -0.02500    -999.25   -0.02210  100.76800   49.90690   49.90690   17.13570   14.28240   14.28240  100.76800   99.88410  143.75990   99.88410    0.02040    2.74770   -0.09590    0.02040 -102.82470  -93.36280  143.75990
 10400.00000    8.90260    9.04410    8.87450    8.87450    -999.25    0.69700    0.04510    0.04510    2.75860   -0.02960    -999.25   -0.02840 1434.76950   49.60820   49.60820   17.01580   17.96100   17.96100 1434.76950 1695.01640 1378.01170 1695.01640    0.00840    2.75860   -0.10590    0.00840 -109.09650  -98.99750 1378.01170
 10450.00000    9.45310    9.55070    8.74120    8.74120    -999.25    0.64270    0.20930    0.20930    2.75360   -0.02880    -999.25   -0.02550 1555.84340   49.50200   49.50200   15.61460   19.27430   19.27430 1555.84340 1668.93870 1405.01270 1668.93870    0.01530    2.75360   -0.10230    0.01530  -92.21270  -81.47230 1405.01270
 10500.00000    9.67970    9.70720    9.20460    9.20460    -999.25    0.62500    0.25040    0.25040    2.74590   -0.02540    -999.25   -0.02100 1600.08580   49.64260   49.64260   19.88660   19.58180   19.58180 1600.08580 1778.13880 1409.96110 1778.13880    0.02430    2.74590   -0.09480    0.02430  -92.29690  -80.91940 1409.96110
 10550.00000    8.81610    8.99400    8.76630    8.76630    -999.25    3.24620    0.02820    0.02820    2.78920   -0.04800    -999.25   -0.04630  308.05070   52.02590   52.02590   57.81210   58.98640   58.98640  308.05070 1668.67150  441.18850 1668.67150    0.03500    2.78920   -0.08150    0.03500  -55.65810  -43.64340  441.18850
 10600.00000    8.30160    8.23540    8.30480    8.30480    -999.25  522.60260    0.12940    0.12940    2.52740    0.10740    -999.25    0.10680    1.91350   64.76600   64.76600   31.86760   31.25750   31.25750    1.91350    2.89990   21.18920    2.89990    0.11370    2.52740   -0.00140    0.11370 -153.38280 -142.55290   21.18920
